Timestamp,Input Throttle,horizon,dT,dt,Input Roll,Roll P,Roll I,Roll D,Input Pitch,Pitch P,Pitch I,Pitch D,Input Yaw,Yaw P,Yaw I,Yaw D,Altitude,Direction X,Direction Y,Direction Z,Drag X,Drag Y,Drag Z,Vertical Velocity,Roll,Mass,Has Fuel
1599388561.4291103,0.0,10,0.5,0.5,-11.214413452148438,-0.2,-0.02275,-0.5,-0.00017360504979183435,10,1,100,0.4982040941253524,-10,-1,-100,19348.346772527788,-0.048847602317944924,-0.0001745861220270191,0.9988062280880481,61.166258365288094,3.691898717743591,234.7099014998108,-68.84811707275391,-33.922515869140625,4761.76025390625,True
1599388561.4650145,0.0,10,0.5,0.5,-11.342282697296142,-0.2,-0.02275,-0.5,-0.0008133915698952456,10,1,100,0.49897644843281286,-10,-1,-100,19346.96616100031,-0.04889865381814101,-0.00016595041054904048,0.9988037315284896,61.256150962204195,3.6980001096908213,235.70151605670773,-69.03057043107204,-33.92364501953125,4761.76025390625,True
1599388561.5039096,0.0,10,0.5,0.5,-11.46956648788452,-0.2,-0.02275,-0.5,-0.0007616700933336431,10,1,100,0.504593498245692,-10,-1,-100,19345.5819004745,-0.048951675040419855,-0.00015747870449981895,0.9988011357178138,61.34618377707418,3.7041136912709156,236.69574517737175,-69.21302025239933,-33.92486572265625,4761.76025390625,True
1599388561.541808,0.0,10,0.5,0.5,-11.565832486724855,-0.2,-0.02275,-0.5,0.011084213830720642,10,1,100,0.509341303302378,-10,-1,-100,19342.80243269517,-0.04899853649297012,-4.194413723230605e-05,0.9987988494497961,61.527230811454736,3.716411397492129,238.69424904508273,-69.57790968389438,-33.970458984375,4761.76025390625,True
1599388561.579659,0.0,10,0.5,0.5,-11.121818369293214,-0.2,-0.02275,-0.5,0.05856629625727015,10,1,100,0.4994976703750296,-10,-1,-100,19337.19971244468,-0.048907106117319035,0.0004947807133770033,0.9988032089272014,61.92206510509419,3.742990317145986,242.84464932451965,-70.3076440280002,-34.819427490234375,4761.76025390625,True
1599388561.6185222,0.0,10,0.5,0.5,-11.671838424682617,-0.2,-0.02275,-0.5,0.004943289267676915,10,1,100,0.5135314185518698,-10,-1,-100,19337.19971244468,-0.048907106117319035,0.0004947807133770033,0.9988032089272014,61.92206510509419,3.742990317145986,242.84464932451965,-70.3076440280002,-34.819427490234375,4761.76025390625,True
1599388561.654426,0.0,10,0.5,0.5,-11.196003987884522,-0.2,-0.02275,-0.5,0.05599589663599701,10,1,100,0.49888987512775745,-10,-1,-100,19334.376461242675,-0.04872954017153863,0.0009584455251677523,0.9988115504422471,62.136824486080315,3.7572906663937826,245.00166638590863,-70.67248616773193,-35.67852783203125,4761.76025390625,True
1599388561.6953177,0.0,10,0.5,0.5,-10.461971201324463,-0.2,-0.02275,-0.5,0.11513030429251697,10,1,100,0.469299904361401,-10,-1,-100,19330.114222447854,-0.04825481726825181,0.0019166732004684622,0.9988332187979383,62.46250759770737,3.778839957464573,248.26931873710618,-71.2197151894375,-37.517333984375,4761.76025390625,True
1599388561.7411957,0.0,10,0.5,0.5,-11.500772342681886,-0.2,-0.02275,-0.5,0.019499204082492828,10,1,100,0.5215976764169086,-10,-1,-100,19330.114222447854,-0.04825481726825181,0.0019166732004684622,0.9988332187979383,62.46250759770737,3.778839957464573,248.26931873710618,-71.2197151894375,-37.517333984375,4761.76025390625,True
1599388561.7810872,0.0,10,0.5,0.5,-9.184504514312744,-0.2,-0.02275,-0.5,0.20855122043699237,10,1,100,0.40905047860263954,-10,-1,-100,19324.380165789044,-0.047187792908787315,0.003633585464418032,0.9988794267863714,62.84674744899138,3.8041781251075237,252.4591902033293,-71.94928883118618,-40.996856689453125,4761.76025390625,True
1599388561.8200197,0.0,10,0.5,0.5,-11.0357480178833,-0.2,-0.02275,-0.5,0.03722335258847717,10,1,100,0.5204716938399675,-10,-1,-100,19324.380165789044,-0.047187792908787315,0.003633585464418032,0.9988794267863714,62.84674744899138,3.8041781251075237,252.4591902033293,-71.94928883118618,-40.996856689453125,4761.76025390625,True
1599388561.859918,0.0,10,0.5,0.5,-9.493851280212402,-0.2,-0.02275,-0.5,0.1559908133025299,10,1,100,0.44149791588721554,-10,-1,-100,19321.491251175175,-0.046471358390497895,0.004709827678558107,0.9989085195214725,62.98476692307293,3.813341982737626,254.34857997628674,-72.31404989126523,-43.17657470703125,4761.76025390625,True
1599388561.8997698,0.0,10,0.5,0.5,-6.893427696228029,-0.2,-0.02275,-0.5,0.3082973514656516,10,1,100,0.30429208650620965,-10,-1,-100,19315.66965234198,-0.0445749351935235,0.007068402058269184,0.9989810372799054,63.06046173657072,3.8189197273866573,257.3290343423762,-73.0435342599624,-48.4183349609375,4761.76025390625,True
1599388561.9386652,0.0,10,0.5,0.5,-7.3379269775390625,-0.2,-0.02275,-0.5,0.21328196985877024,10,1,100,0.3637746333071974,-10,-1,-100,19312.73696864571,-0.04339564338523475,0.008342215406341452,0.9990231356566752,62.95384576151425,3.812601012307318,258.23013064688257,-73.40826702540073,-51.4803466796875,4761.76025390625,True
1599388561.9779031,0.0,10,0.5,0.5,-6.47922296447754,-0.2,-0.02275,-0.5,0.22505840091940374,10,1,100,0.33531799739331053,-10,-1,-100,19309.78969575977,-0.04206995677221668,0.00959966404191875,0.9990685487930576,62.717599519582876,3.798179112380043,258.5931106814505,-73.77300216492205,-54.837310791015625,4761.76025390625,True
1599388562.017796,0.0,10,0.5,0.5,-8.112164335632325,-0.2,-0.02275,-0.5,0.10022402569452804,10,1,100,0.46720294376060767,-10,-1,-100,19309.78969575977,-0.04206995677221668,0.00959966404191875,0.9990685487930576,62.717599519582876,3.798179112380043,258.5931106814505,-73.77300216492205,-54.837310791015625,4761.76025390625,True
1599388562.0556948,0.0,10,0.5,0.5,-5.511179315185547,-0.2,-0.02275,-0.5,0.2476852799854914,10,1,100,0.303477415765835,-10,-1,-100,19306.827833055053,-0.04058775847166884,0.010931943732447016,0.9991161726588536,62.323993062122945,3.7739862578514063,258.2949820961378,-74.13774807264048,-58.487945556640625,4761.76025390625,True
1599388562.0969138,0.0,10,0.5,0.5,-3.064546068572998,-0.2,-0.02275,-0.5,0.3318739559129028,10,1,100,0.17374173244274005,-10,-1,-100,19302.35768154834,-0.03806829178796073,0.012899391870260743,0.9991918788950019,61.377233297430514,3.715756113700751,256.33070483916663,-74.68490848648058,-64.5166015625,4761.76025390625,True
1599388562.1378047,0.0,10,0.5,0.5,-4.507840752410889,-0.2,-0.02275,-0.5,0.20959514372859256,10,1,100,0.3226623231106336,-10,-1,-100,19300.860335172387,-0.037140951559279926,0.013566371231443318,0.9992179458400863,60.9522504515777,3.6896617042694237,255.2052487655434,-74.86731160146589,-66.67318725585938,4761.76025390625,True
1599388562.1776984,0.0,10,0.5,0.5,1.036522261047363,-0.2,-0.02275,-0.5,0.4054357228884571,10,1,100,-0.021255838748894473,-10,-1,-100,19294.83446494583,-0.03318148975785528,0.01594249437212536,0.9993221830874385,58.612597144823816,3.546628257635732,247.91135394043522,-75.59704198121031,-76.03936767578125,4761.76025390625,True
1599388562.2185888,0.0,10,0.5,0.5,-3.566846236419678,-0.2,-0.02275,-0.5,0.16905429971102368,10,1,100,0.37328971107847697,-10,-1,-100,19294.83446494583,-0.03318148975785528,0.01594249437212536,0.9993221830874385,58.612597144823816,3.546628257635732,247.91135394043522,-75.59704198121031,-76.03936767578125,4761.76025390625,True
1599388562.2635071,0.0,10,0.5,0.5,0.10041820068359364,-0.2,-0.02275,-0.5,0.29560591935080494,10,1,100,0.1287629799580955,-10,-1,-100,19291.79963459773,-0.030971252477807205,0.017081773724389092,0.9993743015138946,57.013555181772944,3.4494211977835456,242.36743879405216,-75.96199510828198,-81.1644287109375,4761.76025390625,True
1599388562.3053954,0.0,10,0.5,0.5,1.2090115890502928,-0.2,-0.02275,-0.5,0.28409204375644104,10,1,100,0.11032942089010411,-10,-1,-100,19288.750203988282,-0.028808459055247843,0.018001563406456603,0.9994228416450093,55.131483798461964,3.3354712823168833,235.54732332699052,-76.32701663341156,-86.28543090820312,4761.76025390625,True
1599388562.346859,0.0,10,0.5,0.5,2.3549759742736818,-0.2,-0.02275,-0.5,0.2951744498923789,10,1,100,0.058667032757659665,-10,-1,-100,19285.68617057521,-0.026386958302751905,0.018928545753800877,0.999472580207769,53.08846805546664,3.212254471907922,227.95647917636478,-76.6921055040867,-91.45731353759766,4761.76025390625,True
1599388562.3857563,0.0,10,0.5,0.5,7.127977712059021,-0.2,-0.02275,-0.5,0.3523704405202197,10,1,100,-0.22594515092659384,-10,-1,-100,19279.514293991262,-0.02161367293524646,0.02028159659314199,0.9995606564795763,54.90444066331863,3.3245813451971684,238.10831492071262,-77.42222219405211,-101.84016418457031,4761.76025390625,True
1599388562.4276443,0.0,10,0.5,0.5,2.0434838800430297,-0.2,-0.02275,-0.5,0.21813354984123082,10,1,100,0.24933775744025363,-10,-1,-100,19279.514293991262,-0.02161367293524646,0.02028159659314199,0.9995606564795763,54.90444066331863,3.3245813451971684,238.10831492071262,-77.42222219405211,-101.84016418457031,4761.76025390625,True
1599388562.469569,0.0,10,0.5,0.5,8.733839748954773,-0.2,-0.02275,-0.5,0.317457249580606,10,1,100,-0.27184754659646126,-10,-1,-100,19273.28402391146,-0.016894221338400843,0.02117482847027156,0.999633038631989,57.382666561594675,3.4785896414650557,251.31399757963067,-78.15201913443423,-111.24505615234375,4761.76025390625,True
1599388562.509465,0.0,10,0.5,0.5,4.151416191673279,-0.2,-0.02275,-0.5,0.2291583503414313,10,1,100,0.19772825937477365,-10,-1,-100,19273.28402391146,-0.016894221338400843,0.02117482847027156,0.999633038631989,57.382666561594675,3.4785896414650557,251.31399757963067,-78.15201913443423,-111.24505615234375,4761.76025390625,True
1599388562.5503154,0.0,10,0.5,0.5,7.242122839927674,-0.2,-0.02275,-0.5,0.25735924450692854,10,1,100,-0.07625004148077782,-10,-1,-100,19270.146999137593,-0.01442275866739543,0.021423677111230617,0.9996664494177324,58.41390763189203,3.543246585216347,257.08028323443665,-78.5168084837467,-115.50848388671875,4761.76025390625,True
1599388562.5912054,0.0,10,0.5,0.5,10.57134600353241,-0.2,-0.02275,-0.5,0.25867394532104887,10,1,100,-0.3252374583959565,-10,-1,-100,19263.829182536225,-0.009933105351699688,0.021654711968703774,0.9997161631521342,59.83260219612898,3.6333895442681095,265.8821060602525,-79.24621191395607,-123.15110778808594,4761.76025390625,True
1599388562.6316066,0.0,10,0.5,0.5,9.222501042366028,-0.2,-0.02275,-0.5,0.23621894373100044,10,1,100,-0.11222764409581079,-10,-1,-100,19260.64839464391,-0.007809190089619571,0.021655414354136586,0.9997349946757365,60.24758235273059,3.6603672852949107,269.0133715512014,-79.6108481977411,-126.53009033203125,4761.76025390625,True
1599388562.6714995,0.0,10,0.5,0.5,7.64787616443634,-0.2,-0.02275,-0.5,0.23671999718592035,10,1,100,0.09762665214537733,-10,-1,-100,19260.64839464391,-0.007809190089619571,0.021655414354136586,0.9997349946757365,60.24758235273059,3.6603672852949107,269.0133715512014,-79.6108481977411,-126.53009033203125,4761.76025390625,True
1599388562.7133877,0.0,10,0.5,0.5,9.909423498725891,-0.2,-0.02275,-0.5,0.23486339107281018,10,1,100,-0.12449278026837626,-10,-1,-100,19257.453022271628,-0.005810978942574709,0.021634378261626723,0.9997490616154445,60.512232405234634,3.6780038633786702,271.4877037192973,-79.9754536091451,-129.61343383789062,4761.76025390625,True
1599388562.7522833,0.0,10,0.5,0.5,10.418709427070619,-0.2,-0.02275,-0.5,0.22312264269265814,10,1,100,-0.1449280659595833,-10,-1,-100,19254.24306641787,-0.0038295548299890187,0.021505217906020765,0.999761401591709,60.661783048843596,3.6884258205651195,273.4544962676115,-80.34003622261375,-132.40255737304688,4761.76025390625,True
1599388562.792177,0.0,10,0.5,0.5,10.863581048202516,-0.2,-0.02275,-0.5,0.21235859505757468,10,1,100,-0.15944659615406764,-10,-1,-100,19251.01852794795,-0.0019167802744819542,0.02128760199319439,0.9997715558840222,60.7187681553248,3.6930071720333064,275.0086145800171,-80.70460203755995,-134.89724731445312,4761.76025390625,True
1599388562.835071,0.0,10,0.5,0.5,11.230434777069092,-0.2,-0.02275,-0.5,0.2129176898048415,10,1,100,-0.16265671830636969,-10,-1,-100,19247.77940680145,-0.00016661765232802643,0.021093937474327338,0.999777484263567,60.70324858794389,3.69298233171313,276.23555118601774,-81.06915616611938,-137.09580993652344,4761.76025390625,True
1599388562.8759933,0.0,10,0.5,0.5,12.669979750061035,-0.2,-0.02275,-0.5,0.1752419151011176,10,1,100,-0.3488141509757737,-10,-1,-100,19241.257419568487,0.0030972822509129274,0.02057463328634054,0.9997835222225814,60.55084110758919,3.6850557051991673,278.13127922670947,-81.79824121042004,-140.60812377929688,4761.76025390625,True
1599388562.9158545,0.0,10,0.5,0.5,10.980623807525635,-0.2,-0.02275,-0.5,0.2271123143814043,10,1,100,-0.024423311010609683,-10,-1,-100,19241.257419568487,0.0030972822509129274,0.02057463328634054,0.9997835222225814,60.55084110758919,3.6850557051991673,278.13127922670947,-81.79824121042004,-140.60812377929688,4761.76025390625,True
1599388562.9567447,0.0,10,0.5,0.5,11.966698162841798,-0.2,-0.02275,-0.5,0.19576566712405225,10,1,100,-0.1887871887529299,-10,-1,-100,19237.974553757347,0.004573325227125553,0.02029020939780455,0.999783672650719,60.45004881953971,3.6794045390472485,278.9615634319931,-82.1627754182389,-141.92137145996094,4761.76025390625,True
1599388562.9966376,0.0,10,0.5,0.5,12.588017950820925,-0.2,-0.02275,-0.5,0.1646251222990306,10,1,100,-0.3312823664828165,-10,-1,-100,19231.365078628878,0.007193324017686436,0.019749576789556567,0.9997790807504475,60.27121570675429,3.669237164011624,280.7168132606982,-82.89182848890727,-143.66116333007812,4761.76025390625,True
1599388563.0375283,0.0,10,0.5,0.5,12.063181745147705,-0.2,-0.02275,-0.5,0.19289504588570391,10,1,100,-0.19593346448018284,-10,-1,-100,19228.03846964636,0.008329127055109308,0.019516823846645565,0.9997748342649153,60.20827608162921,3.665688370655358,281.7133932242084,-83.25634596653362,-144.0874481201172,4761.76025390625,True
1599388563.0784194,0.0,10,0.5,0.5,11.889982339096068,-0.2,-0.02275,-0.5,0.215956481126055,10,1,100,-0.08396699245236848,-10,-1,-100,19228.03846964636,0.008329127055109308,0.019516823846645565,0.9997748342649153,60.20827608162921,3.665688370655358,281.7133932242084,-83.25634596653362,-144.0874481201172,4761.76025390625,True
1599388563.1183512,0.0,10,0.5,0.5,12.021174412536622,-0.2,-0.02275,-0.5,0.1951976054009238,10,1,100,-0.1974074314121026,-10,-1,-100,19224.697280275286,0.009345732575520774,0.019330050967787546,0.9997694766355939,60.171984389459915,3.663737841559909,282.8330489408946,-83.62085550741284,-144.21780395507812,4761.76025390625,True
1599388563.1591794,0.0,10,0.5,0.5,11.552864320373535,-0.2,-0.02275,-0.5,0.16405450981488684,10,1,100,-0.2914345411535317,-10,-1,-100,19217.97116161138,0.01111093249034592,0.018879233233765228,0.9997600320735471,60.19135989344623,3.6654441340183,285.5053329811503,-84.34984557650367,-143.5944366455078,4761.76025390625,True
1599388563.2019157,0.0,10,0.5,0.5,11.361441995620728,-0.2,-0.02275,-0.5,0.190341905729408,10,1,100,-0.19404742441075412,-10,-1,-100,19214.586233369773,0.011816739999506862,0.018710762515397182,0.9997551060244085,60.2403550130995,3.668732521506468,287.0300685406213,-84.71432323208793,-142.83934020996094,4761.76025390625,True
1599388563.242809,0.0,10,0.5,0.5,11.757058474731446,-0.2,-0.02275,-0.5,0.2069312936184329,10,1,100,-0.12484002552205882,-10,-1,-100,19214.586233369773,0.011816739999506862,0.018710762515397182,0.9997551060244085,60.2403550130995,3.668732521506468,287.0300685406213,-84.71432323208793,-142.83934020996094,4761.76025390625,True
1599388563.2837,0.0,10,0.5,0.5,11.034738348388672,-0.2,-0.02275,-0.5,0.19204928108107078,10,1,100,-0.19127421559369776,-10,-1,-100,19211.18672620738,0.012409793220474639,0.01857763801502019,0.9997504030496853,60.31168679344122,3.673433907245414,288.66424699889484,-85.07878767576862,-141.78878784179688,4761.76025390625,True
1599388563.3265846,0.0,10,0.5,0.5,9.473467144775391,-0.2,-0.02275,-0.5,0.17081001732781792,10,1,100,-0.23203690524297443,-10,-1,-100,19204.343978068675,0.013311036499102804,0.01826534697625819,0.9997445640798237,60.492787941882874,3.6854216560130015,292.1287256844527,-85.80767424112828,-138.80416870117188,4761.76025390625,True
1599388563.3684769,0.0,10,0.5,0.5,9.607281237792968,-0.2,-0.02275,-0.5,0.18847975032841752,10,1,100,-0.1737978890794076,-10,-1,-100,19200.90073805407,0.013591617737961265,0.01814417931948917,0.9997429953163399,60.57841983193514,3.6912819419319605,293.8436524542297,-86.17209678192324,-136.86932373046875,4761.76025390625,True
1599388563.4083657,0.0,10,0.5,0.5,10.563210314559937,-0.2,-0.02275,-0.5,0.20038191299748795,10,1,100,-0.14664159444464506,-10,-1,-100,19200.90073805407,0.013591617737961265,0.01814417931948917,0.9997429953163399,60.57841983193514,3.6912819419319605,293.8436524542297,-86.17209678192324,-136.86932373046875,4761.76025390625,True
1599388563.449257,0.0,10,0.5,0.5,7.220601286697388,-0.2,-0.02275,-0.5,0.1734536224520638,10,1,100,-0.17538733097601056,-10,-1,-100,19193.970529150916,0.013847125984864338,0.01790083613041265,0.9997438757840887,60.67220419365748,3.6987202034491253,296.90714449211947,-86.9009074455303,-132.11624145507812,4761.76025390625,True
1599388563.4891505,0.0,10,0.5,0.5,9.569907929229736,-0.2,-0.02275,-0.5,0.19762634258809272,10,1,100,-0.1503883061786788,-10,-1,-100,19193.970529150916,0.013847125984864338,0.01790083613041265,0.9997438757840887,60.67220419365748,3.6987202034491253,296.90714449211947,-86.9009074455303,-132.11624145507812,4761.76025390625,True
1599388563.529043,0.0,10,0.5,0.5,7.570259798812867,-0.2,-0.02275,-0.5,0.1819240342976907,10,1,100,-0.1486440434766576,-10,-1,-100,19190.483560658875,0.013826252688546186,0.017759556952969206,0.9997466843523047,60.64457678437345,3.6981524228321,298.0767474201788,-87.26530160412969,-129.2985076904297,4761.76025390625,True
1599388563.571931,0.0,10,0.5,0.5,4.382896616363525,-0.2,-0.02275,-0.5,0.16164796514334218,10,1,100,-0.11388966333648409,-10,-1,-100,19183.46589672193,0.01348725485415263,0.017448221157540016,0.9997567971936657,60.33443442943765,3.6820141491760134,299.1516473468883,-87.99409178075285,-122.78095245361328,4761.76025390625,True
1599388563.611822,0.0,10,0.5,0.5,7.5943235582351685,-0.2,-0.02275,-0.5,0.19263844347863873,10,1,100,-0.14802707901222042,-10,-1,-100,19183.46589672193,0.01348725485415263,0.017448221157540016,0.9997567971936657,60.33443442943765,3.6820141491760134,299.1516473468883,-87.99409178075285,-122.78095245361328,4761.76025390625,True
1599388563.652714,0.0,10,0.5,0.5,4.959232260513305,-0.2,-0.02275,-0.5,0.1712423122708162,10,1,100,-0.11467572451910432,-10,-1,-100,19179.935200422537,0.013182542072529169,0.017254858638703317,0.9997642174222202,60.00465982877193,3.6635291953507445,298.8110246600831,-88.35850155610439,-119.08172607421875,4761.76025390625,True
1599388563.6936135,0.0,10,0.5,0.5,0.9599940216064446,-0.2,-0.02275,-0.5,0.13546107010578373,10,1,100,-0.05150651395362538,-10,-1,-100,19172.830076160375,0.012330023264028012,0.016755114059966655,0.9997835949239946,58.864171475858114,3.597459981164949,295.67626108246714,-89.08739408101953,-110.80343627929688,4761.76025390625,True
1599388563.734495,0.0,10,0.5,0.5,1.8235538604736332,-0.2,-0.02275,-0.5,0.15060883977134026,10,1,100,-0.07841826866920294,-10,-1,-100,19169.255645094207,0.01179973099912898,0.016440164643488433,0.9997952227005504,58.06598116715948,3.5504715606287287,292.92476783618054,-89.4518955176298,-106.2247314453125,4761.76025390625,True
1599388563.7753866,0.0,10,0.5,0.5,4.03878805770874,-0.2,-0.02275,-0.5,0.18192126318588547,10,1,100,-0.13129636460910868,-10,-1,-100,19169.255645094207,0.01179973099912898,0.016440164643488433,0.9997952227005504,58.06598116715948,3.5504715606287287,292.92476783618054,-89.4518955176298,-106.2247314453125,4761.76025390625,True
1599388563.8162766,0.0,10,0.5,0.5,-3.0441943809509278,-0.2,-0.02275,-0.5,0.0964374051676633,10,1,100,0.0018437917763215045,-10,-1,-100,19162.06303716614,0.010590994929024008,0.015664587765755505,0.9998212097752991,56.08557657253308,3.432426112390682,285.36966357486574,-90.18103871173514,-96.20578002929688,4761.76025390625,True
1599388563.8561687,0.0,10,0.5,0.5,1.872771765136719,-0.2,-0.02275,-0.5,0.17374713378558274,10,1,100,-0.11872975295328202,-10,-1,-100,19162.06303716614,0.010590994929024008,0.015664587765755505,0.9998212097752991,56.08557657253308,3.432426112390682,285.36966357486574,-90.18103871173514,-96.20578002929688,4761.76025390625,True
1599388563.8960614,0.0,10,0.5,0.5,-5.825803807067871,-0.2,-0.02275,-0.5,0.06406249571750888,10,1,100,0.03267304495725461,-10,-1,-100,19154.812087661005,0.009217565976251712,0.014669487645468158,0.9998499100413485,55.21043205370041,3.380531679770237,283.31991388878726,-90.91036122092132,-85.32452392578125,4761.76025390625,True
1599388563.937714,0.0,10,0.5,0.5,-4.331009847259521,-0.2,-0.02275,-0.5,0.09566779306239831,10,1,100,-0.020488535642643024,-10,-1,-100,19151.16473558324,0.008456489988283796,0.014055109646964969,0.9998654617846792,57.219031144939244,3.503725002178272,294.87345607806975,-91.27493427497147,-79.83969116210938,4761.76025390625,True
1599388563.9766433,0.0,10,0.5,0.5,-1.7011122730255128,-0.2,-0.02275,-0.5,0.15673514818211678,10,1,100,-0.09605915816940835,-10,-1,-100,19151.16473558324,0.008456489988283796,0.014055109646964969,0.9998654617846792,57.219031144939244,3.503725002178272,294.87345607806975,-91.27493427497147,-79.83969116210938,4761.76025390625,True
1599388564.016537,0.0,10,0.5,0.5,-5.60552361316681,-0.2,-0.02275,-0.5,0.08968927509914743,10,1,100,-0.017124767753531736,-10,-1,-100,19147.50280344358,0.007743478043472071,0.013448686356674861,0.9998795784408592,59.06005903916017,3.6163523924144454,305.64712922581094,-91.63940965748057,-74.40151977539062,4761.76025390625,True
1599388564.058392,0.0,10,0.5,0.5,-6.622218292236329,-0.2,-0.02275,-0.5,0.07457210167941081,10,1,100,-0.005249765252866731,-10,-1,-100,19143.826295268722,0.006992552413465076,0.012763599547868853,0.9998940917603856,60.633527787614504,3.7124104647059903,315.11001838190265,-92.00379365153198,-69.221923828125,4761.76025390625,True
1599388564.1002824,0.0,10,0.5,0.5,-7.567109913635254,-0.2,-0.02275,-0.5,0.05878027149788598,10,1,100,0.004025004824622785,-10,-1,-100,19140.13521422469,0.006231203921535235,0.012001314228295742,0.9999085660971617,61.93660320944449,3.7918600239044236,323.2297610709784,-92.3680968060766,-64.33441162109375,4761.76025390625,True
1599388564.1411707,0.0,10,0.5,0.5,-8.442944132232666,-0.2,-0.02275,-0.5,0.05020332342156303,10,1,100,0.00972347308989488,-10,-1,-100,19136.429562823032,0.005492809053135171,0.01123467695510968,0.9999218024837843,62.99394124347597,3.856330580572533,330.1180180311036,-92.73233107249952,-59.7431640625,4761.76025390625,True
1599388564.1840565,0.0,10,0.5,0.5,-12.055730103302004,-0.2,-0.02275,-0.5,-0.05629639788196503,10,1,100,0.09869956702574192,-10,-1,-100,19128.974559668568,0.004018400975123771,0.009574286956443348,0.9999460912883648,64.48965295149495,3.9479157673756347,340.76174737916017,-93.46063938495035,-51.453643798828125,4761.76025390625,True
1599388564.226143,0.0,10,0.5,0.5,-10.624685523986818,-0.2,-0.02275,-0.5,0.013799460881599918,10,1,100,0.03156489966213339,-10,-1,-100,19125.225210879114,0.003295419089349853,0.008708318289767314,0.99995665176326,64.9878814899111,3.97878987689125,344.80850241935013,-93.82473485785121,-47.754913330078125,4761.76025390625,True
1599388564.2670343,0.0,10,0.5,0.5,-8.88554601135254,-0.2,-0.02275,-0.5,0.09970070060160448,10,1,100,-0.04000373133129098,-10,-1,-100,19125.225210879114,0.003295419089349853,0.008708318289767314,0.99995665176326,64.9878814899111,3.97878987689125,344.80850241935013,-93.82473485785121,-47.754913330078125,4761.76025390625,True
1599388564.3089216,0.0,10,0.5,0.5,-12.4902388961792,-0.2,-0.02275,-0.5,-0.0391879888169049,10,1,100,0.0786654222050818,-10,-1,-100,19119.57388245361,0.002223240944327986,0.007452017721849945,0.9999697618586157,65.50437419010315,4.011454474791178,349.6884736065732,-94.37082976185799,-42.7628173828125,4761.76025390625,True
1599388564.348816,0.0,10,0.5,0.5,-11.151870855712891,-0.2,-0.02275,-0.5,0.03844810956864781,10,1,100,0.01094182243804204,-10,-1,-100,19117.682825396652,0.0018705611058556719,0.007022270345360651,0.9999735940115348,65.6284202772312,4.019520327317478,351.06577167083924,-94.55285198253299,-41.247314453125,4761.76025390625,True
1599388564.3897061,0.0,10,0.5,0.5,-12.44741997756958,-0.2,-0.02275,-0.5,-0.01762573462884416,10,1,100,0.052369791817947556,-10,-1,-100,19113.889790096437,0.001179312375502089,0.006128222182485552,0.9999805268680002,65.82262409029278,4.032519326093322,353.5399979913813,-94.91688602149814,-38.439453125,4761.76025390625,True
1599388564.429846,0.0,10,0.5,0.5,-14.446973561096193,-0.2,-0.02275,-0.5,-0.11478389183367486,10,1,100,0.13614554624949002,-10,-1,-100,19106.2600366713,-0.00020407771273084374,0.0044394014120683455,0.9999901249849369,66.07402110193554,4.050678752684947,357.7762925781611,-95.64492496661967,-33.711883544921875,4761.76025390625,True
1599388564.4717348,0.0,10,0.5,0.5,-13.519297122192384,-0.2,-0.02275,-0.5,-0.03800920313671436,10,1,100,0.0746680098272804,-10,-1,-100,19102.423319063033,-0.000895593320235056,0.003610251777065623,0.999993081973426,66.1707157108019,4.058192047475645,359.7472845932049,-96.008933295464,-31.79254150390625,4761.76025390625,True
1599388564.5146194,0.0,10,0.5,0.5,-12.644777946472168,-0.2,-0.02275,-0.5,0.04399042558647758,10,1,100,0.006305263650229186,-10,-1,-100,19102.423319063033,-0.000895593320235056,0.003610251777065623,0.999993081973426,66.1707157108019,4.058192047475645,359.7472845932049,-96.008933295464,-31.79254150390625,4761.76025390625,True
1599388564.5555105,0.0,10,0.5,0.5,-14.784801911926271,-0.2,-0.02275,-0.5,-0.12742450658021987,10,1,100,0.16205250971194324,-10,-1,-100,19094.706204342307,-0.00230499846875812,0.0020595624505058553,0.9999952225808738,66.38717514223764,4.074910635648595,363.8330298714074,-96.73692761074297,-28.84112548828125,4761.76025390625,True
1599388564.5964005,0.0,10,0.5,0.5,-13.379396041870118,-0.2,-0.02275,-0.5,0.026726914625296513,10,1,100,0.021891775611826186,-10,-1,-100,19094.706204342307,-0.00230499846875812,0.0020595624505058553,0.9999952225808738,66.38717514223764,4.074910635648595,363.8330298714074,-96.73692761074297,-28.84112548828125,4761.76025390625,True
1599388564.6362944,0.0,10,0.5,0.5,-14.668955976104737,-0.2,-0.02275,-0.5,-0.13144812411621062,10,1,100,0.1806943937819385,-10,-1,-100,19086.930851519573,-0.0037429100889919756,0.0006284391205884609,0.9999927978182329,66.71021882154567,4.0984027376388585,368.53248640372885,-97.46488293080863,-27.0723876953125,4761.76025390625,True
1599388564.6771846,0.0,10,0.5,0.5,-14.011574517822265,-0.2,-0.02275,-0.5,-0.029708645197314667,10,1,100,0.07650613222369065,-10,-1,-100,19084.977913994808,-0.004096537975785644,0.00025966761008004637,0.9999915754391859,66.81531266157135,4.105791174398828,369.8473371032736,-97.64686345104104,-26.815338134765625,4761.76025390625,True
1599388564.7181256,0.0,10,0.5,0.5,-14.0589679107666,-0.2,-0.02275,-0.5,-0.032668553312858215,10,1,100,0.0812497435485143,-10,-1,-100,19083.021337138955,-0.004454421651219071,-9.480688172373795e-05,0.9999900745204465,66.93152968908753,4.113868821257214,371.2265167268436,-97.82884000198234,-26.632080078125,4761.76025390625,True
1599388564.7581701,0.0,10,0.5,0.5,-14.106767633056641,-0.2,-0.02275,-0.5,-0.06138928894969965,10,1,100,0.12963497527581322,-10,-1,-100,19079.097265375312,-0.005213565587683497,-0.0006712932667861243,0.9999861839541648,67.19856758125773,4.132162195798579,374.18615975559896,-98.19277960913183,-26.485321044921875,4761.76025390625,True
1599388564.8000581,0.0,10,0.5,0.5,-13.962317720794678,-0.2,-0.02275,-0.5,-0.07156501532469171,10,1,100,0.1366168127816031,-10,-1,-100,19075.158636253793,-0.0059607275738914845,-0.0012808842533317245,0.9999814143584468,67.51261300222133,4.153353552410378,377.42150753509975,-98.5566985293916,-26.63482666015625,4761.76025390625,True
1599388564.840956,0.0,10,0.5,0.5,-13.520319486236573,-0.2,-0.02275,-0.5,-0.09850115990169289,10,1,100,0.18938613861376652,-10,-1,-100,19069.22340051923,-0.007113195941691692,-0.0020731963677679014,0.9999725517734553,68.06966475977994,4.190421937035744,382.7859592693211,-99.10253107696563,-27.411407470703125,4761.76025390625,True
1599388564.8818452,0.0,10,0.5,0.5,-13.638589836883545,-0.2,-0.02275,-0.5,-0.046021959902608225,10,1,100,0.11767718999508375,-10,-1,-100,19067.23771123204,-0.0075027139084047996,-0.002310475928372896,0.999969185017715,68.2764792731147,4.204069476370249,384.7018307885802,-99.28446164597808,-27.817626953125,4761.76025390625,True
1599388564.923734,0.0,10,0.5,0.5,-13.127393509674073,-0.2,-0.02275,-0.5,-0.07111371696058454,10,1,100,0.16606612619963262,-10,-1,-100,19063.255417389213,-0.008290714097650642,-0.0027489090224450045,0.9999618530518738,68.71659621436692,4.232968866847017,388.697723861396,-99.64830008010391,-28.850982666015625,4761.76025390625,True
1599388564.9646237,0.0,10,0.5,0.5,-11.585968490600585,-0.2,-0.02275,-0.5,-0.10389337957085111,10,1,100,0.2636389710568591,-10,-1,-100,19055.247173012234,-0.009887380931323998,-0.0034397004400588804,0.9999452025782221,69.66995333380997,4.295081242817413,397.166907581855,-100.37587965624286,-31.800689697265625,4761.76025390625,True
1599388565.0055158,0.0,10,0.5,0.5,-13.054088997650146,-0.2,-0.02275,-0.5,-0.03536416409852,10,1,100,0.10473052593578007,-10,-1,-100,19055.247173012234,-0.009887380931323998,-0.0034397004400588804,0.9999452025782221,69.66995333380997,4.295081242817413,397.166907581855,-100.37587965624286,-31.800689697265625,4761.76025390625,True
1599388565.0464077,0.0,10,0.5,0.5,-11.706251863098146,-0.2,-0.02275,-0.5,-0.06217367698649324,10,1,100,0.19399105366342473,-10,-1,-100,19051.22122526006,-0.010691947199336617,-0.0036784239545944873,0.9999360736878619,70.15846731652903,4.326708425495385,401.5018204518955,-100.73961837762633,-33.716552734375,4761.76025390625,True
1599388565.0872965,0.0,10,0.5,0.5,-11.102607945251467,-0.2,-0.02275,-0.5,-0.05367247682533577,10,1,100,0.20136510897091897,-10,-1,-100,19047.180729049374,-0.011484090639315905,-0.0038142463635479867,0.9999267809129156,70.6329889928949,4.357312713262273,405.7785819684888,-101.10332300692734,-35.92578125,4761.76025390625,True
1599388565.130182,0.0,10,0.5,0.5,-10.433633396148682,-0.2,-0.02275,-0.5,-0.055730244849024835,10,1,100,0.2113034206370067,-10,-1,-100,19043.12568568904,-0.012287853370203754,-0.003952724704654134,0.9999166888431064,71.07290208110295,4.385575128314971,409.87741075952147,-101.4669950764642,-38.42987060546875,4761.76025390625,True
1599388565.1720693,0.0,10,0.5,0.5,-9.701004238128663,-0.2,-0.02275,-0.5,-0.043934800962556544,10,1,100,0.2172042878921096,-10,-1,-100,19039.056096599088,-0.013065069708130931,-0.003967875599580074,0.9999067756129808,71.45815939716508,4.4102074952614885,413.6800766280355,-101.83063785017238,-41.226776123046875,4761.76025390625,True
1599388565.2119634,0.0,10,0.5,0.5,-8.902474141693116,-0.2,-0.02275,-0.5,-0.03844549169903447,10,1,100,0.2237633438526931,-10,-1,-100,19034.971962298965,-0.013824120065778716,-0.003928749435905461,0.9998967239831708,71.76218703786147,4.429519412751983,417.02872394597847,-102.19425645083703,-44.317413330078125,4761.76025390625,True
1599388565.2508955,0.0,10,0.5,0.5,-8.038741618347167,-0.2,-0.02275,-0.5,-0.03048026702304244,10,1,100,0.22942704978035944,-10,-1,-100,19030.8732837016,-0.01455850554253559,-0.003818361912617181,0.9998867285991311,71.95649281487589,4.441711277974334,419.7520399695533,-102.55785744137697,-47.701446533203125,4761.76025390625,True
1599388565.2937446,0.0,10,0.5,0.5,-5.746478874206543,-0.2,-0.02275,-0.5,-0.009844162131002886,10,1,100,0.2700305139583568,-10,-1,-100,19024.697996409144,-0.015588482641568322,-0.0035288221510230682,0.9998722651534846,71.97418292338202,4.442405493747841,422.2502654848106,-103.1032464872576,-53.32733154296875,4761.76025390625,True
1599388565.3346355,0.0,10,0.5,0.5,-5.619462362670898,-0.2,-0.02275,-0.5,-0.008897130584273934,10,1,100,0.2371155967746369,-10,-1,-100,19020.562958360766,-0.016218248240170475,-0.0032558872207648385,0.9998631744505975,71.75467783393084,4.428148455700049,422.55715594663076,-103.4668482003937,-57.444366455078125,4761.76025390625,True
1599388565.3755252,0.0,10,0.5,0.5,-2.9054042358398444,-0.2,-0.02275,-0.5,0.020464848407218263,10,1,100,0.26537833641325703,-10,-1,-100,19014.33312945871,-0.017040489568212143,-0.0027403765858816827,0.9998510449319153,70.99017722869321,4.3794025543920245,420.42712482648477,-104.01229946843922,-64.16940307617188,4761.76025390625,True
1599388565.4164183,0.0,10,0.5,0.5,-6.194283723449708,-0.2,-0.02275,-0.5,-0.031016282695679607,10,1,100,0.18386951447277905,-10,-1,-100,19014.33312945871,-0.017040489568212143,-0.0027403765858816827,0.9998510449319153,70.99017722869321,4.3794025543920245,420.42712482648477,-104.01229946843922,-64.16940307617188,4761.76025390625,True
1599388565.4573438,0.0,10,0.5,0.5,0.8741426971435544,-0.2,-0.02275,-0.5,0.05994523567273736,10,1,100,0.27879971681790716,-10,-1,-100,19005.97577470378,-0.017896988581679773,-0.0019140894405816895,0.9998380039092937,68.96760292466362,4.252320018681054,411.5337566920485,-104.73974403283198,-74.16195678710938,4761.76025390625,True
1599388565.5121968,0.0,10,0.5,0.5,-4.030120864105225,-0.2,-0.02275,-0.5,-0.022507045405860675,10,1,100,0.1938703196093785,-10,-1,-100,19005.97577470378,-0.017896988581679773,-0.0019140894405816895,0.9998380039092937,68.96760292466362,4.252320018681054,411.5337566920485,-104.73974403283198,-74.16195678710938,4761.76025390625,True
1599388565.5590343,0.0,10,0.5,0.5,-0.1381866653442385,-0.2,-0.02275,-0.5,0.029243959904177854,10,1,100,0.23256621739826028,-10,-1,-100,19001.775269776583,-0.018242939563449277,-0.0014453531713294904,0.9998325390335595,67.45062026105244,4.157964757213718,403.9959764648314,-105.10357958563257,-79.59759521484375,4761.76025390625,True
1599388565.598929,0.0,10,0.5,0.5,4.908779539489746,-0.2,-0.02275,-0.5,0.0862625834118979,10,1,100,0.24359885738481463,-10,-1,-100,18993.330587692326,-0.01865232346839637,-0.0005031575960603315,0.9998259036760668,64.43572125364518,3.972241851171088,388.839734750527,-105.83151893071432,-90.55635070800781,4761.76025390625,True
1599388565.639818,0.0,10,0.5,0.5,-0.45837342491149907,-0.2,-0.02275,-0.5,-0.007610502314666026,10,1,100,0.20321919226613197,-10,-1,-100,18993.330587692326,-0.01865232346839637,-0.0005031575960603315,0.9998259036760668,64.43572125364518,3.972241851171088,388.839734750527,-105.83151893071432,-90.55635070800781,4761.76025390625,True
1599388565.682219,0.0,10,0.5,0.5,3.5943444190979004,-0.2,-0.02275,-0.5,0.04321725757075011,10,1,100,0.21370843198796802,-10,-1,-100,18989.08640879742,-0.01874329091731977,-4.420122604731672e-05,0.9998243281156147,66.51605290815854,4.101686697157069,402.89340849286714,-106.19544073474286,-96.19567108154297,4761.76025390625,True
1599388565.7222185,0.0,10,0.5,0.5,4.749908800697327,-0.2,-0.02275,-0.5,0.04416610443002481,10,1,100,0.20780207846926757,-10,-1,-100,18984.827676560846,-0.01876849012492124,0.00037822666297013046,0.999823784835619,68.40622853255262,4.220105729894618,415.884641963832,-106.55924505154272,-101.71695709228516,4761.76025390625,True
1599388565.762112,0.0,10,0.5,0.5,5.929720235443115,-0.2,-0.02275,-0.5,0.05056796351852372,10,1,100,0.2015635342502683,-10,-1,-100,18980.55439542979,-0.01873179354121953,0.0008168988730505333,0.9998242108425662,70.1474762525116,4.329840172848422,428.05119738591515,-106.92293270446545,-107.18891143798828,4761.76025390625,True
1599388565.8059947,0.0,10,0.5,0.5,7.0571445989608765,-0.2,-0.02275,-0.5,0.04792544247700696,10,1,100,0.194236846570244,-10,-1,-100,18976.266570496256,-0.01862954171776226,0.0011879663399336422,0.999825749274023,71.77027064822309,4.4325379718893805,439.569007269389,-107.28650845944244,-112.54638671875,4761.76025390625,True
1599388566.187889,0.0,10,0.5,0.5,8.05132317790985,-0.2,-0.02275,-0.5,0.04831652140524477,10,1,100,0.18744428939010965,-10,-1,-100,18971.964205503697,-0.018473390401936653,0.0015252844428787983,0.9998281889176891,73.1298712072244,4.519003663077959,449.54014003172875,-107.64998176507456,-117.63618469238281,4761.76025390625,True
1599388566.221798,0.0,10,0.5,0.5,7.3331628953933725,-0.2,-0.02275,-0.5,0.03152475958809417,10,1,100,0.19264992037128836,-10,-1,-100,18969.807571582845,-0.01837745594116616,0.001675407009919607,0.9998297165640165,73.68527637826776,4.554486633709769,453.78197164295614,-107.83168628214767,-120.0720443725586,4761.76025390625,True
1599388566.2586985,0.0,10,0.5,0.5,7.873179633712769,-0.2,-0.02275,-0.5,0.03195893030006884,10,1,100,0.19041585797943894,-10,-1,-100,18967.647304125945,-0.01826949634839482,0.001812565898746929,0.9998314558504542,74.16337883413581,4.585117699862325,457.55905207449723,-108.01337259071904,-122.43418884277344,4761.76025390625,True
1599388566.2975955,0.0,10,0.5,0.5,9.953635710906983,-0.2,-0.02275,-0.5,0.044589674847819866,10,1,100,0.17431071425181047,-10,-1,-100,18963.3158690267,-0.018024602223109056,0.0020486928796246595,0.9998354447468762,74.90603226232693,4.632886698340993,463.8225263864369,-108.37670017747635,-126.93663024902344,4761.76025390625,True
1599388566.3424745,0.0,10,0.5,0.5,12.149137191390992,-0.2,-0.02275,-0.5,0.048837466062699744,10,1,100,0.15008215129766744,-10,-1,-100,18956.791470044176,-0.017581910025393735,0.002298793649602455,0.999842783635315,75.55853296922322,4.675130238225354,470.40712517211944,-108.92161192240917,-133.13523864746094,4761.76025390625,True
1599388566.4033134,0.0,10,0.5,0.5,11.78047986946106,-0.2,-0.02275,-0.5,0.03428227881405087,10,1,100,0.15813631372667553,-10,-1,-100,18952.42370802071,-0.01725365533450079,0.0023912908734621315,0.9998482850440645,75.74107695888081,4.687067059381742,473.2448205754769,-109.28485534334953,-136.8977813720703,4761.76025390625,True
1599388566.4561713,0.0,10,0.5,0.5,11.243873237991334,-0.2,-0.02275,-0.5,0.027952326820640243,10,1,100,0.17187917869873562,-10,-1,-100,18950.23437846545,-0.017081448631738567,0.0024152029238767203,0.9998511843806948,75.77073610229351,4.689050803597123,474.28159001977315,-109.46647252372108,-138.66812133789062,4761.76025390625,True
1599388566.4960985,0.0,10,0.5,0.5,14.89482087726593,-0.2,-0.02275,-0.5,0.020969817949823763,10,1,100,0.10919220024027607,-10,-1,-100,18941.440736961667,-0.01635652622713744,0.002371227976200811,0.9998634113356013,75.5821984691152,4.677004568687627,476.50342797469693,-110.1929373700187,-145.01025390625,4761.76025390625,True
1599388566.535616,0.0,10,0.5,0.5,11.822246843338013,-0.2,-0.02275,-0.5,0.025566612848737742,10,1,100,0.18144324431061032,-10,-1,-100,18941.440736961667,-0.01635652622713744,0.002371227976200811,0.9998634113356013,75.5821984691152,4.677004568687627,476.50342797469693,-110.1929373700187,-145.01025390625,4761.76025390625,True
1599388566.5755088,0.0,10,0.5,0.5,13.817802726554872,-0.2,-0.02275,-0.5,0.013054016358621162,10,1,100,0.1388653077494047,-10,-1,-100,18937.022122015827,-0.01597161341050292,0.002256064072560524,0.9998699004070308,75.35920684358305,4.662560021773363,476.7968267958747,-110.55617869891647,-147.73812866210938,4761.76025390625,True
1599388566.6149895,0.0,10,0.5,0.5,15.73264329738617,-0.2,-0.02275,-0.5,-0.01761402611863026,10,1,100,0.09120340932441615,-10,-1,-100,18928.14130183088,-0.01519081898088733,0.0018715982306101344,0.9998828612086282,74.79395323193879,4.62573635099655,476.6005153037531,-111.28269647092965,-152.30772399902344,4761.76025390625,True
1599388566.6498969,0.0,10,0.5,0.5,14.197211356925965,-0.2,-0.02275,-0.5,0.007037421399690574,10,1,100,0.14716934670493356,-10,-1,-100,18925.912014843198,-0.014992771267806088,0.0017458730664693049,0.9998860778793487,74.64483814545063,4.615975961465532,476.49511068500243,-111.46433385676546,-153.26556396484375,4761.76025390625,True
1599388566.6898296,0.0,10,0.5,0.5,14.979831106185914,-0.2,-0.02275,-0.5,-0.011628983127845844,10,1,100,0.1223953204171645,-10,-1,-100,18921.442543145968,-0.014590586457546477,0.0014618188160395382,0.9998924831563513,74.35496997917237,4.596926174795171,476.3294060750373,-111.82761733341329,-154.9598846435547,4761.76025390625,True
1599388566.7304878,0.0,10,0.5,0.5,14.206666724777223,-0.2,-0.02275,-0.5,0.01674136720686009,10,1,100,0.16224591045404077,-10,-1,-100,18921.442543145968,-0.014590586457546477,0.0014618188160395382,0.9998924831563513,74.35496997917237,4.596926174795171,476.3294060750373,-111.82761733341329,-154.9598846435547,4761.76025390625,True
1599388566.7713413,0.0,10,0.5,0.5,15.250191051864624,-0.2,-0.02275,-0.5,-0.022398346890056618,10,1,100,0.11695763882100019,-10,-1,-100,18916.95853954961,-0.014181996729760256,0.0011065367552162819,0.9998988181537001,74.09075074158078,4.579427116540297,476.3175526855876,-112.1909107568816,-156.35955810546875,4761.76025390625,True
1599388566.8142283,0.0,10,0.5,0.5,15.943535411834716,-0.2,-0.02275,-0.5,-0.0797267308185473,10,1,100,0.06625706048409954,-10,-1,-100,18907.946936166496,-0.013352728004433352,0.000263469806840121,0.9999108136421471,73.69230014187274,4.5524328077159275,477.10504517667476,-112.91751516064652,-158.2743377685547,4761.76025390625,True
1599388566.861157,0.0,10,0.5,0.5,15.03477724609375,-0.2,-0.02275,-0.5,0.004367181912406588,10,1,100,0.14879384028378317,-10,-1,-100,18907.946936166496,-0.013352728004433352,0.000263469806840121,0.9999108136421471,73.69230014187274,4.5524328077159275,477.10504517667476,-112.91751516064652,-158.2743377685547,4761.76025390625,True
1599388566.9005604,0.0,10,0.5,0.5,15.440094584274293,-0.2,-0.02275,-0.5,-0.048619179238317,10,1,100,0.10132216192842089,-10,-1,-100,18903.419336313964,-0.0129245570381367,-0.00021626826442369657,0.9999164510364883,73.57853611571647,4.544213150114234,478.0428910279277,-113.28081840600994,-158.78964233398438,4761.76025390625,True
1599388566.9428256,0.0,10,0.5,0.5,15.368133061599732,-0.2,-0.02275,-0.5,-0.05594717359200856,10,1,100,0.09443443061808426,-10,-1,-100,18898.87720416265,-0.012475814937944866,-0.0007166596449328862,0.9999219171718298,73.53121662862922,4.540091332758201,479.41014419662946,-113.644116463173,-159.0101318359375,4761.76025390625,True
1599388566.9836776,0.0,10,0.5,0.5,15.135470149612427,-0.2,-0.02275,-0.5,-0.10212910251702208,10,1,100,0.06513986661366399,-10,-1,-100,18892.03675965022,-0.011805081275265916,-0.0015885894468766963,0.9999290557032801,73.59264715086445,4.542054641215209,482.3269608168204,-114.18904306116276,-158.7897491455078,4761.76025390625,True
1599388567.0235717,0.0,10,0.5,0.5,14.652867224884034,-0.2,-0.02275,-0.5,-0.11651105244153774,10,1,100,0.053130276770574136,-10,-1,-100,18885.163621140295,-0.011089933067107179,-0.002508502762939905,0.9999353583099536,73.81496095963189,4.553879854649194,486.3099517295089,-114.73393026556938,-157.906982421875,4761.76025390625,True
1599388567.0654597,0.0,10,0.5,0.5,14.43755835762024,-0.2,-0.02275,-0.5,-0.09448781610439558,10,1,100,0.06805013317267047,-10,-1,-100,18880.563366803923,-0.01057916146872173,-0.0031405944463019386,0.9999391071506017,74.04867317045328,4.566985211698508,489.5398086650807,-115.09715827451684,-156.95065307617188,4761.76025390625,True
1599388567.1063497,0.0,10,0.5,0.5,14.048786173629763,-0.2,-0.02275,-0.5,-0.10276607004869223,10,1,100,0.05961256041509294,-10,-1,-100,18875.948584361584,-0.01004213081766524,-0.003786037860203965,0.9999424091046254,74.34389785515096,4.58383700825651,493.1888195019364,-115.46035700460014,-155.7001953125,4761.76025390625,True
1599388567.1482723,0.0,10,0.5,0.5,13.594702558135987,-0.2,-0.02275,-0.5,-0.11177802168390491,10,1,100,0.051141245181689485,-10,-1,-100,18871.31927488174,-0.009481044137891926,-0.004449960654365701,0.9999451523219811,74.69226582289777,4.603921498024293,497.20527634645254,-115.82352208251123,-154.15591430664062,4761.76025390625,True
1599388567.1901248,0.0,10,0.5,0.5,14.365014028549195,-0.2,-0.02275,-0.5,-0.04597692021477183,10,1,100,0.10673895892705532,-10,-1,-100,18871.31927488174,-0.009481044137891926,-0.004449960654365701,0.9999451523219811,74.69226582289777,4.603921498024293,497.20527634645254,-115.82352208251123,-154.15591430664062,4761.76025390625,True
1599388567.2310512,0.0,10,0.5,0.5,13.07322095375061,-0.2,-0.02275,-0.5,-0.1193116242165603,10,1,100,0.04072230008344199,-10,-1,-100,18866.67543986661,-0.008885166287124413,-0.005111588420373249,0.9999474613617811,75.08333925406068,4.626606778158091,501.52289813209933,-116.18664966763245,-152.31765747070312,4761.76025390625,True
1599388567.2709103,0.0,10,0.5,0.5,10.788786327362061,-0.2,-0.02275,-0.5,-0.20311686009236127,10,1,100,-0.04067144253894649,-10,-1,-100,18857.344199797255,-0.007607577455057059,-0.006470047571771743,0.9999501303813526,75.9382579853331,4.676469598667147,510.7004179820448,-116.91278252171402,-147.760498046875,4761.76025390625,True
1599388567.3145833,0.0,10,0.5,0.5,11.14005502510071,-0.2,-0.02275,-0.5,-0.14009107718548613,10,1,100,0.01035037514768325,-10,-1,-100,18852.65679810627,-0.00691519063264644,-0.00712592739445459,0.9999506994333687,76.36825219075703,4.701642691753079,515.334941076764,-117.27578523583198,-145.04136657714844,4761.76025390625,True
1599388567.354478,0.0,10,0.5,0.5,11.439428027343752,-0.2,-0.02275,-0.5,-0.10883159015422295,10,1,100,0.03934036344012504,-10,-1,-100,18850.307652515592,-0.00655475647530034,-0.00743172311558203,0.9999509011241917,76.57521494282099,4.713779431993117,517.6050733061386,-117.45727078354626,-143.5714874267578,4761.76025390625,True
1599388567.3950722,0.0,10,0.5,0.5,11.059006344223024,-0.2,-0.02275,-0.5,-0.11243994981062536,10,1,100,0.03441515566314804,-10,-1,-100,18847.95487753942,-0.0061876972237974075,-0.007736417892146408,0.9999509289166466,76.77276262236745,4.7253776093982784,519.8160640720348,-117.63874612210276,-142.02828979492188,4761.76025390625,True
1599388567.4369602,0.0,10,0.5,0.5,9.478315735626222,-0.2,-0.02275,-0.5,-0.15102801960700632,10,1,100,-0.012194783706733672,-10,-1,-100,18843.238439823617,-0.005435386986388061,-0.008358624843130878,0.9999502937441641,77.12695820083516,4.746217066147613,523.973399490476,-118.00166775133852,-138.72235107421875,4761.76025390625,True
1599388567.4788816,0.0,10,0.5,0.5,8.568169844818115,-0.2,-0.02275,-0.5,-0.1545797910560249,10,1,100,-0.024075470001935433,-10,-1,-100,18838.50748617621,-0.004648602846132929,-0.008951238064398574,0.9999491316205507,77.40385888498476,4.762576619748802,527.6197762040692,-118.36455502666365,-135.12310791015625,4761.76025390625,True
1599388567.5187407,0.0,10,0.5,0.5,7.593361117553711,-0.2,-0.02275,-0.5,-0.15694318841367982,10,1,100,-0.03585284430734779,-10,-1,-100,18833.76201795996,-0.003831668914599596,-0.009506180383695072,0.9999474740444326,77.57448187220082,4.7727443962408955,530.5520166652911,-118.72741495100769,-131.23057556152344,4761.76025390625,True
1599388567.560662,0.0,10,0.5,0.5,6.553857130813599,-0.2,-0.02275,-0.5,-0.15708192174003177,10,1,100,-0.046979783646572744,-10,-1,-100,18829.002035865327,-0.002993493584579126,-0.010006734483728278,0.9999454506427494,77.60782896251713,4.774869992040036,532.5506240916507,-119.09025724016496,-127.04471588134766,4761.76025390625,True
1599388567.600934,0.0,10,0.5,0.5,5.449961136817932,-0.2,-0.02275,-0.5,-0.15825698747904438,10,1,100,-0.05801300135475529,-10,-1,-100,18824.22754029103,-0.0021371118058982324,-0.010467414468813704,0.9999429313653192,77.47079570996355,4.766947988733612,533.3789063692925,-119.45309410221388,-122.56593322753906,4761.76025390625,True
1599388567.6408281,0.0,10,0.5,0.5,0.7319658475875848,-0.2,-0.02275,-0.5,-0.19497758567178458,10,1,100,-0.164235332506598,-10,-1,-100,18814.63500711287,-0.00039960166238248076,-0.011214567662630414,0.9999370349130249,76.54720997953045,4.712359627195149,530.5216447025491,-120.17881309660521,-112.72947692871094,4761.76025390625,True
1599388567.6843126,0.0,10,0.5,0.5,5.560130886268615,-0.2,-0.02275,-0.5,-0.12087256421433931,10,1,100,0.008667125382502975,-10,-1,-100,18814.63500711287,-0.00039960166238248076,-0.011214567662630414,0.9999370349130249,76.54720997953045,4.712359627195149,530.5216447025491,-120.17881309660521,-112.72947692871094,4761.76025390625,True
1599388567.725204,0.0,10,0.5,0.5,-2.1969153032302855,-0.2,-0.02275,-0.5,-0.17189780547596992,10,1,100,-0.1759837366303644,-10,-1,-100,18804.98440844973,0.0012724898324684277,-0.011674120292199002,0.9999310454651508,74.5310731571721,4.591445846453466,519.9706419204297,-120.90471471217242,-101.76183319091797,4761.76025390625,True
1599388567.7660933,0.0,10,0.5,0.5,3.1884456272125243,-0.2,-0.02275,-0.5,-0.1263973618088855,10,1,100,-0.009593355191785054,-10,-1,-100,18804.98440844973,0.0012724898324684277,-0.011674120292199002,0.9999310454651508,74.5310731571721,4.591445846453466,519.9706419204297,-120.90471471217242,-101.76183319091797,4761.76025390625,True
1599388567.8099766,0.0,10,0.5,0.5,-1.0152299909591675,-0.2,-0.02275,-0.5,-0.14441896500919243,10,1,100,-0.10400097868553841,-10,-1,-100,18800.137327933684,0.002123625276677305,-0.011834096323859414,0.9999277195777112,73.17888159518141,4.5096738427617264,512.2225479428308,-121.26777901882531,-95.89246368408203,4761.76025390625,True
1599388567.8528614,0.0,10,0.5,0.5,-6.4173455200195315,-0.2,-0.02275,-0.5,-0.13733629262384717,10,1,100,-0.18383213785673883,-10,-1,-100,18790.399587686872,0.00361556683433222,-0.011911415986927819,0.999922519921245,69.9852045292386,4.314653373628011,493.1004507095965,-121.99417806425214,-84.1326904296875,4761.76025390625,True
1599388567.9087117,0.0,10,0.5,0.5,-0.6616503707885742,-0.2,-0.02275,-0.5,-0.12995960543138635,10,1,100,-0.035543077473319355,-10,-1,-100,18790.399587686872,0.00361556683433222,-0.011911415986927819,0.999922519921245,69.9852045292386,4.314653373628011,493.1004507095965,-121.99417806425214,-84.1326904296875,4761.76025390625,True
1599388567.9506333,0.0,10,0.5,0.5,-4.876780767822265,-0.2,-0.02275,-0.5,-0.12570624636888372,10,1,100,-0.10932489559262808,-10,-1,-100,18785.508920397027,0.004278797753889149,-0.01187005801552095,0.9999203936376583,68.50678039162857,4.223478809823066,484.26759339731984,-122.35750909692439,-78.27679443359375,4761.76025390625,True
1599388567.9914901,0.0,10,0.5,0.5,-9.736703744888306,-0.2,-0.02275,-0.5,-0.10799438536849831,10,1,100,-0.17268335581471667,-10,-1,-100,18775.68399918452,0.005450347803988537,-0.011669293961845906,0.99991705720387,72.49336730322212,4.467412304236004,515.7973121408241,-123.08384335498403,-67.3233642578125,4761.76025390625,True
1599388568.031385,0.0,10,0.5,0.5,-7.965602656745911,-0.2,-0.02275,-0.5,-0.11224223204446832,10,1,100,-0.10861684943732347,-10,-1,-100,18770.74975559034,0.005925294299385707,-0.011523886556033668,0.9999160419385766,74.01967359231902,4.560104737071192,528.3641085204326,-123.44682417379238,-62.223724365234375,4761.76025390625,True
1599388568.073272,0.0,10,0.5,0.5,-8.918371904563905,-0.2,-0.02275,-0.5,-0.11018471719260826,10,1,100,-0.10563077071524837,-10,-1,-100,18765.80099571764,0.006322588210359467,-0.011372032895653614,0.9999153472900305,75.25605270434039,4.634888179760066,538.9232117902787,-123.80970341376002,-57.4161376953125,4761.76025390625,True
1599388568.1141622,0.0,10,0.5,0.5,-9.797700962257386,-0.2,-0.02275,-0.5,-0.10517607947392812,10,1,100,-0.10484601403389615,-10,-1,-100,18760.837723281933,0.006670519259711736,-0.011188307893108271,0.9999151593706812,76.23286775675295,4.693811561172526,547.6730823410732,-124.17249864855467,-52.905731201171875,4761.76025390625,True
1599388568.1530578,0.0,10,0.5,0.5,-7.678596736717224,-0.2,-0.02275,-0.5,-0.12354595375151026,10,1,100,-0.07075992119087869,-10,-1,-100,18760.837723281933,0.006670519259711736,-0.011188307893108271,0.9999151593706812,76.23286775675295,4.693811561172526,547.6730823410732,-124.17249864855467,-52.905731201171875,4761.76025390625,True
1599388568.1959445,0.0,10,0.5,0.5,-10.738126937103273,-0.2,-0.02275,-0.5,-0.10310923320686642,10,1,100,-0.10068431649714422,-10,-1,-100,18755.859941081842,0.006937651917562111,-0.011002961172156137,0.9999153983369367,76.98216058052792,4.738979138143362,554.8273043281106,-124.53522636893555,-48.693756103515625,4761.76025390625,True
1599388568.2368624,0.0,10,0.5,0.5,-11.492392579078674,-0.2,-0.02275,-0.5,-0.10105211461031696,10,1,100,-0.0963437496123244,-10,-1,-100,18750.86765153054,0.007135889942032186,-0.010816373219612877,0.9999160390478338,77.537338303867,4.772529751784881,560.6123834984811,-124.89790159387006,-44.7801513671875,4761.76025390625,True
1599388568.276768,0.0,10,0.5,0.5,-14.504788201904297,-0.2,-0.02275,-0.5,-0.07642008219513291,10,1,100,-0.09874188150501331,-10,-1,-100,18740.839556070277,0.0073333509226972855,-0.010423745443621192,0.9999187804492777,78.19549591969147,4.812907933144811,568.9710944942594,-125.623143895567,-37.847412109375,4761.76025390625,True
1599388568.318616,0.0,10,0.5,0.5,-12.226508718872072,-0.2,-0.02275,-0.5,-0.1050094125886162,10,1,100,-0.08037248406860235,-10,-1,-100,18738.323467160342,0.007342486579254217,-0.010328066533154332,0.9999197062427164,78.2883552896187,4.818816734222012,570.5487197863162,-125.80443919729296,-36.300567626953125,4761.76025390625,True
1599388568.3605368,0.0,10,0.5,0.5,-14.497448380279542,-0.2,-0.02275,-0.5,-0.0847518285994587,10,1,100,-0.07302142561719335,-10,-1,-100,18730.753445907845,0.0072805758086159625,-0.01005836525960464,0.9999229082805331,78.45115101067368,4.8298929942900415,574.4495356967235,-126.34830242512786,-32.10693359375,4761.76025390625,True
1599388568.4013948,0.0,10,0.5,0.5,-14.202197948455812,-0.2,-0.02275,-0.5,-0.09207305770756646,10,1,100,-0.06594906668484121,-10,-1,-100,18725.688636712264,0.00715727022860096,-0.009881385905320368,0.9999255630773048,78.49456019387462,4.833608971112517,576.580752829129,-126.71086509036287,-29.683319091796875,4761.76025390625,True
1599388568.4442813,0.0,10,0.5,0.5,-14.56416266937256,-0.2,-0.02275,-0.5,-0.09191254419747824,10,1,100,-0.05949587891227264,-10,-1,-100,18720.609325256315,0.006984957155723413,-0.009720661740476162,0.9999283569880695,78.51268172977169,4.835985604511601,578.5300346384283,-127.07342033439559,-27.557403564453125,4761.76025390625,True
1599388568.4861681,0.0,10,0.5,0.5,-13.580070785522462,-0.2,-0.02275,-0.5,-0.1078046382003432,10,1,100,-0.07683315248566104,-10,-1,-100,18720.609325256315,0.006984957155723413,-0.009720661740476162,0.9999283569880695,78.51268172977169,4.835985604511601,578.5300346384283,-127.07342033439559,-27.557403564453125,4761.76025390625,True
1599388568.5261002,0.0,10,0.5,0.5,-15.999925064849855,-0.2,-0.02275,-0.5,-0.07451923133702779,10,1,100,-0.019841087450898798,-10,-1,-100,18710.407196840155,0.0064662453200025165,-0.009419568379132546,0.9999347275712613,78.5467442472313,4.841090566190134,582.4223483162774,-127.79851146791222,-24.197509765625,4761.76025390625,True
1599388568.5669918,0.0,10,0.5,0.5,-14.38528936920166,-0.2,-0.02275,-0.5,-0.10445169351999173,10,1,100,-0.07169184362901755,-10,-1,-100,18710.407196840155,0.0064662453200025165,-0.009419568379132546,0.9999347275712613,78.5467442472313,4.841090566190134,582.4223483162774,-127.79851146791222,-24.197509765625,4761.76025390625,True
1599388568.607882,0.0,10,0.5,0.5,-15.97091307296753,-0.2,-0.02275,-0.5,-0.07397034864608615,10,1,100,0.008884831301344445,-10,-1,-100,18700.147062774166,0.005733915796944416,-0.009144073188927928,0.9999417523711813,78.68087309751968,4.852794627635201,587.0741372702262,-128.52356871935598,-22.025634765625,4761.76025390625,True
1599388568.649202,0.0,10,0.5,0.5,-15.19584086151123,-0.2,-0.02275,-0.5,-0.09482094552916319,10,1,100,-0.03962499298985189,-10,-1,-100,18697.572966263164,0.005510254393284853,-0.009084863794936456,0.9999435495798495,78.74039795517947,4.857369327518554,588.4347170981855,-128.70482522836465,-21.668212890625,4761.76025390625,True
1599388568.6910892,0.0,10,0.5,0.5,-15.509388539123536,-0.2,-0.02275,-0.5,-0.0781650663260113,10,1,100,0.017045036173377222,-10,-1,-100,18689.828926468268,0.00479322161170021,-0.008881194088937987,0.9999490734123091,78.99884578879472,4.876103519506021,593.1276988931222,-129.24856898684578,-21.04010009765625,4761.76025390625,True
1599388568.7309823,0.0,10,0.5,0.5,-15.233568777465821,-0.2,-0.02275,-0.5,-0.09837778179038979,10,1,100,-0.05440422905398735,-10,-1,-100,18689.828926468268,0.00479322161170021,-0.008881194088937987,0.9999490734123091,78.99884578879472,4.876103519506021,593.1276988931222,-129.24856898684578,-21.04010009765625,4761.76025390625,True
1599388568.7718754,0.0,10,0.5,0.5,-15.302124231719972,-0.2,-0.02275,-0.5,-0.08463787752547913,10,1,100,0.006456066154298862,-10,-1,-100,18684.64810933266,0.004242263714322657,-0.008757601206933542,0.9999526526889553,79.2414125327013,4.892987713680364,596.798152721309,-129.61103809445115,-20.99176025390625,4761.76025390625,True
1599388568.8147585,0.0,10,0.5,0.5,-14.749936275482177,-0.2,-0.02275,-0.5,-0.065874340645736,10,1,100,0.0863716965322272,-10,-1,-100,18674.242982370313,0.0030176492697203453,-0.008475848946252446,0.9999595260696931,79.90678828459528,4.937998265680553,605.5444278979637,-130.33589230967178,-21.782196044921875,4761.76025390625,True
1599388568.8556497,0.0,10,0.5,0.5,-14.576306716156006,-0.2,-0.02275,-0.5,-0.07593827053343886,10,1,100,0.03853590959842122,-10,-1,-100,18669.01867498795,0.0023429974930790987,-0.008312478560029719,0.9999627058360409,80.32910530680371,4.966083464868296,610.6246799337306,-130.69826850534517,-22.620513916015625,4761.76025390625,True
1599388568.8965406,0.0,10,0.5,0.5,-15.006697075653076,-0.2,-0.02275,-0.5,-0.09213449083766691,10,1,100,-0.02846507209943901,-10,-1,-100,18669.01867498795,0.0023429974930790987,-0.008312478560029719,0.9999627058360409,80.32910530680371,4.966083464868296,610.6246799337306,-130.69826850534517,-22.620513916015625,4761.76025390625,True
1599388568.9404235,0.0,10,0.5,0.5,-14.224767488861085,-0.2,-0.02275,-0.5,-0.07026547114286985,10,1,100,0.04917591572405254,-10,-1,-100,18663.77987399383,0.001641390294377034,-0.008114949456604697,0.99996572612926,80.80377473811677,4.9974184513496,616.1253387497533,-131.0606049499577,-23.75360107421875,4761.76025390625,True
1599388568.982311,0.0,10,0.5,0.5,-13.792565100860596,-0.2,-0.02275,-0.5,-0.06794022924073465,10,1,100,0.06226461412389446,-10,-1,-100,18658.526580609963,0.0008889636328544354,-0.007915424998855745,0.9999682773922115,81.32005645574579,5.031323257541697,621.9678023116925,-131.4228982631337,-25.18182373046875,4761.76025390625,True
1599388569.0241988,0.0,10,0.5,0.5,-13.298321392059327,-0.2,-0.02275,-0.5,-0.06472884903762793,10,1,100,0.07569473061000395,-10,-1,-100,18653.258797177696,8.791768313030327e-05,-0.007706212165765071,0.9999703028413081,81.87090101857765,5.067337875536695,628.1007837580383,-131.78514510514182,-26.90484619140625,4761.76025390625,True
1599388569.0650895,0.0,10,0.5,0.5,-11.119151728057862,-0.2,-0.02275,-0.5,-0.02572804832959001,10,1,100,0.17862238154866128,-10,-1,-100,18642.679766482906,-0.0015708790995941435,-0.007162773093812444,0.9999731131487791,83.0306072595695,5.142721412101079,640.8951967902024,-132.50949203748965,-31.232818603515625,4761.76025390625,True
1599388569.10726,0.0,10,0.5,0.5,-13.261378456115724,-0.2,-0.02275,-0.5,-0.07987974645474037,10,1,100,0.01345081662550451,-10,-1,-100,18642.679766482906,-0.0015708790995941435,-0.007162773093812444,0.9999731131487791,83.0306072595695,5.142721412101079,640.8951967902024,-132.50949203748965,-31.232818603515625,4761.76025390625,True
1599388569.1471858,0.0,10,0.5,0.5,-9.386310138702394,-0.2,-0.02275,-0.5,-0.002589605390292349,10,1,100,0.20299971445618228,-10,-1,-100,18632.04279787198,-0.003288265351953674,-0.006461697648676667,0.9999737165418261,84.1371872186584,5.2141480386504,653.390008124976,-133.23364302377777,-36.735504150390625,4761.76025390625,True
1599388569.1890411,0.0,10,0.5,0.5,-12.101945867919923,-0.2,-0.02275,-0.5,-0.07245520025984392,10,1,100,0.032069237916594634,-10,-1,-100,18632.04279787198,-0.003288265351953674,-0.006461697648676667,0.9999737165418261,84.1371872186584,5.2141480386504,653.390008124976,-133.23364302377777,-36.735504150390625,4761.76025390625,True
