Timestamp,Input Throttle,horizon,dT,dt,Input Roll,Roll P,Roll I,Roll D,Input Pitch,Pitch P,Pitch I,Pitch D,Input Yaw,Yaw P,Yaw I,Yaw D,Altitude,Direction X,Direction Y,Direction Z,Drag X,Drag Y,Drag Z,Vertical Velocity,Roll,Mass,Has Fuel
1599385802.753129,0.0,10,0.5,0.5,-2.8448336868286135,-0.05075,-0.0155,-0.5,-0.00017081283158795302,10,1,100,0.49811687898571166,-10,-1,-100,19349.722301549744,-0.04884515627764518,-0.000175794405491564,0.9988063474991232,61.0764117806407,3.686290492322687,233.73107981342528,-68.66499552270295,-33.922515869140625,4761.76025390625,True
1599385802.7840848,0.0,10,0.5,0.5,-2.9322305404663087,-0.05075,-0.0155,-0.5,-0.0008497573639901636,10,1,100,0.4989571097952312,-10,-1,-100,19348.34535251069,-0.04889625656301804,-0.00016737834975088552,0.9988038486502799,61.1662320185925,3.692384733845441,234.72039529017437,-68.84745213796272,-33.92364501953125,4761.76025390625,True
1599385802.8194642,0.0,10,0.5,0.5,-3.0190411636352543,-0.05075,-0.0155,-0.5,-0.0007651497988000832,10,1,100,0.5045486020860033,-10,-1,-100,19346.96475422394,-0.048949091973670374,-0.000158806068166949,0.9988012621015181,61.256177749479185,3.698490296960781,235.71226708454878,-69.02990536533397,-33.92486572265625,4761.76025390625,True
1599385802.85071,0.0,10,0.5,0.5,-3.105895671081543,-0.05075,-0.0155,-0.5,-0.0006219836298104487,10,1,100,0.5101863384498989,-10,-1,-100,19345.58050705027,-0.04900387713941366,-0.00014956720512876735,0.9987985771190087,61.346561340239056,3.704626039697263,236.7079048075933,-69.21235526464373,-33.92608642578125,4761.76025390625,True
1599385802.8832543,0.0,10,0.5,0.5,-3.1103576461791995,-0.05075,-0.0155,-0.5,0.021733718980548666,10,1,100,0.5080304599011698,-10,-1,-100,19342.80106578255,-0.04898953396042874,6.220139155023406e-05,0.9987992899944047,61.530724287337264,3.717112145866088,238.71860883379568,-69.57724439069347,-34.076904296875,4761.76025390625,True
1599385802.9160836,0.0,10,0.5,0.5,-3.039662727355957,-0.05075,-0.0155,-0.5,0.028651087831590483,10,1,100,0.5102531924192767,-10,-1,-100,19340.007029528264,-0.04895216542609757,0.0003175469222755698,0.9988010736197915,61.72796371191013,3.730387755161484,240.78877497388783,-69.9421186263466,-34.49957275390625,4761.76025390625,True
1599385802.95205,0.0,10,0.5,0.5,-3.160879429626465,-0.05075,-0.0155,-0.5,0.022678746437476662,10,1,100,0.5133086616535297,-10,-1,-100,19338.604538441985,-0.04890146905572054,0.0004950965312409535,0.9988034847774696,61.83157588655935,3.737320895252882,241.84674707962432,-70.1245497035067,-34.81939697265625,4761.76025390625,True
1599385802.9830592,0.0,10,0.5,0.5,-2.2984850250244144,-0.05075,-0.0155,-0.5,0.12315344260436473,10,1,100,0.4720499926104825,-10,-1,-100,19332.958089509048,-0.048435846755844884,0.0015694615076982472,0.9988250625307817,62.26421611743285,3.7660424308346347,246.17387570750438,-70.85422966811302,-36.830902099609375,4761.76025390625,True
1599385803.0171785,0.0,10,0.5,0.5,-3.3866496902465824,-0.05075,-0.0155,-0.5,0.015873891109405156,10,1,100,0.5234558072736327,-10,-1,-100,19332.958089509048,-0.048435846755844884,0.0015694615076982472,0.9988250625307817,62.26421611743285,3.7660424308346347,246.17387570750438,-70.85422966811302,-36.830902099609375,4761.76025390625,True
1599385803.0501156,0.0,10,0.5,0.5,-3.0911270843505863,-0.05075,-0.0155,-0.5,0.05578424808408225,10,1,100,0.508049049332763,-10,-1,-100,19331.537356589106,-0.048251752732058936,0.0019308561515519497,0.9988333395280747,62.371784301411864,3.77314296805417,247.2593560195531,-71.03663811248492,-37.517120361328125,4761.76025390625,True
1599385803.0859053,0.0,10,0.5,0.5,-1.5996577377319339,-0.05075,-0.0155,-0.5,0.21532864702225127,10,1,100,0.41620180695538445,-10,-1,-100,19325.81794533448,-0.04720555436815731,0.0037080450398099866,0.9988783139295685,62.756580387477406,3.7985066702801196,251.44302970667476,-71.76622583979338,-40.995880126953125,4761.76025390625,True
1599385803.1171029,0.0,10,0.5,0.5,-3.3280739059448243,-0.05075,-0.0155,-0.5,0.03799814214097773,10,1,100,0.5206576831545986,-10,-1,-100,19325.81794533448,-0.04720555436815731,0.0037080450398099866,0.9988783139295685,62.756580387477406,3.7985066702801196,251.44302970667476,-71.76622583979338,-40.995880126953125,4761.76025390625,True
1599385803.1497161,0.0,10,0.5,0.5,-2.7370831787109378,-0.05075,-0.0155,-0.5,0.09581299927987313,10,1,100,0.48263853737707674,-10,-1,-100,19324.378972858773,-0.046861462772175164,0.004230111537991253,0.9988924413885751,62.83228478940029,3.8035152590275794,252.4120063009742,-71.94861185544549,-42.049041748046875,4761.76025390625,True
1599385803.1832762,0.0,10,0.5,0.5,-1.9694953598022464,-0.05075,-0.0155,-0.5,0.16482218172040838,10,1,100,0.4288881515344317,-10,-1,-100,19321.490085318568,-0.046061910203805075,0.005328083724337127,0.998924377494214,62.94445984626931,3.811018970945332,254.19670540025345,-72.31337250254666,-44.376007080078125,4761.76025390625,True
1599385803.2195983,0.0,10,0.5,0.5,-1.6739191833496094,-0.05075,-0.0155,-0.5,0.19479717325165843,10,1,100,0.40655197640214613,-10,-1,-100,19318.586607753765,-0.045134662610389314,0.006593760497727043,0.9989591505930284,62.986689788656896,3.81407774041751,255.70277004850857,-72.67812110171153,-46.995819091796875,4761.76025390625,True
1599385803.2505665,0.0,10,0.5,0.5,-2.1815772079467775,-0.05075,-0.0155,-0.5,0.14014896794401271,10,1,100,0.44116617698594124,-10,-1,-100,19317.129397899844,-0.04460988923200043,0.007241636098824573,0.9989782362440739,62.97509188298631,3.8135393629935006,256.3235632112401,-72.86049224686634,-48.416107177734375,4761.76025390625,True
1599385803.2840326,0.0,10,0.5,0.5,-1.184268702697754,-0.05075,-0.0155,-0.5,0.22411487547840817,10,1,100,0.3650037917190606,-10,-1,-100,19314.2040355691,-0.043444384727578986,0.008587645723610877,0.9990189376466133,62.871616228640484,3.8074168018055654,257.2365155720473,-73.22523188515171,-51.4771728515625,4761.76025390625,True
1599385803.3059666,0.0,10,0.5,0.5,-0.841058418273926,-0.05075,-0.0155,-0.5,0.2431955291602954,10,1,100,0.3355641310080273,-10,-1,-100,19311.264083828777,-0.04212216288466659,0.009977394462167975,0.9990626481826171,62.63975178742508,3.793269410992222,257.61794173887006,-73.58997367581932,-54.83245849609375,4761.76025390625,True
1599385803.3309062,0.0,10,0.5,0.5,-1.5062289962768554,-0.05075,-0.0155,-0.5,0.18507189998629592,10,1,100,0.3877969889888313,-10,-1,-100,19309.78863669408,-0.041400726903545515,0.010704762202043095,0.9990852755786443,62.467209869983236,3.7826768033044287,257.5719360524367,-73.77234798871531,-56.620147705078125,4761.76025390625,True
1599385803.3588264,0.0,10,0.5,0.5,-1.3442906127929692,-0.05075,-0.0155,-0.5,0.1937522550395287,10,1,100,0.37526446400185987,-10,-1,-100,19308.3095420819,-0.040637339529783253,0.01143661310178228,0.99910850787925,62.25244798155378,3.769471246649498,257.34802777558076,-73.95472598948739,-58.4814453125,4761.76025390625,True
1599385803.3837733,0.0,10,0.5,0.5,-0.07410189361572295,-0.05075,-0.0155,-0.5,0.27721269147674715,10,1,100,0.27088220318713163,-10,-1,-100,19305.340409647906,-0.03900134355823119,0.012852021744656043,0.9991565046266414,61.682150668643075,3.7343921330576655,256.3025739276699,-74.31949834506223,-62.41851806640625,4761.76025390625,True
1599385803.4173398,0.0,10,0.5,0.5,-0.868065658569336,-0.05075,-0.0155,-0.5,0.2164586620693319,10,1,100,0.3366678130126166,-10,-1,-100,19303.850371589535,-0.03811958386506093,0.013578134810196738,0.9991809303529721,61.32070419722007,3.712177860475643,255.45345415832128,-74.50189507684769,-64.49090576171875,4761.76025390625,True
1599385803.4524071,0.0,10,0.5,0.5,1.7749602737426757,-0.05075,-0.0155,-0.5,0.3759286934774434,10,1,100,0.10891346285824172,-10,-1,-100,19299.358368040528,-0.03525575002486919,0.015678992346425304,0.999255323372953,59.88819090259571,3.624376346241308,251.40080127546995,-75.04914425702259,-71.10516357421875,4761.76025390625,True
1599385803.4843905,0.0,10,0.5,0.5,-1.4871316436767579,-0.05075,-0.0155,-0.5,0.16698782793543016,10,1,100,0.394136275602685,-10,-1,-100,19299.358368040528,-0.03525575002486919,0.015678992346425304,0.999255323372953,59.88819090259571,3.624376346241308,251.40080127546995,-75.04914425702259,-71.10516357421875,4761.76025390625,True
1599385803.517803,0.0,10,0.5,0.5,2.4120192596435546,-0.05075,-0.0155,-0.5,0.3830792812850889,10,1,100,0.04598579397611108,-10,-1,-100,19294.833525041933,-0.032100569428426644,0.017634050187220304,0.9993290717858483,57.91831869409599,3.5042493037913305,244.98738140032904,-75.5965059431652,-78.10964965820312,4761.76025390625,True
1599385803.5510101,0.0,10,0.5,0.5,-1.0419973449707032,-0.05075,-0.0155,-0.5,0.18867752617453828,10,1,100,0.36020044430216963,-10,-1,-100,19294.833525041933,-0.032100569428426644,0.017634050187220304,0.9993290717858483,57.91831869409599,3.5042493037913305,244.98738140032904,-75.5965059431652,-78.10964965820312,4761.76025390625,True
1599385803.5865135,0.0,10,0.5,0.5,4.013301258850098,-0.05075,-0.0155,-0.5,0.43607045159823293,10,1,100,-0.1390693545893863,-10,-1,-100,19288.7493047046,-0.027573125183779384,0.019873629132809895,0.9994222138979557,54.67289259008898,3.307634996652109,233.6002740900357,-76.32652528244448,-87.20501708984375,4761.76025390625,True
1599385803.616974,0.0,10,0.5,0.5,0.7542669418334962,-0.05075,-0.0155,-0.5,0.2705822057297786,10,1,100,0.17625649994367953,-10,-1,-100,19287.21912343905,-0.02633829387489502,0.020394911408715213,0.9994450169290907,53.7979083899294,3.2548773816801773,230.43815550945325,-76.50906597314719,-89.44427490234375,4761.76025390625,True
1599385803.6499717,0.0,10,0.5,0.5,2.20100339012146,-0.05075,-0.0155,-0.5,0.31555427960944793,10,1,100,0.03548594893173607,-10,-1,-100,19284.147807215806,-0.02395033664762772,0.02126817095212927,0.9994868914992413,52.310076938268125,3.1655581099084262,225.18650422339041,-76.8741817608065,-94.00662994384766,4761.76025390625,True
1599385803.6841176,0.0,10,0.5,0.5,-0.022225083160400366,-0.05075,-0.0155,-0.5,0.22928466614305076,10,1,100,0.27253663263287414,-10,-1,-100,19284.147807215806,-0.02395033664762772,0.02126817095212927,0.9994868914992413,52.310076938268125,3.1655581099084262,225.18650422339041,-76.8741817608065,-94.00662994384766,4761.76025390625,True
1599385803.708241,0.0,10,0.5,0.5,2.458089469909668,-0.05075,-0.0155,-0.5,0.31571614467341225,10,1,100,-0.0034843624457244204,-10,-1,-100,19281.061887320364,-0.021456224876806058,0.022044973886177696,0.9995267127697958,53.726812754039166,3.252480814437781,232.43715880916434,-77.23925041418462,-98.41017150878906,4761.76025390625,True
1599385803.7351675,0.0,10,0.5,0.5,1.4755668060302736,-0.05075,-0.0155,-0.5,0.2753427719665628,10,1,100,0.1096950804219607,-10,-1,-100,19279.513452089508,-0.020233704673657524,0.02237577048148534,0.9995448574679071,54.34719858135457,3.2907827750432834,235.70361628097527,-77.42175847931513,-100.52267456054688,4761.76025390625,True
1599385803.7581453,0.0,10,0.5,0.5,2.7102711559295654,-0.05075,-0.0155,-0.5,0.3062100588265452,10,1,100,-0.04684611901795391,-10,-1,-100,19276.40563235525,-0.01771548074787909,0.022949108507154595,0.9995796617381721,55.409475503656964,3.3568416077797423,241.49815113261863,-77.78672502293091,-104.58097076416016,4761.76025390625,True
1599385803.7841635,0.0,10,0.5,0.5,1.812992681503296,-0.05075,-0.0155,-0.5,0.2756774351918313,10,1,100,0.06886612798906076,-10,-1,-100,19274.84624868352,-0.016494061487487003,0.023186146391846765,0.9995950923004487,55.910955679370346,3.3881804296565554,244.28270600311222,-77.96918401625008,-106.54190063476562,4761.76025390625,True
1599385803.817152,0.0,10,0.5,0.5,1.9310190425872804,-0.05075,-0.0155,-0.5,0.2754904001639997,10,1,100,0.05484792186808246,-10,-1,-100,19273.28321609064,-0.015273298184701104,0.023393110373999885,0.9996096681953366,56.393826599501786,3.4184455121208335,246.99633932236938,-78.15162676774924,-108.43670654296875,4761.76025390625,True
1599385803.8530579,0.0,10,0.5,0.5,3.000082033920288,-0.05075,-0.0155,-0.5,0.2916094108691127,10,1,100,-0.09567795633123913,-10,-1,-100,19270.146205416764,-0.012810393808759842,0.023722560400379403,0.9996365009034608,57.22002539897917,3.4706271686723085,251.8399712654031,-78.51646762849657,-112.01266479492188,4761.76025390625,True
1599385803.883701,0.0,10,0.5,0.5,2.189206832122803,-0.05075,-0.0155,-0.5,0.272364822253156,10,1,100,0.013490118161823439,-10,-1,-100,19268.572227950674,-0.01158136339476805,0.023841574609476487,0.9996486639525204,57.62536089771767,3.4962801377631507,254.24055804921434,-78.69886648983598,-113.6913833618164,4761.76025390625,True
1599385803.9173007,0.0,10,0.5,0.5,3.118713986968994,-0.05075,-0.0155,-0.5,0.27766523198105314,10,1,100,-0.13174280543687722,-10,-1,-100,19265.4133301822,-0.009158301678231881,0.023994347664839568,0.9996701439927619,58.29519826985226,3.5390570008985924,258.44295179486545,-79.06362524269213,-116.82858276367188,4761.76025390625,True
1599385803.9503026,0.0,10,0.5,0.5,2.3956207942962644,-0.05075,-0.0155,-0.5,0.268028315218929,10,1,100,-0.019001446568282232,-10,-1,-100,19263.828410335234,-0.00799605791854683,0.024042351711644764,0.9996789626584811,58.566216240153146,3.5565572718425216,260.27072685533693,-79.24598732291668,-118.28670501708984,4761.76025390625,True
1599385803.9863007,0.0,10,0.5,0.5,3.188843035888672,-0.05075,-0.0155,-0.5,0.2646075909140843,10,1,100,-0.15943509388847665,-10,-1,-100,19260.647629796877,-0.005677307051130544,0.024052372278005885,0.9996945791452745,58.99984690614545,3.5849227549633573,263.45928591548164,-79.61068175711736,-120.98239135742188,4761.76025390625,True
1599385804.0182784,0.0,10,0.5,0.5,3.2051341705322267,-0.05075,-0.0155,-0.5,0.257645591482842,10,1,100,-0.17257814984618425,-10,-1,-100,19257.452262287494,-0.003466481235315212,0.023995659887753904,0.999706052704692,59.30913960883564,3.605636291852959,266.10822029185096,-79.97534260111146,-123.38333892822266,4761.76025390625,True
1599385804.052004,0.0,10,0.5,0.5,2.6438145362854004,-0.05075,-0.0155,-0.5,0.2555931070683782,10,1,100,-0.07419835297770977,-10,-1,-100,19255.84910896304,-0.002367355686688761,0.02392367086921009,0.9997109850347721,59.42516125843645,3.6136019429309285,267.26386692364423,-80.15766230542532,-124.47357177734375,4761.76025390625,True
1599385804.0840306,0.0,10,0.5,0.5,3.2148797130584716,-0.05075,-0.0155,-0.5,0.24350278619220744,10,1,100,-0.1969324308442982,-10,-1,-100,19252.63186355331,-0.0002686284336838827,0.023746907116761685,0.999717966349086,59.59120401447202,3.6254274473482617,269.28430397921375,-80.52228376796948,-126.43282318115234,4761.76025390625,True
1599385804.1209888,0.0,10,0.5,0.5,3.583370226287842,-0.05075,-0.0155,-0.5,0.22075909512494107,10,1,100,-0.314388604915157,-10,-1,-100,19247.778650165536,0.0026912280584972734,0.023378726697006524,0.9997230578663092,59.714342791315985,3.6352763073354755,271.7552738184053,-81.06917925517341,-128.81910705566406,4761.76025390625,True
1599385804.1518366,0.0,10,0.5,0.5,2.424757958984375,-0.05075,-0.0155,-0.5,0.25759639513097304,10,1,100,-0.020321484651639847,-10,-1,-100,19247.778650165536,0.0026912280584972734,0.023378726697006524,0.9997230578663092,59.714342791315985,3.6352763073354755,271.7552738184053,-81.06917925517341,-128.81910705566406,4761.76025390625,True
1599385804.1856732,0.0,10,0.5,0.5,3.640006014251709,-0.05075,-0.0155,-0.5,0.19270324454860394,10,1,100,-0.41066521733619227,-10,-1,-100,19241.25665802625,0.006223476059044842,0.022788802040509527,0.999720930483753,59.72633080567818,3.638773096831421,274.36367509342665,-81.79832145135708,-130.96827697753906,4761.76025390625,True
1599385804.2186584,0.0,10,0.5,0.5,2.789559809112549,-0.05075,-0.0155,-0.5,0.2288584179261812,10,1,100,-0.1526922321219857,-10,-1,-100,19239.6170458789,0.00707209813044275,0.022582039163817385,0.9997199792618117,59.71414590717785,3.638670080487194,274.9462029318656,-81.98059958242646,-131.3218994140625,4761.76025390625,True
1599385804.2537372,0.0,10,0.5,0.5,2.9070134975433346,-0.05075,-0.0155,-0.5,0.211892268331278,10,1,100,-0.23863644694224495,-10,-1,-100,19236.326885140734,0.008607926092329377,0.022240980220912372,0.9997155807564478,59.675792335880274,3.6375661997326274,276.0460429446718,-82.34514843385921,-131.80657958984375,4761.76025390625,True
1599385804.285651,0.0,10,0.5,0.5,2.687889304733276,-0.05075,-0.0155,-0.5,0.24582282587738657,10,1,100,-0.0868302735306384,-10,-1,-100,19236.326885140734,0.008607926092329377,0.022240980220912372,0.9997155807564478,59.675792335880274,3.6375661997326274,276.0460429446718,-82.34514843385921,-131.80657958984375,4761.76025390625,True
1599385804.3186595,0.0,10,0.5,0.5,2.813657030487061,-0.05075,-0.0155,-0.5,0.20220942934506936,10,1,100,-0.24817899452934333,-10,-1,-100,19233.022142622736,0.01005963811594408,0.021846132408337427,0.9997107332522612,59.62745917963305,3.6358086299683428,277.0982314869634,-82.70968798617149,-131.99688720703125,4761.76025390625,True
1599385804.351896,0.0,10,0.5,0.5,2.588072577667236,-0.05075,-0.0155,-0.5,0.17624618806273204,10,1,100,-0.3179580272424997,-10,-1,-100,19228.037689326564,0.0119994248482888,0.021253156057856836,0.9997021142124742,59.54269426420917,3.632384008201286,278.6160150946703,-83.25648174452064,-131.72906494140625,4761.76025390625,True
1599385804.387387,0.0,10,0.5,0.5,2.7349195858001707,-0.05075,-0.0155,-0.5,0.23526957272780144,10,1,100,-0.1255259446163881,-10,-1,-100,19228.037689326564,0.0119994248482888,0.021253156057856836,0.9997021142124742,59.54269426420917,3.632384008201286,278.6160150946703,-83.25648174452064,-131.72906494140625,4761.76025390625,True
1599385804.417618,0.0,10,0.5,0.5,2.444604427719116,-0.05075,-0.0155,-0.5,0.19312242730072948,10,1,100,-0.25160309095904243,-10,-1,-100,19224.69649415335,0.01313252001455386,0.020872427931075594,0.9996958930946597,59.4790520568137,3.629667043884127,279.59188367347747,-83.62100159898304,-131.1815185546875,4761.76025390625,True
1599385804.4515324,0.0,10,0.5,0.5,1.9689862869262695,-0.05075,-0.0155,-0.5,0.16622779837009505,10,1,100,-0.3030320900733665,-10,-1,-100,19219.657363071456,0.014617960022699371,0.020284427988437503,0.9996873797472672,59.37074076925798,3.624854926626978,280.99071305084357,-84.16776895773714,-129.80747985839844,4761.76025390625,True
1599385804.4853961,0.0,10,0.5,0.5,1.9499479026794435,-0.05075,-0.0155,-0.5,0.18328808742973826,10,1,100,-0.2471705235499061,-10,-1,-100,19216.27971688041,0.015449685123560012,0.019907789121771057,0.9996824431597595,59.281813997070195,3.620682934528214,281.84061833948334,-84.53227414412854,-128.522705078125,4761.76025390625,True
1599385804.520462,0.0,10,0.5,0.5,2.5918758697509765,-0.05075,-0.0155,-0.5,0.22060488033885928,10,1,100,-0.16527385917034823,-10,-1,-100,19216.27971688041,0.015449685123560012,0.019907789121771057,0.9996824431597595,59.281813997070195,3.620682934528214,281.84061833948334,-84.53227414412854,-128.522705078125,4761.76025390625,True
1599385804.5525281,0.0,10,0.5,0.5,1.2221897693634034,-0.05075,-0.0155,-0.5,0.1601972648639216,10,1,100,-0.2777836958027382,-10,-1,-100,19211.185910126078,0.01646411435743218,0.019361248083743204,0.9996769853362961,59.104771795910565,3.611877868560445,282.90061420896586,-85.07902614505218,-126.04264068603516,4761.76025390625,True
1599385804.586175,0.0,10,0.5,0.5,1.341004928970337,-0.05075,-0.0155,-0.5,0.17000794801769625,10,1,100,-0.23785971308992604,-10,-1,-100,19207.771813785308,0.01701483925790223,0.01895650861518863,0.9996755203695596,58.941847895128205,3.603358048137946,283.38603843624605,-85.44352713433608,-124.02169799804688,4761.76025390625,True
1599385804.619496,0.0,10,0.5,0.5,1.7218160556793212,-0.05075,-0.0155,-0.5,0.19094671905292676,10,1,100,-0.20739870714742628,-10,-1,-100,19206.059298128588,0.017230937374156305,0.01878190199100995,0.9996751147021756,58.84166706706741,3.597983262772603,283.5362498768759,-85.62577870477762,-122.90032958984375,4761.76025390625,True
1599385804.6544764,0.0,10,0.5,0.5,2.2686955722808837,-0.05075,-0.0155,-0.5,0.20806147364780433,10,1,100,-0.1866511966502016,-10,-1,-100,19206.059298128588,0.017230937374156305,0.01878190199100995,0.9996751147021756,58.84166706706741,3.597983262772603,283.5362498768759,-85.62577870477762,-122.90032958984375,4761.76025390625,True
1599385804.6855485,0.0,10,0.5,0.5,0.8980412433624272,-0.05075,-0.0155,-0.5,0.16629612941801108,10,1,100,-0.2266411023555672,-10,-1,-100,19202.623331538984,0.0175879626085158,0.01840500270748213,0.9996759072052397,58.59556405874742,3.5844929272587063,283.6095430551209,-85.9902864372688,-120.43722534179688,4761.76025390625,True
1599385804.7187605,0.0,10,0.5,0.5,-0.2261719940185547,-0.05075,-0.0155,-0.5,0.13513259962507657,10,1,100,-0.229294473562353,-10,-1,-100,19197.442042621784,0.017931572070940458,0.017781651409203226,0.9996810849447071,58.08004637278662,3.5554198946599302,282.9885412292247,-86.5370683501806,-116.1916275024414,4761.76025390625,True
1599385804.7517302,0.0,10,0.5,0.5,1.872543897628784,-0.05075,-0.0155,-0.5,0.19712057898810148,10,1,100,-0.19552674204215223,-10,-1,-100,19197.442042621784,0.017931572070940458,0.017781651409203226,0.9996810849447071,58.08004637278662,3.5554198946599302,282.9885412292247,-86.5370683501806,-116.1916275024414,4761.76025390625,True
1599385804.7876725,0.0,10,0.5,0.5,0.09056689071655288,-0.05075,-0.0155,-0.5,0.14900704409522486,10,1,100,-0.2060722114154956,-10,-1,-100,19193.969623557874,0.018023077199737773,0.017347065434287868,0.9996870750435214,57.61221541286722,3.5284785729433796,281.950005887778,-86.90161141686332,-112.9982681274414,4761.76025390625,True
1599385804.8191957,0.0,10,0.5,0.5,-2.0453948657989502,-0.05075,-0.0155,-0.5,0.08688023674307022,10,1,100,-0.1844047903349002,-10,-1,-100,19186.981036627898,0.01790619156411443,0.016389868447121727,0.9997053268418425,56.43270786952302,3.459564150354864,278.61267936746304,-87.63077386174311,-106.26819610595703,4761.76025390625,True
1599385804.852244,0.0,10,0.5,0.5,1.285146656036377,-0.05075,-0.0155,-0.5,0.18224814339221937,10,1,100,-0.1963390045412899,-10,-1,-100,19186.981036627898,0.01790619156411443,0.016389868447121727,0.9997053268418425,56.43270786952302,3.459564150354864,278.61267936746304,-87.63077386174311,-106.26819610595703,4761.76025390625,True
1599385804.8852925,0.0,10,0.5,0.5,-1.6808713542938232,-0.05075,-0.0155,-0.5,0.0955017121213935,10,1,100,-0.16023759601284393,-10,-1,-100,19181.70131229679,0.017575763753455327,0.015604462636182082,0.9997237584824714,55.43180511254493,3.4004650185846046,275.4686943160809,-88.17772111210786,-100.9454116821289,4761.76025390625,True
1599385804.9222517,0.0,10,0.5,0.5,0.9416201526641846,-0.05075,-0.0155,-0.5,0.17366661467060188,10,1,100,-0.19339154201835662,-10,-1,-100,19181.70131229679,0.017575763753455327,0.015604462636182082,0.9997237584824714,55.43180511254493,3.4004650185846046,275.4686943160809,-88.17772111210786,-100.9454116821289,4761.76025390625,True
1599385804.9492123,0.0,10,0.5,0.5,-0.07545725708007811,-0.05075,-0.0155,-0.5,0.14057217758894883,10,1,100,-0.1760510478552459,-10,-1,-100,19179.93411116372,0.017417612966067454,0.015306651431784333,0.9997311304448362,55.12166481722166,3.382119049179629,274.5239408456683,-88.36005164762916,-99.16364288330078,4761.76025390625,True
1599385804.9747112,0.0,10,0.5,0.5,-3.297482817459106,-0.05075,-0.0155,-0.5,0.02943390612920982,10,1,100,-0.10147683677800116,-10,-1,-100,19172.828837397043,0.016595722444474516,0.014028725369569867,0.9997638605496055,53.64704863400049,3.293781306897935,269.5048495504488,-89.08944997792122,-91.76261138916016,4761.76025390625,True
1599385805.0016723,0.0,10,0.5,0.5,0.3547694664001465,-0.05075,-0.0155,-0.5,0.1567511946885125,10,1,100,-0.18360236744432676,-10,-1,-100,19172.828837397043,0.016595722444474516,0.014028725369569867,0.9997638605496055,53.64704863400049,3.293781306897935,269.5048495504488,-89.08944997792122,-91.76261138916016,4761.76025390625,True
1599385805.0256145,0.0,10,0.5,0.5,-1.8061382804870605,-0.05075,-0.0155,-0.5,0.07804411436068412,10,1,100,-0.12642497338542724,-10,-1,-100,19169.254316897597,0.01607682998954274,0.013317184891442256,0.9997820703153536,53.04506388264177,3.257492247093262,267.63151101760894,-89.45419277299621,-87.91973876953125,4761.76025390625,True
1599385805.0525522,0.0,10,0.5,0.5,0.07147660179138185,-0.05075,-0.0155,-0.5,0.14875171552166908,10,1,100,-0.1781287446704651,-10,-1,-100,19169.254316897597,0.01607682998954274,0.013317184891442256,0.9997820703153536,53.04506388264177,3.257492247093262,267.63151101760894,-89.45419277299621,-87.91973876953125,4761.76025390625,True
1599385805.0855231,0.0,10,0.5,0.5,-3.0515563430786132,-0.05075,-0.0155,-0.5,0.02244859050718448,10,1,100,-0.08068625999569679,-10,-1,-100,19163.865183647955,0.015192675348937026,0.012173033269963088,0.9998104819798351,55.18196339792402,3.3892200129114167,280.20985767451776,-90.00120843116582,-82.32879638671875,4761.76025390625,True
1599385805.1198378,0.0,10,0.5,0.5,-0.3036228328704834,-0.05075,-0.0155,-0.5,0.1363463494386688,10,1,100,-0.16881868387118812,-10,-1,-100,19163.865183647955,0.015192675348937026,0.012173033269963088,0.9998104819798351,55.18196339792402,3.3892200129114167,280.20985767451776,-90.00120843116582,-82.32879638671875,4761.76025390625,True
1599385805.155666,0.0,10,0.5,0.5,-3.3144561973571776,-0.05075,-0.0155,-0.5,-0.004075697780739948,10,1,100,-0.057245740540293716,-10,-1,-100,19158.44323558116,0.014180842697033602,0.010900302690856789,0.9998400307557452,57.07759161817979,3.5056370338626075,291.6951118965466,-90.54807469411558,-76.92938232421875,4761.76025390625,True
1599385805.185712,0.0,10,0.5,0.5,-0.6602243274688722,-0.05075,-0.0155,-0.5,0.12264840355426346,10,1,100,-0.15805647084392804,-10,-1,-100,19158.44323558116,0.014180842697033602,0.010900302690856789,0.9998400307557452,57.07759161817979,3.5056370338626075,291.6951118965466,-90.54807469411558,-76.92938232421875,4761.76025390625,True
1599385805.219719,0.0,10,0.5,0.5,-2.5946020736694337,-0.05075,-0.0155,-0.5,0.018807422189515366,10,1,100,-0.07570923614191773,-10,-1,-100,19154.810377329704,0.013435317764339346,0.009960570278400284,0.9998601298563217,58.20917617833113,3.5749208627122155,298.74243875370723,-90.91257298836132,-73.48471069335938,4761.76025390625,True
1599385805.2529,0.0,10,0.5,0.5,-1.8259847713470458,-0.05075,-0.0155,-0.5,0.06273913963731231,10,1,100,-0.10892478526702028,-10,-1,-100,19152.988481194596,0.013063291404835605,0.00951077814601778,0.9998694392353082,58.73708757421314,3.6071899651380006,302.0897398734368,-91.09479956421636,-71.830322265625,4761.76025390625,True
1599385805.2883317,0.0,10,0.5,0.5,-4.332076699066162,-0.05075,-0.0155,-0.5,-0.1097800900631062,10,1,100,0.03130080847377195,-10,-1,-100,19145.664457196835,0.01145426597269885,0.007538788549562397,0.9999059788091238,60.551128676418,3.71781250840618,314.05032755868285,-91.82356943994144,-65.85498046875,4761.76025390625,True
1599385805.3187053,0.0,10,0.5,0.5,-1.3845626285552979,-0.05075,-0.0155,-0.5,0.08676987590043143,10,1,100,-0.129087589092726,-10,-1,-100,19145.664457196835,0.01145426597269885,0.007538788549562397,0.9999059788091238,60.551128676418,3.71781250840618,314.05032755868285,-91.82356943994144,-65.85498046875,4761.76025390625,True
1599385805.3522434,0.0,10,0.5,0.5,-2.837478588867188,-0.05075,-0.0155,-0.5,-0.02976941516599059,10,1,100,-0.0346664285816011,-10,-1,-100,19141.9805848276,0.010600565837572056,0.006485240391522203,0.9999227818491723,61.29694097325659,3.7631834073996058,319.25038787960955,-92.18788159680669,-63.289825439453125,4761.76025390625,True
1599385805.3853562,0.0,10,0.5,0.5,-3.407201013183594,-0.05075,-0.0155,-0.5,-0.09517561148198149,10,1,100,0.02493618564932966,-10,-1,-100,19136.427455816185,0.009287611280041028,0.004939078412703856,0.9999446713599428,62.25071778677334,3.8211303873590254,326.2474539829281,-92.73427297234625,-59.99591064453125,4761.76025390625,True
1599385805.4217675,0.0,10,0.5,0.5,-1.8035255493164064,-0.05075,-0.0155,-0.5,0.05860277575197943,10,1,100,-0.10568034823282298,-10,-1,-100,19136.427455816185,0.009287611280041028,0.004939078412703856,0.9999446713599428,62.25071778677334,3.8211303873590254,326.2474539829281,-92.73427297234625,-59.99591064453125,4761.76025390625,True
1599385805.4527707,0.0,10,0.5,0.5,-2.843519108581543,-0.05075,-0.0155,-0.5,-0.05682163900074594,10,1,100,-0.005552827317438072,-10,-1,-100,19132.707158201956,0.008382729329963798,0.0038963418739129518,0.9999572732717045,62.79789172732898,3.854347229508407,330.4806385660562,-93.09848888468308,-58.170440673828125,4761.76025390625,True
1599385805.485819,0.0,10,0.5,0.5,-2.409881727600098,-0.05075,-0.0155,-0.5,-0.008827316653876052,10,1,100,-0.04498119834045755,-10,-1,-100,19130.841546297655,0.007924739971938287,0.0033922358521619018,0.9999628449259004,63.04967777814542,3.869627288918548,332.49141035012826,-93.28058476711422,-57.3685302734375,4761.76025390625,True
1599385805.5205905,0.0,10,0.5,0.5,-3.1186102966308593,-0.05075,-0.0155,-0.5,-0.13757612377886638,10,1,100,0.06619663024018828,-10,-1,-100,19125.222860988113,0.0065033658436593105,0.001770339464741667,0.9999772858074744,63.73349998152291,3.9111103285409285,338.1780566844744,-93.82682854461135,-55.408721923828125,4761.76025390625,True
1599385805.557565,0.0,10,0.5,0.5,-2.1720631454467774,-0.05075,-0.0155,-0.5,0.0237005186405456,10,1,100,-0.07517303490237193,-10,-1,-100,19125.222860988113,0.0065033658436593105,0.001770339464741667,0.9999772858074744,63.73349998152291,3.9111103285409285,338.1780566844744,-93.82682854461135,-55.408721923828125,4761.76025390625,True
1599385805.593951,0.0,10,0.5,0.5,-3.069468577575684,-0.05075,-0.0155,-0.5,-0.20456068362538976,10,1,100,0.14148112758760384,-10,-1,-100,19117.680301937973,0.00454008432276924,-0.00029731670966351014,0.9999896495649924,64.51534664951751,3.9584733407254094,345.1375949784052,-94.55506248770956,-53.830169677734375,4761.76025390625,True
1599385805.6238995,0.0,10,0.5,0.5,-2.3080926910400392,-0.05075,-0.0155,-0.5,0.001224124329559837,10,1,100,-0.05399470379319658,-10,-1,-100,19117.680301937973,0.00454008432276924,-0.00029731670966351014,0.9999896495649924,64.51534664951751,3.9584733407254094,345.1375949784052,-94.55506248770956,-53.830169677734375,4761.76025390625,True
1599385805.6538267,0.0,10,0.5,0.5,-2.5165052642822268,-0.05075,-0.0155,-0.5,-0.11926272849459825,10,1,100,0.0590097462856702,-10,-1,-100,19113.8871768408,0.0035190567599158416,-0.0013855280032838329,0.9999928482502625,64.86237203189087,3.9794383550325385,348.40855002856136,-94.91914508103949,-53.485595703125,4761.76025390625,True
1599385805.6892953,0.0,10,0.5,0.5,-2.3979807739257812,-0.05075,-0.0155,-0.5,-0.06161299681212914,10,1,100,0.01365625413874745,-10,-1,-100,19111.985153128393,0.00301036818521458,-0.001842609512595456,0.9999937712173878,65.02568026788666,3.9892813857470664,349.9951698246554,-95.10117858605379,-53.42279052734375,4761.76025390625,True
1599385805.7217572,0.0,10,0.5,0.5,-2.3282896011352543,-0.05075,-0.0155,-0.5,-0.12482611953059528,10,1,100,0.07837689368179793,-10,-1,-100,19108.17018418922,0.0019664547556878446,-0.002825232136770153,0.999994075541984,65.33166744518394,4.00766237077169,353.0684473641579,-95.46523106876496,-53.52008056640625,4761.76025390625,True
1599385805.7536957,0.0,10,0.5,0.5,-2.171112713623047,-0.05075,-0.0155,-0.5,-0.12898188726038962,10,1,100,0.09143143776789614,-10,-1,-100,19104.34065371356,0.0009054204703575133,-0.0037492466739730314,0.9999925616539103,65.6077804606559,4.024143843333704,355.99416079295173,-95.82926588048346,-53.912017822265625,4761.76025390625,True
1599385805.7873528,0.0,10,0.5,0.5,-1.7479928131103515,-0.05075,-0.0155,-0.5,-0.18527030325120225,10,1,100,0.16492297117445504,-10,-1,-100,19098.56905634096,-0.0007196408283572472,-0.005093074284904239,0.9999867712682037,65.95468124823407,4.044574212916208,360.0405584000585,-96.37528949040758,-55.05322265625,4761.76025390625,True
1599385805.8236222,0.0,10,0.5,0.5,-2.0328746948242187,-0.05075,-0.0155,-0.5,-0.09735949206776438,10,1,100,0.06348774885178685,-10,-1,-100,19096.63791055628,-0.0012665560150206632,-0.005507374360302431,0.9999840322042729,66.04847125833393,4.049992240911585,361.27563171798045,-96.55729112952557,-55.580780029296875,4761.76025390625,True
1599385805.8542817,0.0,10,0.5,0.5,-2.299424394226074,-0.05075,-0.0155,-0.5,-0.05681944554919159,10,1,100,0.009715359784141134,-10,-1,-100,19096.63791055628,-0.0012665560150206632,-0.005507374360302431,0.9999840322042729,66.04847125833393,4.049992240911585,361.27563171798045,-96.55729112952557,-55.580780029296875,4761.76025390625,True
1599385805.8872175,0.0,10,0.5,0.5,-1.5965346267700196,-0.05075,-0.0155,-0.5,-0.1434683117721139,10,1,100,0.1313001093012751,-10,-1,-100,19092.76469877013,-0.002364808354395808,-0.006288475222488048,0.9999774311257346,66.19540901677469,4.0582479830161,363.52988273613727,-96.92128754069388,-56.856536865234375,4761.76025390625,True
1599385805.9208548,0.0,10,0.5,0.5,-0.873731820678711,-0.05075,-0.0155,-0.5,-0.19114898850067485,10,1,100,0.20777135121902082,-10,-1,-100,19086.927581785247,-0.004050350703809033,-0.007424701417746227,0.9999642335943988,66.2896927471591,4.062670168337955,366.229663444739,-97.46727229892542,-59.32305908203125,4761.76025390625,True
1599385805.956269,0.0,10,0.5,0.5,-1.564637351989746,-0.05075,-0.0155,-0.5,-0.11741902888556799,10,1,100,0.10263889897333663,-10,-1,-100,19084.97459644219,-0.004619102878290674,-0.007780882521745343,0.9999590600398511,66.28027093809021,4.061580414578047,366.9057533809102,-97.64926698940681,-60.2923583984375,4761.76025390625,True
1599385805.9871886,0.0,10,0.5,0.5,-0.20610408325195317,-0.05075,-0.0155,-0.5,-0.17990770640649628,10,1,100,0.22911514472451466,-10,-1,-100,19079.093800558825,-0.006277607828101911,-0.00866595917028745,0.9999427447567263,66.09903982723874,4.048783030235898,368.08404171861184,-98.195260696624,-63.620849609375,4761.76025390625,True
1599385806.0214546,0.0,10,0.5,0.5,-1.8546400451660157,-0.05075,-0.0155,-0.5,-0.09212808466898598,10,1,100,0.06424431620219272,-10,-1,-100,19079.093800558825,-0.006277607828101911,-0.00866595917028745,0.9999427447567263,66.09903982723874,4.048783030235898,368.08404171861184,-98.195260696624,-63.620849609375,4761.76025390625,True
1599385806.053241,0.0,10,0.5,0.5,-1.1522779998779296,-0.05075,-0.0155,-0.5,-0.12491975137982408,10,1,100,0.12733865185595733,-10,-1,-100,19077.126255209325,-0.006842749083124029,-0.008957862186151713,0.9999364647266542,65.98139132392244,4.040971888693647,368.15587586329224,-98.37726452946599,-64.867431640625,4761.76025390625,True
1599385806.0902286,0.0,10,0.5,0.5,1.3116505889892578,-0.05075,-0.0155,-0.5,-0.2013298750052817,10,1,100,0.3147142393851018,-10,-1,-100,19069.219670548104,-0.009051919925373802,-0.009912290933487583,0.9999099005581025,65.17231932619586,3.988973738844566,366.5197836066171,-99.10533419499023,-70.44097900390625,4761.76025390625,True
1599385806.120747,0.0,10,0.5,0.5,0.30231475982666,-0.05075,-0.0155,-0.5,-0.14711315631267463,10,1,100,0.21285775046167094,-10,-1,-100,19065.244534870144,-0.010125236845937196,-0.010281471402715115,0.9998958800418215,64.53454648973968,3.948805124506044,364.36189244901385,-99.46941506133766,-73.62176513671875,4761.76025390625,True
1599385806.1543522,0.0,10,0.5,0.5,-1.2592970657348634,-0.05075,-0.0155,-0.5,-0.11071394910170253,10,1,100,0.10646661800708954,-10,-1,-100,19065.244534870144,-0.010125236845937196,-0.010281471402715115,0.9998958800418215,64.53454648973968,3.948805124506044,364.36189244901385,-99.46941506133766,-73.62176513671875,4761.76025390625,True
1599385806.1882992,0.0,10,0.5,0.5,1.355416583251953,-0.05075,-0.0155,-0.5,-0.15427267718869347,10,1,100,0.2711367139043297,-10,-1,-100,19059.254522086587,-0.011614184371520364,-0.010673119751649203,0.9998755898791365,63.30685624938207,3.872346079550596,359.53762144365885,-100.01561541516205,-78.31854248046875,4761.76025390625,True
1599385806.2257543,0.0,10,0.5,0.5,-0.9577285568237305,-0.05075,-0.0155,-0.5,-0.11562441683441936,10,1,100,0.12327672418166283,-10,-1,-100,19059.254522086587,-0.011614184371520364,-0.010673119751649203,0.9998755898791365,63.30685624938207,3.872346079550596,359.53762144365885,-100.01561541516205,-78.31854248046875,4761.76025390625,True
1599385806.2556741,0.0,10,0.5,0.5,0.8211031036376952,-0.05075,-0.0155,-0.5,-0.13947460809294354,10,1,100,0.2342083567677251,-10,-1,-100,19055.242971652304,-0.012614245235014454,-0.010885953631700186,0.999861178779674,62.40625873497706,3.8167012996697993,355.81058321045765,-100.3798041216347,-81.48797607421875,4761.76025390625,True
1599385806.288589,0.0,10,0.5,0.5,1.8512900619506836,-0.05075,-0.0155,-0.5,-0.13602972219812884,10,1,100,0.2808984308147561,-10,-1,-100,19049.198329186882,-0.013940061334499175,-0.011044975239780987,0.9998418290969543,61.633364893762966,3.769277130425281,353.46335719194263,-100.9261590327706,-86.17349243164062,4761.76025390625,True
1599385806.5169432,0.0,10,0.5,0.5,-0.45135235900878906,-0.05075,-0.0155,-0.5,-0.12045397066185226,10,1,100,0.1492489167119048,-10,-1,-100,19049.198329186882,-0.013940061334499175,-0.011044975239780987,0.9998418290969543,61.633364893762966,3.769277130425281,353.46335719194263,-100.9261590327706,-86.17349243164062,4761.76025390625,True
1599385806.5438704,0.0,10,0.5,0.5,1.2420562255859375,-0.05075,-0.0155,-0.5,-0.12466489424728532,10,1,100,0.23894685148269076,-10,-1,-100,19045.15035683592,-0.014748531238318686,-0.011081093621403566,0.9998298306164236,62.984242752447685,3.8522770811763323,362.61557986268605,-101.29034120415557,-89.18475341796875,4761.76025390625,True
1599385806.5769367,0.0,10,0.5,0.5,2.0372417446136475,-0.05075,-0.0155,-0.5,-0.11726388318405592,10,1,100,0.27913192175793916,-10,-1,-100,19039.051089451765,-0.01584112185937485,-0.011044451018257356,0.999813522092966,64.73940869800774,3.960858487178212,374.88889096872214,-101.83648832573792,-93.29041290283203,4761.76025390625,True
1599385806.6357377,0.0,10,0.5,0.5,0.028467623138427767,-0.05075,-0.0155,-0.5,-0.1211368023818875,10,1,100,0.170772696929948,-10,-1,-100,19039.051089451765,-0.01584112185937485,-0.011044451018257356,0.999813522092966,64.73940869800774,3.960858487178212,374.88889096872214,-101.83648832573792,-93.29041290283203,4761.76025390625,True
1599385806.693583,0.0,10,0.5,0.5,2.8858182991027834,-0.05075,-0.0155,-0.5,-0.09960419116421379,10,1,100,0.30226411336813624,-10,-1,-100,19030.867769659846,-0.017030326370691105,-0.010847670770746895,0.9997961272292253,66.74376883882135,4.086114326928381,389.4789697765734,-102.56446585437304,-98.41421508789062,4761.76025390625,True
1599385806.7324796,0.0,10,0.5,0.5,1.634744734954834,-0.05075,-0.0155,-0.5,-0.10197422189326452,10,1,100,0.24102179769540047,-10,-1,-100,19026.75427362311,-0.0175483957025676,-0.010689810643848727,0.9997888685900962,67.65705378903493,4.143644731354151,396.3212067481497,-102.92836488873672,-100.72451782226562,4761.76025390625,True
1599385806.7653916,0.0,10,0.5,0.5,0.5216026344299317,-0.05075,-0.0155,-0.5,-0.11780106850719471,10,1,100,0.18995718039341405,-10,-1,-100,19026.75427362311,-0.0175483957025676,-0.010689810643848727,0.9997888685900962,67.65705378903493,4.143644731354151,396.3212067481497,-102.92836488873672,-100.72451782226562,4761.76025390625,True
1599385806.8012948,0.0,10,0.5,0.5,1.731772537612915,-0.05075,-0.0155,-0.5,-0.09965592454863842,10,1,100,0.23185746779305413,-10,-1,-100,19022.626223419677,-0.01792391266862701,-0.01052483961614167,0.9997839572156086,68.54661482624756,4.199893169417146,403.0651303830897,-103.29220561308017,-102.85877227783203,4761.76025390625,True
1599385806.832222,0.0,10,0.5,0.5,2.188193305206299,-0.05075,-0.0155,-0.5,-0.08258280413065619,10,1,100,0.24639654560342922,-10,-1,-100,19016.406864005956,-0.018391729046687063,-0.010219790569094968,0.9997786255883836,69.70089593354011,4.273455846293624,412.19141666787107,-103.83786402335603,-105.55602264404297,4761.76025390625,True
1599385806.8621426,0.0,10,0.5,0.5,1.6916955127716065,-0.05075,-0.0155,-0.5,-0.08934810394187252,10,1,100,0.22178029750726086,-10,-1,-100,19012.24243772414,-0.01858798033149315,-0.010004581581938666,0.9997771728413118,70.33024278420002,4.313997294784752,417.48704887664525,-104.20157677227263,-107.0354995727539,4761.76025390625,True
1599385806.8880756,0.0,10,0.5,0.5,0.9842931594848633,-0.05075,-0.0155,-0.5,-0.11076496329171855,10,1,100,0.2026199609263516,-10,-1,-100,19012.24243772414,-0.01858798033149315,-0.010004581581938666,0.9997771728413118,70.33024278420002,4.313997294784752,417.48704887664525,-104.20157677227263,-107.0354995727539,4761.76025390625,True
1599385806.914164,0.0,10,0.5,0.5,1.364717960357666,-0.05075,-0.0155,-0.5,-0.09876031256008061,10,1,100,0.210518586636876,-10,-1,-100,19010.15476921166,-0.018655560638864286,-0.00989639420588545,0.9997769908529459,70.60445745886935,4.331803842776515,419.904985250998,-104.38341744721903,-107.66752624511719,4761.76025390625,True
1599385806.9630287,0.0,10,0.5,0.5,1.8789220825195312,-0.05075,-0.0155,-0.5,-0.07079156434705888,10,1,100,0.21475528823322193,-10,-1,-100,19003.869944591774,-0.01875196090607706,-0.009544857697914619,0.9997786053190495,71.27476187776038,4.375918100931182,426.2853817900989,-104.92888537459642,-109.12294006347656,4761.76025390625,True
1599385806.991978,0.0,10,0.5,0.5,1.3620967636108399,-0.05075,-0.0155,-0.5,-0.0925372349130045,10,1,100,0.20472410236999206,-10,-1,-100,19001.767730636755,-0.018745758696562306,-0.009424330235195498,0.9997798650355529,71.45102467662893,4.387736910335954,428.13987310093825,-105.1106922768914,-109.4612808227539,4761.76025390625,True
1599385807.0179162,0.0,10,0.5,0.5,1.3637211448669433,-0.05075,-0.0155,-0.5,-0.09102218713241114,10,1,100,0.2028581194821074,-10,-1,-100,18999.661880722386,-0.018720516264534318,-0.009302459489975505,0.9997814793834835,71.60526654395072,4.398207354099595,429.8663177110181,-105.29249246229625,-109.72588348388672,4761.76025390625,True
1599385807.0428178,0.0,10,0.5,0.5,1.3541051734924319,-0.05075,-0.0155,-0.5,-0.09013582057607153,10,1,100,0.20088905462735424,-10,-1,-100,18997.552394893137,-0.018678131473198533,-0.009185014763154944,0.9997833579873545,71.73791307017746,4.407355115599465,431.4665494373012,-105.47428656660718,-109.91680908203125,4761.76025390625,True
1599385807.072735,0.0,10,0.5,0.5,1.33739362449646,-0.05075,-0.0155,-0.5,-0.08853546619412311,10,1,100,0.19860004274627882,-10,-1,-100,18995.43927331001,-0.018617763613273833,-0.009065066149737351,0.9997855787386318,71.84989289145742,4.415237128880584,432.94545684873816,-105.65607518817176,-110.03392791748047,4761.76025390625,True
1599385807.0996974,0.0,10,0.5,0.5,1.2429293636322023,-0.05075,-0.0155,-0.5,-0.0585666975898175,10,1,100,0.17337723603464178,-10,-1,-100,18989.078094740864,-0.018332613345135855,-0.008685055645222317,0.9997942213757675,72.06385252624597,4.43141314216323,436.6597054791673,-106.20141433316259,-109.94253540039062,4761.76025390625,True
1599385807.1256201,0.0,10,0.5,0.5,1.29960545501709,-0.05075,-0.0155,-0.5,-0.09638376964422897,10,1,100,0.20193313291609052,-10,-1,-100,18989.078094740864,-0.018332613345135855,-0.008685055645222317,0.9997942213757675,72.06385252624597,4.43141314216323,436.6597054791673,-106.20141433316259,-109.94253540039062,4761.76025390625,True
1599385807.155551,0.0,10,0.5,0.5,1.2084038917541504,-0.05075,-0.0155,-0.5,-0.08214894144192622,10,1,100,0.18767221540939166,-10,-1,-100,18986.950430939673,-0.018203022382076366,-0.008557043329677631,0.9997976930287505,72.09462511057211,4.434322395277747,437.6554245741419,-106.38318721077569,-109.76459503173828,4761.76025390625,True
1599385807.1907642,0.0,10,0.5,0.5,0.764056509399414,-0.05075,-0.0155,-0.5,-0.051916675858272976,10,1,100,0.14752198371289432,-10,-1,-100,18980.545627176878,-0.017720560271099053,-0.00816714566319676,0.9998096216157326,72.06161628405435,4.435374326336875,439.8836835406528,-106.92849391346863,-108.78856658935547,4761.76025390625,True
1599385807.2216883,0.0,10,0.5,0.5,1.2547879844665528,-0.05075,-0.0155,-0.5,-0.09072269891448585,10,1,100,0.1956814528045863,-10,-1,-100,18980.545627176878,-0.017720560271099053,-0.00816714566319676,0.9998096216157326,72.06161628405435,4.435374326336875,439.8836835406528,-106.92849391346863,-108.78856658935547,4761.76025390625,True
1599385807.2553072,0.0,10,0.5,0.5,-0.00863377914428698,-0.05075,-0.0155,-0.5,-0.03097120458144466,10,1,100,0.10231286088212324,-10,-1,-100,18971.95499374671,-0.016872604890320084,-0.00762552230429883,0.9998285686125405,71.70300111283113,4.417469669537976,440.9219295722135,-107.65556723554593,-106.49140930175781,4761.76025390625,True
1599385807.2883124,0.0,10,0.5,0.5,0.7303122676849365,-0.05075,-0.0155,-0.5,-0.06904022133869983,10,1,100,0.1585482704267575,-10,-1,-100,18969.798246777384,-0.016614675863668386,-0.007480964253451773,0.9998339800785847,71.55694719263633,4.40951978263976,440.8300351362298,-107.83733982947653,-105.75504302978516,4761.76025390625,True
1599385807.3242497,0.0,10,0.5,0.5,1.0927507350921633,-0.05075,-0.0155,-0.5,-0.08330168982523115,10,1,100,0.18412806480863797,-10,-1,-100,18969.798246777384,-0.016614675863668386,-0.007480964253451773,0.9998339800785847,71.55694719263633,4.40951978263976,440.8300351362298,-107.83733982947653,-105.75504302978516,4761.76025390625,True
1599385807.3551638,0.0,10,0.5,0.5,-0.30242252693176264,-0.05075,-0.0155,-0.5,-0.035129140802902206,10,1,100,0.0943405490381391,-10,-1,-100,18963.306192885153,-0.015800340120664638,-0.007044687894372895,0.999850349614652,70.96656366875223,4.376240193142844,439.594399513658,-108.3826793137686,-103.23299407958984,4761.76025390625,True
1599385807.3882113,0.0,10,0.5,0.5,-0.10973900032043449,-0.05075,-0.0155,-0.5,-0.044433874776878254,10,1,100,0.10752640368785527,-10,-1,-100,18958.959978150902,-0.015182522479615499,-0.0067346072648544085,0.9998620585241468,70.46303943820243,4.34719234935136,438.0672752851765,-108.74626348539648,-101.31201171875,4761.76025390625,True
1599385807.4223404,0.0,10,0.5,0.5,-0.34061091194152826,-0.05075,-0.0155,-0.5,-0.040113228010794776,10,1,100,0.09797793743822025,-10,-1,-100,18954.59921924793,-0.014537188786513834,-0.006415555775495828,0.9998737474232818,69.88728556278306,4.313572239549343,436.0685761028088,-109.10987283345325,-99.17339324951172,4761.76025390625,True
1599385807.4582443,0.0,10,0.5,0.5,0.7120061523437501,-0.05075,-0.0155,-0.5,-0.07179142695968017,10,1,100,0.16213176429252446,-10,-1,-100,18954.59921924793,-0.014537188786513834,-0.006415555775495828,0.9998737474232818,69.88728556278306,4.313572239549343,436.0685761028088,-109.10987283345325,-99.17339324951172,4761.76025390625,True
1599385807.4891684,0.0,10,0.5,0.5,-0.488509428024292,-0.05075,-0.0155,-0.5,-0.035054255268582954,10,1,100,0.08677848090297742,-10,-1,-100,18950.223915134557,-0.013855609323480336,-0.0060836446690946955,0.9998854991236824,69.2795018567745,4.277815119817842,433.84505582475816,-109.4735087654053,-97.02391815185547,4761.76025390625,True
1599385807.5220733,0.0,10,0.5,0.5,-0.014670595550537069,-0.05075,-0.0155,-0.5,-0.04914958617385347,10,1,100,0.11570051051303226,-10,-1,-100,18948.030808279058,-0.013502871365412741,-0.00591229521574211,0.9998913527129691,69.00679714031592,4.261792101453815,432.9192566405241,-109.65533610794463,-95.96871948242188,4761.76025390625,True
1599385807.5551047,0.0,10,0.5,0.5,-0.6572721763610839,-0.05075,-0.0155,-0.5,-0.02658769536802233,10,1,100,0.06903978280895595,-10,-1,-100,18943.63368460152,-0.012761846323410313,-0.005553464751229889,0.999903142463146,68.44418917602927,4.228530785298004,430.94197074504257,-110.01900851980685,-93.88005828857422,4761.76025390625,True
1599385807.5913293,0.0,10,0.5,0.5,-1.3228476989746094,-0.05075,-0.0155,-0.5,-0.0008762125943185123,10,1,100,0.017646431470669327,-10,-1,-100,18937.010721822968,-0.011625482831194307,-0.004995890559105078,0.9999199414085423,67.52500920423591,4.173560600604126,427.45420544516776,-110.56456350670605,-90.81732940673828,4761.76025390625,True
1599385807.622384,0.0,10,0.5,0.5,-0.3658599815368653,-0.05075,-0.0155,-0.5,-0.03474231545524163,10,1,100,0.08707753608060254,-10,-1,-100,18934.79579341202,-0.011228387082051082,-0.004799269166586546,0.9999254423900824,67.20948709831862,4.154551558674768,426.22037517155354,-110.74642769041182,-89.81854248046875,4761.76025390625,True
1599385807.6553328,0.0,10,0.5,0.5,-0.42386677894592284,-0.05075,-0.0155,-0.5,-0.03266608492498521,10,1,100,0.08319677040420936,-10,-1,-100,18932.57722722192,-0.010837007884664228,-0.0046040855277372445,0.9999306784255402,66.88616501109902,4.134997059395975,424.93006175929474,-110.92829829885383,-88.851318359375,4761.76025390625,True
1599385807.6884093,0.0,10,0.5,0.5,-0.9318815170288086,-0.05075,-0.0155,-0.5,-0.008958253649029135,10,1,100,0.03615361647208841,-10,-1,-100,18928.12918248074,-0.010058796004001447,-0.0042137354614798376,0.99994053075991,66.25580728050639,4.096708854813532,422.4318307560147,-111.29205765363645,-87.098388671875,4761.76025390625,True
1599385807.7240717,0.0,10,0.5,0.5,-0.5208168979644776,-0.05075,-0.0155,-0.5,-0.02467315169542209,10,1,100,0.06817958609472025,-10,-1,-100,18925.89970344142,-0.009647695421892538,-0.00400430806751567,0.9999454422566997,65.9646902320295,4.07896587231431,421.32591398517735,-111.47394533658316,-86.29876708984375,4761.76025390625,True
1599385807.754988,0.0,10,0.5,0.5,-0.9701327152252197,-0.05075,-0.0155,-0.5,0.001067128236289662,10,1,100,0.01865260254241556,-10,-1,-100,18921.429831762798,-0.008828753975915963,-0.0035823990728939006,0.999954608729874,65.40840243969913,4.044923651540422,419.2609644604201,-111.83773487403698,-84.79925537109375,4761.76025390625,True
1599385807.7889035,0.0,10,0.5,0.5,-1.2684219215393067,-0.05075,-0.0155,-0.5,0.029268901650677567,10,1,100,-0.034340435737381436,-10,-1,-100,18914.697741750395,-0.007607696345039647,-0.0029450412801093127,0.9999667242904536,66.30290919411907,4.100436999799561,427.2582924015596,-112.38336029788489,-82.936767578125,4761.76025390625,True
1599385807.822103,0.0,10,0.5,0.5,-0.9073466106414796,-0.05075,-0.0155,-0.5,0.01382156816548645,10,1,100,-0.0032566017099185662,-10,-1,-100,18910.19149612065,-0.006786523801257635,-0.002509210422439049,0.9999738231362613,66.81878025193694,4.1323006787136825,432.1039496563009,-112.74705763873531,-81.94720458984375,4761.76025390625,True
1599385807.8585682,0.0,10,0.5,0.5,-0.4359340225219727,-0.05075,-0.0155,-0.5,-0.02940407417687435,10,1,100,0.07815374411606034,-10,-1,-100,18910.19149612065,-0.006786523801257635,-0.002509210422439049,0.9999738231362613,66.81878025193694,4.1323006787136825,432.1039496563009,-112.74705763873531,-81.94720458984375,4761.76025390625,True
1599385807.8885748,0.0,10,0.5,0.5,-0.9950217483520508,-0.05075,-0.0155,-0.5,0.040876451657084034,10,1,100,-0.05420936809123837,-10,-1,-100,18903.404852625332,-0.005589328551704151,-0.0018733902646697028,0.9999826247566792,67.39368147054714,4.167628364423569,438.1242096621934,-113.29253757098073,-80.97152709960938,4761.76025390625,True
1599385807.9214826,0.0,10,0.5,0.5,-0.5271912265777589,-0.05075,-0.0155,-0.5,-0.022337556671194563,10,1,100,0.06479290508693937,-10,-1,-100,18903.404852625332,-0.005589328551704151,-0.0018733902646697028,0.9999826247566792,67.39368147054714,4.167628364423569,438.1242096621934,-113.29253757098073,-80.97152709960938,4761.76025390625,True
1599385807.9554405,0.0,10,0.5,0.5,-0.723284716796875,-0.05075,-0.0155,-0.5,0.026068072505017616,10,1,100,-0.024864976107007976,-10,-1,-100,18898.862242466887,-0.004779744317467803,-0.001436177726971806,0.9999875456413426,67.63803094354522,4.182530549295381,441.2539008779609,-113.65615597211466,-80.6431884765625,4761.76025390625,True
1599385807.9922354,0.0,10,0.5,0.5,-0.620902587890625,-0.05075,-0.0155,-0.5,0.026666569621206428,10,1,100,-0.02766793987389874,-10,-1,-100,18894.30508810794,-0.004024139563703555,-0.0010363282565898331,0.9999913661249863,67.79678183996555,4.1921257850551426,443.8349273392149,-114.01975284239658,-80.55682373046875,4761.76025390625,True
1599385808.0221555,0.0,10,0.5,0.5,-0.5672814086914063,-0.05075,-0.0155,-0.5,0.011111158267354551,10,1,100,0.003084139048134024,-10,-1,-100,18892.021057110745,-0.0036229840216826822,-0.0008174849842513725,0.9999931028287541,67.83934218536558,4.194650339245171,444.88696593878853,-114.20154492154363,-80.59912109375,4761.76025390625,True
1599385808.0550673,0.0,10,0.5,0.5,-0.47606090850830085,-0.05075,-0.0155,-0.5,0.035121178892445266,10,1,100,-0.04197487398508792,-10,-1,-100,18887.44208769477,-0.0028545205122547067,-0.00040335114051306406,0.9999958445016172,67.87128960574461,4.19643173026291,446.64455956937394,-114.56511926320724,-80.82144165039062,4761.76025390625,True
1599385808.0890658,0.0,10,0.5,0.5,-0.21722168426513677,-0.05075,-0.0155,-0.5,0.06007005963396617,10,1,100,-0.08892849668263271,-10,-1,-100,18880.54636652884,-0.0017352418199876288,0.00019666858151104046,0.9999984751274851,67.79236455131364,4.191346797276215,448.4460117400658,-115.11046382348044,-81.5086669921875,4761.76025390625,True
1599385808.124025,0.0,10,0.5,0.5,-0.565934767150879,-0.05075,-0.0155,-0.5,0.00044599419699622,10,1,100,0.02229002132848225,-10,-1,-100,18880.54636652884,-0.0017352418199876288,0.00019666858151104046,0.9999984751274851,67.79236455131364,4.191346797276215,448.4460117400658,-115.11046382348044,-81.5086669921875,4761.76025390625,True
1599385808.1549425,0.0,10,0.5,0.5,-0.19851654815673836,-0.05075,-0.0155,-0.5,0.04347839233765331,10,1,100,-0.05824041776722526,-10,-1,-100,18875.931041126256,-0.001008485514140335,0.0005850161010973592,0.9999993203563338,67.66029295668622,4.183128056774706,449.11759286463763,-115.47402134532427,-82.1798095703125,4761.76025390625,True
1599385808.1884177,0.0,10,0.5,0.5,-0.10457996826171878,-0.05075,-0.0155,-0.5,0.04436174443242907,10,1,100,-0.06119105371941222,-10,-1,-100,18871.30117331969,-0.000326226762247566,0.0009432768411069409,0.9999995019023263,67.47699717334747,4.171828042941566,449.44281649787257,-115.83757857138724,-82.95901489257812,4761.76025390625,True
1599385808.2223654,0.0,10,0.5,0.5,-0.2546193283081055,-0.05075,-0.0155,-0.5,0.029858615123382636,10,1,100,-0.032892159459471985,-10,-1,-100,18868.98078610748,3.087279434730369e-05,0.0011339831680665512,0.9999993565643156,67.374230217647,4.165525901483321,449.52842908902494,-116.01935768830606,-83.39114379882812,4761.76025390625,True
1599385808.257847,0.0,10,0.5,0.5,0.6311546905517578,-0.05075,-0.0155,-0.5,0.08580821124445971,10,1,100,-0.1410060530001124,-10,-1,-100,18859.662880784832,0.001333253058579324,0.001813251272373501,0.9999974672748451,66.8472340202294,4.133424358970351,449.0708386115832,-116.74648551490249,-85.38494873046875,4761.76025390625,True
1599385808.2891238,0.0,10,0.5,0.5,-0.06435455017089847,-0.05075,-0.0155,-0.5,0.03622105394462037,10,1,100,-0.04610267637448011,-10,-1,-100,18857.324315149337,0.0016481838916387913,0.001976623899438513,0.9999966882184259,66.69907094410402,4.124458985321334,448.8390070516778,-116.92827143341188,-85.91976928710938,4761.76025390625,True
1599385808.323067,0.0,10,0.5,0.5,0.27343507385253907,-0.05075,-0.0155,-0.5,0.052953493004325336,10,1,100,-0.07917936467243054,-10,-1,-100,18852.636276812293,0.002229338244211396,0.002274155004925469,0.9999949291221463,66.38316847039316,4.105414036675756,448.2336357352963,-117.29184932022898,-87.0037841796875,4761.76025390625,True
1599385808.3563313,0.0,10,0.5,0.5,0.3210962203979492,-0.05075,-0.0155,-0.5,0.05563772127215165,10,1,100,-0.0845130263671322,-10,-1,-100,18847.933695470216,0.0028004632366765833,0.002566030373019745,0.9999927864208745,66.20835369483443,4.095223367079837,448.57052991675806,-117.65543126523544,-88.05630493164062,4761.76025390625,True
1599385808.3921769,0.0,10,0.5,0.5,-0.19360552062988282,-0.05075,-0.0155,-0.5,0.026788535998451157,10,1,100,-0.028042871846449387,-10,-1,-100,18847.933695470216,0.0028004632366765833,0.002566030373019745,0.9999927864208745,66.20835369483443,4.095223367079837,448.57052991675806,-117.65543126523544,-88.05630493164062,4761.76025390625,True
1599385808.4221747,0.0,10,0.5,0.5,0.10118560485839842,-0.05075,-0.0155,-0.5,0.0417396122647673,10,1,100,-0.05748204170716262,-10,-1,-100,18845.57695108105,0.003062951159274948,0.002699249810428498,0.999991666155602,66.4043823344567,4.107708625455746,450.6598519621892,-117.8372133323849,-88.57119750976562,4761.76025390625,True
1599385808.4551585,0.0,10,0.5,0.5,0.39183892517089847,-0.05075,-0.0155,-0.5,0.05630425612120393,10,1,100,-0.0864191293415998,-10,-1,-100,18840.852556201164,0.0035602789828781058,0.0029504891692868638,0.999989309456469,66.78267156919911,4.1319258554345435,454.7588350112534,-118.20075359303544,-89.5465087890625,4761.76025390625,True
1599385808.4893384,0.0,10,0.5,0.5,0.7144672176361084,-0.05075,-0.0155,-0.5,0.0706628956299677,10,1,100,-0.11482712172636238,-10,-1,-100,18833.738700177986,0.004265835552558031,0.003306918199612525,0.9999854333634365,67.32425614701631,4.166881360240272,460.7644637700138,-118.74600631825463,-90.99512481689453,4761.76025390625,True
1599385808.5251997,0.0,10,0.5,0.5,0.003822942352294925,-0.05075,-0.0155,-0.5,0.03529218280725309,10,1,100,-0.04479889686503966,-10,-1,-100,18833.738700177986,0.004265835552558031,0.003306918199612525,0.9999854333634365,67.32425614701631,4.166881360240272,460.7644637700138,-118.74600631825463,-90.99512481689453,4761.76025390625,True
1599385808.556157,0.0,10,0.5,0.5,0.5347878181457519,-0.05075,-0.0155,-0.5,0.05863266584311847,10,1,100,-0.09075031744491897,-10,-1,-100,18828.97795584204,0.004679401137543475,0.0035169556441581144,0.9999828669672252,67.68519171918007,4.190326175242969,464.789103943785,-119.10946940840674,-91.93658447265625,4761.76025390625,True
1599385808.5891874,0.0,10,0.5,0.5,0.5159008029937744,-0.05075,-0.0155,-0.5,0.05833070481284912,10,1,100,-0.08967480711381834,-10,-1,-100,18824.202673884458,0.005041366549662784,0.003702987336673391,0.9999804360626745,68.02237277111965,4.212409677605993,468.66745347103534,-119.47290221574,-92.73294830322266,4761.76025390625,True
1599385808.6224744,0.0,10,0.5,0.5,0.3248322784423828,-0.05075,-0.0155,-0.5,0.050188379942376196,10,1,100,-0.07390079758762928,-10,-1,-100,18821.80958168814,0.005223654916359453,0.0037963679800790706,0.9999791502923822,68.17285458315003,4.222364816284052,470.48776997571457,-119.65460810449537,-93.08832550048828,4761.76025390625,True
1599385808.6582544,0.0,10,0.5,0.5,0.52655051612854,-0.05075,-0.0155,-0.5,0.059174787838762365,10,1,100,-0.09065587555041638,-10,-1,-100,18817.012495281757,0.005538440075722925,0.003961299778523526,0.9999768166240616,68.46324170964868,4.241682320244099,474.0661771751786,-120.0179997595704,-93.75704193115234,4761.76025390625,True
1599385808.6893187,0.0,10,0.5,0.5,0.4994980995178223,-0.05075,-0.0155,-0.5,0.05863337166638661,10,1,100,-0.08861186046320242,-10,-1,-100,18812.200874082046,0.005803018172686398,0.00410478204392998,0.999974737553134,68.73124931018748,4.259688083566904,477.503320359701,-120.38136532240075,-94.29601287841797,4761.76025390625,True
1599385808.7229424,0.0,10,0.5,0.5,0.5605698333740234,-0.05075,-0.0155,-0.5,0.06481199256852836,10,1,100,-0.09809771662621243,-10,-1,-100,18804.95619148307,0.006127049176011456,0.004289990882799945,0.9999720272320722,69.07796655805053,4.283378649970826,482.29781336308525,-120.92636915128907,-94.87864685058594,4761.76025390625,True
1599385808.756466,0.0,10,0.5,0.5,0.2798274772644043,-0.05075,-0.0155,-0.5,0.04646350473250989,10,1,100,-0.06602727488764012,-10,-1,-100,18804.95619148307,0.006127049176011456,0.004289990882799945,0.9999720272320722,69.07796655805053,4.283378649970826,482.29781336308525,-120.92636915128907,-94.87864685058594,4761.76025390625,True
1599385808.791473,0.0,10,0.5,0.5,0.4393173301696777,-0.05075,-0.0155,-0.5,0.062043937019551666,10,1,100,-0.09004301574614268,-10,-1,-100,18797.678810862126,0.006342588549255355,0.004430185048070896,0.9999700720676267,69.36308543326763,4.303342338169327,486.6862737414654,-121.47132491534413,-95.15048217773438,4761.76025390625,True
