Timestamp,Input Throttle,horizon,dT,dt,Input Roll,Roll P,Roll I,Roll D,Input Pitch,Pitch P,Pitch I,Pitch D,Input Yaw,Yaw P,Yaw I,Yaw D,Altitude,Direction X,Direction Y,Direction Z,Drag X,Drag Y,Drag Z,Vertical Velocity,Roll,Mass,Has Fuel
1599386770.0173717,0.0,10,0.5,0.5,-5.634955680847169,-0.1005,-0.02275,-0.37525,-0.00017865621744462276,10,1,100,0.49817197703492644,-10,-1,-100,19348.346774218488,-0.048847738846606786,-0.00017505192601289106,0.9988062213294413,61.16633362947731,3.691903049268855,234.7101912401394,-68.84811702847918,-33.922698974609375,4761.76025390625,True
1599386770.053272,0.0,10,0.5,0.5,-5.762778382110596,-0.1005,-0.02275,-0.37525,-0.0008213589003601058,10,1,100,0.4990311237051154,-10,-1,-100,19346.966162556317,-0.04889927485891939,-0.0001664458755367993,0.9988037010414221,61.25621657593399,3.6980038401364306,235.7017689575385,-69.03057038513597,-33.92388916015625,4761.76025390625,True
1599386770.0901785,0.0,10,0.5,0.5,-5.817885050201417,-0.1005,-0.02275,-0.37525,0.023537107003730174,10,1,100,0.5090900695420528,-10,-1,-100,19341.407227410353,-0.04899311685512218,6.296972027459283e-05,0.9987991142044703,61.62102967814542,3.7227617300973344,239.7093788235081,-69.76034928990715,-34.0771484375,4761.76025390625,True
1599386770.1200912,0.0,10,0.5,0.5,-6.002620081329346,-0.1005,-0.02275,-0.37525,0.0006018443946184186,10,1,100,0.5046051816072866,-10,-1,-100,19341.407227410353,-0.04899311685512218,6.296972027459283e-05,0.9987991142044703,61.62102967814542,3.7227617300973344,239.7093788235081,-69.76034928990715,-34.0771484375,4761.76025390625,True
1599386770.1530132,0.0,10,0.5,0.5,-6.046332788848877,-0.1005,-0.02275,-0.37525,0.01302193083240848,10,1,100,0.5084962138952596,-10,-1,-100,19340.00837154442,-0.04898395067878091,0.00017582235178152558,0.9987995502914483,61.71799217043828,3.729303450396959,240.738995586837,-69.94278496180827,-34.252685546875,4761.76025390625,True
1599386770.1859233,0.0,10,0.5,0.5,-5.969255562591553,-0.1005,-0.02275,-0.37525,0.03636763098173504,10,1,100,0.5054264731598721,-10,-1,-100,19337.19971406134,-0.04890318019298644,0.0004904894523709954,0.9988034032716896,61.922218694851864,3.742999336616649,242.84525659205502,-70.30764432866133,-34.819732666015625,4761.76025390625,True
1599386770.2238162,0.0,10,0.5,0.5,-6.120646353149414,-0.1005,-0.02275,-0.37525,0.028446540123994654,10,1,100,0.5103005491076875,-10,-1,-100,19335.789912578184,-0.04882960482343252,0.0007040946365161726,0.9988068751983689,62.0286319358537,3.750096560910927,243.91876004940815,-70.49006766470694,-35.212646484375,4761.76025390625,True
1599386770.256732,0.0,10,0.5,0.5,-5.914234451293945,-0.1005,-0.02275,-0.37525,0.06616674624183473,10,1,100,0.4976098804389322,-10,-1,-100,19332.95936469396,-0.048602957858828066,0.0012405520462316834,0.9988174074964821,62.24612088559297,3.764536572067415,246.09136943894924,-70.8549008475231,-36.218414306640625,4761.76025390625,True
1599386770.2916083,0.0,10,0.5,0.5,-5.795881191253661,-0.1005,-0.02275,-0.37525,0.08694580065617227,10,1,100,0.487473711036692,-10,-1,-100,19330.114224044257,-0.0482605836620229,0.001916013320606824,0.9988329414659671,62.46303924153195,3.7788715754249265,248.2714348212251,-71.21971546010195,-37.517669677734375,4761.76025390625,True
1599386770.324517,0.0,10,0.5,0.5,-5.6451201828002935,-0.1005,-0.02275,-0.37525,0.11002643196037244,10,1,100,0.4767144776957936,-10,-1,-100,19327.254491183092,-0.047807649922135466,0.002738151115240038,0.9988528075434302,62.66843434599404,3.792409769329541,250.4151234046094,-71.58451125859928,-39.110321044921875,4761.76025390625,True
1599386770.3594625,0.0,10,0.5,0.5,-5.927286559295655,-0.1005,-0.02275,-0.37525,0.07805301591387664,10,1,100,0.4963227763254092,-10,-1,-100,19325.81915316661,-0.047530687737123274,0.0031923924634700523,0.9988646766972967,62.76280274521917,3.7986277430953135,251.4570360409863,-71.76690229156142,-40.01678466796875,4761.76025390625,True
1599386770.3953645,0.0,10,0.5,0.5,-5.286305639648438,-0.1005,-0.02275,-0.37525,0.14323120006845028,10,1,100,0.4524371106481754,-10,-1,-100,19322.93753385835,-0.046881140654691414,0.0041948067774575685,0.9988916669224019,62.925163470413025,3.8093527233098823,253.44098175396195,-72.13167137836818,-42.0499267578125,4761.76025390625,True
1599386770.4312344,0.0,10,0.5,0.5,-4.317907382202148,-0.1005,-0.02275,-0.37525,0.23137870629880825,10,1,100,0.38120396285602925,-10,-1,-100,19318.58774809481,-0.04564490390364678,0.005903468708037661,0.9989402844038477,63.068677740330386,3.8190364802367323,256.0247065107665,-72.67879703687058,-45.650238037109375,4761.76025390625,True
1599386770.464179,0.0,10,0.5,0.5,-5.001825437164307,-0.1005,-0.02275,-0.37525,0.12977707880661365,10,1,100,0.45119453268055265,-10,-1,-100,19317.130524649634,-0.04516037404923958,0.006527837032283464,0.998958421536859,63.07974675281264,3.819930094588828,256.7386111445897,-72.86116651542724,-46.997100830078125,4761.76025390625,True
1599386770.4980857,0.0,10,0.5,0.5,-3.3453886764526373,-0.1005,-0.02275,-0.37525,0.2796118725480373,10,1,100,0.31329568944544417,-10,-1,-100,19312.736970153637,-0.04346975082746467,0.00845170193623622,0.999018993561874,62.9635355086801,3.8131988169273296,258.26990047750314,-73.40826670556679,-51.479400634765625,4761.76025390625,True
1599386770.5359797,0.0,10,0.5,0.5,-4.98818090133667,-0.1005,-0.02275,-0.37525,0.08805297011120726,10,1,100,0.4818065916378038,-10,-1,-100,19312.736970153637,-0.04346975082746467,0.00845170193623622,0.999018993561874,62.9635355086801,3.8131988169273296,258.26990047750314,-73.40826670556679,-51.479400634765625,4761.76025390625,True
1599386770.5698946,0.0,10,0.5,0.5,-1.6171554466247557,-0.1005,-0.02275,-0.37525,0.3874060607966732,10,1,100,0.17401194955045313,-10,-1,-100,19306.82783475751,-0.040676557198821045,0.011165856203846032,0.9991099746022388,62.339948459689474,3.7749747700072347,258.3611469369932,-74.13774705150301,-58.485443115234375,4761.76025390625,True
1599386770.6027725,0.0,10,0.5,0.5,-4.19322727508545,-0.1005,-0.02275,-0.37525,0.1170368101924249,10,1,100,0.4525160076523542,-10,-1,-100,19306.82783475751,-0.040676557198821045,0.011165856203846032,0.9991099746022388,62.339948459689474,3.7749747700072347,258.3611469369932,-74.13774705150301,-58.485443115234375,4761.76025390625,True
1599386770.6377072,0.0,10,0.5,0.5,-3.2220237335205084,-0.1005,-0.02275,-0.37525,0.1983840470327659,10,1,100,0.36306628102444166,-10,-1,-100,19305.341432053596,-0.039870583684621846,0.011896353534978574,0.9991340317140731,62.07763546632397,3.7588350857939687,257.93426370752303,-74.32012672242594,-60.420379638671875,4761.76025390625,True
1599386770.6715915,0.0,10,0.5,0.5,0.13743102874755797,-0.1005,-0.02275,-0.37525,0.42985604997686166,10,1,100,0.0470952017001694,-10,-1,-100,19299.359342554468,-0.036273043405108646,0.014655659917123235,0.9992344459407536,60.49689020488652,3.661763111842872,253.9436903169927,-75.04972201784392,-68.8984375,4761.76025390625,True
1599386770.7025049,0.0,10,0.5,0.5,-2.976192218780518,-0.1005,-0.02275,-0.37525,0.15511716264258385,10,1,100,0.40569576899978677,-10,-1,-100,19299.359342554468,-0.036273043405108646,0.014655659917123235,0.9992344459407536,60.49689020488652,3.661763111842872,253.9436903169927,-75.04972201784392,-68.8984375,4761.76025390625,True
1599386770.7443948,0.0,10,0.5,0.5,-1.81443790512085,-0.1005,-0.02275,-0.37525,0.2293872848547181,10,1,100,0.29538128278170717,-10,-1,-100,19297.854699650896,-0.035280418661609754,0.015320421694093861,0.9992600145798775,59.95110957506995,3.628357292550077,252.29229963837477,-75.23214675620878,-71.2022705078125,4761.76025390625,True
1599386770.781322,0.0,10,0.5,0.5,-0.33893724594116215,-0.1005,-0.02275,-0.37525,0.3000776459069594,10,1,100,0.16854658162864877,-10,-1,-100,19294.834466821747,-0.03323553590430394,0.016557276032799682,0.9993103901008573,58.65520413851525,3.549263828227584,248.0915982550644,-75.59703648056197,-75.9814453125,4761.76025390625,True
1599386770.8172247,0.0,10,0.5,0.5,0.30303190307617145,-0.1005,-0.02275,-0.37525,0.3186484064435676,10,1,100,0.12247303366386758,-10,-1,-100,19291.799636908807,-0.030968982387072776,0.017840828884387993,0.9993611093867059,57.1081838922529,3.4552057568586085,242.76970402965804,-75.96198617727268,-80.95538330078125,4761.76025390625,True
1599386770.8561578,0.0,10,0.5,0.5,1.0135804450988768,-0.1005,-0.02275,-0.37525,0.31593300459901685,10,1,100,0.09065803992611404,-10,-1,-100,19288.750206848606,-0.028632153238939563,0.018972725103743173,0.9994099436682826,55.27246700568882,3.3440482656160784,236.14961246437818,-76.3270019573511,-86.20974731445312,4761.76025390625,True
1599386770.897013,0.0,10,0.5,0.5,1.7127551803588867,-0.1005,-0.02275,-0.37525,0.31563799824132743,10,1,100,0.05823854572681439,-10,-1,-100,19285.68617407058,-0.026226529154814396,0.019989475224298427,0.9994561471364057,53.13376666640354,3.215044998580348,228.15090968600842,-76.69208789564833,-91.65769958496094,4761.76025390625,True
1599386770.9409306,0.0,10,0.5,0.5,2.360540073394775,-0.1005,-0.02275,-0.37525,0.3144286472035271,10,1,100,0.024671171663199182,-10,-1,-100,19282.607537168544,-0.023750115879279242,0.020892310530561325,0.9994995964763644,53.3543718311886,3.2293709809908933,230.2421018093398,-77.05718724935578,-97.12427520751953,4761.76025390625,True
1599386770.9802995,0.0,10,0.5,0.5,4.123758752632141,-0.1005,-0.02275,-0.37525,0.34701196622674957,10,1,100,-0.14324587829829247,-10,-1,-100,19277.962205350283,-0.01998770012125149,0.022000439659805332,0.9995581386285833,55.611611701120836,3.3684326444905968,241.77075094401027,-77.60467826405022,-104.95748138427734,4761.76025390625,True
1599386771.014226,0.0,10,0.5,0.5,3.6066273788452152,-0.1005,-0.02275,-0.37525,0.3000281807355717,10,1,100,-0.04422254146420368,-10,-1,-100,19274.847071112017,-0.017486342364333947,0.022570854833329212,0.9995923090654559,56.91847854807574,3.449612412204495,248.67129803408326,-77.96956990653283,-109.82675170898438,4761.76025390625,True
1599386771.050102,0.0,10,0.5,0.5,1.8918331859588624,-0.1005,-0.02275,-0.37525,0.24405411351301867,10,1,100,0.20367481009552169,-10,-1,-100,19274.847071112017,-0.017486342364333947,0.022570854833329212,0.9995923090654559,56.91847854807574,3.449612412204495,248.67129803408326,-77.96956990653283,-109.82675170898438,4761.76025390625,True
1599386771.08851,0.0,10,0.5,0.5,6.198878076553345,-0.1005,-0.02275,-0.37525,0.3309547138684896,10,1,100,-0.3310009710172134,-10,-1,-100,19268.573025083984,-0.012642732264255241,0.023353664659364216,0.9996473216429244,58.935017276541224,3.5761781193583304,260.002784916344,-78.69913573795198,-118.6842041015625,4761.76025390625,True
1599386771.1234167,0.0,10,0.5,0.5,4.885465299606324,-0.1005,-0.02275,-0.37525,0.2739957196937803,10,1,100,-0.11733570606520363,-10,-1,-100,19265.41411855712,-0.010203343955693646,0.02353959364076937,0.9996708354770332,59.62557105816284,3.6201280479523743,264.3235569317205,-79.06382840171361,-122.67176818847656,4761.76025390625,True
1599386771.1583219,0.0,10,0.5,0.5,3.5062249832153323,-0.1005,-0.02275,-0.37525,0.2562247387479325,10,1,100,0.12409541732036428,-10,-1,-100,19265.41411855712,-0.010203343955693646,0.02353959364076937,0.9996708354770332,59.62557105816284,3.6201280479523743,264.3235569317205,-79.06382840171361,-122.67176818847656,4761.76025390625,True
1599386771.1922321,0.0,10,0.5,0.5,5.3686864364624025,-0.1005,-0.02275,-0.37525,0.27724905298082525,10,1,100,-0.11486569712788722,-10,-1,-100,19262.240625491366,-0.008051908544299187,0.023724376208697513,0.999686111108033,60.104068130471596,3.651040930357795,267.7287097079695,-79.42847661190426,-126.36328887939453,4761.76025390625,True
1599386771.2301311,0.0,10,0.5,0.5,4.912437789726257,-0.1005,-0.02275,-0.37525,0.26333127916936544,10,1,100,-0.024607625266130626,-10,-1,-100,19260.648409574176,-0.006937419799813624,0.02376048646550591,0.9996936088069401,60.27901660948826,3.6625140538876115,269.1517197609343,-79.61078740178078,-128.09884643554688,4761.76025390625,True
1599386771.2685366,0.0,10,0.5,0.5,5.902829242134095,-0.1005,-0.02275,-0.37525,0.259527464060053,10,1,100,-0.1537878859503815,-10,-1,-100,19257.453039749875,-0.0047696046926418555,0.0237543813240091,0.9997064470328225,60.5182171787781,3.6785624423484107,271.5122188223968,-79.97538831449414,-131.34921264648438,4761.76025390625,True
1599386771.6086261,0.0,10,0.5,0.5,6.829498566246033,-0.1005,-0.02275,-0.37525,0.25203444269426556,10,1,100,-0.26703062616692547,-10,-1,-100,19252.632641527918,-0.0017888905245736408,0.023677290177414195,0.9997180531532607,60.64992145047499,3.6883934965304164,274.0461442082914,-80.52225258012922,-135.67095947265625,4761.76025390625,True
1599386771.641539,0.0,10,0.5,0.5,7.035767060089112,-0.1005,-0.02275,-0.37525,0.2382310577043421,10,1,100,-0.2757001486226487,-10,-1,-100,19247.779432432842,0.0009796987183997602,0.023479190199104202,0.9997238457784305,60.59312563008843,3.6862760114717092,275.7314302284361,-81.06909012552914,-139.32899475097656,4761.76025390625,True
1599386771.677444,0.0,10,0.5,0.5,6.725662196540833,-0.1005,-0.02275,-0.37525,0.2431856182420863,10,1,100,-0.1857899612644655,-10,-1,-100,19244.525731922127,0.002660171418901504,0.02334279645049343,0.9997239805775856,60.49291219149128,3.6808429299958587,276.5684641989018,-81.43364042325545,-141.39810180664062,4761.76025390625,True
1599386771.7642107,0.0,10,0.5,0.5,6.021054595375062,-0.1005,-0.02275,-0.37525,0.25690218726487996,10,1,100,-0.019757342592614687,-10,-1,-100,19244.525731922127,0.002660171418901504,0.02334279645049343,0.9997239805775856,60.49291219149128,3.6808429299958587,276.5684641989018,-81.43364042325545,-141.39810180664062,4761.76025390625,True
1599386771.825047,0.0,10,0.5,0.5,6.532347091102601,-0.1005,-0.02275,-0.37525,0.24901363235952928,10,1,100,-0.10958562940204167,-10,-1,-100,19242.89341357583,0.003458477195547899,0.02327038054988373,0.9997232258603135,60.43327392325148,3.6774892205996994,276.94190221269025,-81.61591394776423,-142.32183837890625,4761.76025390625,True
1599386771.8589573,0.0,10,0.5,0.5,7.646472402381898,-0.1005,-0.02275,-0.37525,0.21509591135023862,10,1,100,-0.3530292414589883,-10,-1,-100,19236.32768547209,0.0063826960025988606,0.02289628070752634,0.9997174708493897,60.18107484390079,3.6629515609244216,278.3612785948072,-82.34500017052655,-145.27923583984375,4761.76025390625,True
1599386771.8938634,0.0,10,0.5,0.5,6.588140994071961,-0.1005,-0.02275,-0.37525,0.25244156429265313,10,1,100,-0.06226596474972136,-10,-1,-100,19236.32768547209,0.0063826960025988606,0.02289628070752634,0.9997174708493897,60.18107484390079,3.6629515609244216,278.3612785948072,-82.34500017052655,-145.27923583984375,4761.76025390625,True
1599386771.9277742,0.0,10,0.5,0.5,7.483728695106506,-0.1005,-0.02275,-0.37525,0.219496303660068,10,1,100,-0.32892331031535793,-10,-1,-100,19229.70363121666,0.00879177547141529,0.022597363168078515,0.9997059887096358,59.970306021635764,3.6506234925719614,279.9549034139788,-83.07407237872681,-147.05360412597656,4761.76025390625,True
1599386771.9616816,0.0,10,0.5,0.5,7.076948294067383,-0.1005,-0.02275,-0.37525,0.2233574818729141,10,1,100,-0.20785662114706066,-10,-1,-100,19226.36973201821,0.009865929010613238,0.02236174612782511,0.999701263255615,59.90878378507679,3.6470671226994242,280.95151613224294,-83.4386004679375,-147.49917602539062,4761.76025390625,True
1599386771.9925997,0.0,10,0.5,0.5,6.953883188629151,-0.1005,-0.02275,-0.37525,0.24677931186448654,10,1,100,-0.10212160210830853,-10,-1,-100,19226.36973201821,0.009865929010613238,0.02236174612782511,0.999701263255615,59.90878378507679,3.6470671226994242,280.95151613224294,-83.4386004679375,-147.49917602539062,4761.76025390625,True
1599386772.0275064,0.0,10,0.5,0.5,7.061047492980958,-0.1005,-0.02275,-0.37525,0.23658543546345961,10,1,100,-0.20177228832720545,-10,-1,-100,19223.021252170787,0.010758539309236615,0.02227034055617594,0.9996940960931217,59.88090905480433,3.6455424930334424,282.10454687157437,-83.80312100341804,-147.64720153808594,4761.76025390625,True
1599386772.0614154,0.0,10,0.5,0.5,7.0155058689117435,-0.1005,-0.02275,-0.37525,0.23754025655446537,10,1,100,-0.15993197259844183,-10,-1,-100,19221.34154445585,0.011178229956056551,0.022197203818796057,0.9996911179547794,59.88247558390565,3.645723007558773,282.75401393577573,-83.98537781182392,-147.6109619140625,4761.76025390625,True
1599386772.0913358,0.0,10,0.5,0.5,6.90831956176758,-0.1005,-0.02275,-0.37525,0.22666562480749275,10,1,100,-0.2023308844310796,-10,-1,-100,19217.971193966107,0.011935940168700785,0.02203302102927851,0.9996859903572785,59.91443157884213,3.6478475670507042,284.1901295420726,-84.34988314833153,-147.31747436523438,4761.76025390625,True
1599386772.1252444,0.0,10,0.5,0.5,6.7514588790893555,-0.1005,-0.02275,-0.37525,0.23188918450918666,10,1,100,-0.19520408028885616,-10,-1,-100,19214.5862635948,0.012551545989130058,0.021932441559206334,0.9996806623620038,59.98158726487942,3.652139819826969,285.7957931793964,-84.71437598911294,-146.72796630859375,4761.76025390625,True
1599386772.1561706,0.0,10,0.5,0.5,6.792024678039551,-0.1005,-0.02275,-0.37525,0.2349974471579921,10,1,100,-0.16454740096258696,-10,-1,-100,19212.888330994174,0.012823498400581288,0.021870544751303757,0.9996785669209136,60.028061965817024,3.655085448403376,286.661455940183,-84.89661711968164,-146.32276916503906,4761.76025390625,True
1599386772.1900804,0.0,10,0.5,0.5,6.725247359085083,-0.1005,-0.02275,-0.37525,0.23551997416252035,10,1,100,-0.16462762789441032,-10,-1,-100,19211.186753922142,0.01306294354563986,0.0218202977494322,0.9996765647508445,60.08216709553695,3.658508175617059,287.56474383179585,-85.0788545654741,-145.8436737060547,4761.76025390625,True
1599386772.2249875,0.0,10,0.5,0.5,5.6439803688049315,-0.1005,-0.02275,-0.37525,0.21836590254580465,10,1,100,-0.21509576566632183,-10,-1,-100,19204.343999121338,0.01373334925039863,0.021619650717540725,0.9996719390986316,60.35710473488377,3.675935553508698,291.47312791929016,-85.80776381310207,-143.19032287597656,4761.76025390625,True
1599386772.2554405,0.0,10,0.5,0.5,6.63489799079895,-0.1005,-0.02275,-0.37525,0.23830294273595348,10,1,100,-0.14879026051522484,-10,-1,-100,19204.343999121338,0.01373334925039863,0.021619650717540725,0.9996719390986316,60.35710473488377,3.675935553508698,291.47312791929016,-85.80776381310207,-143.19032287597656,4761.76025390625,True
1599386772.29334,0.0,10,0.5,0.5,5.784624761581422,-0.1005,-0.02275,-0.37525,0.2274438340306812,10,1,100,-0.16725473689503262,-10,-1,-100,19200.900755650597,0.013896715786779625,0.021521820376993284,0.9996717924088896,60.51228174228132,3.685869073102896,293.52269962067527,-86.17219304437138,-141.42156982421875,4761.76025390625,True
1599386772.3322358,0.0,10,0.5,0.5,4.9096052410125735,-0.1005,-0.02275,-0.37525,0.22036031600281392,10,1,100,-0.15481456715592348,-10,-1,-100,19195.70855892438,0.01392847401606484,0.021369251654197573,0.9996746234126999,60.731686748643554,3.700197994385243,296.54520241708207,-86.71880594114164,-138.21627807617188,4761.76025390625,True
1599386772.368139,0.0,10,0.5,0.5,4.89964697227478,-0.1005,-0.02275,-0.37525,0.2233835095107246,10,1,100,-0.13906134596996902,-10,-1,-100,19192.228874635068,0.01381044080917413,0.021258938660340322,0.9996786129810381,60.84564685514644,3.70797893066734,298.41029807137664,-87.08319633503586,-135.7115478515625,4761.76025390625,True
1599386772.4060376,0.0,10,0.5,0.5,4.480894452667236,-0.1005,-0.02275,-0.37525,0.21994740395508028,10,1,100,-0.12677460877077176,-10,-1,-100,19188.734615226043,0.013588665827008113,0.021128336253505905,0.9996844209890443,60.91226874762016,3.71305776997677,300.04780020738633,-87.4475753913467,-132.91281127929688,4761.76025390625,True
1599386772.4383802,0.0,10,0.5,0.5,5.497682058715821,-0.1005,-0.02275,-0.37525,0.232900757881993,10,1,100,-0.14919315057446872,-10,-1,-100,19188.734615226043,0.013588665827008113,0.021128336253505905,0.9996844209890443,60.91226874762016,3.71305776997677,300.04780020738633,-87.4475753913467,-132.91281127929688,4761.76025390625,True
1599386772.4732869,0.0,10,0.5,0.5,4.7467420852661135,-0.1005,-0.02275,-0.37525,0.22452095411334566,10,1,100,-0.13294470946617049,-10,-1,-100,19186.982019929565,0.013439450248152395,0.021052978659950723,0.9996880279700119,60.92116626913413,3.714182787747667,300.7474129605304,-87.62976204317921,-131.40325927734375,4761.76025390625,True
1599386772.5081944,0.0,10,0.5,0.5,3.737224564361572,-0.1005,-0.02275,-0.37525,0.21315759719551236,10,1,100,-0.10694715824444741,-10,-1,-100,19183.46589827561,0.013066651161486966,0.02088196802373776,0.9996965569806069,60.87572383936249,3.7127299591074348,301.8343955183763,-87.99413283971717,-128.16392517089844,4761.76025390625,True
1599386772.5500822,0.0,10,0.5,0.5,3.2306934886932375,-0.1005,-0.02275,-0.37525,0.20777266870215694,10,1,100,-0.09134949376088804,-10,-1,-100,19179.93520140997,0.012585724903067032,0.02067844861972053,0.9997069577087806,60.725635669034375,3.7050954718728435,302.3994695632908,-88.35850614705018,-124.63101959228516,4761.76025390625,True
1599386772.5859852,0.0,10,0.5,0.5,1.725430899238587,-0.1005,-0.02275,-0.37525,0.18543795415091674,10,1,100,-0.0425942094234604,-10,-1,-100,19174.611827665707,0.011705723191110998,0.020291426164811513,0.9997255793810474,60.24844399711135,3.678591044802482,301.97429230219507,-88.90508819674307,-118.7818832397461,4761.76025390625,True
1599386772.6169028,0.0,10,0.5,0.5,1.8353899841308592,-0.1005,-0.02275,-0.37525,0.18865377381880832,10,1,100,-0.05470696710391161,-10,-1,-100,19171.04469159292,0.011017680910118057,0.019970029770559356,0.9997398704754782,59.72108515530137,3.648293549371509,300.62260779805314,-89.26950490569997,-114.51619720458984,4761.76025390625,True
1599386772.6548018,0.0,10,0.5,0.5,2.3039165487289432,-0.1005,-0.02275,-0.37525,0.20059038312714977,10,1,100,-0.08233074110341401,-10,-1,-100,19169.255657014437,0.010645781934974752,0.0197878655158123,0.9997475219800853,59.38370081980224,3.628657433020346,299.56713133558327,-89.4517259256641,-112.27355194091797,4761.76025390625,True
1599386772.689897,0.0,10,0.5,0.5,1.9773993961334226,-0.1005,-0.02275,-0.37525,0.19694812970088904,10,1,100,-0.0777245746619615,-10,-1,-100,19167.46297758934,0.010268773111605638,0.019590726575677318,0.9997553479381941,58.9922318119598,3.605708979847176,298.23144345056653,-89.63395721692467,-109.95771789550781,4761.76025390625,True
1599386772.7248402,0.0,10,0.5,0.5,0.4742111892700196,-0.1005,-0.02275,-0.37525,0.16800498960499283,10,1,100,-0.026280025186798117,-10,-1,-100,19163.866684167646,0.009461687095954466,0.019150006742936022,0.9997718508335007,58.17477587211748,3.5576233573475737,295.3609359077321,-89.99845234462845,-105.10660552978516,4761.76025390625,True
1599386772.7577155,0.0,10,0.5,0.5,-0.22204861469268788,-0.1005,-0.02275,-0.37525,0.15554865812029353,10,1,100,-0.011175576006843185,-10,-1,-100,19160.255809485447,0.00859461277437492,0.01863803018323522,0.999789356045636,57.148075480778765,3.4965319729305677,291.3900994162132,-90.36299752224969,-99.96311950683594,4761.76025390625,True
1599386772.79313,0.0,10,0.5,0.5,0.3574313673019409,-0.1005,-0.02275,-0.37525,0.17538896036952545,10,1,100,-0.04827952085110437,-10,-1,-100,19158.444903780124,0.008148212028843737,0.018355227245836842,0.9997983258005019,56.61740302380057,3.464805978349883,289.3001459685214,-90.54529012610634,-97.28176879882812,4761.76025390625,True
1599386772.8300312,0.0,10,0.5,0.5,-1.3619533777236936,-0.1005,-0.02275,-0.37525,0.13560884598930817,10,1,100,0.007770015000554978,-10,-1,-100,19154.812153390958,0.007237797801344089,0.017739017271116042,0.999816453930041,55.360861076601445,3.3890857172380233,284.0851345715554,-90.90991876874509,-91.72317504882812,4761.76025390625,True
1599386772.8659356,0.0,10,0.5,0.5,-2.0406131349563594,-0.1005,-0.02275,-0.37525,0.12203694565265868,10,1,100,0.019273447424355425,-10,-1,-100,19151.16481666395,0.0063112097110796855,0.017058458165026533,0.9998345751358145,55.63225392327164,3.4064119917611673,286.6904143385299,-91.27457135934472,-86.10205078125,4761.76025390625,True
1599386772.898848,0.0,10,0.5,0.5,-2.7198979848861695,-0.1005,-0.02275,-0.37525,0.10558405695481324,10,1,100,0.03249603947693948,-10,-1,-100,19147.502896873048,0.005354792829861652,0.01629367227119994,0.999852910401159,57.759189726145735,3.5369253752494965,298.91063547943224,-91.63912423589197,-80.44168090820312,4761.76025390625,True
1599386772.9347513,0.0,10,0.5,0.5,-2.030385601425171,-0.1005,-0.02275,-0.37525,0.1379771108378085,10,1,100,-0.011049914085711682,-10,-1,-100,19145.666469449527,0.004887768817572274,0.015896880836065285,0.9998616898829908,58.752166514039615,3.5977358072171657,304.6899471482129,-91.82136224310186,-77.63766479492188,4761.76025390625,True
1599386772.9696586,0.0,10,0.5,0.5,-3.6506869710922243,-0.1005,-0.02275,-0.37525,0.08462548217941387,10,1,100,0.04591253193070807,-10,-1,-100,19141.98268265114,0.003951559255681331,0.015055141584801781,0.9998788566077944,60.53197157635109,3.7065476884745174,315.2396469458569,-92.18576498775116,-72.21694946289062,4761.76025390625,True
1599386773.005599,0.0,10,0.5,0.5,-5.324083538818359,-0.1005,-0.02275,-0.37525,0.01827250795988547,10,1,100,0.10502049853829627,-10,-1,-100,19136.42967804114,0.0025695382499427957,0.013691183307280844,0.9999029697789824,62.668215711568436,3.836900696064941,328.41304818730424,-92.7322053262452,-64.626220703125,4761.76025390625,True
1599386773.039471,0.0,10,0.5,0.5,-4.815154686927796,-0.1005,-0.02275,-0.37525,0.04828292689420986,10,1,100,0.06596135637460095,-10,-1,-100,19132.709463330917,0.0016755806677459324,0.012729585665490697,0.9999175716418882,63.76766404347028,3.903979479722298,335.5635734681577,-93.09640677807737,-59.93658447265625,4761.76025390625,True
1599386773.0743794,0.0,10,0.5,0.5,-3.1691667699813846,-0.1005,-0.02275,-0.37525,0.1437565769822059,10,1,100,-0.02257508260069941,-10,-1,-100,19132.709463330917,0.0016755806677459324,0.012729585665490697,0.9999175716418882,63.76766404347028,3.903979479722298,335.5635734681577,-93.09640677807737,-59.93658447265625,4761.76025390625,True
1599386773.1132782,0.0,10,0.5,0.5,-5.361654054641724,-0.1005,-0.02275,-0.37525,0.03656571041394069,10,1,100,0.07331552103662703,-10,-1,-100,19128.97468263225,0.0008109261859776997,0.011760959988576873,0.9999305086949133,64.64134089616161,3.9574027831433183,341.5688247357058,-93.46054917331539,-55.544097900390625,4761.76025390625,True
1599386773.1511743,0.0,10,0.5,0.5,-5.762580017089844,-0.1005,-0.02275,-0.37525,0.022707444690926476,10,1,100,0.08049404067105964,-10,-1,-100,19125.225337504526,-3.330653358971981e-05,0.010760658839532047,0.9999421018799107,65.31967526974724,3.9991018494375146,346.57583066496176,-93.82464437342449,-51.449188232421875,4761.76025390625,True
1599386773.1920638,0.0,10,0.5,0.5,-6.136626603698731,-0.1005,-0.02275,-0.37525,0.004883934705521911,10,1,100,0.0866803602212791,-10,-1,-100,19121.461429621675,-0.0008495923485962477,0.009696166402720623,0.9999526301530147,65.83267617531084,4.030950163417938,350.73205965675265,-94.18870310461043,-47.652252197265625,4761.76025390625,True
1599386773.2289648,0.0,10,0.5,0.5,-6.477619230651856,-0.1005,-0.02275,-0.37525,-0.0006683312524982804,10,1,100,0.09267097094076389,-10,-1,-100,19117.682960344013,-0.0016387782868248254,0.00868528254315405,0.9999609393735698,66.20991703870368,4.054765866002869,354.1852473291301,-94.55273429310397,-44.151397705078125,4761.76025390625,True
1599386773.2638733,0.0,10,0.5,0.5,-7.492677121734619,-0.1005,-0.02275,-0.37525,-0.07008968841021551,10,1,100,0.14062559920093304,-10,-1,-100,19111.98795542447,-0.002784943953036066,0.007142805947225075,0.9999706117733553,66.58284051983728,4.07916591526578,358.35964637507897,-95.09874606629415,-39.45709228515625,4761.76025390625,True
1599386773.3014657,0.0,10,0.5,0.5,-7.136945442199708,-0.1005,-0.02275,-0.37525,-0.027874800878579367,10,1,100,0.10827615990484744,-10,-1,-100,19108.17308567092,-0.0035254271680065087,0.006132645170599039,0.9999749807002645,66.74031837080875,4.090136520862371,360.66540419158883,-95.46273844690818,-36.698150634765625,4761.76025390625,True
1599386773.3413591,0.0,10,0.5,0.5,-6.194789982604981,-0.1005,-0.02275,-0.37525,0.07216485321747756,10,1,100,0.035069158006361054,-10,-1,-100,19108.17308567092,-0.0035254271680065087,0.006132645170599039,0.9999749807002645,66.74031837080875,4.090136520862371,360.66540419158883,-95.46273844690818,-36.698150634765625,4761.76025390625,True
1599386773.380265,0.0,10,0.5,0.5,-7.4474751708984375,-0.1005,-0.02275,-0.37525,-0.03339893468856588,10,1,100,0.11705950439717869,-10,-1,-100,19104.343656466226,-0.004263996692992407,0.005181085731829738,0.9999774870880052,66.85196007990716,4.098487363974612,362.7309195411335,-95.82672250898709,-34.23492431640625,4761.76025390625,True
1599386773.4181545,0.0,10,0.5,0.5,-7.62317815246582,-0.1005,-0.02275,-0.37525,-0.04275742524178673,10,1,100,0.12326534091801924,-10,-1,-100,19100.499667786877,-0.004985627925039106,0.004238690962078775,0.9999785882773297,66.93839896091963,4.105446379984387,364.66567525164504,-96.19070037320584,-32.06805419921875,4761.76025390625,True
1599386773.454058,0.0,10,0.5,0.5,-7.763285449218751,-0.1005,-0.02275,-0.37525,-0.05362404857246119,10,1,100,0.128445988885489,-10,-1,-100,19096.641120574204,-0.005682697473337844,0.003290899954483961,0.9999784382310033,67.01705206017193,4.112048548913387,366.5633178873242,-96.55467264533836,-30.19769287109375,4761.76025390625,True
1599386773.4909594,0.0,10,0.5,0.5,-7.878574621582032,-0.1005,-0.02275,-0.37525,-0.0544838890558673,10,1,100,0.1378633615418249,-10,-1,-100,19092.768014297588,-0.006395320197629674,0.002430035657467717,0.9999765971292893,67.10304548655274,4.1191911840137125,368.50638985923024,-96.91863885283844,-28.622314453125,4761.76025390625,True
1599386773.5278623,0.0,10,0.5,0.5,-7.957344490814209,-0.1005,-0.02275,-0.37525,-0.06194499074892247,10,1,100,0.14468719804159685,-10,-1,-100,19088.8803498965,-0.007098642782089622,0.0015880862123625475,0.9999735432764382,67.20994165317269,4.127682317230875,370.57011537912376,-97.28259786944317,-27.3428955078125,4761.76025390625,True
1599386773.5617695,0.0,10,0.5,0.5,-8.000226528930664,-0.1005,-0.02275,-0.37525,-0.066382642296499,10,1,100,0.15272396129767046,-10,-1,-100,19084.978127286187,-0.007804665400973425,0.0007906740414954881,0.9999692305428897,67.34871299145715,4.1381778977399675,372.8165496404339,-97.64654749484662,-26.35888671875,4761.76025390625,True
1599386773.600709,0.0,10,0.5,0.5,-7.860816747283935,-0.1005,-0.02275,-0.37525,-0.02922401973899365,10,1,100,0.12170775769718858,-10,-1,-100,19083.021556908498,-0.008158215864452159,0.0004116554479220511,0.999966636470288,67.43272139648364,4.144337012589627,374.0237271000897,-97.82851809258781,-25.97760009765625,4761.76025390625,True
1599386773.638564,0.0,10,0.5,0.5,-8.0165596282959,-0.1005,-0.02275,-0.37525,-0.07114993951988996,10,1,100,0.16544350190840096,-10,-1,-100,19079.097497894894,-0.008871296289918732,-0.00030653015597537455,0.9999606022946105,67.63392529488914,4.158714124543314,376.62950547220396,-98.19244881413363,-25.4364013671875,4761.76025390625,True
1599386773.6774597,0.0,10,0.5,0.5,-7.939220997619629,-0.1005,-0.02275,-0.37525,-0.1406898812625114,10,1,100,0.2534556155568044,-10,-1,-100,19071.205710724927,-0.010314128298658482,-0.0015848353243575922,0.9999455520449269,68.18174184168205,4.196458382457771,382.6877537051553,-98.92025755184751,-25.2391357421875,4761.76025390625,True
1599386773.7193484,0.0,10,0.5,0.5,-7.827122547149659,-0.1005,-0.02275,-0.37525,-0.043840610417953896,10,1,100,0.15036359424425863,-10,-1,-100,19069.223666611128,-0.010682422020916337,-0.001859467123850034,0.9999412123928999,68.34996271864925,4.20782295795608,384.38645228177114,-99.10219627743697,-25.37396240234375,4761.76025390625,True
1599386773.758244,0.0,10,0.5,0.5,-7.804286763000488,-0.1005,-0.02275,-0.37525,-0.045951883016624825,10,1,100,0.15488524522073244,-10,-1,-100,19067.237984040286,-0.011051834054706958,-0.002121060226745218,0.9999366770288715,68.53049680267414,4.2199452066945335,386.1585175146865,-99.28412878730931,-25.58245849609375,4761.76025390625,True
1599386773.7941484,0.0,10,0.5,0.5,-7.155336372375488,-0.1005,-0.02275,-0.37525,-0.11391320622551451,10,1,100,0.2834758522307912,-10,-1,-100,19059.25886958046,-0.012550497933370134,-0.002970064034950223,0.999916828401869,69.36408440716929,4.275269024185777,393.9220319576107,-100.01178852902433,-27.15234375,4761.76025390625,True
1599386773.835039,0.0,10,0.5,0.5,-7.7556190551757815,-0.1005,-0.02275,-0.37525,-0.029733700904716897,10,1,100,0.13436595136530666,-10,-1,-100,19059.25886958046,-0.012550497933370134,-0.002970064034950223,0.999916828401869,69.36408440716929,4.275269024185777,393.9220319576107,-100.01178852902433,-27.15234375,4761.76025390625,True
1599386773.8724508,0.0,10,0.5,0.5,-6.835032179260255,-0.1005,-0.02275,-0.37525,-0.07762893652599262,10,1,100,0.25987271794674227,-10,-1,-100,19053.236335179303,-0.013685225083692246,-0.003399783482425971,0.9999005731004866,70.08274527775318,4.3224353981571015,400.32915716461713,-100.55744989034197,-29.1019287109375,4761.76025390625,True
1599386773.910347,0.0,10,0.5,0.5,-7.186525682067871,-0.1005,-0.02275,-0.37525,-0.04505320040719797,10,1,100,0.18868413641312626,-10,-1,-100,19051.22154865635,-0.014062999111055782,-0.0034889946343786148,0.9998950239762391,70.33339383520058,4.338809059449089,402.5393170886173,-100.7393196458629,-29.8985595703125,4761.76025390625,True
1599386773.9482467,0.0,10,0.5,0.5,-6.1323374465942395,-0.1005,-0.02275,-0.37525,-0.061880481619497565,10,1,100,0.27531309569657947,-10,-1,-100,19045.155366424355,-0.015187634805482238,-0.003718455437313977,0.9998777469461834,71.0941724792846,4.3883192446946495,409.2548611990283,-101.2848748827849,-32.73052978515625,4761.76025390625,True
1599386773.9871473,0.0,10,0.5,0.5,-7.1805387817382815,-0.1005,-0.02275,-0.37525,-0.03938531427384229,10,1,100,0.16358782319438472,-10,-1,-100,19045.155366424355,-0.015187634805482238,-0.003718455437313977,0.9998777469461834,71.0941724792846,4.3883192446946495,409.2548611990283,-101.2848748827849,-32.73052978515625,4761.76025390625,True
1599386774.024048,0.0,10,0.5,0.5,-6.092415368652344,-0.1005,-0.02275,-0.37525,-0.043348990202943125,10,1,100,0.24520248320600302,-10,-1,-100,19041.09306139953,-0.015923195879277832,-0.003750734208591952,0.9998661829594432,71.58846939287224,4.420346016537832,413.6862132515904,-101.64853305008063,-34.98541259765625,4761.76025390625,True
1599386774.063952,0.0,10,0.5,0.5,-5.704550575256348,-0.1005,-0.02275,-0.37525,-0.03301682826632255,10,1,100,0.2500072037275429,-10,-1,-100,19037.01621136698,-0.01662915622420659,-0.003683018706645727,0.9998549427474355,72.04880592806782,4.450070084955044,417.9430710119878,-102.0121567601011,-37.5335693359375,4761.76025390625,True
1599386774.1008515,0.0,10,0.5,0.5,-3.78900590209961,-0.1005,-0.02275,-0.37525,-0.004364287372517817,10,1,100,0.329559468659463,-10,-1,-100,19028.818879592,-0.017988399829954236,-0.0033590740754943084,0.9998325530272123,72.77432973543502,4.4966286141244405,425.3795917065804,-102.73931478325792,-43.511016845703125,4761.76025390625,True
1599386774.1377525,0.0,10,0.5,0.5,-4.359615608978272,-0.1005,-0.02275,-0.37525,-0.0059227508949420415,10,1,100,0.26240586903424595,-10,-1,-100,19024.698400398018,-0.018606946767850997,-0.0030773835274226532,0.9998221398041771,72.98566014354586,4.510032972557228,428.2350882448434,-103.10286098231684,-46.93963623046875,4761.76025390625,True
1599386774.1766496,0.0,10,0.5,0.5,-5.597617453765869,-0.1005,-0.02275,-0.37525,-0.0341874380321753,10,1,100,0.2013066865158842,-10,-1,-100,19024.698400398018,-0.018606946767850997,-0.0030773835274226532,0.9998221398041771,72.98566014354586,4.510032972557228,428.2350882448434,-103.10286098231684,-46.93963623046875,4761.76025390625,True
1599386774.21754,0.0,10,0.5,0.5,-3.78207032699585,-0.1005,-0.02275,-0.37525,0.006352690159839171,10,1,100,0.26103014115862355,-10,-1,-100,19020.563379728817,-0.019144381402026373,-0.002708739344320274,0.999813060222709,73.05368380586044,4.5141915517304625,430.2575043786249,-103.46639686757806,-50.66119384765625,4761.76025390625,True
1599386774.2524462,0.0,10,0.5,0.5,-1.1654794242858886,-0.1005,-0.02275,-0.37525,0.06933105900303851,10,1,100,0.3127973226074502,-10,-1,-100,19012.249713511905,-0.020097574643112723,-0.0018013152108259625,0.9997964006521406,72.61999085155537,4.486169335660759,430.9371649780831,-104.19348629262878,-58.984100341796875,4761.76025390625,True
1599386774.2853587,0.0,10,0.5,0.5,-4.2206681457519535,-0.1005,-0.02275,-0.37525,-0.021251507519232635,10,1,100,0.21811923345475723,-10,-1,-100,19012.249713511905,-0.020097574643112723,-0.0018013152108259625,0.9997964006521406,72.61999085155537,4.486169335660759,430.9371649780831,-104.19348629262878,-58.984100341796875,4761.76025390625,True
1599386774.3292406,0.0,10,0.5,0.5,-1.9655665184020996,-0.1005,-0.02275,-0.37525,0.03808229448024811,10,1,100,0.25733197239919525,-10,-1,-100,19008.071066364297,-0.020448568110305744,-0.0012634512648520945,0.9997901078492123,72.05270552460267,4.450065533184856,429.1795684041037,-104.55706873782871,-63.585113525390625,4761.76025390625,True
1599386774.385597,0.0,10,0.5,0.5,-0.07706559295654314,-0.1005,-0.02275,-0.37525,0.08113082126934572,10,1,100,0.2676670857544114,-10,-1,-100,19001.775823767646,-0.02085682598979698,-0.0003853656196772016,0.9997823984762737,70.65870434272797,4.3621937251343805,423.24953535837903,-105.10253615864318,-71.03616333007812,4761.76025390625,True
1599386774.42549,0.0,10,0.5,0.5,-0.2483417243957522,-0.1005,-0.02275,-0.37525,0.06045323552116662,10,1,100,0.24481425641397264,-10,-1,-100,18997.560810419032,-0.021015062712435646,0.00022188592384594853,0.9997791345621437,69.31881148194721,4.278444468290824,416.78057120537625,-105.46626894051833,-76.37002563476562,4761.76025390625,True
1599386774.4683754,0.0,10,0.5,0.5,0.45528268890380863,-0.1005,-0.02275,-0.37525,0.06660103870669723,10,1,100,0.23773630281069597,-10,-1,-100,18993.331245074398,-0.021089940275865412,0.0008262104286150561,0.9997772410869775,67.62671808389607,4.173379621043877,408.12958638893855,-105.83009108055604,-81.85821533203125,4761.76025390625,True
1599386774.5062742,0.0,10,0.5,0.5,-1.5033219253540038,-0.1005,-0.02275,-0.37525,0.006619511143312551,10,1,100,0.2306946248728853,-10,-1,-100,18993.331245074398,-0.021089940275865412,0.0008262104286150561,0.9997772410869775,67.62671808389607,4.173379621043877,408.12958638893855,-105.83009108055604,-81.85821533203125,4761.76025390625,True
1599386774.5461674,0.0,10,0.5,0.5,1.227170316314697,-0.1005,-0.02275,-0.37525,0.07402004097211534,10,1,100,0.23113282092418758,-10,-1,-100,18989.087123625446,-0.02109110429410824,0.0014351377138731639,0.9997765278798045,65.63366879728004,4.050380670123067,397.58228898447265,-106.19401368125776,-87.4141845703125,4761.76025390625,True
1599386774.5880554,0.0,10,0.5,0.5,3.1841696659088132,-0.1005,-0.02275,-0.37525,0.11041631495532225,10,1,100,0.2141217475284316,-10,-1,-100,18982.693644932122,-0.020935258045707342,0.0023154808991903285,0.9997781521511487,66.68871969155782,4.116985498338028,406.2333831042629,-106.73992204474612,-95.71643829345703,4761.76025390625,True
1599386774.6289458,0.0,10,0.5,0.5,4.185751720619201,-0.1005,-0.02275,-0.37525,0.11165823571679312,10,1,100,0.1940995004114759,-10,-1,-100,18976.267422329634,-0.020609442563117968,0.003122180470558747,0.9997827278295754,69.51337195827392,4.29445926392824,425.79525910083555,-107.28556425525821,-104.13690185546875,4761.76025390625,True
1599386774.6688402,0.0,10,0.5,0.5,2.431478431510925,-0.1005,-0.02275,-0.37525,0.058180342164405374,10,1,100,0.21184292110192926,-10,-1,-100,18974.118074552738,-0.020473218620530757,0.003364080212403894,0.9997847419738114,70.37160636423698,4.348737613563883,431.8464757000762,-107.46738555568078,-106.83547973632812,4761.76025390625,True
1599386774.7077353,0.0,10,0.5,0.5,2.7778711843490598,-0.1005,-0.02275,-0.37525,0.05996201842055342,10,1,100,0.20873561350951741,-10,-1,-100,18971.965091016493,-0.020320788927359168,0.0035954903114797103,0.9997870463187597,71.14057983013429,4.397580977428708,437.3678426454615,-107.6491798458119,-109.46327209472656,4761.76025390625,True
1599386774.7456336,0.0,10,0.5,0.5,4.302721220207214,-0.1005,-0.02275,-0.37525,0.08372729352326243,10,1,100,0.18684270072536097,-10,-1,-100,18967.648218112183,-0.019982987077088805,0.0040170048974620745,0.999792250369611,72.652457975877,4.493774719504312,448.3003260505169,-108.01268713561831,-114.49971771240234,4761.76025390625,True
1599386774.7875218,0.0,10,0.5,0.5,4.784198755264282,-0.1005,-0.02275,-0.37525,0.0829666004907462,10,1,100,0.17638040010789463,-10,-1,-100,18963.31680786179,-0.019581205917623523,0.004388484169730154,0.9997986385175285,73.84295026778645,4.570054491731715,457.3088349524735,-108.37610114164431,-119.24080657958984,4761.76025390625,True
1599386774.8264174,0.0,10,0.5,0.5,5.2295736978530885,-0.1005,-0.02275,-0.37525,0.0794566010576612,10,1,100,0.16830540885169398,-10,-1,-100,18958.970863373484,-0.01914370096130069,0.004689943649864538,0.999805742703084,74.73886189319988,4.62787388295951,464.53862548646276,-108.73944063166383,-123.68600463867188,4761.76025390625,True
1599386774.8643162,0.0,10,0.5,0.5,5.643175384330749,-0.1005,-0.02275,-0.37525,0.07547480367304524,10,1,100,0.16093993043660165,-10,-1,-100,18954.610386761255,-0.01868071152609831,0.004923737694011998,0.999813376497834,75.37697720900762,4.669370177055653,470.199832013474,-109.10272322406462,-127.83528137207031,4761.76025390625,True
1599386774.9012177,0.0,10,0.5,0.5,6.024016358375549,-0.1005,-0.02275,-0.37525,0.07135142318950363,10,1,100,0.15287157827861603,-10,-1,-100,18950.235380231286,-0.018188653591523336,0.0050950674322362225,0.9998215906692497,75.79584148066823,4.696853592502921,474.5170105100092,-109.46596490139622,-131.68869018554688,4761.76025390625,True
1599386774.9351268,0.0,10,0.5,0.5,6.383947186470032,-0.1005,-0.02275,-0.37525,0.06613854351029252,10,1,100,0.14567640309634472,-10,-1,-100,18945.84584508685,-0.017678555046329387,0.005199551145353034,0.9998302022640446,76.0322475325552,4.712579580132682,477.70715399776276,-109.82917909372746,-135.24635314941406,4761.76025390625,True
1599386774.9720283,0.0,10,0.5,0.5,5.951302994346619,-0.1005,-0.02275,-0.37525,0.05912666993964916,10,1,100,0.16782176216379754,-10,-1,-100,18943.645629360573,-0.017419252859718803,0.005227369839879304,0.9998346084399992,76.09298995394661,4.71671676859177,478.9449058758047,-110.01077942118994,-136.9143524169922,4761.76025390625,True
1599386775.009926,0.0,10,0.5,0.5,8.241808228683471,-0.1005,-0.02275,-0.37525,0.051334421305655666,10,1,100,0.07753202345987663,-10,-1,-100,18934.808447300224,-0.016365904161115344,0.0051791737664662555,0.9998526558148885,76.04862245710801,4.714484802971436,482.0917277479414,-110.73716182658647,-142.84750366210938,4761.76025390625,True
1599386775.0458298,0.0,10,0.5,0.5,6.103459843063355,-0.1005,-0.02275,-0.37525,0.05635972797655127,10,1,100,0.18244253948002226,-10,-1,-100,18934.808447300224,-0.016365904161115344,0.0051791737664662555,0.9998526558148885,76.04862245710801,4.714484802971436,482.0917277479414,-110.73716182658647,-142.84750366210938,4761.76025390625,True
1599386775.0827315,0.0,10,0.5,0.5,7.386021478652955,-0.1005,-0.02275,-0.37525,0.042775620990252755,10,1,100,0.12290131202527592,-10,-1,-100,18930.368065057322,-0.015828354197398937,0.005054031799723485,0.9998619504541459,75.90587780145574,4.7054155585070445,482.8993323030105,-111.10035227518208,-145.3711700439453,4761.76025390625,True
1599386775.1176395,0.0,10,0.5,0.5,8.058131578445435,-0.1005,-0.02275,-0.37525,0.025634171828568718,10,1,100,0.08973686001594522,-10,-1,-100,18923.680251951213,-0.015042261425508251,0.004783109072589072,0.9998754183591105,75.6148507789577,4.686616749930159,483.61052349881203,-111.6451472217811,-148.60275268554688,4761.76025390625,True
1599386775.1535418,0.0,10,0.5,0.5,7.772599501228333,-0.1005,-0.02275,-0.37525,0.024075322229351208,10,1,100,0.11004976019636131,-10,-1,-100,18919.203549762373,-0.014516785930567393,0.004521947865951149,0.9998844007752814,75.40205275189872,4.672715664177185,483.9556759057472,-112.00835154040769,-150.388427734375,4761.76025390625,True
1599386775.188448,0.0,10,0.5,0.5,7.5454284332275385,-0.1005,-0.02275,-0.37525,0.03522131799434816,10,1,100,0.1336640797611152,-10,-1,-100,18916.959750668262,-0.014258360585743517,0.004385734490783717,0.999888726052246,75.29676461083801,4.665789702634657,484.13252596185697,-112.18995604609111,-151.17044067382812,4761.76025390625,True
1599386775.2243524,0.0,10,0.5,0.5,7.651506851959229,-0.1005,-0.02275,-0.37525,0.03202243264479296,10,1,100,0.13061156515957958,-10,-1,-100,18914.71231927711,-0.01400011953986745,0.004233099927598351,0.9998930330379707,75.19543113650532,4.659085526075836,484.33294213131063,-112.37156190451364,-151.87879943847656,4761.76025390625,True
1599386775.2592604,0.0,10,0.5,0.5,8.009231116485596,-0.1005,-0.02275,-0.37525,0.008654187757291452,10,1,100,0.09910472258279562,-10,-1,-100,18910.206560172373,-0.013483184194724107,0.003882530496422017,0.9999015600052416,75.01162836653468,4.64679142877711,484.85018154293533,-112.73477623035447,-153.074462890625,4761.76025390625,True
1599386775.2911751,0.0,10,0.5,0.5,8.037869512939453,-0.1005,-0.02275,-0.37525,-0.0006769637364672926,10,1,100,0.09416951616638078,-10,-1,-100,18905.68627223815,-0.01297265515844166,0.003480104669896465,0.9999097954763853,74.86271911407984,4.636605880297576,485.5871226647793,-113.09799236486283,-153.97547912597656,4761.76025390625,True
1599386775.326081,0.0,10,0.5,0.5,8.030837474060059,-0.1005,-0.02275,-0.37525,-0.009580813517940066,10,1,100,0.08903394119737908,-10,-1,-100,18901.15145602275,-0.012466128898364773,0.0030348820536557166,0.9999176891730687,74.75825587477146,4.62913586418597,486.6081483266825,-113.46120688016826,-154.58181762695312,4761.76025390625,True
1599386775.3609867,0.0,10,0.5,0.5,8.013407963943482,-0.1005,-0.02275,-0.37525,-0.0457486178408799,10,1,100,0.05561017016591008,-10,-1,-100,18894.32199069287,-0.01170630085615548,0.0023033291703066956,0.9999288260646346,74.70041404018521,4.623999959381168,488.78012181295804,-114.00601750235228,-154.93894958496094,4761.76025390625,True
1599386775.3924136,0.0,10,0.5,0.5,7.9069022361755374,-0.1005,-0.02275,-0.37525,0.02711908603440625,10,1,100,0.1311270140563435,-10,-1,-100,18894.32199069287,-0.01170630085615548,0.0023033291703066956,0.9999288260646346,74.70041404018521,4.623999959381168,488.78012181295804,-114.00601750235228,-154.93894958496094,4761.76025390625,True
1599386775.4263217,0.0,10,0.5,0.5,7.872625786972047,-0.1005,-0.02275,-0.37525,-0.032086174627655416,10,1,100,0.07480269034827565,-10,-1,-100,18889.75085393584,-0.011198497552723008,0.0017677139321026437,0.9999357323548428,74.73402455920439,4.625014770500155,490.70121379266567,-114.3692112768489,-154.80908203125,4761.76025390625,True
1599386775.46023,0.0,10,0.5,0.5,7.859361612701417,-0.1005,-0.02275,-0.37525,-0.008500650485513649,10,1,100,0.09667301634629227,-10,-1,-100,18887.459837815957,-0.0109398882919888,0.001498192405816268,0.999939035273488,74.77309181583405,4.626892124930883,491.8091176941061,-114.55080261471993,-154.63363647460938,4761.76025390625,True
1599386775.4911501,0.0,10,0.5,0.5,7.667344828033448,-0.1005,-0.02275,-0.37525,-0.0487347761015306,10,1,100,0.06665256318944417,-10,-1,-100,18882.86691019556,-0.01043560518365319,0.0008903943460164748,0.9999451511669826,74.89516562816938,4.633350974558542,494.3182018422333,-114.9139714691184,-154.06280517578125,4761.76025390625,True
1599386775.526054,0.0,10,0.5,0.5,7.701513339996338,-0.1005,-0.02275,-0.37525,-0.02081764254083165,10,1,100,0.08787917306050853,-10,-1,-100,18880.56499905826,-0.010173845339218598,0.0005949441908593211,0.9999480681077509,74.97743886974459,4.637887654431085,495.7154907036068,-115.09554793245701,-153.66680908203125,4761.76025390625,True
1599386775.5599635,0.0,10,0.5,0.5,7.374218098449707,-0.1005,-0.02275,-0.37525,-0.06074871435163887,10,1,100,0.056297092270749596,-10,-1,-100,18875.9502830063,-0.009652485214595274,-3.321043001822562e-05,0.9999534131279563,75.18211273749735,4.64943261407776,498.78231193347267,-115.45868254351522,-152.65457153320312,4761.76025390625,True
1599386775.5908813,0.0,10,0.5,0.5,7.134379586410523,-0.1005,-0.02275,-0.37525,-0.06912891430727085,10,1,100,0.04899625022525009,-10,-1,-100,18871.32104225282,-0.00911610256845614,-0.0006765652573602711,0.999958218593864,75.43461199273828,4.663929759971759,502.1772344046429,-115.82178968723946,-151.34832763671875,4761.76025390625,True
1599386775.6267853,0.0,10,0.5,0.5,7.257543315505981,-0.1005,-0.02275,-0.37525,-0.04243698732599188,10,1,100,0.07266748070537686,-10,-1,-100,18869.000975427916,-0.008847645059627415,-0.001014634768065247,0.9999603440602964,75.57612900089006,4.672124773537437,503.98091865547667,-116.00333198318764,-150.5851593017578,4761.76025390625,True
1599386775.6606944,0.0,10,0.5,0.5,6.70518574180603,-0.1005,-0.02275,-0.37525,-0.08371708211085718,10,1,100,0.03839269791538502,-10,-1,-100,18864.349949933472,-0.008295753853600298,-0.0016931581490794898,0.9999641561993524,75.88304638974498,4.690009527636575,507.75786239501525,-116.36639199971442,-148.83839416503906,4761.76025390625,True
1599386775.6906145,0.0,10,0.5,0.5,6.376804927825928,-0.1005,-0.02275,-0.37525,-0.09129321150104577,10,1,100,0.03036300339340288,-10,-1,-100,18859.684403274092,-0.007724828602507412,-0.0023745732715462113,0.9999673436792023,76.2114268042024,4.709269024597682,511.69292079223135,-116.72941775201691,-146.7978515625,4761.76025390625,True
1599386775.7245238,0.0,10,0.5,0.5,6.586296087265015,-0.1005,-0.02275,-0.37525,-0.062482480753202285,10,1,100,0.05522603362203994,-10,-1,-100,18857.346184840193,-0.007435452714732078,-0.0027278731920429692,0.9999686358835337,76.37893982372783,4.719133698126062,513.6883884887484,-116.91091744363824,-145.66763305664062,4761.76025390625,True
1599386775.7594304,0.0,10,0.5,0.5,5.809119178771973,-0.1005,-0.02275,-0.37525,-0.10425069514804916,10,1,100,0.01807219195839692,-10,-1,-100,18852.658858517185,-0.006838504118122677,-0.0034241921575728575,0.9999707544570963,76.7100240719703,4.738706300743023,517.6640894490416,-117.27389021436713,-143.18692016601562,4761.76025390625,True
1599386775.7903478,0.0,10,0.5,0.5,5.393711376190186,-0.1005,-0.02275,-0.37525,-0.11047761152151778,10,1,100,0.009276098533314098,-10,-1,-100,18847.957014419953,-0.006219822720463015,-0.004109097815004584,0.9999722141742103,77.01988393511803,4.75712634733222,521.5110637862247,-117.63682830184435,-140.41265869140625,4761.76025390625,True
1599386775.8242562,0.0,10,0.5,0.5,5.690219884490967,-0.1005,-0.02275,-0.37525,-0.08113225003574989,10,1,100,0.03594616433339675,-10,-1,-100,18845.600648899912,-0.00590413119856546,-0.004459865771689335,0.9999726250413502,77.1600807808358,4.76550363246014,523.3399024893014,-117.81828508229,-138.9156951904297,4761.76025390625,True
1599386775.8581655,0.0,10,0.5,0.5,4.688396817398072,-0.1005,-0.02275,-0.37525,-0.12116984822873732,10,1,100,-0.004489692702168632,-10,-1,-100,18840.877030502073,-0.005253659727412623,-0.005137860024868353,0.9999730003624265,77.39638024571029,4.779726964056908,526.7071539232834,-118.18117634580463,-135.7016143798828,4761.76025390625,True
1599386775.8915722,0.0,10,0.5,0.5,4.184964029693603,-0.1005,-0.02275,-0.37525,-0.12555953086935706,10,1,100,-0.013687788099941707,-10,-1,-100,18836.138896987308,-0.004583175873304658,-0.005788913002476978,0.9999727411210588,77.5524582660058,4.78929978797499,529.5377270856892,-118.54404258407826,-132.1942138671875,4761.76025390625,True
1599386775.9254827,0.0,10,0.5,0.5,4.568025591278076,-0.1005,-0.02275,-0.37525,-0.0971885529715491,10,1,100,0.015123926804272568,-10,-1,-100,18833.764387545874,-0.004240178240827811,-0.00611762890798433,0.9999722973687973,77.5917266307595,4.791822087386952,530.690740990647,-118.72546865166501,-130.33074951171875,4761.76025390625,True
1599386775.9593909,0.0,10,0.5,0.5,3.3417382041931147,-0.1005,-0.02275,-0.37525,-0.13313653196756559,10,1,100,-0.02813892526534663,-10,-1,-100,18829.004483321565,-0.00353949621460471,-0.006738314936908778,0.999971033119639,77.57443518514748,4.791232843479433,532.342606755658,-119.08831232051267,-126.38385009765625,4761.76025390625,True
1599386775.9896524,0.0,10,0.5,0.5,2.7505716175079353,-0.1005,-0.02275,-0.37525,-0.1352608470445862,10,1,100,-0.037020759597644025,-10,-1,-100,18824.230065454612,-0.0028265941957855718,-0.007316683572841333,0.9999692377802167,77.40369302360054,4.781557351400815,532.9386368607958,-119.45115416741247,-122.14384460449219,4761.76025390625,True
1599386776.0245633,0.0,10,0.5,0.5,3.2201391876220704,-0.1005,-0.02275,-0.37525,-0.10942791524903972,10,1,100,-0.006328404377010141,-10,-1,-100,18821.837413906236,-0.002462494825826495,-0.0076025161115261764,0.9999680684241905,77.25072861704862,4.7726877118641555,532.7683165471929,-119.63257851951718,-119.91417694091797,4761.76025390625,True
1599386776.0584674,0.0,10,0.5,0.5,1.769550738716126,-0.1005,-0.02275,-0.37525,-0.13919539317048715,10,1,100,-0.050963788546969244,-10,-1,-100,18817.041224598186,-0.0017305031186610521,-0.008128224634307393,0.9999654680653981,76.7888029689655,4.745566627584198,531.339696267299,-119.99544337672258,-115.23501586914062,4761.76025390625,True
1599386776.0896842,0.0,10,0.5,0.5,1.090753557777405,-0.1005,-0.02275,-0.37525,-0.13901646426218828,10,1,100,-0.058627719122479896,-10,-1,-100,18812.23051973246,-0.0010005703338206173,-0.008599605436358269,0.9999625221203773,76.0917812027757,4.704179229801736,528.2608836387601,-120.35834361474852,-110.2630386352539,4761.76025390625,True
1599386776.1225612,0.0,10,0.5,0.5,1.6467457569122317,-0.1005,-0.02275,-0.37525,-0.11735957466693425,10,1,100,-0.026952600666977293,-10,-1,-100,18809.81972342427,-0.0006302579097287022,-0.00882654770255786,0.9999608466488186,75.64483319016497,4.677456721877995,526.0262908074067,-120.53981255399451,-107.66747283935547,4761.76025390625,True
1599386776.1583302,0.0,10,0.5,0.5,-0.02791027889251696,-0.1005,-0.02275,-0.37525,-0.1393343295383475,10,1,100,-0.0706049639434552,-10,-1,-100,18804.98724132043,9.814799213126144e-05,-0.00922834076167256,0.9999574131400587,74.53419466920477,4.610608356175585,520.016951001212,-120.9027997279577,-102.25675964355469,4761.76025390625,True
1599386776.1912425,0.0,10,0.5,0.5,0.5797979501724244,-0.1005,-0.02275,-0.37525,-0.11921763764115534,10,1,100,-0.03741550705963135,-10,-1,-100,18802.565554831992,0.0004531562228867417,-0.009406393184538737,0.9999556562251627,73.88594370918402,4.571382362926828,516.3450928254224,-121.08432204963825,-99.44170379638672,4761.76025390625,True
1599386776.22316,0.0,10,0.5,0.5,-1.2290666297912596,-0.1005,-0.02275,-0.37525,-0.1376587457550412,10,1,100,-0.08019685913416691,-10,-1,-100,18797.711288747494,0.0011596243461145022,-0.009732024976216343,0.9999519703271944,72.52997901111429,4.489008642621745,508.542266263322,-121.44742703033067,-93.59257507324219,4761.76025390625,True
1599386776.2710314,0.0,10,0.5,0.5,-1.9701043006896972,-0.1005,-0.02275,-0.37525,-0.13457233953190234,10,1,100,-0.08359202611866638,-10,-1,-100,18792.842495789053,0.0018275125214357168,-0.009996410992100413,0.999948364649526,70.916538095512,4.390197227169452,498.8684547094315,-121.81062424326753,-87.60601806640625,4761.76025390625,True
1599386776.3059351,0.0,10,0.5,0.5,-2.718235899353027,-0.1005,-0.02275,-0.37525,-0.13304481053245676,10,1,100,-0.08917860748138962,-10,-1,-100,18787.959171915078,0.0024799546106958835,-0.010219349122832684,0.9999447058355949,69.1771146059119,4.282916627272779,488.2324670071293,-122.1739157630402,-81.515869140625,4761.76025390625,True
1599386776.3368478,0.0,10,0.5,0.5,-3.3941717239379883,-0.1005,-0.02275,-0.37525,-0.12983056133984644,10,1,100,-0.08970461057511765,-10,-1,-100,18783.061316158855,0.0030723934010341986,-0.010389635127032906,0.9999413062178781,70.017355410324,4.334602428271953,495.7822071257535,-122.53720579340595,-75.50601196289062,4761.76025390625,True
1599386776.3727226,0.0,10,0.5,0.5,-2.628985454940796,-0.1005,-0.02275,-0.37525,-0.12092755697791552,10,1,100,-0.06197856625687402,-10,-1,-100,18780.606940370053,0.0033535564551787976,-0.010460710589784471,0.9999396617761787,71.09385034272593,4.400842727335594,504.22649694136254,-122.71879443967867,-72.59710693359375,4761.76025390625,True
1599386776.4076626,0.0,10,0.5,0.5,-4.309572974205017,-0.1005,-0.02275,-0.37525,-0.1264718004075171,10,1,100,-0.09197057330282028,-10,-1,-100,18775.68729577947,0.0038765265218361216,-0.010573128501211128,0.9999365887374172,72.98168069813644,4.5165694687485685,519.3016037988083,-123.0818690230475,-66.9964599609375,4761.76025390625,True
1599386776.4385836,0.0,10,0.5,0.5,-6.0496999433517455,-0.1005,-0.02275,-0.37525,-0.12725801424084404,10,1,100,-0.11502380396644973,-10,-1,-100,18768.28060684877,0.004556431379702595,-0.010680251361113875,0.9999325833094678,75.18993920764302,4.651171918083671,537.6158445211324,-123.62625874168802,-59.151947021484375,4761.76025390625,True
1599386776.4724903,0.0,10,0.5,0.5,-5.532937759780884,-0.1005,-0.02275,-0.37525,-0.12093109888654865,10,1,100,-0.08902526850091094,-10,-1,-100,18763.324671912706,0.004933124562882198,-0.010718226870600273,0.9999303895245896,76.29001864007186,4.7179318481964625,547.2388842734081,-123.98906485024222,-54.295166015625,4761.76025390625,True
1599386776.505369,0.0,10,0.5,0.5,-3.8318526853561403,-0.1005,-0.02275,-0.37525,-0.11732271585471307,10,1,100,-0.05191228843021178,-10,-1,-100,18763.324671912706,0.004933124562882198,-0.010718226870600273,0.9999303895245896,76.29001864007186,4.7179318481964625,547.2388842734081,-123.98906485024222,-54.295166015625,4761.76025390625,True
1599386776.5412982,0.0,10,0.5,0.5,-6.1095130250930785,-0.1005,-0.02275,-0.37525,-0.12034280513651974,10,1,100,-0.08560133556258495,-10,-1,-100,18758.354226981523,0.005234993194475817,-0.0107443277857904,0.9999285745825476,77.13274457395026,4.769003357917189,555.059507047793,-124.35179607876019,-49.73699951171875,4761.76025390625,True
1599386776.576177,0.0,10,0.5,0.5,-6.538737261581422,-0.1005,-0.02275,-0.37525,-0.11858483470199714,10,1,100,-0.08306677782047062,-10,-1,-100,18753.369274647674,0.005482030664658441,-0.010750858036920989,0.9999271805442942,77.75505635586661,4.806778222176636,561.3273212835081,-124.71446903152862,-45.477203369140625,4761.76025390625,True
1599386776.6131115,0.0,10,0.5,0.5,-6.934403101348877,-0.1005,-0.02275,-0.37525,-0.11738031853890793,10,1,100,-0.07887894637197204,-10,-1,-100,18748.369816720253,0.005664609527730345,-0.010744918270047346,0.9999262267438875,78.1908933950873,4.833410353586088,566.2736550475695,-125.07709849819547,-41.51568603515625,4761.76025390625,True
1599386776.6470275,0.0,10,0.5,0.5,-6.441826729583741,-0.1005,-0.02275,-0.37525,-0.11778372180785165,10,1,100,-0.06798028050910114,-10,-1,-100,18745.86464871571,0.005728023261763891,-0.010742505323263572,0.9999258914184052,78.34924979550169,4.843194061194275,568.3226570024658,-125.25840097873733,-39.64678955078125,4761.76025390625,True
1599386776.6779516,0.0,10,0.5,0.5,-7.507608136749267,-0.1005,-0.02275,-0.37525,-0.1169459250196263,10,1,100,-0.07086491755216759,-10,-1,-100,18740.843434821465,0.005808943294321293,-0.010732219804294063,0.999925535045423,78.56802754020565,4.856997907491678,571.720049451367,-125.62098813992785,-36.1326904296875,4761.76025390625,True
1599386776.7128477,0.0,10,0.5,0.5,-8.520471200561524,-0.1005,-0.02275,-0.37525,-0.11569921743731226,10,1,100,-0.06321967165066718,-10,-1,-100,18733.28442117991,0.0058105169521841206,-0.010711224186594145,0.9999257510281314,78.70854133271713,4.866759920637356,575.4667078699694,-126.16484013025973,-31.42022705078125,4761.76025390625,True
1599386776.7477534,0.0,10,0.5,0.5,-6.845796719360353,-0.1005,-0.02275,-0.37525,-0.11782383056698506,10,1,100,-0.06330800191408491,-10,-1,-100,18733.28442117991,0.0058105169521841206,-0.010711224186594145,0.9999257510281314,78.70854133271713,4.866759920637356,575.4667078699694,-126.16484013025973,-31.42022705078125,4761.76025390625,True
