Timestamp,Input Throttle,horizon,dT,dt,Input Roll,Roll P,Roll I,Roll D,Input Pitch,Pitch P,Pitch I,Pitch D,Input Yaw,Yaw P,Yaw I,Yaw D,Altitude,Direction X,Direction Y,Direction Z,Drag X,Drag Y,Drag Z,Vertical Velocity,Roll,Mass,Has Fuel
1599387531.3391025,0.0,10,0.5,0.5,-8.425584770202637,-0.15025,-0.02275,-0.001,-0.00013790584202588328,10,1,100,0.4981488093580475,-10,-1,-100,19349.722297936212,-0.04884612524767496,-0.00017451671781597527,0.9988063003366586,61.07657223099619,3.686300215523518,233.73168650103972,-68.66499463905703,-33.922882080078125,4761.76025390625,True
1599387531.3710167,0.0,10,0.5,0.5,-8.55298239517212,-0.15025,-0.02275,-0.001,-0.0008561328986199557,10,1,100,0.49896108088722946,-10,-1,-100,19348.345348739065,-0.0488971726648178,-0.00016627593644032623,0.9988038039863986,61.166325543292935,3.6923904383604436,234.72074779230175,-68.84745131896551,-33.924072265625,4761.76025390625,True
1599387531.4039388,0.0,10,0.5,0.5,-8.680376305389403,-0.15025,-0.02275,-0.001,-0.0007165951986031298,10,1,100,0.5045545271200451,-10,-1,-100,19346.96475063055,-0.04894997694373251,-0.00015736463252009203,0.9988012189587978,61.25635468712477,3.698501034382257,235.71294125612553,-69.02990455776244,-33.925262451171875,4761.76025390625,True
1599387531.4338582,0.0,10,0.5,0.5,-8.801046926879883,-0.15025,-0.02275,-0.001,0.01104360848805998,10,1,100,0.5092881225213495,-10,-1,-100,19344.19260729279,-0.04899651354008162,-4.2209445775196224e-05,0.9987989486775,61.43725111044012,3.710784103703264,237.70680622917627,-69.39480081124364,-33.97088623046875,4761.76025390625,True
1599387531.4717567,0.0,10,0.5,0.5,-8.912454315185547,-0.15025,-0.02275,-0.001,0.011122168685863463,10,1,100,0.5088710062414417,-10,-1,-100,19342.80106239044,-0.048990485285545206,6.322964346908182e-05,0.9987992432683853,61.530826724416166,3.7171184101018477,238.71899995217987,-69.57724358262499,-34.077362060546875,4761.76025390625,True
1599387531.5077443,0.0,10,0.5,0.5,-8.975851572418211,-0.15025,-0.02275,-0.001,0.028566024823447885,10,1,100,0.5103437036499974,-10,-1,-100,19340.00702619343,-0.048953856407603025,0.0003176063898114938,0.9988009907228791,61.72809788579923,3.7303959827125523,240.78929247298913,-69.9421178540492,-34.50006103515625,4761.76025390625,True
1599387531.5426497,0.0,10,0.5,0.5,-8.994730388641356,-0.15025,-0.02275,-0.001,0.04597942291559069,10,1,100,0.5046756132224423,-10,-1,-100,19337.198395610903,-0.04882452582703454,0.000706872863333338,0.9988071215247317,61.93812122859848,3.7444234617497525,242.91855406206636,-70.30697570669393,-35.21282958984375,4761.76025390625,True
1599387531.5755968,0.0,10,0.5,0.5,-8.875262802886963,-0.15025,-0.02275,-0.001,0.10169348585925765,10,1,100,0.4799303918173661,-10,-1,-100,19332.958086317987,-0.04843761008117428,0.0015666003452380474,0.998824981512268,62.2643263992172,3.766049023139803,246.17430703087564,-70.85422897880646,-36.83148193359375,4761.76025390625,True
1599387531.6114957,0.0,10,0.5,0.5,-8.997839833831787,-0.15025,-0.02275,-0.001,0.015877397703310512,10,1,100,0.5234657274115092,-10,-1,-100,19332.958086317987,-0.04843761008117428,0.0015666003452380474,0.998824981512268,62.2643263992172,3.766049023139803,246.17430703087564,-70.85422897880646,-36.83148193359375,4761.76025390625,True
1599387531.6464117,0.0,10,0.5,0.5,-8.900097765350342,-0.15025,-0.02275,-0.001,0.09853829312877273,10,1,100,0.48422676527343406,-10,-1,-100,19330.11297255673,-0.04803685805257253,0.002316638848792033,0.9988428772599227,62.476638203845695,3.7800542609857732,248.33644040057544,-71.21904119462528,-38.277435302734375,4761.76025390625,True
1599387531.6833122,0.0,10,0.5,0.5,-8.756071340942382,-0.15025,-0.02275,-0.001,0.11849359358795725,10,1,100,0.4704361129752153,-10,-1,-100,19327.253266928834,-0.04750349858926661,0.00317779782088025,0.998866016652278,62.670904603281755,3.7928529310482477,250.4359262828688,-71.58383487510491,-40.0172119140625,4761.76025390625,True
1599387531.7154498,0.0,10,0.5,0.5,-8.266065200042723,-0.15025,-0.02275,-0.001,0.20482734782847659,10,1,100,0.41054993144350715,-10,-1,-100,19322.936349816155,-0.04647542708748062,0.0047424743662936265,0.9989081757668827,62.89531296916008,3.807709876264373,253.33164489865965,-72.1309930943724,-43.1767578125,4761.76025390625,True
1599387531.7513168,0.0,10,0.5,0.5,-8.24817488632202,-0.15025,-0.02275,-0.001,0.04885056831741233,10,1,100,0.5131149070643727,-10,-1,-100,19322.936349816155,-0.04647542708748062,0.0047424743662936265,0.9989081757668827,62.89531296916008,3.807709876264373,253.33164489865965,-72.1309930943724,-43.1767578125,4761.76025390625,True
1599387531.7892401,0.0,10,0.5,0.5,-7.8529769241333005,-0.15025,-0.02275,-0.001,0.17674241370237342,10,1,100,0.41738899726529693,-10,-1,-100,19320.040167281404,-0.04560744113463107,0.005900673107067079,0.99894201201573,62.97471130618201,3.8131263646967986,254.98642324143032,-72.49574720460315,-45.650482177734375,4761.76025390625,True
1599387531.8261476,0.0,10,0.5,0.5,-7.410214139556884,-0.15025,-0.02275,-0.001,0.1943718080521888,10,1,100,0.39150412169732596,-10,-1,-100,19317.12939466117,-0.04458612691997306,0.007108445654084136,0.9989802537020734,62.973348031493295,3.8134286805062096,256.31645686556743,-72.86049150635517,-48.41851806640625,4761.76025390625,True
1599387531.864047,0.0,10,0.5,0.5,-6.91739755706787,-0.15025,-0.02275,-0.001,0.22426815122848615,10,1,100,0.36483349142998645,-10,-1,-100,19314.204032671405,-0.04341920313909503,0.008471800892965424,0.9990210214947413,62.86753127608951,3.8071607960180547,257.21979097010285,-73.22523111673942,-51.479400634765625,4761.76025390625,True
1599387531.9019518,0.0,10,0.5,0.5,-6.3742465568542475,-0.15025,-0.02275,-0.001,0.2360774471534688,10,1,100,0.33442138349746925,-10,-1,-100,19311.264081017696,-0.042086921132790764,0.009811159078081751,0.9990657797297968,62.633079358481666,3.7928511463268277,257.5904881244629,-73.58997322832806,-54.8353271484375,4761.76025390625,True
1599387531.9388385,0.0,10,0.5,0.5,-5.488166722869873,-0.15025,-0.02275,-0.001,0.3317955579482134,10,1,100,0.21504257119362985,-10,-1,-100,19306.82679723075,-0.03979661883765584,0.011890645447944501,0.9991370484973129,61.980336787567836,3.752718493826619,256.8821795066882,-74.1371091799772,-60.420745849609375,4761.76025390625,True
1599387531.9767427,0.0,10,0.5,0.5,-4.8211745941162105,-0.15025,-0.02275,-0.001,0.2757563554555079,10,1,100,0.25442124961759816,-10,-1,-100,19303.850368954823,-0.03808036927433609,0.013262254811429036,0.9991866682823821,61.30333711415651,3.711094604121982,255.38109738792573,-74.5018960477768,-64.51272583007812,4761.76025390625,True
1599387532.0136933,0.0,10,0.5,0.5,-4.436057384490966,-0.15025,-0.02275,-0.001,0.21078996868224498,10,1,100,0.32591048354315155,-10,-1,-100,19302.35668273829,-0.03717946019864757,0.01390793648532514,0.9992118179055217,60.88156358540792,3.685201391453785,254.27254583901558,-74.68430223015272,-66.66964721679688,4761.76025390625,True
1599387532.0505972,0.0,10,0.5,0.5,-3.687725798797607,-0.15025,-0.02275,-0.001,0.2874409898416902,10,1,100,0.20466094000419968,-10,-1,-100,19299.358365202905,-0.03526805373208019,0.015181209747010616,0.999262575731008,59.85368627192232,3.6222438291578554,251.2559742671149,-75.04914711646398,-71.20449829101562,4761.76025390625,True
1599387532.087532,0.0,10,0.5,0.5,-3.2616246292114255,-0.15025,-0.02275,-0.001,0.22881740071654283,10,1,100,0.2838219684313503,-10,-1,-100,19297.853733341675,-0.034261180334408656,0.015794876982017772,0.9992880932860233,59.24054515428995,3.5847857856830547,249.3144143108638,-75.23158845114958,-73.58258056640625,4761.76025390625,True
1599387532.1254277,0.0,10,0.5,0.5,-2.44199514465332,-0.15025,-0.02275,-0.001,0.2990321301426384,10,1,100,0.1495137921354048,-10,-1,-100,19294.83352170163,-0.03213596132179237,0.01698102436988358,0.999339244101458,57.7994963204155,3.4970119217871494,244.4849009864164,-75.5965150148104,-78.55999755859375,4761.76025390625,True
1599387532.1603038,0.0,10,0.5,0.5,-1.153346189880371,-0.15025,-0.02275,-0.001,0.35247144317770374,10,1,100,-0.007916152119523012,-10,-1,-100,19290.275830847328,-0.028785798604156115,0.018534026159168007,0.9994137619990292,55.05808217759613,3.3308941531147833,234.65674798577396,-76.1440295185362,-86.5806884765625,4761.76025390625,True
1599387532.1982474,0.0,10,0.5,0.5,-1.068250661468506,-0.15025,-0.02275,-0.001,0.19843459955447107,10,1,100,0.3254179553910547,-10,-1,-100,19290.275830847328,-0.028785798604156115,0.018534026159168007,0.9994137619990292,55.05808217759613,3.3308941531147833,234.65674798577396,-76.1440295185362,-86.5806884765625,4761.76025390625,True
1599387532.2381413,0.0,10,0.5,0.5,-0.11680773849487307,-0.15025,-0.02275,-0.001,0.29914240955333926,10,1,100,0.06524825323757183,-10,-1,-100,19287.21911636612,-0.02643498342850247,0.019439164813244005,0.9994615102756574,52.8171938938212,3.1957552913550358,226.23792600089308,-76.50912986982246,-92.29721069335938,4761.76025390625,True
1599387532.2769957,0.0,10,0.5,0.5,1.3511525642395017,-0.15025,-0.02275,-0.001,0.3325808094296614,10,1,100,-0.09680456045291647,-10,-1,-100,19282.60666336969,-0.022840111525913434,0.02055603325771577,0.9995277779042419,54.56700572475358,3.3034558928269044,235.4874448561077,-77.05673395543859,-101.42657470703125,4761.76025390625,True
1599387532.317474,0.0,10,0.5,0.5,2.909389252471924,-0.15025,-0.02275,-0.001,0.31216961531140563,10,1,100,-0.14330392568421846,-10,-1,-100,19277.961362669244,-0.019166821757463273,0.021376043829633564,0.9995877638776453,57.19967583646648,3.465763793149329,248.68618716008115,-77.60411763986059,-111.08853149414062,4761.76025390625,True
1599387532.3563666,0.0,10,0.5,0.5,3.9766211875915523,-0.15025,-0.02275,-0.001,0.2756391600648213,10,1,100,-0.03913700675395715,-10,-1,-100,19274.84625341103,-0.016793193773765678,0.021780789848788347,0.9996217213708591,58.69977068979251,3.5588279216510315,256.46336875192566,-77.96891692228571,-117.44638061523438,4761.76025390625,True
1599387532.3938563,0.0,10,0.5,0.5,4.090687403106689,-0.15025,-0.02275,-0.001,0.23601641165307893,10,1,100,0.19609707406574536,-10,-1,-100,19274.84625341103,-0.016793193773765678,0.021780789848788347,0.9996217213708591,58.69977068979251,3.5588279216510315,256.46336875192566,-77.96891692228571,-117.44638061523438,4761.76025390625,True
1599387532.4337444,0.0,10,0.5,0.5,6.005083847045898,-0.15025,-0.02275,-0.001,0.29101180414112215,10,1,100,-0.31183153257253515,-10,-1,-100,19268.572269894765,-0.012194193955622112,0.022273590822894682,0.9996775424033627,60.68600348385193,3.6831033837831,267.73306129546376,-78.69828020440357,-129.3397979736328,4761.76025390625,True
1599387532.4756303,0.0,10,0.5,0.5,6.125448236465454,-0.15025,-0.02275,-0.001,0.24244094483807702,10,1,100,0.1457610632641757,-10,-1,-100,19268.572269894765,-0.012194193955622112,0.022273590822894682,0.9996775424033627,60.68600348385193,3.6831033837831,267.73306129546376,-78.69828020440357,-129.3397979736328,4761.76025390625,True
1599387532.5139728,0.0,10,0.5,0.5,7.873513767242431,-0.15025,-0.02275,-0.001,0.25904123133290924,10,1,100,-0.32569955322541144,-10,-1,-100,19262.239946589107,-0.007928249247879307,0.022418612778446905,0.9997172343542715,61.18377283514029,3.7155617097007387,272.5403725286126,-79.42747832173768,-140.05859375,4761.76025390625,True
1599387532.5518696,0.0,10,0.5,0.5,8.002704277801513,-0.15025,-0.02275,-0.001,0.2450827946185433,10,1,100,0.09847414634147769,-10,-1,-100,19262.239946589107,-0.007928249247879307,0.022418612778446905,0.9997172343542715,61.18377283514029,3.7155617097007387,272.5403725286126,-79.42747832173768,-140.05859375,4761.76025390625,True
1599387532.5903156,0.0,10,0.5,0.5,9.223130741119384,-0.15025,-0.02275,-0.001,0.23299080539144226,10,1,100,-0.23563530029240515,-10,-1,-100,19257.45242220722,-0.004909852050622442,0.022305154161273915,0.9997391527046856,60.82952132270811,3.694635931118572,272.9109394967414,-79.97436192214118,-147.32315063476562,4761.76025390625,True
1599387532.6282477,0.0,10,0.5,0.5,9.697813468170166,-0.15025,-0.02275,-0.001,0.24459373934930548,10,1,100,-0.03656583833059705,-10,-1,-100,19255.849288947997,-0.003997282385999487,0.022304062883458948,0.9997432422939488,60.60591625468062,3.6810866508458346,272.5554225654311,-80.15666332485426,-149.59593200683594,4761.76025390625,True
1599387532.663154,0.0,10,0.5,0.5,10.790494829940798,-0.15025,-0.02275,-0.001,0.21948536079371989,10,1,100,-0.24451209818836994,-10,-1,-100,19251.01801141654,-0.0012976509658556865,0.022072208373058004,0.9997555369786693,59.70794190180727,3.6263200668475837,270.4333860113685,-80.70360410345322,-155.97344970703125,4761.76025390625,True
1599387532.7020142,0.0,10,0.5,0.5,11.495226051712036,-0.15025,-0.02275,-0.001,0.22846550758270268,10,1,100,-0.1574520163369525,-10,-1,-100,19247.778927220148,0.000345520071480285,0.021941690902488497,0.9997591924139632,58.96973989579645,3.581190044089291,268.35342587800693,-81.06826898855533,-159.8545379638672,4761.76025390625,True
1599387532.7439384,0.0,10,0.5,0.5,11.602287628173828,-0.15025,-0.02275,-0.001,0.2415738193469389,10,1,100,0.004913853213750304,-10,-1,-100,19247.778927220148,0.000345520071480285,0.021941690902488497,0.9997591924139632,58.96973989579645,3.581190044089291,268.35342587800693,-81.06826898855533,-159.8545379638672,4761.76025390625,True
1599387532.7798073,0.0,10,0.5,0.5,12.7382429813385,-0.15025,-0.02275,-0.001,0.22181723210744952,10,1,100,-0.32246781455437373,-10,-1,-100,19241.25699465233,0.0033061364022402796,0.021761939290262503,0.9997577143790475,57.33936162330772,3.4816165747923637,263.39546518091953,-81.79769830899826,-166.72711181640625,4761.76025390625,True
1599387532.8167431,0.0,10,0.5,0.5,12.843484070968628,-0.15025,-0.02275,-0.001,0.23979050827419637,10,1,100,-0.028416114495974837,-10,-1,-100,19241.25699465233,0.0033061364022402796,0.021761939290262503,0.9997577143790475,57.33936162330772,3.4816165747923637,263.39546518091953,-81.79769830899826,-166.72711181640625,4761.76025390625,True
1599387532.853638,0.0,10,0.5,0.5,13.381214732360839,-0.15025,-0.02275,-0.001,0.22550599163952173,10,1,100,-0.17635914716353435,-10,-1,-100,19237.97414365865,0.004636981853438219,0.021632545185886035,0.9997552357392642,56.511785325483416,3.431214177149229,260.8086817114902,-82.16246130912499,-169.72000122070312,4761.76025390625,True
1599387532.8895507,0.0,10,0.5,0.5,13.877586652755737,-0.15025,-0.02275,-0.001,0.24326873006553237,10,1,100,-0.1784666736856145,-10,-1,-100,19234.676701260847,0.005850699617628837,0.021676976390904806,0.9997479072288835,55.70911606174739,3.382460538992362,258.3028467604196,-82.52725330921913,-172.41421508789062,4761.76025390625,True
1599387532.9234517,0.0,10,0.5,0.5,14.476122479629517,-0.15025,-0.02275,-0.001,0.23371895266399878,10,1,100,-0.23978637116969773,-10,-1,-100,19229.70317664789,0.007499004881416057,0.02163122645216933,0.9997378931339772,54.608268910159275,3.315874727931726,254.96259708305936,-83.07448765991134,-175.90261840820312,4761.76025390625,True
1599387532.9623177,0.0,10,0.5,0.5,14.849762480545042,-0.15025,-0.02275,-0.001,0.24617419239223692,10,1,100,-0.1833271112935846,-10,-1,-100,19226.369251595228,0.008470173436776779,0.021703580856599496,0.9997285685324551,53.96509078485107,3.2771774701354146,253.1226799495432,-83.43933536294107,-177.8568878173828,4761.76025390625,True
1599387533.0062017,0.0,10,0.5,0.5,14.917272463226318,-0.15025,-0.02275,-0.001,0.23887859461875283,10,1,100,-0.08754825830625237,-10,-1,-100,19226.369251595228,0.008470173436776779,0.021703580856599496,0.9997285685324551,53.96509078485107,3.2771774701354146,253.1226799495432,-83.43933536294107,-177.8568878173828,4761.76025390625,True
1599387533.0451233,0.0,10,0.5,0.5,15.232256273651123,-0.15025,-0.02275,-0.001,0.25452522441062686,10,1,100,-0.1851142455136833,-10,-1,-100,19223.020732145058,0.009345802906096354,0.021846368838368223,0.9997176562093012,53.41387024801019,3.2441991235118994,251.6889635928684,-83.80419781550468,-179.51434326171875,4761.76025390625,True
1599387533.0820322,0.0,10,0.5,0.5,-38.798865458679195,-0.15025,-0.02275,-0.001,0.28440550820335075,10,1,100,-0.25855967138287,-10,-1,-100,19216.279908448458,0.010799839518950437,0.02224802034675973,0.99969414775571,52.63231113685742,3.1980653011015003,250.27767526774912,-84.53394851003421,178.05934143066406,4761.76025390625,True
1599387533.4086742,0.0,10,0.5,0.5,-39.21004584960937,-0.15025,-0.02275,-0.001,0.24427099030862734,10,1,100,-0.11420144204220879,-10,-1,-100,19216.279908448458,0.010799839518950437,0.02224802034675973,0.99969414775571,52.63231113685742,3.1980653011015003,250.27767526774912,-84.53394851003421,178.05934143066406,4761.76025390625,True
1599387533.43855,0.0,10,0.5,0.5,-39.915127497100826,-0.15025,-0.02275,-0.001,0.2615820755245306,10,1,100,-0.14831174676789968,-10,-1,-100,19214.585580598912,0.011100429271504472,0.022405115367409512,0.9996873467616569,52.507812029016385,3.1908931722117297,250.25249372848927,-84.71638825389928,177.63836669921875,4761.76025390625,True
1599387533.4744873,0.0,10,0.5,0.5,-40.64650309066772,-0.15025,-0.02275,-0.001,0.2644697044689238,10,1,100,-0.1495208372294593,-10,-1,-100,19212.887603807263,0.011377598693595715,0.022573595489242756,0.9996804404581775,52.413288546783605,3.1855590155917564,250.36793585831168,-84.89882762843331,177.29141235351562,4761.76025390625,True
1599387533.5103617,0.0,10,0.5,0.5,-41.31257669448853,-0.15025,-0.02275,-0.001,0.2890532290810176,10,1,100,-0.17520169479175007,-10,-1,-100,19209.480704554007,0.011855695543980074,0.022949507954474757,0.9996663256146102,52.61018008765905,3.198394199461759,252.444965761229,-85.26369460036605,176.51841735839844,4761.76025390625,True
1599387533.565247,0.0,10,0.5,0.5,-41.9465910457611,-0.15025,-0.02275,-0.001,0.2992559546515936,10,1,100,-0.16971720530030193,-10,-1,-100,19206.059210982057,0.012233907581961289,0.023382801370992187,0.9996517274057605,52.92420184320801,3.2184301856087694,255.0955930673648,-85.62854090807814,175.49725341796875,4761.76025390625,True
1599387533.6028376,0.0,10,0.5,0.5,-42.6457173412323,-0.15025,-0.02275,-0.001,0.2829124184861268,10,1,100,-0.14919332843846267,-10,-1,-100,19204.342991776182,0.012385353092323552,0.02362657612543098,0.9996441306431842,53.112025250566305,3.2303596091087305,256.57504262037025,-85.81095530596872,174.87977600097656,4761.76025390625,True
1599387533.6392496,0.0,10,0.5,0.5,-42.96011597518921,-0.15025,-0.02275,-0.001,0.3857480996026891,10,1,100,-0.1721541736179146,-10,-1,-100,19197.4416346153,0.012727323650456165,0.024781245412641123,0.9996118772346071,54.06618195008246,3.2907432558001224,263.5235129536789,-86.54054396738746,171.67813110351562,4761.76025390625,True
1599387533.6751525,0.0,10,0.5,0.5,-43.75850978813172,-0.15025,-0.02275,-0.001,0.27058893733727907,10,1,100,-0.13838283282602118,-10,-1,-100,19197.4416346153,0.012727323650456165,0.024781245412641123,0.9996118772346071,54.06618195008246,3.2907432558001224,263.5235129536789,-86.54054396738746,171.67813110351562,4761.76025390625,True
1599387533.7110565,0.0,10,0.5,0.5,-44.244915258789064,-0.15025,-0.02275,-0.001,0.345574862220591,10,1,100,-0.14128922013559006,-10,-1,-100,19193.969070118386,0.012749875216712538,0.02546013776198392,0.9995945288301146,54.65381622101888,3.3278991244836913,267.57067722715715,-86.90529014782891,169.63656616210938,4761.76025390625,True
1599387533.745963,0.0,10,0.5,0.5,-44.688121532440185,-0.15025,-0.02275,-0.001,0.3638478326840078,10,1,100,-0.1257939501205959,-10,-1,-100,19190.481916902936,0.012626415938345096,0.026240145293850603,0.9995759242776456,55.30353331133639,3.3690178571399936,271.9489662586382,-87.26999916685192,167.30166625976562,4761.76025390625,True
1599387533.78087,0.0,10,0.5,0.5,-43.82640397834778,-0.15025,-0.02275,-0.001,0.48170055856604943,10,1,100,-0.08304562245553668,-10,-1,-100,19183.46385087457,0.012123898546129252,0.028017002262705155,0.9995339207191793,56.75779030359621,3.461278440241566,281.5588457695373,-87.99929186312791,161.750732421875,4761.76025390625,True
1599387533.8147786,0.0,10,0.5,0.5,-43.79485282669067,-0.15025,-0.02275,-0.001,0.3045917598721887,10,1,100,-0.13342976757983896,-10,-1,-100,19183.46385087457,0.012123898546129252,0.028017002262705155,0.9995339207191793,56.75779030359621,3.461278440241566,281.5588457695373,-87.99929186312791,161.750732421875,4761.76025390625,True
1599387533.8516803,0.0,10,0.5,0.5,-43.52108791427612,-0.15025,-0.02275,-0.001,0.3603046807559436,10,1,100,-0.11145901679146485,-10,-1,-100,19181.70021900942,0.011923234021439829,0.02851838164628902,0.9995221550314664,57.19194582557331,3.488772151553016,284.3320470027122,-88.18158544296223,160.1796875,4761.76025390625,True
1599387533.8875837,0.0,10,0.5,0.5,-42.42241110153198,-0.15025,-0.02275,-0.001,0.5577572521234635,10,1,100,-0.015136546649827096,-10,-1,-100,19174.609238315723,0.01086465687468197,0.03076380011092722,0.9994676322091328,59.04220919225597,3.606129732765584,296.0887361425302,-88.9106243263401,153.16270446777344,4761.76025390625,True
1599387533.9244857,0.0,10,0.5,0.5,-42.37629383773804,-0.15025,-0.02275,-0.001,0.33399683487528886,10,1,100,-0.12089515745868319,-10,-1,-100,19174.609238315723,0.01086465687468197,0.03076380011092722,0.9994676322091328,59.04220919225597,3.606129732765584,296.0887361425302,-88.9106243263401,153.16270446777344,4761.76025390625,True
1599387533.9583952,0.0,10,0.5,0.5,-41.72836880531311,-0.15025,-0.02275,-0.001,0.4752177901803494,10,1,100,-0.04468893439081881,-10,-1,-100,19171.04188015964,0.010173117801980729,0.032040916978482374,0.9994347839220751,60.03577541362677,3.669192863675312,302.3716590304488,-89.27505594191793,149.21484375,4761.76025390625,True
1599387533.9962935,0.0,10,0.5,0.5,-41.35879092941284,-0.15025,-0.02275,-0.001,0.4237706729735294,10,1,100,-0.06667048488408302,-10,-1,-100,19169.25273499952,0.009746289317909588,0.03272658184633138,0.9994168202933085,60.522075061875455,3.700111218608379,305.4762639303222,-89.45724950898982,147.13128662109375,4761.76025390625,True
1599387534.0331986,0.0,10,0.5,0.5,-39.933888790893555,-0.15025,-0.02275,-0.001,0.6902837151494299,10,1,100,0.09539001411155137,-10,-1,-100,19162.059721717378,0.007887696190914189,0.03576553634921712,0.9993290802625795,62.33089742199275,3.8154014650632293,317.30533796000856,-90.18588342598912,138.06588745117188,4761.76025390625,True
1599387534.071098,0.0,10,0.5,0.5,-39.11463748550415,-0.15025,-0.02275,-0.001,0.5761697158192334,10,1,100,0.028156675534133382,-10,-1,-100,19158.441358746262,0.0068136779056763,0.037480836547987305,0.9992741168893851,63.09416794311768,3.864231112795803,322.55712293915025,-90.55012572581128,133.09498596191406,4761.76025390625,True
1599387534.1089969,0.0,10,0.5,0.5,-39.03647629203796,-0.15025,-0.02275,-0.001,0.4058417658208153,10,1,100,-0.07865153325855183,-10,-1,-100,19158.441358746262,0.0068136779056763,0.037480836547987305,0.9992741168893851,63.09416794311768,3.864231112795803,322.55712293915025,-90.55012572581128,133.09498596191406,4761.76025390625,True
1599387534.1454086,0.0,10,0.5,0.5,-38.16278882293701,-0.15025,-0.02275,-0.001,0.61700707925029,10,1,100,0.0649351241471076,-10,-1,-100,19154.808427407756,0.005513628963836368,0.03939030240529695,0.9992086888994053,63.71587944119571,3.9041608973635618,327.11567067144716,-90.91432995057355,127.83305358886719,4761.76025390625,True
1599387534.1803148,0.0,10,0.5,0.5,-37.25091233558654,-0.15025,-0.02275,-0.001,0.6535038831222524,10,1,100,0.08232414215456871,-10,-1,-100,19151.16092857113,0.004179693643534322,0.041447630219739386,0.9991319352869339,64.16610756437395,3.9332916916967364,330.81802447681025,-91.27850812197097,122.27949523925781,4761.76025390625,True
1599387534.218214,0.0,10,0.5,0.5,-35.824121984863275,-0.15025,-0.02275,-0.001,0.8239897202029016,10,1,100,0.18695322913292564,-10,-1,-100,19145.662367842626,0.0020230736570043036,0.04485558981727747,0.9989914330138785,64.41462701036673,3.950237746016556,334.196952593584,-91.82475992104723,113.40315246582031,4761.76025390625,True
1599387534.254394,0.0,10,0.5,0.5,-35.72658171043396,-0.15025,-0.02275,-0.001,0.4848274812661921,10,1,100,-0.02771875348363264,-10,-1,-100,19145.662367842626,0.0020230736570043036,0.04485558981727747,0.9989914330138785,64.41462701036673,3.950237746016556,334.196952593584,-91.82475992104723,113.40315246582031,4761.76025390625,True
1599387534.2942889,0.0,10,0.5,0.5,-34.68624660377502,-0.15025,-0.02275,-0.001,0.7681621294801924,10,1,100,0.14666872521502206,-10,-1,-100,19141.978451769683,0.00044577074448714967,0.04741854862858079,0.9988750084642234,64.2281511683373,3.939614479610541,334.6269863636824,-92.18894357714737,107.12294006347656,4761.76025390625,True
1599387534.3312657,0.0,10,0.5,0.5,-33.594146596908566,-0.15025,-0.02275,-0.001,0.8262925520654448,10,1,100,0.17485763054742692,-10,-1,-100,19138.279967448558,-0.00123493205525013,0.050261828890979146,0.998735312031848,63.715837904425186,3.9088850162935285,333.34739207345666,-92.55316175520241,100.55342102050781,4761.76025390625,True
1599387534.3691635,0.0,10,0.5,0.5,-32.45224473190307,-0.15025,-0.02275,-0.001,0.8694094548804893,10,1,100,0.18548922652303465,-10,-1,-100,19134.566912874696,-0.00284912360946479,0.05322203650792124,0.9985786385280867,62.83817747356589,3.8558134820111687,330.1295675338495,-92.91743268711248,93.69215393066406,4761.76025390625,True
1599387534.4120502,0.0,10,0.5,0.5,-30.131330456924434,-0.15025,-0.02275,-0.001,1.3440266645296488,10,1,100,0.4023395109888276,-10,-1,-100,19127.097081861808,-0.0062764863239604405,0.06020920401589588,0.9981660470438759,59.79924625504383,3.6720357847287417,316.7883259172243,-93.64619529190006,79.10569763183594,4761.76025390625,True
1599387534.4499483,0.0,10,0.5,0.5,-30.011782481384277,-0.15025,-0.02275,-0.001,0.6477542804988531,10,1,100,0.06101965779075004,-10,-1,-100,19127.097081861808,-0.0062764863239604405,0.06020920401589588,0.9981660470438759,59.79924625504383,3.6720357847287417,316.7883259172243,-93.64619529190006,79.10569763183594,4761.76025390625,True
1599387534.4888437,0.0,10,0.5,0.5,-28.720365045928958,-0.15025,-0.02275,-0.001,1.0844102259225161,10,1,100,0.2428765757127234,-10,-1,-100,19123.340299258125,-0.007917830883042347,0.06415814136750381,0.9979083328895371,58.523144711206605,3.5961011960476297,311.31505248579174,-94.01068635241117,71.37947082519531,4761.76025390625,True
1599387534.5282857,0.0,10,0.5,0.5,-27.37571061248779,-0.15025,-0.02275,-0.001,1.172739790753152,10,1,100,0.2581627495768214,-10,-1,-100,19119.568939613644,-0.009535535236618863,0.06852682836304451,0.9976037025604171,61.27777307299014,3.7687939092222877,327.3158086418081,-94.37507033943005,63.36639404296875,4761.76025390625,True
1599387534.5671804,0.0,10,0.5,0.5,-25.33694467964172,-0.15025,-0.02275,-0.001,1.5059794347585505,10,1,100,0.3280190427943839,-10,-1,-100,19113.884582325933,-0.011627551710756759,0.07550132555362354,0.9970779056226547,65.34139184065997,4.025333031054418,351.1743348420755,-94.92135742075683,50.80363464355469,4761.76025390625,True
1599387534.6010914,0.0,10,0.5,0.5,-24.531857837295533,-0.15025,-0.02275,-0.001,1.0909334864815605,10,1,100,0.18622891368298827,-10,-1,-100,19111.982514623553,-0.012226013472274621,0.07803767465587377,0.9968754415316287,66.58014126496013,4.104002753113558,358.56216721511396,-95.1033789226977,46.4727783203125,4761.76025390625,True
1599387534.6409838,0.0,10,0.5,0.5,-22.353314220428466,-0.15025,-0.02275,-0.001,1.7218749536461204,10,1,100,0.28355804820604114,-10,-1,-100,19106.254475817434,-0.013641926217382905,0.08604911255501671,0.9961974945148044,69.86512377639232,4.313527271523333,378.5501043608617,-95.64924946399978,33.047271728515625,4761.76025390625,True
1599387534.6778858,0.0,10,0.5,0.5,-20.775608336257932,-0.15025,-0.02275,-0.001,1.5457917563893453,10,1,100,0.20092495783704767,-10,-1,-100,19102.417591271224,-0.01416366880060469,0.09169403292214166,0.9956864942403205,71.33338387892655,4.408262284708762,388.0696124734212,-96.01305104357908,23.736053466796875,4761.76025390625,True
1599387534.715784,0.0,10,0.5,0.5,-20.595214387512204,-0.15025,-0.02275,-0.001,0.9857272681062063,10,1,100,0.1502116434693785,-10,-1,-100,19102.417591271224,-0.01416366880060469,0.09169403292214166,0.9956864942403205,71.33338387892655,4.408262284708762,388.0696124734212,-96.01305104357908,23.736053466796875,4761.76025390625,True
1599387534.753682,0.0,10,0.5,0.5,-17.47282002677917,-0.15025,-0.02275,-0.001,2.3029548885589746,10,1,100,0.14110304813362212,-10,-1,-100,19094.700169449672,-0.014069109991420218,0.10363116383168396,0.9945162854508418,72.06274641612,4.459805783777085,395.20947714306527,-96.74060847970645,4.24755859375,4761.76025390625,True
1599387534.7915807,0.0,10,0.5,0.5,-17.288822067260742,-0.15025,-0.02275,-0.001,1.1142827103371218,10,1,100,0.15168092769026476,-10,-1,-100,19094.700169449672,-0.014069109991420218,0.10363116383168396,0.9945162854508418,72.06274641612,4.459805783777085,395.20947714306527,-96.74060847970645,4.24755859375,4761.76025390625,True
1599387534.827484,0.0,10,0.5,0.5,-15.578878992843626,-0.15025,-0.02275,-0.001,1.7894969302810197,10,1,100,0.07678518907947104,-10,-1,-100,19090.81962941191,-0.013381155437078948,0.10973000041315958,0.9938713557037936,71.13747908589924,4.405578324871782,391.7102102871429,-97.10446557643886,-5.931884765625,4761.76025390625,True
1599387534.8623908,0.0,10,0.5,0.5,-13.811954862213135,-0.15025,-0.02275,-0.001,1.8555124447013063,10,1,100,0.020660884059206658,-10,-1,-100,19086.924532071105,-0.0122390624610271,0.11582951943977889,0.9931937010354149,69.25255258677038,4.29251571096298,382.87063358357193,-97.46842877349047,-16.402252197265625,4761.76025390625,True
1599387534.899994,0.0,10,0.5,0.5,-11.164438499832153,-0.15025,-0.02275,-0.001,2.236609955411652,10,1,100,-0.14351553295109343,-10,-1,-100,19081.05457985401,-0.009704354844906343,0.12479208558127933,0.9921354549018591,64.53901695996235,4.008032958972702,358.96789160948,-98.01461531985345,-32.655364990234375,4761.76025390625,True
1599387534.9378986,0.0,10,0.5,0.5,-10.962242110824585,-0.15025,-0.02275,-0.001,1.3459798669834315,10,1,100,0.10997211062181109,-10,-1,-100,19081.05457985401,-0.009704354844906343,0.12479208558127933,0.9921354549018591,64.53901695996235,4.008032958972702,358.96789160948,-98.01461531985345,-32.655364990234375,4761.76025390625,True
1599387534.9777548,0.0,10,0.5,0.5,-9.078038703918455,-0.15025,-0.02275,-0.001,1.9795248981730609,10,1,100,-0.12976157515875053,-10,-1,-100,19077.123072854476,-0.0075267060622338285,0.1305067760829781,0.9914188469523263,67.47444590196525,4.197721689921338,376.7938442213667,-98.37866809203193,-43.857574462890625,4761.76025390625,True
1599387535.0156553,0.0,10,0.5,0.5,-5.361430210113525,-0.15025,-0.02275,-0.001,2.571070328692466,10,1,100,-0.49758998837780416,-10,-1,-100,19069.21640292555,-0.002207402782731092,0.14103193581521964,0.9900025860840801,73.85333755078278,4.612048982290828,415.676850881187,-99.10608650601804,-67.14556884765625,4761.76025390625,True
1599387535.0535893,0.0,10,0.5,0.5,-3.328555271911621,-0.15025,-0.02275,-0.001,2.0401556600481507,10,1,100,-0.28980830657080636,-10,-1,-100,19065.241254567518,0.0007290080699944591,0.14572378147207254,0.989325046716555,75.69433663441464,4.7347408984469075,427.70551761725443,-99.46956764878378,-79.23300170898438,4761.76025390625,True
1599387535.0914855,0.0,10,0.5,0.5,-1.233463480758667,-0.15025,-0.02275,-0.001,2.0508655748858624,10,1,100,-0.3168446941007304,-10,-1,-100,19061.251568137668,0.0036307190255891793,0.150037340614509,0.9886736642091176,76.16055406044123,4.770451404662695,432.020769535509,-99.83302331213814,-91.61597442626953,4761.76025390625,True
1599387535.1293843,0.0,10,0.5,0.5,0.9341905893325806,-0.15025,-0.02275,-0.001,2.057727915244047,10,1,100,-0.3562347691576021,-10,-1,-100,19057.247341273236,0.00661055295135031,0.15396810355844165,0.9880537048542931,75.10616941619708,4.710261703904238,427.70559180184705,-100.19655252126643,-104.29439544677734,4761.76025390625,True
1599387535.16725,0.0,10,0.5,0.5,3.1307082305908205,-0.15025,-0.02275,-0.001,2.062781809584022,10,1,100,-0.36819709866307004,-10,-1,-100,19053.228569179657,0.0094094416403258,0.15754170805626497,0.9874675045948256,72.42514220002712,4.548254341999161,414.0526060670628,-100.56023164217602,-117.26803588867188,4761.76025390625,True
1599387535.2041786,0.0,10,0.5,0.5,4.379047718048096,-0.15025,-0.02275,-0.001,1.8954544365875177,10,1,100,-0.2356564075104961,-10,-1,-100,19051.213726254646,0.010727626391069441,0.15922027189593196,0.9871847968082771,70.46053396245576,4.428382553023688,403.60806585887093,-100.74214127587837,-123.779541015625,4761.76025390625,True
1599387535.241051,0.0,10,0.5,0.5,6.586804048156738,-0.15025,-0.02275,-0.001,2.081911542699597,10,1,100,-0.3763308231039529,-10,-1,-100,19047.17312209762,0.013182917413660405,0.16239631246802744,0.9866375466123573,65.56741740741892,4.128711227601301,377.0424391424583,-101.1061021425574,-136.64674377441406,4761.76025390625,True
1599387535.2769885,0.0,10,0.5,0.5,8.752120043563842,-0.15025,-0.02275,-0.001,2.093419492179502,10,1,100,-0.37570907499028183,-10,-1,-100,19043.117964005214,0.015386237015096374,0.1653459063533604,0.9861156093292008,70.31354626262323,4.437394472279033,405.89490708300815,-101.46987010501338,-149.23931884765625,4761.76025390625,True
1599387535.314853,0.0,10,0.5,0.5,10.864672154617308,-0.15025,-0.02275,-0.001,2.122223033862836,10,1,100,-0.36254340741228447,-10,-1,-100,19039.048263647943,0.017246757318547277,0.16825233860917335,0.9855930701433221,74.16472409253662,4.690739427428399,429.7637440717487,-101.83336140680586,-161.53628540039062,4761.76025390625,True
1599387535.351754,0.0,10,0.5,0.5,11.14557928199768,-0.15025,-0.02275,-0.001,1.8359258335843314,10,1,100,-0.17918648828353959,-10,-1,-100,19039.048263647943,0.017246757318547277,0.16825233860917335,0.9855930701433221,74.16472409253662,4.690739427428399,429.7637440717487,-101.83336140680586,-161.53628540039062,4761.76025390625,True
1599387535.3886898,0.0,10,0.5,0.5,13.2280260181427,-0.15025,-0.02275,-0.001,2.15682600895488,10,1,100,-0.3529758221628594,-10,-1,-100,19034.96402940806,0.018804139023467656,0.1711352987829727,0.9850680757521526,77.11966157384548,4.887227970043009,448.5868505625797,-102.19666701651622,-173.53448486328125,4761.76025390625,True
1599387535.4255831,0.0,10,0.5,0.5,-37.49899155464173,-0.15025,-0.02275,-0.001,2.53115627630587,10,1,100,-0.4398801388107635,-10,-1,-100,19026.751971543883,0.020990878414006948,0.17713180740510134,0.9839632644711949,78.60573844096633,4.997673430177727,460.7165165140502,-102.92316322254352,163.3716583251953,4761.76025390625,True
1599387535.458503,0.0,10,0.5,0.5,-36.869440299987794,-0.15025,-0.02275,-0.001,2.114674568876745,10,1,100,-0.2654895437098519,-10,-1,-100,19024.689874746837,0.02137503438599437,0.17876842878865076,0.9836589636522581,78.09755984727839,4.969314796792966,458.61057697327385,-103.10482971685946,157.7877197265625,4761.76025390625,True
1599387535.4973986,0.0,10,0.5,0.5,-37.44241764278412,-0.15025,-0.02275,-0.001,1.9538855393392174,10,1,100,-0.22884837804715027,-10,-1,-100,19024.689874746837,0.02137503438599437,0.17876842878865076,0.9836589636522581,78.09755984727839,4.969314796792966,458.61057697327385,-103.10482971685946,157.7877197265625,4761.76025390625,True
1599387535.538282,0.0,10,0.5,0.5,-34.676582234954836,-0.15025,-0.02275,-0.001,2.7416399397710207,10,1,100,-0.345358214663213,-10,-1,-100,19016.40514138795,0.02242079246301799,0.1859072866787306,0.98231145204822,72.87763364849445,4.655192569180753,431.2313526894903,-103.83183797790397,135.55914306640625,4761.76025390625,True
1599387535.5771859,0.0,10,0.5,0.5,-33.53977347412109,-0.15025,-0.02275,-0.001,2.47378085184247,10,1,100,-0.27719093201524003,-10,-1,-100,19012.240957539296,0.022739950553673626,0.18993628798070503,0.9815330362025149,70.8072059988941,4.534512585997856,420.5672935935523,-104.19550710612651,124.09323120117188,4761.76025390625,True
1599387535.6160858,0.0,10,0.5,0.5,-34.11514994277954,-0.15025,-0.02275,-0.001,2.073952323253505,10,1,100,-0.2464763553659369,-10,-1,-100,19012.240957539296,0.022739950553673626,0.18993628798070503,0.9815330362025149,70.8072059988941,4.534512585997856,420.5672935935523,-104.19550710612651,124.09323120117188,4761.76025390625,True
1599387535.6699407,0.0,10,0.5,0.5,-31.11199168052673,-0.15025,-0.02275,-0.001,3.0826012206949485,10,1,100,-0.32561332889162986,-10,-1,-100,19003.86898520682,0.023450689373779914,0.19908078707061572,0.9797024575794625,80.07676253634352,5.156673080079071,479.1809061903061,-104.92198352458692,100.31576538085938,4761.76025390625,True
1599387535.708801,0.0,10,0.5,0.5,-31.703506962966916,-0.15025,-0.02275,-0.001,2.171524799775605,10,1,100,-0.2553458921168695,-10,-1,-100,19003.86898520682,0.023450689373779914,0.19908078707061572,0.9797024575794625,80.07676253634352,5.156673080079071,479.1809061903061,-104.92198352458692,100.31576538085938,4761.76025390625,True
1599387535.7476366,0.0,10,0.5,0.5,-30.43671473274231,-0.15025,-0.02275,-0.001,2.7357131146352685,10,1,100,-0.3125499008966845,-10,-1,-100,18999.66121847264,0.023965085879000748,0.20418174588892044,0.9786396115550221,83.39986260247088,5.38393821852272,500.91183715096565,-105.28486944565712,88.00167846679688,4761.76025390625,True
1599387535.7855356,0.0,10,0.5,0.5,-27.162919875717165,-0.15025,-0.02275,-0.001,3.452835684178098,10,1,100,-0.4645757619404877,-10,-1,-100,18991.202145134797,0.02580866477636294,0.21530561416751431,0.9762056163177975,84.7101914331846,5.492018612208457,512.5652783499534,-106.01057039083527,62.52195739746094,4761.76025390625,True
1599387535.8234344,0.0,10,0.5,0.5,-27.72542800292969,-0.15025,-0.02275,-0.001,2.344865887857164,10,1,100,-0.2809183247795579,-10,-1,-100,18991.202145134797,0.02580866477636294,0.21530561416751431,0.9762056163177975,84.7101914331846,5.492018612208457,512.5652783499534,-106.01057039083527,62.52195739746094,4761.76025390625,True
1599387535.860335,0.0,10,0.5,0.5,-23.46976452178955,-0.15025,-0.02275,-0.001,3.656914463426522,10,1,100,-0.657354035539873,-10,-1,-100,18982.684989713714,0.029226427795672756,0.227198625030179,0.9734097804638601,77.61051105204395,5.05809625244191,473.1198461322462,-106.7368618639891,35.902252197265625,4761.76025390625,True
1599387535.894245,0.0,10,0.5,0.5,-22.185540043640138,-0.15025,-0.02275,-0.001,2.807634901847314,10,1,100,-0.4401769747371952,-10,-1,-100,18980.546618424938,0.03035201053919399,0.23024570234893454,0.972659072854448,74.52513510619296,4.8650824767300325,455.1511679248288,-106.91856259580693,29.068832397460938,4761.76025390625,True
1599387535.931146,0.0,10,0.5,0.5,-20.85510384788513,-0.15025,-0.02275,-0.001,2.8425483592000838,10,1,100,-0.4671432645341879,-10,-1,-100,18978.404615206062,0.03161225478041032,0.23328637018413723,0.9718940965115531,77.64302165708115,5.077537615160062,475.0630128416621,-107.10014617514824,22.163482666015625,4761.76025390625,True
1599387535.9680474,0.0,10,0.5,0.5,-19.54847357673645,-0.15025,-0.02275,-0.001,2.8661985097664715,10,1,100,-0.49756885628323316,-10,-1,-100,18976.25898304186,0.033026171777127945,0.23622254314537464,0.9711375711441089,81.15432848686672,5.316626196587395,497.45120210864394,-107.28160636180363,15.1845703125,4761.76025390625,True
1599387536.005946,0.0,10,0.5,0.5,-17.163995328903198,-0.15025,-0.02275,-0.001,3.2225334619755497,10,1,100,-0.7036776412227346,-10,-1,-100,18971.956839009537,0.03617591598157266,0.2420891215346142,0.9695793728919221,87.03245815196907,5.721136981650475,535.4114289810045,-107.64423199275697,1.01141357421875,4761.76025390625,True
1599387536.045348,0.0,10,0.5,0.5,-14.710428201675414,-0.15025,-0.02275,-0.001,3.2573085801400246,10,1,100,-0.7883644496329731,-10,-1,-100,18967.640197634115,0.03979698536622648,0.24769110038673275,0.9680213420916762,91.22676838353034,6.01492383960005,563.2384673683126,-108.00661316308292,-13.452911376953125,4761.76025390625,True
1599387536.0822496,0.0,10,0.5,0.5,-12.23410658302307,-0.15025,-0.02275,-0.001,3.2796723523587628,10,1,100,-0.8696906080225331,-10,-1,-100,18963.30906251038,0.043813335068551,0.25294292426035986,0.9664886283535822,92.66855829328414,6.1268911024926656,574.2170159585926,-108.36896694722522,-28.209686279296875,4761.76025390625,True
1599387536.1251352,0.0,10,0.5,0.5,-9.679931128311157,-0.15025,-0.02275,-0.001,3.2853202206554863,10,1,100,-0.9395009655768964,-10,-1,-100,18958.96342925646,0.04808069018870862,0.2577196882780004,0.9650226989583549,91.02248248204953,6.0358790566479295,566.0824145076438,-108.73146671541646,-43.26116943359375,4761.76025390625,True
1599387536.165028,0.0,10,0.5,0.5,-8.241379774093629,-0.15025,-0.02275,-0.001,3.0563857245979063,10,1,100,-0.7566858023321497,-10,-1,-100,18956.785172976088,0.05027622462816357,0.2599323074731601,0.9643171142154517,88.98172708904123,5.910563552061401,554.4054546028435,-108.91280203914569,-50.89739990234375,4761.76025390625,True
1599387536.2029269,0.0,10,0.5,0.5,-4.459035443878173,-0.15025,-0.02275,-0.001,3.4882106290752466,10,1,100,-1.2682672853074042,-10,-1,-100,18950.228633984923,0.05690066254575966,0.26582889069736687,0.962339501149392,82.0096127481781,5.480802388078438,513.748860682779,-109.45707549505883,-74.2491455078125,4761.76025390625,True
1599387536.24282,0.0,10,0.5,0.5,-2.9715722858428957,-0.15025,-0.02275,-0.001,3.093630236456961,10,1,100,-0.8465137593594387,-10,-1,-100,18948.03586724156,0.05906049041880242,0.2675563961714524,0.9617304369412646,86.06494469668071,5.764355680768096,540.1099868989763,-109.6383350062966,-82.1807861328125,4761.76025390625,True
1599387536.2827125,0.0,10,0.5,0.5,-0.27810814208984364,-0.15025,-0.02275,-0.001,3.2693254221032477,10,1,100,-1.1007767153495114,-10,-1,-100,18943.639467571513,0.06330832984636638,0.2706873957709134,0.9605833587684227,92.6130154649233,6.227958943694047,583.2450748469439,-110.00050067747249,-98.26512908935547,4761.76025390625,True
1599387536.3216085,0.0,10,0.5,0.5,4.993720188331603,-0.15025,-0.02275,-0.001,3.551854045315846,10,1,100,-1.4972486808984447,-10,-1,-100,18934.80323143897,0.07074433235886285,0.27606543589651794,0.958531749365854,96.26447491885175,6.516463835576336,610.5296189972778,-110.72445842579744,-131.31126403808594,4761.76025390625,True
1599387536.361503,0.0,10,0.5,0.5,7.858004799461365,-0.15025,-0.02275,-0.001,3.296784274748124,10,1,100,-1.1030249650384243,-10,-1,-100,18930.363384450204,0.07388490806460632,0.27859685712762244,0.957561910039709,91.68983256021623,6.229132726459843,583.6006941468189,-111.08676233458061,-148.15870666503906,4761.76025390625,True
1599387536.3994007,0.0,10,0.5,0.5,8.212763311958312,-0.15025,-0.02275,-0.001,3.0478795830358987,10,1,100,-0.7930532680928253,-10,-1,-100,18930.363384450204,0.07388490806460632,0.27859685712762244,0.957561910039709,91.68983256021623,6.229132726459843,583.6006941468189,-111.08676233458061,-148.15870666503906,4761.76025390625,True
1599387536.437462,0.0,10,0.5,0.5,11.084734302330016,-0.15025,-0.02275,-0.001,3.336474979448652,10,1,100,-1.1034493579389832,-10,-1,-100,18925.90903533064,0.07667240979767773,0.28118726278992656,0.9565851058951972,82.95297329416937,5.659859766795942,529.8676548701932,-111.44940428769065,-164.90322875976562,4761.76025390625,True
1599387536.4773545,0.0,10,0.5,0.5,-38.100949326515206,-0.15025,-0.02275,-0.001,3.71906344908839,10,1,100,-1.3438129140979058,-10,-1,-100,18916.956865848624,0.08135810240697698,0.28698980296837956,0.9544724784743176,97.26006031950654,6.692406711978391,625.5474188475152,-112.17348715569821,162.45867919921875,4761.76025390625,True
1599387536.5162518,0.0,10,0.5,0.5,-38.20735795001984,-0.15025,-0.02275,-0.001,3.1422141191138917,10,1,100,-0.8789981299018229,-10,-1,-100,18916.956865848624,0.08135810240697698,0.28698980296837956,0.9544724784743176,97.26006031950654,6.692406711978391,625.5474188475152,-112.17348715569821,162.45867919921875,4761.76025390625,True
1599387536.5541494,0.0,10,0.5,0.5,-36.27706248111725,-0.15025,-0.02275,-0.001,3.52603089634567,10,1,100,-1.117241912857767,-10,-1,-100,18912.45907730388,0.08349370278637805,0.2904524372025863,0.9532398351506811,100.84188972865921,6.963271157358819,650.8256543342383,-112.53511732943444,146.6020965576172,4761.76025390625,True
1599387536.5940454,0.0,10,0.5,0.5,-34.34545242595672,-0.15025,-0.02275,-0.001,3.6037880355147447,10,1,100,-1.14487870433596,-10,-1,-100,18907.946820166195,0.08565620352821876,0.2942794240172845,0.9518732244354746,100.20565673215984,6.944565989180601,648.9883789748463,-112.8968751832852,130.75563049316406,4761.76025390625,True
1599387536.631941,0.0,10,0.5,0.5,-29.923416893196105,-0.15025,-0.02275,-0.001,4.1891370611528185,10,1,100,-1.4738142447951263,-10,-1,-100,18898.878861096688,0.09058629498771868,0.3030539935970655,0.948658210382047,88.02783343983998,6.158625173946142,574.1164497181693,-113.62116821970764,98.33071899414062,4761.76025390625,True
1599387536.6708374,0.0,10,0.5,0.5,-30.366505478858947,-0.15025,-0.02275,-0.001,3.3152298629172847,10,1,100,-0.9839576793020257,-10,-1,-100,18898.878861096688,0.09058629498771868,0.3030539935970655,0.948658210382047,88.02783343983998,6.158625173946142,574.1164497181693,-113.62116821970764,98.33071899414062,4761.76025390625,True
1599387536.7117276,0.0,10,0.5,0.5,-28.29925747795105,-0.15025,-0.02275,-0.001,3.8487385860257692,10,1,100,-1.3239574279414779,-10,-1,-100,18894.32316134323,0.09365240364340338,0.30787464871820974,0.9468064363788684,97.85096753000158,6.880730097214461,640.3355005637857,-113.98286943592166,81.70590209960938,4761.76025390625,True
1599387536.7496262,0.0,10,0.5,0.5,-26.243619898223873,-0.15025,-0.02275,-0.001,3.9156205781283693,10,1,100,-1.4159657246635673,-10,-1,-100,18889.753009444452,0.09725538869033161,0.31283616310852663,0.9448147566704427,104.98809109545702,7.415179250705434,689.3374961898041,-114.34407948650296,64.80093383789062,4761.76025390625,True
1599387536.7865276,0.0,10,0.5,0.5,-22.829436435317994,-0.15025,-0.02275,-0.001,4.23552144349811,10,1,100,-1.7760967286701215,-10,-1,-100,18882.870695002726,0.10378350196884802,0.3202236937794661,0.9416399368449263,106.92198777881849,7.597617095929514,705.6260867650641,-114.8858581769448,38.91285705566406,4761.76025390625,True
1599387536.8224318,0.0,10,0.5,0.5,-21.954102989578246,-0.15025,-0.02275,-0.001,3.7613308182535716,10,1,100,-1.399125817832972,-10,-1,-100,18880.569363140152,0.10626396158361226,0.32259096430841355,0.94055464499152,104.81053984491562,7.464548206311539,692.8884143078086,-115.06659059226641,30.14056396484375,4761.76025390625,True
1599387536.8593326,0.0,10,0.5,0.5,-18.36055163230896,-0.15025,-0.02275,-0.001,4.25042658615104,10,1,100,-2.0636607041584947,-10,-1,-100,18873.643661477487,0.11453324969837002,0.3291517138596896,0.9373053312431121,91.4685345708587,6.567481929229486,607.7894417280053,-115.60931528386986,3.38983154296875,4761.76025390625,True
1599387536.8972316,0.0,10,0.5,0.5,-18.025420736312867,-0.15025,-0.02275,-0.001,3.5985678221125648,10,1,100,-1.2400494074118578,-10,-1,-100,18873.643661477487,0.11453324969837002,0.3291517138596896,0.9373053312431121,91.4685345708587,6.567481929229486,607.7894417280053,-115.60931528386986,3.38983154296875,4761.76025390625,True
1599387536.9361274,0.0,10,0.5,0.5,-12.113530028915406,-0.15025,-0.02275,-0.001,4.365794740222277,10,1,100,-2.6150571261297024,-10,-1,-100,18864.358805292984,0.12700316064372189,0.3360881750144222,0.933228233500241,111.58668489859801,8.092868530489975,746.3289978940466,-116.33125991904302,-33.304443359375,4761.76025390625,True
1599387536.9750247,0.0,10,0.5,0.5,-8.898708112335205,-0.15025,-0.02275,-0.001,3.956700986246616,10,1,100,-2.089790201111538,-10,-1,-100,18859.694734734832,0.1335247354049154,0.3386335276300259,0.9313959839938606,113.85787184270949,8.294400886332257,764.0598110061997,-116.6919387720439,-52.096038818359375,4761.76025390625,True
1599387537.0119247,0.0,10,0.5,0.5,-5.614367155838012,-0.15025,-0.02275,-0.001,3.919625409252347,10,1,100,-2.1563083841163664,-10,-1,-100,18855.01622836117,0.14001463364070188,0.3405701119409789,0.929735393119445,109.1323543768796,7.992146608893647,734.834230669241,-117.05292871320722,-71.18460083007812,4761.76025390625,True
1599387537.0513275,0.0,10,0.5,0.5,-5.247808365249634,-0.15025,-0.02275,-0.001,3.729718589991438,10,1,100,-1.512261394403018,-10,-1,-100,18855.01622836117,0.14001463364070188,0.3405701119409789,0.929735393119445,109.1323543768796,7.992146608893647,734.834230669241,-117.05292871320722,-71.18460083007812,4761.76025390625,True
1599387537.0912201,0.0,10,0.5,0.5,-1.930230213165283,-0.15025,-0.02275,-0.001,3.886978100873999,10,1,100,-2.21065687925569,-10,-1,-100,18850.32327034336,0.146318748649678,0.34196563829596227,0.9282512192388586,97.47253446657352,7.182692893994542,658.5090430328062,-117.41431410861313,-90.56926727294922,4761.76025390625,True
1599387537.1281216,0.0,10,0.5,0.5,1.4187634717941282,-0.15025,-0.02275,-0.001,3.8570638588368276,10,1,100,-2.2448947819944265,-10,-1,-100,18845.615870995563,0.15231313746000275,0.342931359155084,0.9269297659829127,107.76705554379978,7.987909317143883,730.3743883178463,-117.77512108996993,-110.248291015625,4761.76025390625,True
1599387537.16602,0.0,10,0.5,0.5,4.817841816520691,-0.15025,-0.02275,-0.001,3.8382438797093434,10,1,100,-2.2671360305179826,-10,-1,-100,18840.89405828691,0.15791472250253968,0.343610837220357,0.9257399920937148,115.9701403905501,8.637223227765093,788.4559404376303,-118.13535943684107,-130.2186737060547,4761.76025390625,True
1599387537.1989324,0.0,10,0.5,0.5,8.24658672542572,-0.15025,-0.02275,-0.001,3.8334828192219366,10,1,100,-2.2822606636502036,-10,-1,-100,18836.157834790298,0.16309535900556282,0.34416400114486434,0.9246356277944325,116.62500797924244,8.726073446572471,795.4900888059115,-118.49568438814444,-150.47613525390625,4761.76025390625,True
1599387537.2358332,0.0,10,0.5,0.5,10.171888016319274,-0.15025,-0.02275,-0.001,3.811198623037283,10,1,100,-2.038199473101017,-10,-1,-100,18833.78431455174,0.16553462555111675,0.34444468198652284,0.9240974779723482,113.73658276294185,8.532308802407258,777.0726950485454,-118.67600984669431,-160.62261962890625,4761.76025390625,True
1599387537.2737327,0.0,10,0.5,0.5,-40.87227167453766,-0.15025,-0.02275,-0.001,3.856796388071655,10,1,100,-2.3077482077520832,-10,-1,-100,18829.026444127783,0.17015621874767298,0.34510046882640955,0.9230127451109689,101.92430572814507,7.692249502587338,698.6518068293585,-119.03704875737002,179.25930786132812,4761.76025390625,True
1599387537.310633,0.0,10,0.5,0.5,-36.45219621295929,-0.15025,-0.02275,-0.001,3.948729843858951,10,1,100,-2.5674648281656234,-10,-1,-100,18821.86257755605,0.1766681609582569,0.34651789850167586,0.9212565912500218,112.78217105857844,8.583093387334017,776.6895033718807,-119.57790330418841,149.63751220703125,4761.76025390625,True
1599387537.3485324,0.0,10,0.5,0.5,-35.42815387516022,-0.15025,-0.02275,-0.001,3.876395176208379,10,1,100,-2.1555631621348343,-10,-1,-100,18819.467419960303,0.17879839782185827,0.3471394014791971,0.9206114103556402,117.45156972135659,8.959109138337118,810.1002746370765,-119.7578739637397,139.91944885253906,4761.76025390625,True
1599387537.3874292,0.0,10,0.5,0.5,-32.92528601512909,-0.15025,-0.02275,-0.001,3.976822661796647,10,1,100,-2.4226859446902704,-10,-1,-100,18814.666306215804,0.18312220784616626,0.34860964871515593,0.9192048573719793,120.7362614080261,9.252782437591073,835.4068009226905,-120.11784225883352,120.41914367675781,4761.76025390625,True
1599387537.422336,0.0,10,0.5,0.5,-30.39693609790802,-0.15025,-0.02275,-0.001,4.021526042268318,10,1,100,-2.494094261853373,-10,-1,-100,18809.850784198614,0.1876629220477422,0.3503453228096117,0.9176278017115284,115.6760042588412,8.915639215247731,802.9979818708114,-120.47814660881916,100.69187927246094,4761.76025390625,True
1599387537.4602396,0.0,10,0.5,0.5,-29.300776684379578,-0.15025,-0.02275,-0.001,3.952293096518048,10,1,100,-2.308602714439952,-10,-1,-100,18807.43761486991,0.19006124062868285,0.3512849313787794,0.9167745752347696,110.03415051041988,8.508667600507382,765.0602678404712,-120.65846287562783,90.72886657714844,4761.76025390625,True
1599387537.4981382,0.0,10,0.5,0.5,-26.678241226577757,-0.15025,-0.02275,-0.001,4.07237128002575,10,1,100,-2.637160112017307,-10,-1,-100,18802.600456250715,0.1951886497784421,0.35322226875256296,0.914951047791608,108.71356707901398,8.460832441671492,758.2053586758636,-121.01902940853695,70.59695434570312,4761.76025390625,True
1599387537.5370338,0.0,10,0.5,0.5,-22.462908922195435,-0.15025,-0.02275,-0.001,4.1817789881847105,10,1,100,-3.0785638556383934,-10,-1,-100,18795.31773666758,0.20382371439085273,0.3559687447032681,0.9119989836870959,124.44802361831951,9.7590153008225,871.8635785333357,-121.55837535175797,39.87373352050781,4761.76025390625,True
1599387537.5923934,0.0,10,0.5,0.5,-21.31008350791931,-0.15025,-0.02275,-0.001,3.9948444713961813,10,1,100,-2.564573727937126,-10,-1,-100,18792.882973982487,0.20695940015767966,0.35675490186266534,0.9109850419646491,125.59760927653667,9.87289031954921,881.2849434477263,-121.73812933971243,29.490203857421875,4761.76025390625,True
1599387537.6322875,0.0,10,0.5,0.5,-15.337791650772093,-0.15025,-0.02275,-0.001,4.13386572673065,10,1,100,-3.751952343833989,-10,-1,-100,18783.107925105258,0.22056449823462826,0.35872197350996,0.907011492672296,105.62031419663329,8.405487660047882,745.767360400601,-122.45836518537845,-12.7716064453125,4761.76025390625,True
1599387537.6736906,0.0,10,0.5,0.5,-15.716414516067504,-0.15025,-0.02275,-0.001,3.9385862911535288,10,1,100,-2.3969455234074806,-10,-1,-100,18783.107925105258,0.22056449823462826,0.35872197350996,0.907011492672296,105.62031419663329,8.405487660047882,745.767360400601,-122.45836518537845,-12.7716064453125,4761.76025390625,True
1599387537.712587,0.0,10,0.5,0.5,-12.016272816085813,-0.15025,-0.02275,-0.001,3.948683601781418,10,1,100,-3.19468098349952,-10,-1,-100,18778.19879671198,0.22777081307229502,0.35880138405686485,0.9051972290673805,118.8173818854019,9.510380729599083,841.4050849883978,-122.81806152128479,-34.346954345703125,4761.76025390625,True
1599387537.750994,0.0,10,0.5,0.5,-8.310592821121215,-0.15025,-0.02275,-0.001,3.8777447840835837,10,1,100,-3.275382888424383,-10,-1,-100,18773.27530176367,0.2350092051039326,0.35821751031538424,0.9035767199412927,129.0609403341166,10.379613012037865,916.646333890578,-123.17712470892525,-56.22259521484375,4761.76025390625,True
1599387537.7888944,0.0,10,0.5,0.5,-4.532130702972411,-0.15025,-0.02275,-0.001,3.8046255774793147,10,1,100,-3.336422553524309,-10,-1,-100,18768.337440908654,0.2420933668088006,0.3570119249368756,0.9021825132422189,128.5457650146746,10.394857504197484,915.8017605739632,-123.5363454887252,-78.3985595703125,4761.76025390625,True
1599387537.826792,0.0,10,0.5,0.5,1.0136178215026856,-0.15025,-0.02275,-0.001,3.624692422535886,10,1,100,-3.7335864147471165,-10,-1,-100,18760.90367599018,0.2520904842252855,0.3542725438421805,0.9005228217222766,110.00725771887647,8.987133111254458,787.2727633217224,-124.0760360702493,-112.2208023071289,4761.76025390625,True
1599387537.8661952,0.0,10,0.5,0.5,3.1916301298141474,-0.15025,-0.02275,-0.001,3.7794867320101693,10,1,100,-3.082501280963105,-10,-1,-100,18758.418563041138,0.25520124651298304,0.3531858481867397,0.9000733750194109,118.85849257787032,9.738493993485932,851.8140457965816,-124.25564633265647,-123.64201354980469,4761.76025390625,True
1599387537.905091,0.0,10,0.5,0.5,10.64077553844452,-0.15025,-0.02275,-0.001,3.3800470970718424,10,1,100,-4.013817073752305,-10,-1,-100,18748.442236195086,0.2664365012490787,0.3485649455307106,0.8986178662531268,131.1448382393203,10.850113998059163,945.3353869409817,-124.97319965821694,-169.74365234375,4761.76025390625,True
1599387537.939001,0.0,10,0.5,0.5,-41.58029795093537,-0.15025,-0.02275,-0.001,3.718420208716841,10,1,100,-3.176714106053188,-10,-1,-100,18745.93917937146,0.26897557143783674,0.3474444780612949,0.8982953170502469,126.46763193573095,10.495308027056131,913.0003025885846,-125.15283541033119,178.8298797607422,4761.76025390625,True
1599387537.9798925,0.0,10,0.5,0.5,-39.83085197086334,-0.15025,-0.02275,-0.001,3.7114829460412073,10,1,100,-3.1996448489680285,-10,-1,-100,18743.432526563876,0.27143304940225443,0.34637055457990396,0.8979707893980756,118.8221913863249,9.893720798411655,859.0824829034993,-125.33263883668202,167.4778289794922,4761.76025390625,True
1599387538.016793,0.0,10,0.5,0.5,-38.45079458141326,-0.15025,-0.02275,-0.001,3.705991774561559,10,1,100,-3.2238114749251814,-10,-1,-100,18740.922274039942,0.2738282044702041,0.3453537810808997,0.8976351599228665,108.54941811519049,9.067428139538713,785.9339453199166,-125.51262367164404,156.20291137695312,4761.76025390625,True
1599387538.053694,0.0,10,0.5,0.5,-35.42603849086761,-0.15025,-0.02275,-0.001,3.6033991072119624,10,1,100,-3.504934963034486,-10,-1,-100,18735.890997241717,0.2785128646909379,0.34350893382628955,0.8969014419562348,125.22776968784001,10.514140241102776,909.1916591224934,-125.87159287217645,133.58837890625,4761.76025390625,True
1599387538.0915918,0.0,10,0.5,0.5,-30.585087318229675,-0.15025,-0.02275,-0.001,3.5307979978553927,10,1,100,-3.822325128941692,-10,-1,-100,18728.31719192001,0.28560433152125564,0.3411856199094785,0.895557110732354,134.3814299623502,11.362679705950233,979.8642220744857,-126.40937119148455,99.23112487792969,4761.76025390625,True
1599387538.1274967,0.0,10,0.5,0.5,-25.63542366886139,-0.15025,-0.02275,-0.001,3.5326680199414016,10,1,100,-3.958452661363318,-10,-1,-100,18720.7110851896,0.2932360666449693,0.33910653088056614,0.8938788340333016,114.34749443787761,9.764529511142262,837.4104050083155,-126.94812790867141,64.26972961425781,4761.76025390625,True
1599387538.1653945,0.0,10,0.5,0.5,-25.944505103111265,-0.15025,-0.02275,-0.001,3.7386658248891553,10,1,100,-3.201101835146054,-10,-1,-100,18720.7110851896,0.2932360666449693,0.33910653088056614,0.8938788340333016,114.34749443787761,9.764529511142262,837.4104050083155,-126.94812790867141,64.26972961425781,4761.76025390625,True
1599387538.2003036,0.0,10,0.5,0.5,-20.885823107337952,-0.15025,-0.02275,-0.001,3.4729454281578143,10,1,100,-4.136278372916009,-10,-1,-100,18713.072684314917,0.30169117817029967,0.3367071685412415,0.8919701316003562,134.9319610948463,11.606054218258148,992.1400083263949,-127.4857443238226,28.677978515625,4761.76025390625,True
1599387538.2372026,0.0,10,0.5,0.5,-21.24195958480835,-0.15025,-0.02275,-0.001,3.711125124560184,10,1,100,-3.2957272897774756,-10,-1,-100,18713.072684314917,0.30169117817029967,0.3367071685412415,0.8919701316003562,134.9319610948463,11.606054218258148,992.1400083263949,-127.4857443238226,28.677978515625,4761.76025390625,True
1599387538.2741044,0.0,10,0.5,0.5,-17.94496793632507,-0.15025,-0.02275,-0.001,3.481001096290809,10,1,100,-3.966862109372875,-10,-1,-100,18707.962509798817,0.3077501402287512,0.33463011253847036,0.8906809411746018,137.07674068170576,11.84662218816765,1010.7712162772665,-127.84393160484161,4.588592529296875,4761.76025390625,True
1599387538.3139977,0.0,10,0.5,0.5,-14.677310441970825,-0.15025,-0.02275,-0.001,3.39812898382084,10,1,100,-4.054530633822646,-10,-1,-100,18702.837990659755,0.31401771628690534,0.3320011649980353,0.8894763067658993,124.4208979737459,10.821192019951232,920.0800492467574,-128.2027152784644,-19.797210693359375,4761.76025390625,True
1599387538.3518963,0.0,10,0.5,0.5,-10.515844470977783,-0.15025,-0.02275,-0.001,3.300514444341032,10,1,100,-4.125724524676016,-10,-1,-100,18697.6991092877,0.32032178248857696,0.328737847159699,0.8884398592522441,123.70805157605687,10.819518161634047,917.238758973186,-128.5616554810519,-44.484649658203125,4761.76025390625,True
1599387538.3907921,0.0,10,0.5,0.5,-6.278359690475463,-0.15025,-0.02275,-0.001,3.197330818474117,10,1,100,-4.174901228656506,-10,-1,-100,18692.545905377017,0.3264553684052953,0.32484919135098517,0.8876372543544879,138.66110758616773,12.176412608506295,1030.8320889981405,-128.91954317246444,-69.47610473632812,4761.76025390625,True
