Timestamp,Input Throttle,horizon,dT,dt,Input Roll,Roll P,Roll I,Roll D,Input Pitch,Pitch P,Pitch I,Pitch D,Input Yaw,Yaw P,Yaw I,Yaw D,Altitude,Direction X,Direction Y,Direction Z,Drag X,Drag Y,Drag Z,Vertical Velocity,Roll,Mass,Has Fuel
1599385704.0537488,0.0,10,0.5,0.5,-2.8454451370239258,-0.05075,-0.0155,-0.12575,0.0007203410656272122,10,1,100,0.5036494725514415,-10,-1,-100,19349.72087937349,-0.0488935608635089,-0.00016778554281164838,0.9988039805457815,61.076350351980814,3.686772955412508,233.74137766817893,-68.66433426680169,-33.923797607421875,4761.76025390625,True
1599385704.085439,0.0,10,0.5,0.5,-2.9325753173828124,-0.05075,-0.0155,-0.12575,-0.0007336466522475189,10,1,100,0.49960631347140166,-10,-1,-100,19348.343943459215,-0.04894611857941764,-0.0001590492943557381,0.9988014077780084,61.166289545163856,3.692875370188995,234.73120421446524,-68.84679095025197,-33.92498779296875,4761.76025390625,True
1599385704.1196048,0.0,10,0.5,0.5,-3.019420411682129,-0.05075,-0.0155,-0.12575,-0.0006290336255548447,10,1,100,0.5052318108687213,-10,-1,-100,19346.963358445093,-0.04900054273514721,-0.00015001163252192652,0.9987987406420631,61.25650759207313,3.6989983440811707,235.72417771891145,-69.02924415813919,-33.926239013671875,4761.76025390625,True
1599385704.1518624,0.0,10,0.5,0.5,-3.098434098815918,-0.05075,-0.0155,-0.12575,0.01127043455023237,10,1,100,0.5100121906153906,-10,-1,-100,19344.19124152907,-0.049048931290111855,-3.348221868173955e-05,0.9987963762540586,61.437760790316,3.7113049427670246,237.71953367803852,-69.39414029922648,-33.971893310546875,4761.76025390625,True
1599385704.187775,0.0,10,0.5,0.5,-3.141232635498047,-0.05075,-0.0155,-0.12575,0.02377168049437275,10,1,100,0.5086994752597525,-10,-1,-100,19341.404529174324,-0.04903639717203745,0.00018613174086396273,0.9987969749190079,61.62848570372139,3.724191553478265,239.76009058583293,-69.75902211895294,-34.25396728515625,4761.76025390625,True
1599385704.2186575,0.0,10,0.5,0.5,-3.2194803329467776,-0.05075,-0.0155,-0.12575,0.01744651729834961,10,1,100,0.5120095927935667,-10,-1,-100,19340.005699826637,-0.049010515953938995,0.0003281101007226963,0.9987982086836612,61.72904727240161,3.7309466085093757,240.80391795205364,-69.94145717299521,-34.50115966796875,4761.76025390625,True
1599385704.2515712,0.0,10,0.5,0.5,-3.210773554992676,-0.05075,-0.0155,-0.12575,0.04630036031744093,10,1,100,0.5057949881433284,-10,-1,-100,19337.19709560636,-0.04888593615343465,0.0007191907188580819,0.9988041089278278,61.93937210462038,3.744994673873413,242.93449731388552,-70.30631486083585,-35.2139892578125,4761.76025390625,True
1599385704.2856293,0.0,10,0.5,0.5,-3.099621894836426,-0.05075,-0.0155,-0.12575,0.10198932193859618,10,1,100,0.4808272149394718,-10,-1,-100,19332.95682602364,-0.04850126027280161,0.0015803280312472454,0.9988218711638545,62.266130021352936,3.7666574508633004,246.1926512407258,-70.85356794711609,-36.832733154296875,4761.76025390625,True
1599385704.3215225,0.0,10,0.5,0.5,-3.2644599075317386,-0.05075,-0.0155,-0.12575,0.055744602129807266,10,1,100,0.5041232921935097,-10,-1,-100,19331.53610643244,-0.04831924539246937,0.001941336927856361,0.998830056483902,62.37380472828285,3.7737655253407154,247.27863272549249,-71.03597630289545,-37.519012451171875,4761.76025390625,True
1599385704.3515613,0.0,10,0.5,0.5,-3.298017199707031,-0.05075,-0.0155,-0.12575,0.0629295958414699,10,1,100,0.5034905460880698,-10,-1,-100,19330.11173882347,-0.04810409849539746,0.00233308010676353,0.9988396029619373,62.47872281953334,3.780682114140679,248.35605740354518,-71.21838001401979,-38.278717041015625,4761.76025390625,True
1599385704.3852572,0.0,10,0.5,0.5,-3.1666366958618166,-0.05075,-0.0155,-0.12575,0.11889511772011002,10,1,100,0.4713747206795011,-10,-1,-100,19327.252059420687,-0.047572817359349276,0.003195866759115172,0.9988626599709052,62.67338709314623,3.7935073323706203,250.45729442509713,-71.5831736434422,-40.0185546875,4761.76025390625,True
1599385704.4189005,0.0,10,0.5,0.5,-3.203034785461426,-0.05075,-0.0155,-0.12575,0.08704916488522424,10,1,100,0.4904961794383683,-10,-1,-100,19325.81674812385,-0.047264866627571685,0.003687651733388679,0.9988755846487444,62.75927450408757,3.799174046778475,251.46532334925755,-71.76556369255898,-40.998382568359375,4761.76025390625,True
1599385704.4539125,0.0,10,0.5,0.5,-2.4938656173706053,-0.05075,-0.0155,-0.12575,0.2816243370547393,10,1,100,0.34605300493251767,-10,-1,-100,19320.039026299026,-0.04567332005949509,0.0059000971833349635,0.9989390054893093,62.977400442355886,3.8137969368037967,255.00901924047182,-72.49508568206309,-45.652313232421875,4761.76025390625,True
1599385704.4849908,0.0,10,0.5,0.5,-3.060921983337402,-0.05075,-0.0155,-0.12575,0.06098480294169653,10,1,100,0.5048749394726116,-10,-1,-100,19320.039026299026,-0.04567332005949509,0.0059000971833349635,0.9989390054893093,62.977400442355886,3.8137969368037967,255.00901924047182,-72.49508568206309,-45.652313232421875,4761.76025390625,True
1599385704.5190647,0.0,10,0.5,0.5,-2.2905754959106446,-0.05075,-0.0155,-0.12575,0.2675672565899452,10,1,100,0.33041482193656857,-10,-1,-100,19315.667436082847,-0.04409038772846799,0.007772725326135391,0.9989973085303874,62.93790629944722,3.8118912540444456,256.8516844731239,-73.04219971924772,-49.914306640625,4761.76025390625,True
1599385704.551996,0.0,10,0.5,0.5,-2.8022476409912107,-0.05075,-0.0155,-0.12575,0.08106310166842962,10,1,100,0.488213454094922,-10,-1,-100,19315.667436082847,-0.04409038772846799,0.007772725326135391,0.9989973085303874,62.93790629944722,3.8118912540444456,256.8516844731239,-73.04219971924772,-49.914306640625,4761.76025390625,True
1599385704.5884662,0.0,10,0.5,0.5,-1.9094524169921876,-0.05075,-0.0155,-0.12575,0.3070042851559524,10,1,100,0.27553193614861976,-10,-1,-100,19311.26301945001,-0.04216139222734294,0.009819968253089768,0.9990625532112393,62.636314897304665,3.7935524514965415,257.6156835312557,-73.58931123766028,-54.8372802734375,4761.76025390625,True
1599385704.6190917,0.0,10,0.5,0.5,-2.498100250244141,-0.05075,-0.0155,-0.12575,0.10319007021393783,10,1,100,0.46775903186851525,-10,-1,-100,19311.26301945001,-0.04216139222734294,0.009819968253089768,0.9990625532112393,62.636314897304665,3.7935524514965415,257.6156835312557,-73.58931123766028,-54.8372802734375,4761.76025390625,True
1599385704.6520522,0.0,10,0.5,0.5,-1.825985438537598,-0.05075,-0.0155,-0.12575,0.25794483179469674,10,1,100,0.3035099772659271,-10,-1,-100,19308.308504286222,-0.04067398252008801,0.011219339139985901,0.9991094802749184,62.246207052387106,3.7695755127414308,257.3341136768038,-73.95406379517675,-58.4871826171875,4761.76025390625,True
1599385704.6860414,0.0,10,0.5,0.5,-1.188542254638672,-0.05075,-0.0155,-0.12575,0.3434614334595759,10,1,100,0.17483305425908058,-10,-1,-100,19303.84937354375,-0.038158951906950726,0.013260483595742988,0.9991836938041825,61.30692366260268,3.7118060080930335,255.4078791841424,-74.50123360270243,-64.51504516601562,4761.76025390625,True
1599385704.7221377,0.0,10,0.5,0.5,-1.1316345748901369,-0.05075,-0.0155,-0.12575,0.2894378984694772,10,1,100,0.21894359609739458,-10,-1,-100,19300.85837937123,-0.03628260640861827,0.014615012416076734,0.9992346940955739,60.40258178927134,3.6563214818703833,252.927641629984,-74.86605631457799,-68.90170288085938,4761.76025390625,True
1599385704.7519827,0.0,10,0.5,0.5,-0.8119898101806642,-0.05075,-0.0155,-0.12575,0.2901048369618512,10,1,100,0.1892807587032107,-10,-1,-100,19297.85279088351,-0.03431743944377867,0.015842084288440847,0.9992854155422366,59.243750597263244,3.585456107102465,249.33950875742403,-75.23092572992672,-73.58441162109375,4761.76025390625,True
1599385704.785889,0.0,10,0.5,0.5,-1.3503320892333985,-0.05075,-0.0155,-0.12575,0.16861309298094515,10,1,100,0.38450271246879153,-10,-1,-100,19297.85279088351,-0.03431743944377867,0.015842084288440847,0.9992854155422366,59.243750597263244,3.585456107102465,249.33950875742403,-75.23092572992672,-73.58441162109375,4761.76025390625,True
1599385704.8189046,0.0,10,0.5,0.5,-0.874308546447754,-0.05075,-0.0155,-0.12575,0.23695217857255457,10,1,100,0.26878539279394953,-10,-1,-100,19296.344523135573,-0.03327578733820349,0.016454310532814473,0.9993107512890633,58.56041956989636,3.543785320255007,247.08909598055916,-75.41338123851924,-76.0361328125,4761.76025390625,True
1599385704.8558884,0.0,10,0.5,0.5,-0.2323824493408203,-0.05075,-0.0155,-0.12575,0.3017314751853943,10,1,100,0.1346125501593384,-10,-1,-100,19293.317039335147,-0.031120348248021665,0.01759018780295315,0.9993608503528537,56.97066882677236,3.4471383922517855,241.59966712562326,-75.77833935373545,-81.15304565429688,4761.76025390625,True
1599385704.8778312,0.0,10,0.5,0.5,0.12488754882812492,-0.05075,-0.0155,-0.12575,0.30801030098981624,10,1,100,0.0929690872739822,-10,-1,-100,19290.274954917608,-0.028794072175698994,0.018670958771776856,0.9994109748777442,55.07290527291989,3.3322347377445465,234.73088331907704,-76.1433660104964,-86.54852294921875,4761.76025390625,True
1599385704.9037282,0.0,10,0.5,0.5,1.0166318382263184,-0.05075,-0.0155,-0.12575,0.3495654379659112,10,1,100,-0.06900061278323344,-10,-1,-100,19285.68444657221,-0.025220729669024396,0.020021344321903233,0.999481395808099,52.63348321911513,3.1855017726179025,226.0256953207003,-76.69102404122857,-95.1232681274414,4761.76025390625,True
1599385704.928166,0.0,10,0.5,0.5,0.0008009132385253803,-0.05075,-0.0155,-0.12575,0.21554702056015482,10,1,100,0.28663957162839454,-10,-1,-100,19285.68444657221,-0.025220729669024396,0.020021344321903233,0.999481395808099,52.63348321911513,3.1855017726179025,226.0256953207003,-76.69102404122857,-95.1232681274414,4761.76025390625,True
1599385704.955094,0.0,10,0.5,0.5,1.0915244792938232,-0.05075,-0.0155,-0.12575,0.29990319117825115,10,1,100,0.015878890340131457,-10,-1,-100,19282.605853726505,-0.02277466953236593,0.020778944622005188,0.9995246619709227,54.45510803659841,3.2970942010896125,235.01556996894934,-77.05607367400151,-100.94921875,4761.76025390625,True
1599385704.9859493,0.0,10,0.5,0.5,0.4247273445129395,-0.05075,-0.0155,-0.12575,0.22509912171625762,10,1,100,0.2586949727072058,-10,-1,-100,19282.605853726505,-0.02277466953236593,0.020778944622005188,0.9995246619709227,54.45510803659841,3.2970942010896125,235.01556996894934,-77.05607367400151,-100.94921875,4761.76025390625,True
1599385705.0192194,0.0,10,0.5,0.5,0.98726025390625,-0.05075,-0.0155,-0.12575,0.262130942005142,10,1,100,0.12487685245004841,-10,-1,-100,19281.061082282686,-0.021572126877641394,0.02110876256915299,0.9995444279694494,55.256634540664976,3.346478005058279,239.06675131519117,-77.23856462277585,-103.81641387939453,4761.76025390625,True
1599385705.0531962,0.0,10,0.5,0.5,2.645288942718506,-0.05075,-0.0155,-0.12575,0.33988052688401205,10,1,100,-0.31481010049758407,-10,-1,-100,19274.84550758975,-0.0164951253279415,0.02210950806531974,0.9996194678444018,58.112890297780744,3.5236367812202127,253.91197344346855,-77.96830313075702,-114.94650268554688,4761.76025390625,True
1599385705.0881407,0.0,10,0.5,0.5,1.3097915164947511,-0.05075,-0.0155,-0.12575,0.24043271964502488,10,1,100,0.19110782306082164,-10,-1,-100,19274.84550758975,-0.0164951253279415,0.02210950806531974,0.9996194678444018,58.112890297780744,3.5236367812202127,253.91197344346855,-77.96830313075702,-114.94650268554688,4761.76025390625,True
1599385705.120021,0.0,10,0.5,0.5,2.30356431388855,-0.05075,-0.0155,-0.12575,0.27472289541966677,10,1,100,-0.0852862326942381,-10,-1,-100,19271.715832738788,-0.013998654197546263,0.02241553927801932,0.999650729644876,59.246655704951074,3.594519501595946,260.1320626026876,-78.33304960922423,-120.21370697021484,4761.76025390625,True
1599385705.152967,0.0,10,0.5,0.5,2.156051610183716,-0.05075,-0.0155,-0.12575,0.2605006168399975,10,1,100,0.03492258845960794,-10,-1,-100,19270.1455246259,-0.012839467119622519,0.022559036730889943,0.9996630622093918,59.68603740583278,3.622182893290417,262.69872002233683,-78.5153977051177,-122.74267578125,4761.76025390625,True
1599385705.1861782,0.0,10,0.5,0.5,2.756926732635498,-0.05075,-0.0155,-0.12575,0.25869527279454874,10,1,100,-0.12914612195350536,-10,-1,-100,19266.993968621828,-0.010310745936962084,0.022668559606788305,0.999689864369734,60.335865141840415,3.663442827008609,266.8471058816544,-78.88005433981003,-127.58363342285156,4761.76025390625,True
1599385705.22308,0.0,10,0.5,0.5,2.619476447296143,-0.05075,-0.0155,-0.12575,0.25359074674461013,10,1,100,-0.007335636700408876,-10,-1,-100,19265.412721170695,-0.00913607956978869,0.022718086892755545,0.9997001653386017,60.553532545788116,3.67745207462257,268.4560524191365,-79.06236709330639,-129.89352416992188,4761.76025390625,True
1599385705.2529998,0.0,10,0.5,0.5,3.883647127151489,-0.05075,-0.0155,-0.12575,0.24497913073956568,10,1,100,-0.39607995660623496,-10,-1,-100,19259.051271584,-0.004548784191486491,0.02268237269579731,0.99973237345365,60.847226090033494,3.697593053836779,272.35556819129243,-79.79155707594492,-138.39633178710938,4761.76025390625,True
1599385705.285911,0.0,10,0.5,0.5,3.2241720664978026,-0.05075,-0.0155,-0.12575,0.241380006373986,10,1,100,-0.06136397548269642,-10,-1,-100,19257.45179453434,-0.003440180899132604,0.022614766814899198,0.9997383345042288,60.803381345134774,3.6952925205449074,272.80839655291777,-79.9738471254234,-140.33786010742188,4761.76025390625,True
1599385705.320798,0.0,10,0.5,0.5,3.6871379432678224,-0.05075,-0.0155,-0.12575,0.23748552323501715,10,1,100,-0.18170536604252835,-10,-1,-100,19254.24190304603,-0.0013559238906608105,0.02251623360173493,0.999745557977026,60.60848444936117,3.68395218213161,273.22841262984866,-80.33842690785258,-143.99826049804688,4761.76025390625,True
1599385705.3559425,0.0,10,0.5,0.5,3.88765366897583,-0.05075,-0.0155,-0.12575,0.22590794222346366,10,1,100,-0.19871115974464074,-10,-1,-100,19251.017428186373,0.0006739817455675643,0.02231982786331717,0.9997506544297726,60.30526110519637,3.665772799605636,273.1502324982988,-80.70301213275641,-147.3641815185547,4761.76025390625,True
1599385705.3874676,0.0,10,0.5,0.5,3.8092826030731204,-0.05075,-0.0155,-0.12575,0.23717973502386064,10,1,100,-0.10282273491065831,-10,-1,-100,19249.39972189418,0.0016274138176269658,0.022242647067219033,0.9997512771563282,60.12274284195469,3.654727125714501,272.9663007338682,-80.88530849664505,-148.93582153320312,4761.76025390625,True
1599385705.4204345,0.0,10,0.5,0.5,3.6643323154449465,-0.05075,-0.0155,-0.12575,0.2449111285338644,10,1,100,-0.009291781619275016,-10,-1,-100,19249.39972189418,0.0016274138176269658,0.022242647067219033,0.9997512771563282,60.12274284195469,3.654727125714501,272.9663007338682,-80.88530849664505,-148.93582153320312,4761.76025390625,True
1599385705.4524798,0.0,10,0.5,0.5,4.69617654914856,-0.05075,-0.0155,-0.12575,0.20500658749746906,10,1,100,-0.40312548884383415,-10,-1,-100,19242.89243623684,0.005191245211354259,0.02187975747688644,0.9997471316217457,59.27902799038484,3.6032842408585855,271.673193013852,-81.61452635865986,-154.4834747314453,4761.76025390625,True
1599385705.489027,0.0,10,0.5,0.5,4.051677299499512,-0.05075,-0.0155,-0.12575,0.2412419683506151,10,1,100,-0.048661339411994846,-10,-1,-100,19242.89243623684,0.005191245211354259,0.02187975747688644,0.9997471316217457,59.27902799038484,3.6032842408585855,271.673193013852,-81.61452635865986,-154.4834747314453,4761.76025390625,True
1599385705.5208983,0.0,10,0.5,0.5,4.313105907440185,-0.05075,-0.0155,-0.12575,0.22827740607508828,10,1,100,-0.14185880217069263,-10,-1,-100,19241.25649933354,0.006022103316132442,0.021762515346430745,0.9997450310941516,59.05576419600922,3.589616929716009,271.2825909202967,-81.79683967083699,-155.6859130859375,4761.76025390625,True
1599385705.5530972,0.0,10,0.5,0.5,4.923652519989014,-0.05075,-0.0155,-0.12575,0.19758102697349939,10,1,100,-0.3939715412823341,-10,-1,-100,19234.6762876251,0.009054514813079263,0.02137769727623872,0.9997304685867413,58.19228437135749,3.5366604640843637,269.81184816149596,-82.52612692692546,-159.7550048828125,4761.76025390625,True
1599385705.5870032,0.0,10,0.5,0.5,4.605156900787354,-0.05075,-0.0155,-0.12575,0.226457821379056,10,1,100,-0.16860261223858156,-10,-1,-100,19233.02211840439,0.009745907187739652,0.021291597515766047,0.9997258049927064,57.995559052476835,3.5245799791179886,269.5221179020422,-82.7084560572875,-160.58734130859375,4761.76025390625,True
1599385705.6230395,0.0,10,0.5,0.5,4.668742906951904,-0.05075,-0.0155,-0.12575,0.22567042816951133,10,1,100,-0.17408152930516166,-10,-1,-100,19231.364302459056,0.010411258873145982,0.02120743122723142,0.9997208863224869,57.81009411401815,3.513186348381977,269.28082542955985,-82.89078763601216,-161.34573364257812,4761.76025390625,True
1599385705.654146,0.0,10,0.5,0.5,4.726586185455323,-0.05075,-0.0155,-0.12575,0.2310379571904877,10,1,100,-0.1781001250475659,-10,-1,-100,19229.702839861624,0.011040064512289704,0.02118099153383397,0.999714700588727,57.63786531445747,3.502601006495062,269.09754491834434,-83.073121028327,-162.029296875,4761.76025390625,True
1599385705.6870563,0.0,10,0.5,0.5,4.871016889190674,-0.05075,-0.0155,-0.12575,0.21785083778151043,10,1,100,-0.2484012264224117,-10,-1,-100,19226.36897468113,0.012239537843643549,0.021038286401634586,0.9997037482267717,57.34158645044211,3.484373418399801,268.94641687421586,-83.43779223289738,-163.17626953125,4761.76025390625,True
1599385705.8918445,0.0,10,0.5,0.5,4.832891668701173,-0.05075,-0.0155,-0.12575,0.22684587893381955,10,1,100,-0.19093430577120624,-10,-1,-100,19224.696572019253,0.01279702745159238,0.020991492602348578,0.9996977509861311,57.21886266099504,3.4768127614166415,268.9858197606693,-83.6201289759863,-163.63858032226562,4761.76025390625,True
1599385705.9166205,0.0,10,0.5,0.5,4.921531118774414,-0.05075,-0.0155,-0.12575,0.2249339631399382,10,1,100,-0.24980341587136776,-10,-1,-100,19221.340826566913,0.013828855720061909,0.020932709145294076,0.9996852426825715,57.028531618652025,3.465057910065018,269.31748626977566,-83.98480279781103,-164.34104919433594,4761.76025390625,True
1599385705.9435465,0.0,10,0.5,0.5,4.857073760986328,-0.05075,-0.0155,-0.12575,0.23068131505319586,10,1,100,-0.14784073321465843,-10,-1,-100,19221.340826566913,0.013828855720061909,0.020932709145294076,0.9996852426825715,57.028531618652025,3.465057910065018,269.31748626977566,-83.98480279781103,-164.34104919433594,4761.76025390625,True
1599385705.981449,0.0,10,0.5,0.5,4.960285206604004,-0.05075,-0.0155,-0.12575,0.23296754745428144,10,1,100,-0.2963979783960635,-10,-1,-100,19216.279857858317,0.01517152375761222,0.020954354029241756,0.9996653139496685,56.8914945402764,3.4564831640362317,270.50662538923405,-84.53180663638096,-164.83924865722656,4761.76025390625,True
1599385706.0631096,0.0,10,0.5,0.5,4.9070386215209965,-0.05075,-0.0155,-0.12575,0.2375113095332419,10,1,100,-0.2468876262507868,-10,-1,-100,19212.887645471026,0.015932963973567936,0.021016179400318965,0.9996521699383395,56.904297378351785,3.457112430412156,271.7926248919026,-84.89646564027085,-164.80157470703125,4761.76025390625,True
1599385706.093029,0.0,10,0.5,0.5,4.925905396270752,-0.05075,-0.0155,-0.12575,0.23125413883090987,10,1,100,-0.17173469072095882,-10,-1,-100,19212.887645471026,0.015932963973567936,0.021016179400318965,0.9996521699383395,56.904297378351785,3.457112430412156,271.7926248919026,-84.89646564027085,-164.80157470703125,4761.76025390625,True
1599385706.1239989,0.0,10,0.5,0.5,4.874695848846436,-0.05075,-0.0155,-0.12575,0.249187568367999,10,1,100,-0.24240885134561785,-10,-1,-100,19209.480847377214,0.016569203207282574,0.02117953923054334,0.9996383789266285,57.00038608096561,3.4628088533340855,273.4792263539286,-85.26111178878492,-164.4671173095703,4761.76025390625,True
1599385706.149931,0.0,10,0.5,0.5,4.7364078010559085,-0.05075,-0.0155,-0.12575,0.2664536635035002,10,1,100,-0.2624510859513581,-10,-1,-100,19204.343302680994,0.01732360164705757,0.021485114539511165,0.9996190687853039,57.299227135130366,3.48075575282161,276.76490127935824,-85.80804796781064,-163.4112548828125,4761.76025390625,True
1599385706.1778548,0.0,10,0.5,0.5,4.784166377258302,-0.05075,-0.0155,-0.12575,0.24975727607367393,10,1,100,-0.2092770067197917,-10,-1,-100,19202.623495781096,0.017519733742226137,0.021610872495290513,0.9996129396519403,57.43697974217973,3.4890548062591025,278.0492205033582,-85.9903493583063,-162.91143798828125,4761.76025390625,True
1599385706.206777,0.0,10,0.5,0.5,4.747073765563965,-0.05075,-0.0155,-0.12575,0.2542052081109745,10,1,100,-0.2077226008380212,-10,-1,-100,19200.900042802212,0.017678014075972432,0.021765242854554966,0.9996068037092444,57.59199096183177,3.4984023314433284,279.42031562978985,-86.17264451840276,-162.33743286132812,4761.76025390625,True
1599385706.234703,0.0,10,0.5,0.5,4.703597062683106,-0.05075,-0.0155,-0.12575,0.25729367791777075,10,1,100,-0.2061226127159385,-10,-1,-100,19199.172943973565,0.017802415872602558,0.021932995673536324,0.9996009292161965,57.76367432913977,3.508763069628445,280.87588895179323,-86.35493320211162,-161.68951416015625,4761.76025390625,True
1599385706.265618,0.0,10,0.5,0.5,4.36084979095459,-0.05075,-0.0155,-0.12575,0.29974733719847113,10,1,100,-0.218131957125685,-10,-1,-100,19193.969774362165,0.018020133920153995,0.02247058468146103,0.9995850877226875,58.368169401825085,3.5452909371937555,285.70297362946496,-86.9017558176433,-159.3031005859375,4761.76025390625,True
1599385706.2925453,0.0,10,0.5,0.5,4.486664559173584,-0.05075,-0.0155,-0.12575,0.268315941454995,10,1,100,-0.19773918533854692,-10,-1,-100,19192.228093993617,0.018028860330590327,0.022672163931419007,0.9995803785478418,58.59405783325739,3.558957764424913,287.4404305620248,-87.08401437538944,-158.3599395751953,4761.76025390625,True
1599385706.3254576,0.0,10,0.5,0.5,4.595996336364746,-0.05075,-0.0155,-0.12575,0.24833196193780968,10,1,100,-0.19728654475596663,-10,-1,-100,19192.228093993617,0.018028860330590327,0.022672163931419007,0.9995803785478418,58.59405783325739,3.558957764424913,287.4404305620248,-87.08401437538944,-158.3599395751953,4761.76025390625,True
1599385706.3583703,0.0,10,0.5,0.5,4.008442153930664,-0.05075,-0.0155,-0.12575,0.3203262106926458,10,1,100,-0.178528359312093,-10,-1,-100,19186.981183398282,0.01785573379330695,0.0233250954565519,0.9995684632343325,59.32063818034723,3.602991406688652,292.9237617742913,-87.63073923890941,-155.08792114257812,4761.76025390625,True
1599385706.3882916,0.0,10,0.5,0.5,4.404842308807373,-0.05075,-0.0155,-0.12575,0.2552639497849796,10,1,100,-0.19603329002240458,-10,-1,-100,19186.981183398282,0.01785573379330695,0.0233250954565519,0.9995684632343325,59.32063818034723,3.602991406688652,292.9237617742913,-87.63073923890941,-155.08792114257812,4761.76025390625,True
1599385706.4227736,0.0,10,0.5,0.5,3.9397213798522954,-0.05075,-0.0155,-0.12575,0.30714706662573293,10,1,100,-0.16666681466426098,-10,-1,-100,19183.465020336793,0.017587017862942245,0.023794661140507628,0.9995621595998406,59.82517946371872,3.6336585294815764,296.70551372311843,-87.99517859652308,-152.53797912597656,4761.76025390625,True
1599385706.4546869,0.0,10,0.5,0.5,3.997386416625977,-0.05075,-0.0155,-0.12575,0.28590476687389116,10,1,100,-0.17210789748989805,-10,-1,-100,19181.701472663204,0.01739126975679316,0.024026049835532488,0.9995600495545763,60.07597388869896,3.6489418858043217,298.5972479133526,-88.17738489794478,-151.1527099609375,4761.76025390625,True
1599385706.4915876,0.0,10,0.5,0.5,3.0447101997375485,-0.05075,-0.0155,-0.12575,0.36772192057775394,10,1,100,-0.07122973894218608,-10,-1,-100,19174.61084360024,0.016296181247942305,0.024977885559866547,0.9995551709183903,61.00574679181112,3.7060073340249993,305.85061608197134,-88.90612494907946,-144.8758087158203,4761.76025390625,True
1599385706.5225055,0.0,10,0.5,0.5,3.8060753059387205,-0.05075,-0.0155,-0.12575,0.27287504945080554,10,1,100,-0.18061623457784318,-10,-1,-100,19174.61084360024,0.016296181247942305,0.024977885559866547,0.9995551709183903,61.00574679181112,3.7060073340249993,305.85061608197134,-88.90612494907946,-144.8758087158203,4761.76025390625,True
1599385706.556415,0.0,10,0.5,0.5,3.1472579650878907,-0.05075,-0.0155,-0.12575,0.32446642833589723,10,1,100,-0.09835385705785002,-10,-1,-100,19171.04366876697,0.01554959766396785,0.025443977510908006,0.999555308135029,61.38123812690592,3.729427907916913,309.05767283921955,-89.27044938353568,-141.29647827148438,4761.76025390625,True
1599385706.589331,0.0,10,0.5,0.5,3.230535298919678,-0.05075,-0.0155,-0.12575,0.29958694522968976,10,1,100,-0.12612390375451293,-10,-1,-100,19169.254616604303,0.01512538830142313,0.025638328545582564,0.999556851178621,61.53411558429804,3.739119805804131,310.49151298287114,-89.4526023542117,-139.39724731445312,4761.76025390625,True
1599385706.625358,0.0,10,0.5,0.5,2.7291538215637208,-0.05075,-0.0155,-0.12575,0.32446093392329406,10,1,100,-0.0644201111008573,-10,-1,-100,19165.665583388298,0.014181431443729907,0.026038258707170272,0.9995603513974057,61.75015825420324,3.753275847422792,312.91499680188934,-89.81689475898794,-135.37823486328125,4761.76025390625,True
1599385706.6572723,0.0,10,0.5,0.5,2.038061682128906,-0.05075,-0.0155,-0.12575,0.33708988722009187,10,1,100,0.022206676073065923,-10,-1,-100,19160.254712645314,0.01253927026141573,0.026513580161515667,0.9995698058506621,61.788479840587684,3.7577346738224877,315.11239389850766,-90.36331722362429,-128.80111694335938,4761.76025390625,True
1599385706.6891873,0.0,10,0.5,0.5,1.9808946083068846,-0.05075,-0.0155,-0.12575,0.31510897595436094,10,1,100,-0.0056729984116001275,-10,-1,-100,19156.62925124704,0.011304838581962691,0.02674237191193202,0.9995784342257288,61.57200069456296,3.746369841560379,315.3410270795799,-90.72760559828399,-124.05084228515625,4761.76025390625,True
1599385706.7212257,0.0,10,0.5,0.5,2.0916392936706543,-0.05075,-0.0155,-0.12575,0.29977840741008566,10,1,100,-0.058273699606374726,-10,-1,-100,19154.811055896105,0.01066677151624092,0.02680788899240313,0.9995836918803704,61.37729571312986,3.7355230589024666,315.0087780174484,-90.90975714150852,-121.56645202636719,4761.76025390625,True
1599385706.760246,0.0,10,0.5,0.5,2.352093091583252,-0.05075,-0.0155,-0.12575,0.2935749787165598,10,1,100,-0.12136150995084521,-10,-1,-100,19154.811055896105,0.01066677151624092,0.02680788899240313,0.9995836918803704,61.37729571312986,3.7355230589024666,315.0087780174484,-90.90975714150852,-121.56645202636719,4761.76025390625,True
1599385706.7911258,0.0,10,0.5,0.5,1.3884140258789064,-0.05075,-0.0155,-0.12575,0.3022752265776674,10,1,100,0.027799538936014154,-10,-1,-100,19151.163735695533,0.00931705311394829,0.02688424285672966,0.9995951330450205,60.79056979337693,3.7019514142925636,313.31633663335947,-91.27408428065502,-116.37850189208984,4761.76025390625,True
1599385706.8230412,0.0,10,0.5,0.5,0.5168351989746096,-0.05075,-0.0155,-0.12575,0.2880750669768232,10,1,100,0.13520880081434167,-10,-1,-100,19145.66542767943,0.0071209287462818726,0.026821964743363194,0.9996148631253421,59.48043820666037,3.625463611671319,308.5041910014521,-91.82066310951018,-108.04953002929688,4761.76025390625,True
1599385706.8561473,0.0,10,0.5,0.5,0.9913875026702883,-0.05075,-0.0155,-0.12575,0.28604810149143217,10,1,100,0.0011586347718318818,-10,-1,-100,19143.825369767495,0.006351431060154909,0.026745244882086947,0.9996221041972237,58.948133351250945,3.5940723125162175,306.38561682900814,-92.00288424606855,-105.12751770019531,4761.76025390625,True
1599385706.8940096,0.0,10,0.5,0.5,-0.32325403327941893,-0.05075,-0.0155,-0.12575,0.24703865984933931,10,1,100,0.17530623503401518,-10,-1,-100,19138.283326597768,0.00407776838873581,0.026319261575705678,0.9996452712212854,57.00087524083345,3.477983795323972,298.13153361820287,-92.54964996192533,-95.94635772705078,4761.76025390625,True
1599385706.9378955,0.0,10,0.5,0.5,0.7609841464996339,-0.05075,-0.0155,-0.12575,0.289724518893946,10,1,100,-0.05091284918037152,-10,-1,-100,19138.283326597768,0.00407776838873581,0.026319261575705678,0.9996452712212854,57.00087524083345,3.477983795323972,298.13153361820287,-92.54964996192533,-95.94635772705078,4761.76025390625,True
1599385706.972803,0.0,10,0.5,0.5,-1.0181812339782716,-0.05075,-0.0155,-0.12575,0.21605297095021958,10,1,100,0.20642358264269073,-10,-1,-100,19132.708473171224,0.0017483895720831419,0.025648901200735326,0.9996694838800969,57.62585443146973,3.517659576651642,303.291688619476,-93.09649202723712,-86.2476806640625,4761.76025390625,True
1599385707.007705,0.0,10,0.5,0.5,-1.0286001659393311,-0.05075,-0.0155,-0.12575,0.21765483965743754,10,1,100,0.14332133718636744,-10,-1,-100,19128.9736800862,0.00021573200824878834,0.025054399082197382,0.9996860659958857,60.09881663150691,3.6690115385743782,317.62288968316983,-93.46092026772622,-79.71014404296875,4761.76025390625,True
1599385707.0396225,0.0,10,0.5,0.5,-0.2825959438323975,-0.05075,-0.0155,-0.12575,0.27695913340330003,10,1,100,-0.008712065371751199,-10,-1,-100,19128.9736800862,0.00021573200824878834,0.025054399082197382,0.9996860659958857,60.09881663150691,3.6690115385743782,317.62288968316983,-93.46092026772622,-79.71014404296875,4761.76025390625,True
1599385707.0735302,0.0,10,0.5,0.5,-1.5213798427581788,-0.05075,-0.0155,-0.12575,0.20056677603168688,10,1,100,0.1545808738822468,-10,-1,-100,19125.224313413026,-0.0012586682517205447,0.024361457626846113,0.9997024232923153,62.28722566017464,3.802680938059623,330.5518268585553,-93.82522902252312,-73.0809326171875,4761.76025390625,True
1599385707.102752,0.0,10,0.5,0.5,-1.8967416568756104,-0.05075,-0.0155,-0.12575,0.1850480232210548,10,1,100,0.16409031563972318,-10,-1,-100,19121.4603779749,-0.0026746402860624856,0.023592655306762446,0.9997180767170896,64.11337099662197,3.914126753511096,341.64521577252634,-94.18942764536386,-66.65695190429688,4761.76025390625,True
1599385707.1356654,0.0,10,0.5,0.5,-1.727903666305542,-0.05075,-0.0155,-0.12575,0.2127533740573056,10,1,100,0.10212414545286967,-10,-1,-100,19119.572948120185,-0.003386430213945306,0.023148533872184702,0.9997263012794924,64.87424571957429,3.960589725040232,346.4088229532296,-94.3714908672138,-63.518890380859375,4761.76025390625,True
1599385707.1686091,0.0,10,0.5,0.5,-2.502869450378418,-0.05075,-0.0155,-0.12575,0.15704150344969497,10,1,100,0.17879094254912029,-10,-1,-100,19115.787166198133,-0.0047189342280520635,0.022241711661576243,0.9997414855461959,66.11748088557992,4.036707406991474,354.4921633846663,-94.7355572185877,-57.356597900390625,4761.76025390625,True
1599385707.2070546,0.0,10,0.5,0.5,-2.8478679794311526,-0.05075,-0.0155,-0.12575,0.14393411213597748,10,1,100,0.18438682080552027,-10,-1,-100,19111.9868233921,-0.005970409622321539,0.02130233359733638,0.999755252445442,66.99262289364304,4.0907475733586365,360.64805939723345,-95.09956091230131,-51.456695556640625,4761.76025390625,True
1599385707.2429247,0.0,10,0.5,0.5,-3.6539582206726076,-0.05075,-0.0155,-0.12575,0.07061932091339646,10,1,100,0.25249266692964945,-10,-1,-100,19106.259011813905,-0.007716056908529076,0.019786803538081,0.9997744469986867,67.67296720812188,4.134117816253314,366.5298991821804,-95.64549736586329,-43.157470703125,4761.76025390625,True
1599385707.2788305,0.0,10,0.5,0.5,-3.603195752334595,-0.05075,-0.0155,-0.12575,0.11071671843318209,10,1,100,0.19562953656701404,-10,-1,-100,19102.422273573,-0.008775349778787184,0.01877950933260836,0.9997851385500218,67.76633125685507,4.141637907307973,368.51911072755195,-96.009438184615,-37.995758056640625,4761.76025390625,True
1599385707.3137434,0.0,10,0.5,0.5,-3.0439338165283205,-0.05075,-0.0155,-0.12575,0.21069216375613614,10,1,100,0.09098556135795559,-10,-1,-100,19102.422273573,-0.008775349778787184,0.01877950933260836,0.9997851385500218,67.76633125685507,4.141637907307973,368.51911072755195,-96.009438184615,-37.995758056640625,4761.76025390625,True
1599385707.344697,0.0,10,0.5,0.5,-3.977400459289551,-0.05075,-0.0155,-0.12575,0.10396807013547728,10,1,100,0.20083380187749716,-10,-1,-100,19098.57097755361,-0.009764403111373134,0.017815535201391577,0.9997936102703231,67.62211166893293,4.135039343094204,369.2175165551382,-96.37338535173842,-33.1307373046875,4761.76025390625,True
1599385707.37761,0.0,10,0.5,0.5,-4.244008337402343,-0.05075,-0.0155,-0.12575,0.09320489683402151,10,1,100,0.20343839017791443,-10,-1,-100,19094.7051230059,-0.010678147729982681,0.016847928837436545,0.9998010424354163,67.28254808622232,4.116781295385628,368.84146701885965,-96.73735201801983,-28.5631103515625,4761.76025390625,True
1599385707.4121034,0.0,10,0.5,0.5,-4.132296951293946,-0.05075,-0.0155,-0.12575,0.1345627071152713,10,1,100,0.15957596569628302,-10,-1,-100,19092.766736181686,-0.011100171815487227,0.01635172720934766,0.999804684527402,67.05243458676465,4.104027092167947,368.31755350257833,-96.91934582149905,-26.39093017578125,4761.76025390625,True
1599385707.4409897,0.0,10,0.5,0.5,-4.659216412353516,-0.05075,-0.0155,-0.12575,0.08547307688823033,10,1,100,0.20820377701967813,-10,-1,-100,19088.879041768843,-0.011916954265646073,0.015461647027582391,0.9998094436802569,66.49649182412952,4.072707264027311,366.72893174729336,-97.28335901648249,-22.267974853515625,4761.76025390625,True
1599385707.473936,0.0,10,0.5,0.5,-5.202935762023926,-0.05075,-0.0155,-0.12575,0.03258014576752377,10,1,100,0.2497716285984978,-10,-1,-100,19083.020196663798,-0.013028971221980127,0.014179030223315887,0.9998145833157381,65.51664229834134,4.0166796178763,363.49590336206006,-97.8294503765819,-16.6397705078125,4761.76025390625,True
1599385707.5078404,0.0,10,0.5,0.5,-4.56785170135498,-0.05075,-0.0155,-0.12575,0.1599448758292873,10,1,100,0.1395341870658959,-10,-1,-100,19083.020196663798,-0.013028971221980127,0.014179030223315887,0.9998145833157381,65.51664229834134,4.0166796178763,363.49590336206006,-97.8294503765819,-16.6397705078125,4761.76025390625,True
1599385707.5377345,0.0,10,0.5,0.5,-5.227899917602539,-0.05075,-0.0155,-0.12575,0.07366942757070927,10,1,100,0.21569743103798428,-10,-1,-100,19079.09609514044,-0.013713809769913723,0.013402037676818142,0.9998161415018783,64.9129639200378,3.98215515341778,361.5839218026627,-98.1935564812761,-13.2576904296875,4761.76025390625,True
1599385707.5706465,0.0,10,0.5,0.5,-5.659261299133301,-0.05075,-0.0155,-0.12575,0.03457492189344319,10,1,100,0.2528604720590833,-10,-1,-100,19073.182633152814,-0.014667196640820081,0.012347458306500062,0.9998161899149607,64.08661279310856,3.9347613192481474,359.11390575108413,-98.73977491008296,-8.73956298828125,4761.76025390625,True
1599385707.5975728,0.0,10,0.5,0.5,-5.144454530334473,-0.05075,-0.0155,-0.12575,0.1392889244020931,10,1,100,0.15821689894167656,-10,-1,-100,19073.182633152814,-0.014667196640820081,0.012347458306500062,0.9998161899149607,64.08661279310856,3.9347613192481474,359.11390575108413,-98.73977491008296,-8.73956298828125,4761.76025390625,True
1599385707.634476,0.0,10,0.5,0.5,-5.8698717315673825,-0.05075,-0.0155,-0.12575,0.041923283932285935,10,1,100,0.25776337801707266,-10,-1,-100,19067.236395568587,-0.015566808407994561,0.01146816343952555,0.9998130603784454,63.34111682000146,3.891692360429486,357.04919156870244,-99.28604985873943,-4.886474609375,4761.76025390625,True
1599385707.6654243,0.0,10,0.5,0.5,-5.436665257263184,-0.05075,-0.0155,-0.12575,0.12912163604042887,10,1,100,0.1684813471625454,-10,-1,-100,19067.236395568587,-0.015566808407994561,0.01146816343952555,0.9998130603784454,63.34111682000146,3.891692360429486,357.04919156870244,-99.28604985873943,-4.886474609375,4761.76025390625,True
1599385707.6983032,0.0,10,0.5,0.5,-5.868503633117676,-0.05075,-0.0155,-0.12575,0.069491959262256,10,1,100,0.22750510185836736,-10,-1,-100,19063.25402714149,-0.016098113082232378,0.01093184580678022,0.9998106548254267,62.877602178458346,3.8646725010579055,355.8366738224791,-99.65025960523234,-2.687835693359375,4761.76025390625,True
1599385707.730069,0.0,10,0.5,0.5,-5.806681605529786,-0.05075,-0.0155,-0.12575,0.09897790597835504,10,1,100,0.20572399734189556,-10,-1,-100,19061.25737941696,-0.01637818004925133,0.010717716640822326,0.9998084245335611,62.66267476203243,3.852091660424115,355.31865749458086,-99.83237108233486,-1.698883056640625,4761.76025390625,True
1599385707.7570288,0.0,10,0.5,0.5,-6.030454187011719,-0.05075,-0.0155,-0.12575,0.07310284567634795,10,1,100,0.23303733586698946,-10,-1,-100,19057.253157440922,-0.016876291271102357,0.010292947769541018,0.9998046039197592,62.27563007523119,3.829364821612427,354.5129504062063,-100.19660482100305,0.05670166015625,4761.76025390625,True
1599385707.7959287,0.0,10,0.5,0.5,-5.979710946655273,-0.05075,-0.0155,-0.12575,0.09623747713218206,10,1,100,0.21168546874943922,-10,-1,-100,19055.245582763455,-0.01713050328352969,0.010121807899118358,0.9998020278345641,62.10705503106469,3.8194441193534385,354.2463814986119,-100.37872593264811,0.823944091796875,4761.76025390625,True
1599385707.8309321,0.0,10,0.5,0.5,-6.142036013793946,-0.05075,-0.0155,-0.12575,0.08014827135374825,10,1,100,0.23963047021383665,-10,-1,-100,19051.219506978523,-0.017611921915356744,0.00982364907558854,0.9997966373844669,62.7095596507731,3.8572420623642323,359.08341321310974,-100.74294404849314,2.13690185546875,4761.76025390625,True
1599385707.8658347,0.0,10,0.5,0.5,-6.256005265808106,-0.05075,-0.0155,-0.12575,0.07671151788187999,10,1,100,0.26823118758358977,-10,-1,-100,19045.15307940019,-0.01830541541974875,0.009525311823678745,0.9997870674303465,63.67507053475701,3.917463370687506,366.74725300446363,-101.28919703866568,3.55316162109375,4761.76025390625,True
1599385707.9067273,0.0,10,0.5,0.5,-6.205559416198731,-0.05075,-0.0155,-0.12575,0.09550445328866286,10,1,100,0.24823842084548314,-10,-1,-100,19041.09058734926,-0.018749937448258848,0.009428465303688903,0.9997797476883113,64.17459957305871,3.948616625365208,371.060443817493,-101.65332390696562,4.128753662109375,4761.76025390625,True
1599385707.946622,0.0,10,0.5,0.5,-6.202743687438965,-0.05075,-0.0155,-0.12575,0.10526542346114783,10,1,100,0.25238914834091736,-10,-1,-100,19037.013531282544,-0.01918807068703794,0.009431812735268738,0.999771403297692,64.56418832560095,3.9729472292636148,374.75904517506467,-102.01742358547294,4.409881591796875,4761.76025390625,True
1599385707.9944947,0.0,10,0.5,0.5,-6.193079046630859,-0.05075,-0.0155,-0.12575,0.10788430093595602,10,1,100,0.23214003135806202,-10,-1,-100,19034.969541801605,-0.019398180864223683,0.009461314418813418,0.999767069926104,64.71908920513744,3.9826474254346116,376.38334689994906,-102.19946480089682,4.43994140625,4761.76025390625,True
1599385708.0289166,0.0,10,0.5,0.5,-6.141736506652832,-0.05075,-0.0155,-0.12575,0.13047305963811612,10,1,100,0.2788404273553766,-10,-1,-100,19028.815729539143,-0.020010256104862467,0.00969531089116523,0.9997527647360327,65.02363227444494,4.001906997918331,380.3422160516056,-102.7455623588904,4.08856201171875,4761.76025390625,True
1599385708.065819,0.0,10,0.5,0.5,-6.199833772277833,-0.05075,-0.0155,-0.12575,0.10689612714809886,10,1,100,0.21807724806118509,-10,-1,-100,19028.815729539143,-0.020010256104862467,0.00969531089116523,0.9997527647360327,65.02363227444494,4.001906997918331,380.3422160516056,-102.7455623588904,4.08856201171875,4761.76025390625,True
1599385708.1017244,0.0,10,0.5,0.5,-6.03149951171875,-0.05075,-0.0155,-0.12575,0.15603013923819464,10,1,100,0.2811675867428569,-10,-1,-100,19022.629152436974,-0.020580248144675274,0.010143107850998478,0.999736750724623,65.08266034184518,4.006181025139918,382.8803013832695,-103.29163515814773,3.0753173828125,4761.76025390625,True
1599385708.1356683,0.0,10,0.5,0.5,-6.080758210754395,-0.05075,-0.0155,-0.12575,0.1333321444074099,10,1,100,0.24403043100369348,-10,-1,-100,19020.55967929843,-0.020756992157698682,0.010344372960375955,0.9997310344410751,65.0455737192526,4.004163503662953,383.39335143996107,-103.47365731532184,2.590576171875,4761.76025390625,True
1599385708.1635563,0.0,10,0.5,0.5,-5.811095567321778,-0.05075,-0.0155,-0.12575,0.19230494786728605,10,1,100,0.2810755297563474,-10,-1,-100,19014.32941686886,-0.02125091424830173,0.011063410886544504,0.9997129585951993,64.75371962881633,3.987225884063015,383.8590772510999,-104.0197271398143,0.69512939453125,4761.76025390625,True
1599385708.1945126,0.0,10,0.5,0.5,-6.049248336791992,-0.05075,-0.0155,-0.12575,0.12049531554917381,10,1,100,0.23209536179251994,-10,-1,-100,19014.32941686886,-0.02125091424830173,0.011063410886544504,0.9997129585951993,64.75371962881633,3.987225884063015,383.8590772510999,-104.0197271398143,0.69512939453125,4761.76025390625,True
1599385708.22273,0.0,10,0.5,0.5,-5.759183068847657,-0.05075,-0.0155,-0.12575,0.1869764202306226,10,1,100,0.2636283646638258,-10,-1,-100,19010.15770580608,-0.021534269735920014,0.011666657509274987,0.9997000371759031,64.40512732157568,3.966703655747488,383.2438400394979,-104.38378410128766,-0.935638427734375,4761.76025390625,True
1599385708.271598,0.0,10,0.5,0.5,-5.617652636718751,-0.05075,-0.0155,-0.12575,0.20434761977929708,10,1,100,0.25984845126302436,-10,-1,-100,19005.971433211933,-0.021754567462551014,0.012371036847940107,0.9996867990735019,65.13028420641733,4.012589551753777,389.02775212148583,-104.74781176868818,-2.859954833984375,4761.76025390625,True
1599385708.3015335,0.0,10,0.5,0.5,-5.6595264984130855,-0.05075,-0.0155,-0.12575,0.17567472933305822,10,1,100,0.2502541764558027,-10,-1,-100,19003.872836999246,-0.021864885961227824,0.012748043995811453,0.999679655757875,65.54255338173431,4.0387176514906304,392.22978267469085,-104.92980696785963,-3.932342529296875,4761.76025390625,True
1599385708.330457,0.0,10,0.5,0.5,-5.364087277221681,-0.05075,-0.0155,-0.12575,0.23041149345278458,10,1,100,0.25516937594267297,-10,-1,-100,18999.664725924842,-0.022007425668747208,0.01358536995745515,0.9996654995239925,66.4113333502647,4.093974026208738,398.92827473693984,-105.29375717621072,-6.2969970703125,4761.76025390625,True
1599385708.3623714,0.0,10,0.5,0.5,-5.416688301086426,-0.05075,-0.0155,-0.12575,0.19657089805362105,10,1,100,0.24625721584955684,-10,-1,-100,18997.555211546947,-0.022053615543096025,0.01403518445937644,0.9996582674287592,66.86339419935342,4.122836496383766,402.39889597255353,-105.47571088462135,-7.58941650390625,4761.76025390625,True
1599385708.3942862,0.0,10,0.5,0.5,-5.0660549026489266,-0.05075,-0.0155,-0.12575,0.25778784977696345,10,1,100,0.24724888791333932,-10,-1,-100,18993.325266814907,-0.022102763939049124,0.014996679137182353,0.9996432200745979,67.79161172106208,4.182351135685625,409.51677475749193,-105.83957297048529,-10.394256591796875,4761.76025390625,True
1599385708.4242058,0.0,10,0.5,0.5,-5.129372929382324,-0.05075,-0.0155,-0.12575,0.2182686654078535,10,1,100,0.2410204322513721,-10,-1,-100,18991.204837127123,-0.022088919694957524,0.015506680469790349,0.999635744902871,68.26307699627628,4.212716480341936,413.13609674274414,-106.02148041209023,-11.90667724609375,4761.76025390625,True
1599385708.4571168,0.0,10,0.5,0.5,-4.417845181274414,-0.05075,-0.0155,-0.12575,0.3478215968212509,10,1,100,0.22462729881172933,-10,-1,-100,18984.82172240212,-0.021925934013104515,0.01714319599172051,0.9996126070877869,69.72399237007114,4.307286553575834,424.34101806591246,-106.56710234531235,-16.88397216796875,4761.76025390625,True
1599385708.490546,0.0,10,0.5,0.5,-5.013554467773438,-0.05075,-0.0155,-0.12575,0.18484992693136915,10,1,100,0.2410427611825708,-10,-1,-100,18984.82172240212,-0.021925934013104515,0.01714319599172051,0.9996126070877869,69.72399237007114,4.307286553575834,424.34101806591246,-106.56710234531235,-16.88397216796875,4761.76025390625,True
1599385708.5258355,0.0,10,0.5,0.5,-4.335937109375,-0.05075,-0.0155,-0.12575,0.3140972980159753,10,1,100,0.21591159045227495,-10,-1,-100,18980.548128288006,-0.02169685517031564,0.018312645015121316,0.9995968654954198,70.78084735690643,4.3759138437961065,432.3718316308892,-106.93075783988107,-20.56878662109375,4761.76025390625,True
1599385708.5567508,0.0,10,0.5,0.5,-3.3102615478515625,-0.05075,-0.0155,-0.12575,0.4689789276313927,10,1,100,0.1497899409900201,-10,-1,-100,18971.957311445032,-0.0208870903718307,0.02077720509278168,0.9995659243913487,72.96353560808342,4.518193128170978,448.9977553720428,-107.65782789535567,-28.81854248046875,4761.76025390625,True
1599385708.5902195,0.0,10,0.5,0.5,-4.30444984588623,-0.05075,-0.0155,-0.12575,0.2234339746237068,10,1,100,0.2307017029021054,-10,-1,-100,18971.957311445032,-0.0208870903718307,0.02077720509278168,0.9995659243913487,72.96353560808342,4.518193128170978,448.9977553720428,-107.65782789535567,-28.81854248046875,4761.76025390625,True
1599385708.6236644,0.0,10,0.5,0.5,-3.867810806274414,-0.05075,-0.0155,-0.12575,0.29286815469054,10,1,100,0.19864991299610937,-10,-1,-100,18969.80052042054,-0.02059649907913139,0.0214007829404394,0.9995587980280197,73.46226598303221,4.550924339187556,452.8946989509398,-107.83954539926447,-31.064453125,4761.76025390625,True
1599385708.6590858,0.0,10,0.5,0.5,-3.276456443786621,-0.05075,-0.0155,-0.12575,0.36670770901894245,10,1,100,0.15253461980452798,-10,-1,-100,18965.476036912296,-0.01991424831755591,0.02263107444225496,0.9995455253181496,74.35512816279426,4.6098468823692675,460.07391859492037,-108.20292564194483,-35.776763916015625,4761.76025390625,True
1599385708.6889973,0.0,10,0.5,0.5,-3.3881401473999024,-0.05075,-0.0155,-0.12575,0.3161408407151901,10,1,100,0.18101665631399044,-10,-1,-100,18963.308345030993,-0.019554850845619854,0.023281599091612447,0.9995376806064608,74.73761769203375,4.6352695840550675,463.2816987932044,-108.38459092523715,-38.242462158203125,4761.76025390625,True
1599385708.723937,0.0,10,0.5,0.5,-2.7413816040039065,-0.05075,-0.0155,-0.12575,0.3911872004095862,10,1,100,0.12438710343445007,-10,-1,-100,18958.96206231881,-0.018715583358316232,0.024546818938584458,0.9995234767725839,75.3488663788471,4.676317815763813,468.7658123388838,-108.74788003230618,-43.39434814453125,4761.76025390625,True
1599385708.7569366,0.0,10,0.5,0.5,-2.376816491699219,-0.05075,-0.0155,-0.12575,0.3957802977899276,10,1,100,0.10007913648338224,-10,-1,-100,18954.601249352912,-0.017734710652649352,0.02573009228492448,0.9995116019281998,75.71652710564308,4.7017729255208724,472.75591405237407,-109.1111277657586,-48.840606689453125,4761.76025390625,True
1599385708.7929206,0.0,10,0.5,0.5,-1.4653934020996093,-0.05075,-0.0155,-0.12575,0.46550591492915044,10,1,100,0.012250109571455753,-10,-1,-100,18948.03278799646,-0.0160485208656095,0.027430370563030947,0.9994948823024563,75.70428941539512,4.703833623130099,475.2341774568356,-109.65596655609193,-57.560394287109375,4761.76025390625,True
1599385708.8238366,0.0,10,0.5,0.5,-2.498858238220215,-0.05075,-0.0155,-0.12575,0.29650680457563466,10,1,100,0.18028134696069137,-10,-1,-100,18948.03278799646,-0.0160485208656095,0.027430370563030947,0.9994948823024563,75.70428941539512,4.703833623130099,475.2341774568356,-109.65596655609193,-57.560394287109375,4761.76025390625,True
1599385708.8569195,0.0,10,0.5,0.5,-1.344836395263672,-0.05075,-0.0155,-0.12575,0.40738748115184775,10,1,100,0.04162796088710291,-10,-1,-100,18943.635651966906,-0.014793378640529146,0.028429024736840783,0.9994863413278394,75.25072263052985,4.676780996088186,474.0820936239185,-110.01920650809424,-63.741546630859375,4761.76025390625,True
1599385708.8899739,0.0,10,0.5,0.5,-1.4901863021850588,-0.05075,-0.0155,-0.12575,0.3566300534246847,10,1,100,0.09460941843406145,-10,-1,-100,18941.43163512915,-0.014140265755910071,0.028866264297583044,0.9994832623260154,74.87298062402039,4.653683153940271,472.54676102246407,-110.2008408477336,-66.9427490234375,4761.76025390625,True
1599385708.9260004,0.0,10,0.5,0.5,-0.6647849365234374,-0.05075,-0.0155,-0.12575,0.4047768536737488,10,1,100,0.006423575357239669,-10,-1,-100,18937.01270190731,-0.012750970764299733,0.029694099301244954,0.999477700207091,73.78882293648404,4.586807927525385,467.3715710312891,-110.56415584153247,-73.565185546875,4761.76025390625,True
1599385708.957692,0.0,10,0.5,0.5,-0.20726372985839836,-0.05075,-0.0155,-0.12575,0.39414668936250363,10,1,100,-0.012508683759151124,-10,-1,-100,18932.579233799595,-0.011323260343239083,0.03034193245246404,0.9994754378724119,72.23461941724896,4.490618477968526,459.1636890596976,-110.92755574454851,-80.482666015625,4761.76025390625,True
1599385708.9916298,0.0,10,0.5,0.5,0.2722779815673829,-0.05075,-0.0155,-0.12575,0.38826549794303705,10,1,100,-0.03486097487902365,-10,-1,-100,18928.131226405152,-0.009830569349126825,0.030869277986566218,0.999475086024089,70.18082289324363,4.36360944359279,447.7023560737658,-111.2910658128464,-87.694091796875,4761.76025390625,True
1599385709.0235255,0.0,10,0.5,0.5,1.4297605514526368,-0.05075,-0.0155,-0.12575,0.3883562050201196,10,1,100,-0.1294204474397812,-10,-1,-100,18921.43194310309,-0.007623112948443731,0.03134201835141048,0.999479647634025,66.14521325000887,4.114841647734144,424.2160114338453,-111.83658233028702,-98.93402099609375,4761.76025390625,True
1599385709.0606186,0.0,10,0.5,0.5,0.11041137084960945,-0.05075,-0.0155,-0.12575,0.3418882104616729,10,1,100,0.09013201883881063,-10,-1,-100,18921.43194310309,-0.007623112948443731,0.03134201835141048,0.999479647634025,66.14521325000887,4.114841647734144,424.2160114338453,-111.83658233028702,-98.93402099609375,4761.76025390625,True
1599385709.0905313,0.0,10,0.5,0.5,2.18712947845459,-0.05075,-0.0155,-0.12575,0.3593835739494219,10,1,100,-0.14402029505778924,-10,-1,-100,18914.69992583152,-0.005504539613392707,0.03149488965637836,0.9994887552990164,68.29116522246343,4.252602190595366,440.30956789418855,-112.3820903100214,-110.21238708496094,4761.76025390625,True
1599385709.1235614,0.0,10,0.5,0.5,0.8640012023925782,-0.05075,-0.0155,-0.12575,0.34467292318977966,10,1,100,0.06661402134338748,-10,-1,-100,18914.69992583152,-0.005504539613392707,0.03149488965637836,0.9994887552990164,68.29116522246343,4.252602190595366,440.30956789418855,-112.3820903100214,-110.21238708496094,4761.76025390625,True
1599385709.1575215,0.0,10,0.5,0.5,2.248284993743897,-0.05075,-0.0155,-0.12575,0.33530694087660085,10,1,100,-0.08903277741692414,-10,-1,-100,18910.193737392547,-0.004099154153073708,0.0314060493452646,0.9994983026497606,70.37651882834358,4.386071958378348,455.35289837295574,-112.74557408464509,-117.59297180175781,4761.76025390625,True
1599385709.1930635,0.0,10,0.5,0.5,3.3022638870239263,-0.05075,-0.0155,-0.12575,0.30842106633962907,10,1,100,-0.15242124571949434,-10,-1,-100,18903.407201866503,-0.0022561352652262848,0.03107725413138668,0.9995144391800043,72.79458169059305,4.542342429149229,473.4712897541149,-113.29056052308734,-128.2957305908203,4761.76025390625,True
1599385709.2241414,0.0,10,0.5,0.5,2.056450954437256,-0.05075,-0.0155,-0.12575,0.34156541066687557,10,1,100,0.030626918727717705,-10,-1,-100,18903.407201866503,-0.0022561352652262848,0.03107725413138668,0.9995144391800043,72.79458169059305,4.542342429149229,473.4712897541149,-113.29056052308734,-128.2957305908203,4761.76025390625,True
1599385709.2571373,0.0,10,0.5,0.5,3.3504935943603518,-0.05075,-0.0155,-0.12575,0.30497544193020154,10,1,100,-0.09177745309829319,-10,-1,-100,18898.864683049498,-0.0011541720036177163,0.03074260806120437,0.9995266679466742,73.86947364497597,4.612651681801965,482.13243356076475,-113.65376182607727,-135.088623046875,4761.76025390625,True
1599385709.2905529,0.0,10,0.5,0.5,3.738659003448486,-0.05075,-0.0155,-0.12575,0.295914862070915,10,1,100,-0.09042044948684516,-10,-1,-100,18894.307637960534,-0.00017526616113280188,0.030355062263445153,0.9995391635532624,74.45925476581115,4.6520853474945065,487.66411716752793,-114.01690555401102,-141.58726501464844,4761.76025390625,True
1599385709.3284168,0.0,10,0.5,0.5,3.570155956268311,-0.05075,-0.0155,-0.12575,0.30654853428558915,10,1,100,-0.04444413904097794,-10,-1,-100,18892.023668504786,0.00028654724236186724,0.030099405713060193,0.9995468691694245,74.58989866138042,4.661291048304555,489.36255880613135,-114.19846635172206,-144.72601318359375,4761.76025390625,True
1599385709.3653195,0.0,10,0.5,0.5,4.3323270599365244,-0.05075,-0.0155,-0.12575,0.2790648961841718,10,1,100,-0.08695115013541822,-10,-1,-100,18887.44483615691,0.0010836076040414884,0.02961783929567326,0.9995607082063681,74.55593647713017,4.660766562820585,490.8258667904772,-114.56158436955207,-150.7796630859375,4761.76025390625,True
1599385709.404217,0.0,10,0.5,0.5,4.6674555435180665,-0.05075,-0.0155,-0.12575,0.26962758880412396,10,1,100,-0.08220832124710457,-10,-1,-100,18882.851478674682,0.0017571761060814878,0.029095825375553556,0.999575082361424,74.1791830348036,4.638267038570688,490.0258679173861,-114.9247185530076,-156.53611755371094,4761.76025390625,True
1599385709.4441082,0.0,10,0.5,0.5,4.996450794982911,-0.05075,-0.0155,-0.12575,0.2594727290260022,10,1,100,-0.07573642146010645,-10,-1,-100,18878.24359481421,0.002302148119822845,0.028530992352894406,0.9995902573501771,73.51831579625863,4.597633333120589,487.3289855732453,-115.28788955361273,-161.9955291748047,4761.76025390625,True
1599385709.475023,0.0,10,0.5,0.5,4.852267292785645,-0.05075,-0.0155,-0.12575,0.285426157093036,10,1,100,-0.046881007107368644,-10,-1,-100,18875.93420488597,0.0025281582857144486,0.028256142494089562,0.9995975184178061,73.09883752253681,4.571672434825057,485.37945433137094,-115.46949370701691,-164.61351013183594,4761.76025390625,True
1599385709.5199068,0.0,10,0.5,0.5,5.914874609375001,-0.05075,-0.0155,-0.12575,0.2201727803095933,10,1,100,-0.07989025568586094,-10,-1,-100,18868.984239609446,0.003026403698239375,0.027416010785474124,0.9996195292376325,71.56571356381872,4.47659847200564,477.64588622109164,-116.01439642982756,-172.02142333984375,4761.76025390625,True
1599385709.5867336,0.0,10,0.5,0.5,5.477277256774903,-0.05075,-0.0155,-0.12575,0.27328318642667165,10,1,100,-0.042459324548435234,-10,-1,-100,18866.660318158683,0.00313259510123879,0.027138703868306066,0.9996267691495061,70.98418581298812,4.440564922276081,474.5752197997249,-116.19606361575498,-174.34201049804688,4761.76025390625,True
1599385709.6254387,0.0,10,0.5,0.5,-56.43215018081665,-0.05075,-0.0155,-0.12575,0.1557488933625116,10,1,100,-0.04442269720419821,-10,-1,-100,18854.98619924055,0.0032420827368665897,0.025821693597809177,0.9996613071632152,67.80071336766805,4.244282777324422,457.1722703614362,-117.10465844270966,175.170654296875,4761.76025390625,True
1599385709.6613452,0.0,10,0.5,0.5,-12.620462240600586,-0.05075,-0.0155,-0.12575,0.25969212405283554,10,1,100,-0.026457240925207282,-10,-1,-100,18852.64047063084,0.0031732962412627692,0.025574127776845475,0.9996678919418283,67.14282612757077,4.203979991383118,453.50613164079886,-117.28642837365481,173.2961883544922,4761.76025390625,True
1599385709.6902282,0.0,10,0.5,0.5,-12.711865936279299,-0.05075,-0.0155,-0.12575,0.2329912663105406,10,1,100,-0.010710804319732294,-10,-1,-100,18847.93810723268,0.0029636795777141776,0.025111031487661573,0.9996802752385315,67.64006155425182,4.23722988633197,458.41657642783883,-117.64995127630075,169.77037048339844,4761.76025390625,True
1599385709.7213378,0.0,10,0.5,0.5,-13.330725512695315,-0.05075,-0.0155,-0.12575,0.2544642498363973,10,1,100,-0.01917040681198503,-10,-1,-100,18845.581473666127,0.0028471708646551673,0.024890011102980163,0.9996861412290164,68.27538114364084,4.27824822009583,463.50582947163247,-117.83168047650453,168.03033447265625,4761.76025390625,True
1599385709.7482371,0.0,10,0.5,0.5,-13.391249602508545,-0.05075,-0.0155,-0.12575,0.23064906943846336,10,1,100,0.006208945226059543,-10,-1,-100,18840.8573041755,0.002508204630962668,0.02447731765384319,0.9996972390829146,69.50670351218521,4.3581546341024655,473.46051351943316,-118.19507583744316,164.38694763183594,4761.76025390625,True
1599385709.7751644,0.0,10,0.5,0.5,-13.646362635040283,-0.05075,-0.0155,-0.12575,0.22972758424059092,10,1,100,0.02021106573465891,-10,-1,-100,18836.118601201102,0.0020714664165941096,0.024098437854321492,0.9997074443655336,70.71857930630959,4.437251089767558,483.3387666751186,-118.55838581779021,160.46881103515625,4761.76025390625,True
1599385709.8071141,0.0,10,0.5,0.5,-13.88770179977417,-0.05075,-0.0155,-0.12575,0.2302095867498225,10,1,100,0.03476100585084979,-10,-1,-100,18831.36536892096,0.0015418737749204915,0.023762926593495902,0.9997164327672995,72.05152891191521,4.5242937120649485,494.1024402566656,-118.92160292993894,156.2607421875,4761.76025390625,True
1599385709.8361948,0.0,10,0.5,0.5,-14.519437664794921,-0.05075,-0.0155,-0.12575,0.24597997991346035,10,1,100,0.014851809037310263,-10,-1,-100,18828.983305260423,0.0012421097756538367,0.02360561817219607,0.999720576938383,72.69534435258929,4.5664942503957375,499.3512579594279,-119.10317616883478,154.0469970703125,4761.76025390625,True
1599385709.8650877,0.0,10,0.5,0.5,-15.291739899444579,-0.05075,-0.0155,-0.12575,0.26124576961125406,10,1,100,-0.014995986038349163,-10,-1,-100,18828.983305260423,0.0012421097756538367,0.02360561817219607,0.999720576938383,72.69534435258929,4.5664942503957375,499.3512579594279,-119.10317616883478,154.0469970703125,4761.76025390625,True
1599385709.8920164,0.0,10,0.5,0.5,-14.976995674896243,-0.05075,-0.0155,-0.12575,0.2301455086646306,10,1,100,0.059090016843194954,-10,-1,-100,18824.208285706234,0.0005702227439330588,0.023326352520511566,0.999727740999574,74.06813142725146,4.656369408877805,510.47929980352353,-119.46624800043635,149.40025329589844,4761.76025390625,True
1599385709.9270792,0.0,10,0.5,0.5,-14.736212424468995,-0.05075,-0.0155,-0.12575,0.22406704131095362,10,1,100,0.12190724539115246,-10,-1,-100,18817.018532546703,-0.000609319933196984,0.023020681635172038,0.999734803308493,75.92926834796569,4.778723274230227,525.9155674127219,-120.01067805827402,141.88233947753906,4761.76025390625,True
1599385709.9579623,0.0,10,0.5,0.5,-15.629993199157715,-0.05075,-0.0155,-0.12575,0.25435402864864276,10,1,100,0.0043381179451545265,-10,-1,-100,18817.018532546703,-0.000609319933196984,0.023020681635172038,0.999734803308493,75.92926834796569,4.778723274230227,525.9155674127219,-120.01067805827402,141.88233947753906,4761.76025390625,True
1599385709.9918706,0.0,10,0.5,0.5,-14.13833559265137,-0.05075,-0.0155,-0.12575,0.22999634799227192,10,1,100,0.15846354302963683,-10,-1,-100,18809.796120871324,-0.0020070214192609505,0.022801569489333824,0.9997379958238286,77.37111498145782,4.874099120345536,538.5596907290203,-120.5549295012313,133.70689392089844,4761.76025390625,True
1599385710.0247831,0.0,10,0.5,0.5,-15.110499482727052,-0.05075,-0.0155,-0.12575,0.2516766163762605,10,1,100,0.01919046452293768,-10,-1,-100,18809.796120871324,-0.0020070214192609505,0.022801569489333824,0.9997379958238286,77.37111498145782,4.874099120345536,538.5596907290203,-120.5549295012313,133.70689392089844,4761.76025390625,True
1599385710.0606866,0.0,10,0.5,0.5,-13.498622383880617,-0.05075,-0.0155,-0.12575,0.24623801651266736,10,1,100,0.1940446302660555,-10,-1,-100,18802.541059219977,-0.003592191842122098,0.022754026255677202,0.999734640015502,78.21715208273395,4.9307697359837395,547.1366950774212,-121.09906329729114,124.87586975097656,4761.76025390625,True
1599385710.0938485,0.0,10,0.5,0.5,-14.547881502532961,-0.05075,-0.0155,-0.12575,0.250820010738513,10,1,100,0.036137627627249244,-10,-1,-100,18802.541059219977,-0.003592191842122098,0.022754026255677202,0.999734640015502,78.21715208273395,4.9307697359837395,547.1366950774212,-121.09906329729114,124.87586975097656,4761.76025390625,True
1599385710.126795,0.0,10,0.5,0.5,-13.389336978149416,-0.05075,-0.0155,-0.12575,0.2562691158311231,10,1,100,0.16490759382014303,-10,-1,-100,18797.6862144873,-0.004757679118185936,0.022804785767063334,0.9997286162932052,78.35691084380903,4.9410093933180095,549.9127260261819,-121.46179481963044,118.62445068359375,4761.76025390625,True
1599385710.1607058,0.0,10,0.5,0.5,-12.365773770904541,-0.05075,-0.0155,-0.12575,0.2736399242440569,10,1,100,0.26210418753799947,-10,-1,-100,18790.376741394633,-0.006695091536685295,0.023009718254646882,0.9997128230722846,77.78834836238953,4.906262553082295,548.6094190015988,-122.00592997324986,108.70182800292969,4761.76025390625,True
