Timestamp,Input Throttle,horizon,dT,dt,Input Roll,Roll P,Roll I,Roll D,Input Pitch,Pitch P,Pitch I,Pitch D,Input Yaw,Yaw P,Yaw I,Yaw D,Altitude,Direction X,Direction Y,Direction Z,Drag X,Drag Y,Drag Z,Vertical Velocity,Roll,Mass,Has Fuel
1599385574.0880089,0.0,10,0.5,0.5,-2.8453895492553714,-0.05075,-0.00825,-0.2505,-0.0001754931322299417,10,1,100,0.4980558602912012,-10,-1,-100,19351.094166870927,-0.048842624954054774,-0.00017548251346285491,0.9988064713414131,60.986668716933664,3.680689818072722,232.75460131999176,-68.4818739082948,-33.922515869140625,4761.76025390625,True
1599385574.1105013,0.0,10,0.5,0.5,-2.8918468940734865,-0.05075,-0.00825,-0.2505,-0.0008556167372513636,10,1,100,0.4989064778698621,-10,-1,-100,19349.720879892935,-0.04889349737072667,-0.00016714836211082336,0.9988039837607195,61.07632879808997,3.6867716825255084,233.74128807221345,-68.66433388423467,-33.923675537109375,4761.76025390625,True
1599385574.1314466,0.0,10,0.5,0.5,-2.9376648849487306,-0.05075,-0.00825,-0.2505,0.00025636628973043545,10,1,100,0.5104925997336189,-10,-1,-100,19346.96335903695,-0.0490006247688528,-0.00014931097121631393,0.9987987367225171,61.25646928515357,3.6989960848045267,235.72402291275301,-69.02924379229881,-33.926116943359375,4761.76025390625,True
1599385574.157376,0.0,10,0.5,0.5,-2.939112720489502,-0.05075,-0.00825,-0.2505,0.021700576265916698,10,1,100,0.50303461256098,-10,-1,-100,19344.191242162255,-0.04898566740669906,6.198793935422097e-05,0.9987994796485508,61.44046573861023,3.7114666095531574,237.72998815420647,-69.3941398561039,-34.076904296875,4761.76025390625,True
1599385574.1883273,0.0,10,0.5,0.5,-3.0230215065002444,-0.05075,-0.00825,-0.2505,0.0005768840027986326,10,1,100,0.509428915517024,-10,-1,-100,19344.191242162255,-0.04898566740669906,6.198793935422097e-05,0.9987994796485508,61.44046573861023,3.7114666095531574,237.72998815420647,-69.3941398561039,-34.076904296875,4761.76025390625,True
1599385574.2207682,0.0,10,0.5,0.5,-2.8454637550354005,-0.05075,-0.00825,-0.2505,0.0477463346276522,10,1,100,0.504161721971196,-10,-1,-100,19340.00570033223,-0.048893251404094534,0.0004907447741807496,0.9988038892278617,61.741163519677016,3.731657743436619,240.85111396498112,-69.94145545990914,-34.8194580078125,4761.76025390625,True
1599385574.2548287,0.0,10,0.5,0.5,-3.0769974067687986,-0.05075,-0.00825,-0.2505,0.004919725622417415,10,1,100,0.518292647372058,-10,-1,-100,19340.00570033223,-0.048893251404094534,0.0004907447741807496,0.9988038892278617,61.741163519677016,3.731657743436619,240.85111396498112,-69.94145545990914,-34.8194580078125,4761.76025390625,True
1599385574.2767632,0.0,10,0.5,0.5,-2.863708182525635,-0.05075,-0.00825,-0.2505,0.055793290592353516,10,1,100,0.5035670841300869,-10,-1,-100,19337.19709621847,-0.048714934236981984,0.0009527855968400043,0.9988122683376958,61.95533758593729,3.7459115392814675,242.99697004387102,-70.30631146293983,-35.6785888671875,4761.76025390625,True
1599385574.3017325,0.0,10,0.5,0.5,-2.7765369117736816,-0.05075,-0.00825,-0.2505,0.07545233384779386,10,1,100,0.493649521125455,-10,-1,-100,19334.373898389516,-0.048418381753894846,0.0015506751146734754,0.9988259386474817,62.1730437597584,3.7603218953695556,245.16634755194116,-70.67114925990683,-36.83111572265625,4761.76025390625,True
1599385574.323668,0.0,10,0.5,0.5,-2.902376773834229,-0.05075,-0.00825,-0.2505,0.05561611121004649,10,1,100,0.5079674532325823,-10,-1,-100,19332.956827048445,-0.048234934895922336,0.0019124720386201335,0.9988341871933937,62.28027301416623,3.7673989627098723,246.2482589261344,-70.85356120996177,-37.517364501953125,4761.76025390625,True
1599385574.354559,0.0,10,0.5,0.5,-2.8887192596435547,-0.05075,-0.00825,-0.2505,0.06214106462641203,10,1,100,0.5069032159592655,-10,-1,-100,19331.536107498338,-0.04801464019992088,0.002298957480503491,0.998843986376739,62.384643440881305,3.7742783527190906,247.3212260678802,-71.03596846414625,-38.277069091796875,4761.76025390625,True
1599385574.3876448,0.0,10,0.5,0.5,-2.8244615692138675,-0.05075,-0.00825,-0.2505,0.07002462310051992,10,1,100,0.5013213264755308,-10,-1,-100,19330.11173991079,-0.04776438055802573,0.0027197271047130094,0.9988549279221602,62.48457510227597,3.7808606188254905,248.3788749658275,-71.21837107110142,-39.11016845703125,4761.76025390625,True
1599385574.4244833,0.0,10,0.5,0.5,-2.7557835502624517,-0.05075,-0.00825,-0.2505,0.07775790038626415,10,1,100,0.49513329641653736,-10,-1,-100,19328.68372452422,-0.04748164344377811,0.0031699230334404065,0.9988670808089732,62.578219135623804,3.787029779417341,249.41369581633845,-71.40076916623406,-40.016693115234375,4761.76025390625,True
1599385574.4554148,0.0,10,0.5,0.5,-2.365386777496338,-0.05075,-0.00825,-0.2505,0.14378893911996074,10,1,100,0.4505950239244467,-10,-1,-100,19325.816749938414,-0.04682109720937497,0.004176456744403776,0.9988945600338268,62.73893132704751,3.7976453804133548,251.38315470677466,-71.76555236954628,-42.04974365234375,4761.76025390625,True
1599385574.4881957,0.0,10,0.5,0.5,-1.7835405387878418,-0.05075,-0.00825,-0.2505,0.23256966720529423,10,1,100,0.3786167575566575,-10,-1,-100,19321.4889303284,-0.045568220547662505,0.005894844492596189,0.9989438363013846,62.88020252155165,3.807180941888946,253.94801651143533,-72.3126993695579,-45.64990234375,4761.76025390625,True
1599385574.5221095,0.0,10,0.5,0.5,-2.6758325675964354,-0.05075,-0.00825,-0.2505,0.06131417804137709,10,1,100,0.5035626790420001,-10,-1,-100,19321.4889303284,-0.045568220547662505,0.005894844492596189,0.9989438363013846,62.88020252155165,3.807180941888946,253.94801651143533,-72.3126993695579,-45.64990234375,4761.76025390625,True
1599385574.557229,0.0,10,0.5,0.5,-1.3830914512634283,-0.05075,-0.00825,-0.2505,0.26970653854638177,10,1,100,0.32842270159718323,-10,-1,-100,19317.12828300125,-0.043979061689851835,0.007784407679261309,0.999002124687412,62.84039675778211,3.8052527891372008,255.78616971745987,-72.8598242651951,-49.9114990234375,4761.76025390625,True
1599385574.58922,0.0,10,0.5,0.5,-1.9659044792175298,-0.05075,-0.00825,-0.2505,0.15306013867823243,10,1,100,0.42012862624040576,-10,-1,-100,19315.667439082055,-0.043372529488338925,0.008435139974787259,0.9990233591360058,62.773274891187064,3.8012265782615033,256.1789238023609,-73.04219747357602,-51.47918701171875,4761.76025390625,True
1599385574.6223936,0.0,10,0.5,0.5,-1.3349788948059085,-0.05075,-0.00825,-0.2505,0.24629120270357968,10,1,100,0.3336501839601158,-10,-1,-100,19312.734808355803,-0.04203982565236877,0.009867467776061328,0.9990672080189635,62.53863756259118,3.786906250843619,256.54900533960824,-73.40694664166216,-54.8338623046875,4761.76025390625,True
1599385574.6564705,0.0,10,0.5,0.5,-1.621655612945557,-0.05075,-0.00825,-0.2505,0.17648609801415194,10,1,100,0.38672573671219035,-10,-1,-100,19311.2630218243,-0.04131658042296161,0.010527431377623513,0.9990906432204951,62.36491606190958,3.77623949349963,256.49872427758794,-73.58932462398128,-56.622467041015625,4761.76025390625,True
1599385574.6914985,0.0,10,0.5,0.5,-0.9100388618469238,-0.05075,-0.00825,-0.2505,0.2645030950555161,10,1,100,0.28584014844061656,-10,-1,-100,19308.308505575522,-0.03974823246146166,0.01191972102547517,0.9991386281527026,61.88671169097311,3.74682655332949,255.84742562194188,-73.95409316214248,-60.419647216796875,4761.76025390625,True
1599385574.7234583,0.0,10,0.5,0.5,0.039323606109618936,-0.05075,-0.00825,-0.2505,0.35292339534056294,10,1,100,0.15117546286194344,-10,-1,-100,19303.849371745484,-0.0371057520891451,0.013980513650163492,0.9992135449442109,60.788806859419346,3.679367986453672,253.24944408532875,-74.50129662044316,-66.66790771484375,4761.76025390625,True
1599385574.7568915,0.0,10,0.5,0.5,-0.14119882736206057,-0.05075,-0.00825,-0.2505,0.2910866846204734,10,1,100,0.20178266209548146,-10,-1,-100,19300.858374145348,-0.03517325231504301,0.01528157249647438,0.999264387368837,59.76266024648705,3.616520679946951,250.2485828931406,-74.86614836479625,-71.1888427734375,4761.76025390625,True
1599385574.7896516,0.0,10,0.5,0.5,-0.5489543151855469,-0.05075,-0.00825,-0.2505,0.2287067994687616,10,1,100,0.2841631366849151,-10,-1,-100,19299.357402250054,-0.03417653719042572,0.01588625281041141,0.9992895432642709,59.15270776200948,3.579258950337535,248.3256947970992,-75.04859291104898,-73.50924682617188,4761.76025390625,True
1599385574.8245432,0.0,10,0.5,0.5,0.3016791496276856,-0.05075,-0.00825,-0.2505,0.2984293521676009,10,1,100,0.1521522754474622,-10,-1,-100,19296.344510353403,-0.03208182884772311,0.017059158305738155,0.999339652658537,57.77187469383418,3.4951304046971523,243.7631092928014,-75.41352393488062,-78.17626953125,4761.76025390625,True
1599385574.8562212,0.0,10,0.5,0.5,0.595914540863037,-0.05075,-0.00825,-0.2505,0.3040642797305544,10,1,100,0.11445843883908985,-10,-1,-100,19293.317019556533,-0.02984713765037184,0.01816651326677737,0.9993893766544689,56.18752596301454,3.398968299099873,238.2799745913308,-75.77851427572955,-82.9447021484375,4761.76025390625,True
1599385574.8897257,0.0,10,0.5,0.5,-0.5678096199035645,-0.05075,-0.00825,-0.2505,0.19455595050405106,10,1,100,0.33635545028448754,-10,-1,-100,19293.317019556533,-0.02984713765037184,0.01816651326677737,0.9993893766544689,56.18752596301454,3.398968299099873,238.2799745913308,-75.77851427572955,-82.9447021484375,4761.76025390625,True
1599385574.9227064,0.0,10,0.5,0.5,1.61420354347229,-0.05075,-0.00825,-0.2505,0.34863333547919473,10,1,100,-0.041993016678792294,-10,-1,-100,19288.748404999496,-0.026420453336196095,0.01955777848874457,0.9994595804464007,53.431790212086085,3.232532169686098,228.30995641055426,-76.32611626092218,-90.0974349975586,4761.76025390625,True
1599385574.9584265,0.0,10,0.5,0.5,1.292122794532776,-0.05075,-0.00825,-0.2505,0.30180942702589264,10,1,100,0.02721784685055406,-10,-1,-100,19285.684406354907,-0.023949886424623243,0.020386781669581137,0.9995052686571515,52.57364912470176,3.181389316616985,225.76990249738077,-76.69123816517825,-94.87027740478516,4761.76025390625,True
1599385575.1387107,0.0,10,0.5,0.5,0.12955581398010255,-0.05075,-0.00825,-0.2505,0.21996104033158803,10,1,100,0.27246554408506474,-10,-1,-100,19285.684406354907,-0.023949886424623243,0.020386781669581137,0.9995052686571515,52.57364912470176,3.181389316616985,225.76990249738077,-76.69123816517825,-94.87027740478516,4761.76025390625,True
1599385575.161681,0.0,10,0.5,0.5,1.5718084424972534,-0.05075,-0.00825,-0.2505,0.2927538909848172,10,1,100,0.012603694681542904,-10,-1,-100,19282.605804665945,-0.02160329387913517,0.021039571811617804,0.9995452136404613,54.05099042498179,3.272065767319154,233.27254487163796,-77.05629708637265,-99.55309295654297,4761.76025390625,True
1599385575.1846197,0.0,10,0.5,0.5,0.43104823951721194,-0.05075,-0.00825,-0.2505,0.22838686185976473,10,1,100,0.24544845537211754,-10,-1,-100,19282.605804665945,-0.02160329387913517,0.021039571811617804,0.9995452136404613,54.05099042498179,3.272065767319154,233.27254487163796,-77.05629708637265,-99.55309295654297,4761.76025390625,True
1599385575.2195282,0.0,10,0.5,0.5,1.8014084882736205,-0.05075,-0.00825,-0.2505,0.29140018766158543,10,1,100,-0.03084663818001926,-10,-1,-100,19279.512602844392,-0.019105613445215754,0.02160600290239667,0.9995839915552188,55.273290796770745,3.347729486953914,239.73197410258652,-77.42128285662395,-104.01194763183594,4761.76025390625,True
1599385575.3134353,0.0,10,0.5,0.5,1.3611009759902954,-0.05075,-0.00825,-0.2505,0.2607838901901314,10,1,100,0.08464293905315669,-10,-1,-100,19277.960527732503,-0.017899507060926818,0.021836860798449764,0.9996013000979166,55.843491180228405,3.383203788404622,242.80306097464543,-77.60374912870165,-106.16815185546875,4761.76025390625,True
1599385575.3393903,0.0,10,0.5,0.5,2.09286542301178,-0.05075,-0.00825,-0.2505,0.2789233169614295,10,1,100,-0.06773469899745913,-10,-1,-100,19274.84543084784,-0.015432592756685367,0.02220622584915707,0.9996342924361602,56.88254766912357,3.4481808594012073,248.53851847104653,-77.96862965197703,-110.30076599121094,4761.76025390625,True
1599385575.3673098,0.0,10,0.5,0.5,1.680886315345764,-0.05075,-0.00825,-0.2505,0.25848804775601686,10,1,100,0.04603531926222612,-10,-1,-100,19273.282409857144,-0.014239351951636676,0.022351557931984126,0.9996487626731755,57.339929780255254,3.4769578435628943,251.1504427314679,-78.15104561886143,-112.2816390991211,4761.76025390625,True
1599385575.3882337,0.0,10,0.5,0.5,2.8713773513793948,-0.05075,-0.00825,-0.2505,0.2736763285354361,10,1,100,-0.23283739613087134,-10,-1,-100,19268.57145997137,-0.01063356997592674,0.022617948701035073,0.999687629005243,58.57459761248011,3.555012896417291,258.4372629448468,-78.69820254531884,-117.80030059814453,4761.76025390625,True
1599385575.4102075,0.0,10,0.5,0.5,1.5177085145950318,-0.05075,-0.00825,-0.2505,0.24748239517376724,10,1,100,0.1258194446726778,-10,-1,-100,19268.57145997137,-0.01063356997592674,0.022617948701035073,0.999687629005243,58.57459761248011,3.555012896417291,258.4372629448468,-78.69820254531884,-117.80030059814453,4761.76025390625,True
1599385575.431153,0.0,10,0.5,0.5,2.538849320793152,-0.05075,-0.00825,-0.2505,0.25324223908236965,10,1,100,-0.13417931613067985,-10,-1,-100,19265.41259032779,-0.008284296589860097,0.02266752894546574,0.9997087343629232,59.149778522975005,3.5919466849462784,262.23917891457677,-79.06291031321452,-121.1141128540039,4761.76025390625,True
1599385575.4561493,0.0,10,0.5,0.5,1.730390514945984,-0.05075,-0.00825,-0.2505,0.24851228936689143,10,1,100,0.09918146349250814,-10,-1,-100,19265.41259032779,-0.008284296589860097,0.02266752894546574,0.9997087343629232,59.149778522975005,3.5919466849462784,262.23917891457677,-79.06291031321452,-121.1141128540039,4761.76025390625,True
1599385575.4891977,0.0,10,0.5,0.5,2.2178332193374635,-0.05075,-0.00825,-0.2505,0.25034879179842157,10,1,100,-0.024269302416816615,-10,-1,-100,19263.82768524671,-0.007176258345079656,0.022682151015501573,0.9997169706179218,59.37406629547206,3.606527695406636,263.8678583575547,-79.24524868149662,-122.66030883789062,4761.76025390625,True
1599385575.511109,0.0,10,0.5,0.5,2.7148179370880126,-0.05075,-0.00825,-0.2505,0.24004956805787364,10,1,100,-0.16329681908431987,-10,-1,-100,19260.64693532884,-0.004918179821514731,0.022600321245889274,0.999732482710663,59.71571439292223,3.6290842588891477,266.6618749416422,-79.60989971407498,-125.53248596191406,4761.76025390625,True
1599385575.5350702,0.0,10,0.5,0.5,2.4161695230484006,-0.05075,-0.00825,-0.2505,0.23920830637098267,10,1,100,-0.06193080399248817,-10,-1,-100,19259.051091064815,-0.0038020586773429245,0.022516863849602473,0.9997392335965377,59.83914967419133,3.6374217224481673,267.85216204443907,-79.79221421126749,-126.85829162597656,4761.76025390625,True
1599385575.5590122,0.0,10,0.5,0.5,2.480132460975647,-0.05075,-0.00825,-0.2505,0.2361435782998209,10,1,100,-0.07265880062987962,-10,-1,-100,19257.45160032937,-0.002703788172090335,0.022412304269651906,0.9997451566008436,59.93470688591825,3.644021574114863,268.9199775963189,-79.97452251509706,-128.11050415039062,4761.76025390625,True
1599385575.5893388,0.0,10,0.5,0.5,3.182777252388001,-0.05075,-0.00825,-0.2505,0.2080331108490692,10,1,100,-0.30567084993497357,-10,-1,-100,19252.631252626656,0.00039911662737756725,0.022061177271534373,0.9997565429459871,60.08332937716404,3.6551669147075594,271.5118824235553,-80.52141698052148,-131.42410278320312,4761.76025390625,True
1599385575.623181,0.0,10,0.5,0.5,2.658554339408875,-0.05075,-0.00825,-0.2505,0.22564299097971635,10,1,100,-0.10781288094742685,-10,-1,-100,19251.01717832533,0.001406837900294269,0.021902192591322155,0.9997591283738373,60.09743155174175,3.6566429678233283,272.2175098094365,-80.70370711102296,-132.3814697265625,4761.76025390625,True
1599385575.6592917,0.0,10,0.5,0.5,2.43531628036499,-0.05075,-0.00825,-0.2505,0.2414965224668719,10,1,100,-0.008605372640949741,-10,-1,-100,19251.01717832533,0.001406837900294269,0.021902192591322155,0.9997591283738373,60.09743155174175,3.6566429678233283,272.2175098094365,-80.70370711102296,-132.3814697265625,4761.76025390625,True
1599385575.690371,0.0,10,0.5,0.5,2.957327758598328,-0.05075,-0.00825,-0.2505,0.20760136135741442,10,1,100,-0.21964531445259272,-10,-1,-100,19247.778092751512,0.0033144370005126406,0.021594705450426827,0.9997613131162252,60.08664417930994,3.657108783879394,273.4523950295575,-81.06827787040312,-134.07435607910156,4761.76025390625,True
1599385575.7234895,0.0,10,0.5,0.5,2.9679927001953126,-0.05075,-0.00825,-0.2505,0.19637591391920806,10,1,100,-0.23309789209846238,-10,-1,-100,19244.524424479925,0.0051582341547859395,0.021214052384947932,0.9997616498955203,60.04093454216212,3.655314010850945,274.5274360148872,-81.43283801682922,-135.47288513183594,4761.76025390625,True
1599385575.756612,0.0,10,0.5,0.5,2.806903399848938,-0.05075,-0.00825,-0.2505,0.21051924484586165,10,1,100,-0.1482987604591835,-10,-1,-100,19242.89212210162,0.006051291706727634,0.020997901221628076,0.9997612064953145,60.0091356682623,3.6538286572865455,275.02336439509673,-81.61511473020484,-136.06175231933594,4761.76025390625,True
1599385575.7925491,0.0,10,0.5,0.5,3.0702541500091556,-0.05075,-0.00825,-0.2505,0.16529455452906422,10,1,100,-0.33284560370977745,-10,-1,-100,19237.97334211273,0.008527828430501313,0.020391784459115356,0.9997556957921434,59.89265563406036,3.6479481901730475,276.4103402586395,-82.16193305155826,-137.38467407226562,4761.76025390625,True
1599385575.823721,0.0,10,0.5,0.5,2.83939539604187,-0.05075,-0.00825,-0.2505,0.20277183604169968,10,1,100,-0.17191541207080008,-10,-1,-100,19236.32645800535,0.009301947267417971,0.020183553931088102,0.999753018463933,59.85229146391565,3.6458567186637945,276.8640929615286,-82.34420203665577,-137.67807006835938,4761.76025390625,True
1599385575.8563442,0.0,10,0.5,0.5,2.8421675933837895,-0.05075,-0.00825,-0.2505,0.1983696248758011,10,1,100,-0.17930301831380047,-10,-1,-100,19234.675928533077,0.010059924333106816,0.01995643041075043,0.9997502382133614,59.81314795120556,3.6438256437874905,277.3227458774747,-82.52646927549222,-137.89797973632812,4761.76025390625,True
1599385575.8903072,0.0,10,0.5,0.5,2.861760035324097,-0.05075,-0.00825,-0.2505,0.17586432176275113,10,1,100,-0.25975049658913096,-10,-1,-100,19231.363933741697,0.011467733301681089,0.01954768848526923,0.9997431564996103,59.7400442111515,3.6400484172939676,278.26199422509046,-82.89099810465805,-138.1156463623047,4761.76025390625,True
1599385575.9262104,0.0,10,0.5,0.5,2.747319575500488,-0.05075,-0.00825,-0.2505,0.1452410102370109,10,1,100,-0.3325961841514822,-10,-1,-100,19226.368602288072,0.01339690995870292,0.018900315371674487,0.9997316144257966,59.652346623468425,3.6356835322984766,279.76877379799237,-83.43777675466261,-137.8893585205078,4761.76025390625,True
1599385575.9563577,0.0,10,0.5,0.5,2.7421392093658445,-0.05075,-0.00825,-0.2505,0.18680598445637342,10,1,100,-0.20544955297219003,-10,-1,-100,19224.696201456245,0.013983012278609814,0.018692531272127888,0.9997274951916931,59.62906247108282,3.6345916579065136,280.29795557632997,-83.62003217309585,-137.66629028320312,4761.76025390625,True
1599385575.9903116,0.0,10,0.5,0.5,2.712875235366821,-0.05075,-0.00825,-0.2505,0.18627240258742836,10,1,100,-0.20865244362660595,-10,-1,-100,19223.020155763137,0.014533516871403212,0.018501703765839837,0.9997231936116666,59.60846569316436,3.6336680187637644,280.8394081608769,-83.80228541572025,-137.3691864013672,4761.76025390625,True
1599385576.0233996,0.0,10,0.5,0.5,2.389492073822022,-0.05075,-0.00825,-0.2505,0.14559597770643706,10,1,100,-0.31803403568557476,-10,-1,-100,19217.9701483025,0.016016420357232282,0.01796152988741031,0.9997103869236551,59.56230858422112,3.6319016283451155,282.5359314705345,-84.34903177700635,-136.03500366210938,4761.76025390625,True
1599385576.0583835,0.0,10,0.5,0.5,2.7253223842620855,-0.05075,-0.00825,-0.2505,0.19925004799308826,10,1,100,-0.1710138854383397,-10,-1,-100,19217.9701483025,0.016016420357232282,0.01796152988741031,0.9997103869236551,59.56230858422112,3.6319016283451155,282.5359314705345,-84.34903177700635,-136.03500366210938,4761.76025390625,True
1599385576.0832868,0.0,10,0.5,0.5,2.3467919723510744,-0.05075,-0.00825,-0.2505,0.15978838193114833,10,1,100,-0.2661389126832945,-10,-1,-100,19214.585252080346,0.016871322253820556,0.017605744307299526,0.9997026539190509,59.53722165642561,3.63113911733281,283.69296036387874,-84.71351838755005,-134.7769317626953,4761.76025390625,True
1599385576.104254,0.0,10,0.5,0.5,2.192745442199707,-0.05075,-0.00825,-0.2505,0.16364771199837333,10,1,100,-0.2603673823713103,-10,-1,-100,19211.185776737868,0.01758620094738541,0.017320471468641158,0.9996953169863017,59.50703357637223,3.6301424048698023,284.82500055771476,-85.07799679897376,-133.22296142578125,4761.76025390625,True
1599385576.1262026,0.0,10,0.5,0.5,2.311374834442139,-0.05075,-0.00825,-0.2505,0.1730278306060243,10,1,100,-0.22626067523624416,-10,-1,-100,19209.480572004104,0.0179177948107466,0.01714919843264899,0.9996923814965469,59.487476212516846,3.629406245703655,285.369329391723,-85.26023330443913,-132.33596801757812,4761.76025390625,True
1599385576.1574662,0.0,10,0.5,0.5,2.239727590942383,-0.05075,-0.00825,-0.2505,0.17189338173566915,10,1,100,-0.22711664682581578,-10,-1,-100,19207.771722497302,0.018219192748668032,0.01698594100610601,0.9996897212754184,59.46246749790017,3.628363351290611,285.8871786280682,-85.44246819330725,-131.3751983642578,4761.76025390625,True
1599385576.1925097,0.0,10,0.5,0.5,1.4732580394744876,-0.05075,-0.00825,-0.2505,0.14221719625264556,10,1,100,-0.2752594212879649,-10,-1,-100,19202.62330632261,0.01892343494332927,0.016570442104316397,0.9996836119785164,59.338098834336634,3.6223938089165246,287.1996887984596,-85.98916651849143,-128.0498504638672,4761.76025390625,True
1599385576.223555,0.0,10,0.5,0.5,2.297953406906128,-0.05075,-0.00825,-0.2505,0.18346936179351145,10,1,100,-0.20558077198600574,-10,-1,-100,19202.62330632261,0.01892343494332927,0.016570442104316397,0.9996836119785164,59.338098834336634,3.6223938089165246,287.1996887984596,-85.98916651849143,-128.0498504638672,4761.76025390625,True
1599385576.2574139,0.0,10,0.5,0.5,1.5111622974395753,-0.05075,-0.00825,-0.2505,0.15210021084330907,10,1,100,-0.2430971587134544,-10,-1,-100,19199.17280542408,0.019259468890865508,0.01628738607137579,0.9996818463456281,59.19547005432527,3.614921394140759,287.78090843501326,-86.35363072283603,-125.46504211425781,4761.76025390625,True
1599385576.2904365,0.0,10,0.5,0.5,0.8143266716003419,-0.05075,-0.00825,-0.2505,0.13387485564135987,10,1,100,-0.24216514916108012,-10,-1,-100,19193.969719228684,0.019551684704865725,0.01586656385341275,0.9996829416253371,58.84775320462599,3.5957709844296657,287.9883948284204,-86.90033573886402,-121.03594970703125,4761.76025390625,True
1599385576.3263457,0.0,10,0.5,0.5,1.4212448368072508,-0.05075,-0.00825,-0.2505,0.16068973900523364,10,1,100,-0.2179007183124947,-10,-1,-100,19192.228067643824,0.019592187739121088,0.015730165449401954,0.9996843042053474,58.68620454674944,3.5866537148240654,287.82927612535343,-87.08257588609241,-119.41239929199219,4761.76025390625,True
1599385576.3572893,0.0,10,0.5,0.5,1.8142305671691894,-0.05075,-0.00825,-0.2505,0.17410644296251246,10,1,100,-0.21420799162514723,-10,-1,-100,19192.228067643824,0.019592187739121088,0.015730165449401954,0.9996843042053474,58.68620454674944,3.5866537148240654,287.82927612535343,-87.08257588609241,-119.41239929199219,4761.76025390625,True
1599385576.390429,0.0,10,0.5,0.5,0.758412836456299,-0.05075,-0.00825,-0.2505,0.1429352147595821,10,1,100,-0.21465737718017963,-10,-1,-100,19188.733829718898,0.019593022364728756,0.015448819160682595,0.9996886752690337,58.27888418375545,3.5633333489642576,287.0866804024523,-87.44706847435184,-115.95313262939453,4761.76025390625,True
1599385576.4239626,0.0,10,0.5,0.5,0.4837480340957643,-0.05075,-0.00825,-0.2505,0.1368317676699637,10,1,100,-0.20380774578186311,-10,-1,-100,19185.225011463044,0.019492673829741115,0.015139524765710843,0.9996953688283426,57.74401725307101,3.532260386825594,285.6968981900189,-87.81158381588078,-112.2164306640625,4761.76025390625,True
1599385576.4592566,0.0,10,0.5,0.5,0.8068059900283816,-0.05075,-0.00825,-0.2505,0.14954203102139157,10,1,100,-0.2041013254226981,-10,-1,-100,19183.465134207858,0.019402383637503254,0.014975878570479441,0.9996995901620774,57.42104379356754,3.5133259857159356,284.71853762389105,-87.99385241612427,-110.23915100097656,4761.76025390625,True
1599385576.4902387,0.0,10,0.5,0.5,-1.283180319404602,-0.05075,-0.00825,-0.2505,0.08732095944171683,10,1,100,-0.14718447129963258,-10,-1,-100,19176.389168485533,0.01880152607178028,0.014263438942146732,0.9997214896794587,55.90600119134439,3.4237123341807996,279.6232451226234,-88.72301617248526,-101.7177734375,4761.76025390625,True
1599385576.5246582,0.0,10,0.5,0.5,0.1491816583633423,-0.05075,-0.00825,-0.2505,0.13590416559693336,10,1,100,-0.18430848254749738,-10,-1,-100,19174.611061651958,0.018592253538537152,0.014059907065131655,0.9997282866467663,55.44828262894593,3.396368820538369,277.93415276330654,-88.90533211370685,-99.4678955078125,4761.76025390625,True
1599385576.5565689,0.0,10,0.5,0.5,-0.005408315467834379,-0.05075,-0.00825,-0.2505,0.13243920118762748,10,1,100,-0.17978697074858613,-10,-1,-100,19172.829308364075,0.01836120220233038,0.013845660714159881,0.9997355469988418,55.008709039883676,3.3700735760971345,276.3266596809882,-89.0876583532885,-97.16215515136719,4761.76025390625,True
1599385576.5935652,0.0,10,0.5,0.5,-1.5169612760543822,-0.05075,-0.00825,-0.2505,0.07725959524169584,10,1,100,-0.11534584441448975,-10,-1,-100,19167.462167267804,0.017565838232506077,0.013151735596849942,0.9997592075984998,53.501839690604534,3.2791923259389573,270.4976056743541,-89.63470165526535,-90.31183624267578,4761.76025390625,True
1599385576.6145105,0.0,10,0.5,0.5,0.17004221572875977,-0.05075,-0.00825,-0.2505,0.1463385419252372,10,1,100,-0.19471287833108425,-10,-1,-100,19167.462167267804,0.017565838232506077,0.013151735596849942,0.9997592075984998,53.501839690604534,3.2791923259389573,270.4976056743541,-89.63470165526535,-90.31183624267578,4761.76025390625,True
1599385576.6394365,0.0,10,0.5,0.5,-0.5443727228164673,-0.05075,-0.00825,-0.2505,0.11765097684389135,10,1,100,-0.1610991822372663,-10,-1,-100,19165.665825853008,0.017262064492082604,0.012893407576343673,0.9997678636416263,52.93750006660836,3.2449167800262497,268.21887978004474,-89.81707166787659,-88.02447509765625,4761.76025390625,True
1599385576.6613872,0.0,10,0.5,0.5,-2.0343159208297728,-0.05075,-0.00825,-0.2505,0.049878598439521415,10,1,100,-0.08097916030604722,-10,-1,-100,19160.25492052466,0.016259661004365673,0.012045030261182846,0.9997952493736058,55.387138930000475,3.395546217393237,282.4345262269379,-90.36406762579206,-81.26254272460938,4761.76025390625,True
1599385576.6912534,0.0,10,0.5,0.5,-0.37192549304962164,-0.05075,-0.00825,-0.2505,0.1343478164367822,10,1,100,-0.18088625640426487,-10,-1,-100,19160.25492052466,0.016259661004365673,0.012045030261182846,0.9997952493736058,55.387138930000475,3.395546217393237,282.4345262269379,-90.36406762579206,-81.26254272460938,4761.76025390625,True
1599385576.72691,0.0,10,0.5,0.5,-1.0737150524139403,-0.05075,-0.00825,-0.2505,0.0987940369036971,10,1,100,-0.13973986532411262,-10,-1,-100,19158.443993087392,0.015888633232146437,0.011724908437154345,0.9998050199194614,56.165874515503255,3.4433049720521423,287.0154523975117,-90.5463599014571,-79.0279541015625,4761.76025390625,True
1599385576.7579226,0.0,10,0.5,0.5,-1.207504725265503,-0.05075,-0.00825,-0.2505,0.09460605141146693,10,1,100,-0.13503324525753682,-10,-1,-100,19156.62942028395,0.015511824202794256,0.011398920198406848,0.9998147067973207,56.91487219263708,3.489184706357397,291.4610137737165,-90.72863269430154,-76.81658935546875,4761.76025390625,True
1599385576.7908669,0.0,10,0.5,0.5,-1.969350311279297,-0.05075,-0.00825,-0.2505,0.05123729550008804,10,1,100,-0.08583522731233886,-10,-1,-100,19152.989339862484,0.014725552703367482,0.010711557617053018,0.9998341965701096,58.29211123425134,3.573408597162247,299.77986908639394,-91.09312173277014,-72.54034423828125,4761.76025390625,True
1599385576.8238204,0.0,10,0.5,0.5,-2.7196830734252933,-0.05075,-0.00825,-0.2505,-0.006907864342403494,10,1,100,-0.024674682665641462,-10,-1,-100,19147.50188751612,0.013458460910162631,0.009561319163913335,0.9998637162162528,60.04244354511307,3.6802113530102467,310.7371161301724,-91.63972551819845,-66.57366943359375,4761.76025390625,True
1599385576.8598413,0.0,10,0.5,0.5,-1.2521687713623049,-0.05075,-0.00825,-0.2505,0.10766612218144302,10,1,100,-0.15087048272328904,-10,-1,-100,19147.50188751612,0.013458460910162631,0.009561319163913335,0.9998637162162528,60.04244354511307,3.6802113530102467,310.7371161301724,-91.63972551819845,-66.57366943359375,4761.76025390625,True
1599385576.8917181,0.0,10,0.5,0.5,-3.366112615585327,-0.05075,-0.00825,-0.2505,-0.0752505780846193,10,1,100,0.046273163685493585,-10,-1,-100,19140.13427771814,0.011670702980348396,0.007902334926540265,0.9999006689639993,61.82396514759355,3.788758969888866,322.64191057951405,-92.36832633883304,-59.64019775390625,4761.76025390625,True
1599385576.9249332,0.0,10,0.5,0.5,-2.120679282951355,-0.05075,-0.00825,-0.2505,0.03834796646223405,10,1,100,-0.07992022505836124,-10,-1,-100,19138.283268757397,0.011198040337508824,0.007431653661781877,0.9999096831296569,62.18765955773699,3.8109300426516346,325.21518766302154,-92.5504460989824,-58.092987060546875,4761.76025390625,True
1599385576.95792,0.0,10,0.5,0.5,-1.759683554840088,-0.05075,-0.00825,-0.2505,0.084844084744566,10,1,100,-0.1265497095528187,-10,-1,-100,19138.283268757397,0.011198040337508824,0.007431653661781877,0.9999096831296569,62.18765955773699,3.8109300426516346,325.21518766302154,-92.5504460989824,-58.092987060546875,4761.76025390625,True
1599385576.993214,0.0,10,0.5,0.5,-2.649799662780762,-0.05075,-0.00825,-0.2505,-0.014102609972534652,10,1,100,-0.02265439891860478,-10,-1,-100,19134.57032438577,0.010259050262792856,0.0065371034860942,0.9999260063453282,62.83597140666667,3.8505019767583684,329.97042428951755,-92.91465465762701,-55.22021484375,4761.76025390625,True
1599385577.024121,0.0,10,0.5,0.5,-3.413657210540772,-0.05075,-0.00825,-0.2505,-0.14078670008333263,10,1,100,0.09895283400292998,-10,-1,-100,19127.100734811043,0.008305357723529453,0.004577209713348229,0.9999550340811952,63.8854595853574,3.9148445656679516,338.25845937177445,-93.64296683351607,-50.367095947265625,4761.76025390625,True
1599385577.0581198,0.0,10,0.5,0.5,-2.2234396705627444,-0.05075,-0.00825,-0.2505,0.054455895136481025,10,1,100,-0.0956209895953267,-10,-1,-100,19127.100734811043,0.008305357723529453,0.004577209713348229,0.9999550340811952,63.8854595853574,3.9148445656679516,338.25845937177445,-93.64296683351607,-50.367095947265625,4761.76025390625,True
1599385577.0910406,0.0,10,0.5,0.5,-3.109354165649414,-0.05075,-0.00825,-0.2505,-0.10447207602786761,10,1,100,0.07052980113053184,-10,-1,-100,19121.460309936432,0.006801789876484027,0.003138907883421247,0.9999719410622359,64.52597214459988,3.954411425239939,343.7553108904295,-94.18912466940583,-47.504791259765625,4761.76025390625,True
1599385577.1270626,0.0,10,0.5,0.5,-2.416529074859619,-0.05075,-0.00825,-0.2505,0.03853210573333203,10,1,100,-0.07895598014137972,-10,-1,-100,19121.460309936432,0.006801789876484027,0.003138907883421247,0.9999719410622359,64.52597214459988,3.954411425239939,343.7553108904295,-94.18912466940583,-47.504791259765625,4761.76025390625,True
1599385577.158066,0.0,10,0.5,0.5,-3.098181140136719,-0.05075,-0.00825,-0.2505,-0.13128818684272198,10,1,100,0.09205199702030177,-10,-1,-100,19115.787117841304,0.005254375323038634,0.0016019712688513303,0.999984912500193,65.09511470872415,3.9898109046575176,348.91350704968966,-94.7352271077962,-45.31060791015625,4761.76025390625,True
1599385577.191036,0.0,10,0.5,0.5,-2.5660802368164064,-0.05075,-0.00825,-0.2505,0.021609539824763487,10,1,100,-0.06186904976552506,-10,-1,-100,19115.787117841304,0.005254375323038634,0.0016019712688513303,0.999984912500193,65.09511470872415,3.9898109046575176,348.91350704968966,-94.7352271077962,-45.31060791015625,4761.76025390625,True
1599385577.212012,0.0,10,0.5,0.5,-2.9126271987915042,-0.05075,-0.00825,-0.2505,-0.09525226974653485,10,1,100,0.05476648472245035,-10,-1,-100,19111.986787387403,0.004201510541863516,0.0005468269526532199,0.9999910241044417,65.45331968889445,4.012194374796965,352.2600218488948,-95.09926707604683,-44.218475341796875,4761.76025390625,True
1599385577.2349179,0.0,10,0.5,0.5,-2.783108115386963,-0.05075,-0.00825,-0.2505,-0.04231815524141152,10,1,100,0.008914533748216255,-10,-1,-100,19110.08116174687,0.0036679868336868867,7.551089522322902e-05,0.9999932700627002,65.62923195746441,4.023207773801194,353.9223340611816,-95.2812789167097,-43.782501220703125,4761.76025390625,True
1599385577.259852,0.0,10,0.5,0.5,-2.945628324127197,-0.05075,-0.00825,-0.2505,-0.1595351760241457,10,1,100,0.13540271167093862,-10,-1,-100,19104.34244448156,0.002039918257414131,-0.0014118801252229292,0.9999969226592723,66.15324950824524,4.056053623927201,358.91376169830033,-95.82728191842395,-42.919677734375,4761.76025390625,True
1599385577.2909868,0.0,10,0.5,0.5,-2.742009020996094,-0.05075,-0.00825,-0.2505,-0.011680427358230359,10,1,100,-0.026488333748327476,-10,-1,-100,19104.34244448156,0.002039918257414131,-0.0014118801252229292,0.9999969226592723,66.15324950824524,4.056053623927201,358.91376169830033,-95.82728191842395,-42.919677734375,4761.76025390625,True
1599385577.3239336,0.0,10,0.5,0.5,-2.8141298110961914,-0.05075,-0.00825,-0.2505,-0.11986888438440257,10,1,100,0.09616790572725875,-10,-1,-100,19100.498433677596,0.0009323334730955097,-0.0023881852039960246,0.9999967136574631,66.50360849695413,4.07801188236421,362.2673682425201,-96.19125694250609,-42.713958740234375,4761.76025390625,True
1599385577.3608475,0.0,10,0.5,0.5,-2.7689110412597655,-0.05075,-0.00825,-0.2505,-0.02293491599882745,10,1,100,-0.013853270279559994,-10,-1,-100,19100.498433677596,0.0009323334730955097,-0.0023881852039960246,0.9999967136574631,66.50360849695413,4.07801188236421,362.2673682425201,-96.19125694250609,-42.713958740234375,4761.76025390625,True
1599385577.390806,0.0,10,0.5,0.5,-2.7483341247558597,-0.05075,-0.00825,-0.2505,-0.12591124917429894,10,1,100,0.11090289494155088,-10,-1,-100,19096.63986450387,-0.0001951107341414673,-0.003318001510211816,0.9999944763836345,66.85570993151052,4.100046653817731,365.64695124664155,-96.55521008411438,-42.80322265625,4761.76025390625,True
1599385577.4248462,0.0,10,0.5,0.5,-2.658892720794678,-0.05075,-0.00825,-0.2505,-0.1298862062393304,10,1,100,0.12486229221944353,-10,-1,-100,19092.766738185077,-0.0013406028063280837,-0.004193555117004973,0.9999903083928344,67.20773634604622,4.122020229045748,369.04267299498457,-96.9191413806385,-43.187225341796875,4761.76025390625,True
1599385577.458884,0.0,10,0.5,0.5,-2.667319947052002,-0.05075,-0.00825,-0.2505,-0.09365935682616941,10,1,100,0.07506104040796775,-10,-1,-100,19090.824716023053,-0.0019218184075908533,-0.004653512071242356,0.9999873256393859,67.38248273904652,4.132899467033234,370.7397783295204,-97.10109892885774,-43.490386962890625,4761.76025390625,True
1599385577.4838169,0.0,10,0.5,0.5,-2.157984364318848,-0.05075,-0.00825,-0.2505,-0.22741236390248493,10,1,100,0.2772422098838871,-10,-1,-100,19083.020238480298,-0.00428168304603752,-0.00628190438184276,0.9999711020162686,68.05280609656442,4.17437482522753,377.4105376282914,-97.82887619291456,-45.438201904296875,4761.76025390625,True
1599385577.504767,0.0,10,0.5,0.5,-2.6458067420959472,-0.05075,-0.00825,-0.2505,-0.06536152040751393,10,1,100,0.04220935187612802,-10,-1,-100,19083.020238480298,-0.00428168304603752,-0.00628190438184276,0.9999711020162686,68.05280609656442,4.17437482522753,377.4105376282914,-97.82887619291456,-45.438201904296875,4761.76025390625,True
1599385577.525713,0.0,10,0.5,0.5,-2.4425911857604983,-0.05075,-0.00825,-0.2505,-0.10891896770076914,10,1,100,0.10922466246193285,-10,-1,-100,19081.060022211634,-0.00488320114810129,-0.006671673237840993,0.9999658209772744,68.20701664506515,4.183834208546475,379.01390542010984,-98.01080806532342,-46.10943603515625,4761.76025390625,True
1599385577.5587213,0.0,10,0.5,0.5,-2.3844593826293945,-0.05075,-0.00825,-0.2505,-0.1117344648017092,10,1,100,0.1164743898196281,-10,-1,-100,19079.096167525393,-0.005488168591427594,-0.007045470185908783,0.9999601198824738,68.35290514930425,4.192740330110953,380.57465762169704,-98.19273538571,-46.85418701171875,4761.76025390625,True
1599385577.5916777,0.0,10,0.5,0.5,-2.321518572998047,-0.05075,-0.00825,-0.2505,-0.10823850974530788,10,1,100,0.12214621901986339,-10,-1,-100,19077.128674182342,-0.006082857362772881,-0.007348382738129775,0.9999544990235497,68.4888346158003,4.2009894084151815,382.083404702275,-98.37465860295463,-47.671630859375,4761.76025390625,True
1599385577.627581,0.0,10,0.5,0.5,-1.9628747161865236,-0.05075,-0.00825,-0.2505,-0.15289142442760945,10,1,100,0.19800481334903947,-10,-1,-100,19073.18277257355,-0.007305722761879118,-0.00802429655306714,0.9999411168062623,68.72185623594677,4.214955202355821,384.8934585886576,-98.73849400415199,-49.52886962890625,4761.76025390625,True
1599385577.6586287,0.0,10,0.5,0.5,-2.1096110496520994,-0.05075,-0.00825,-0.2505,-0.11851203445184287,10,1,100,0.14365572519761313,-10,-1,-100,19071.20436435577,-0.007915846817658207,-0.008321100011094982,0.9999340471569937,68.81492437486912,4.220420363457435,386.17137224014994,-98.92040716327818,-50.567474365234375,4761.76025390625,True
1599385577.6925304,0.0,10,0.5,0.5,-1.6711389564514163,-0.05075,-0.00825,-0.2505,-0.14983772162544162,10,1,100,0.21806404073100474,-10,-1,-100,19067.236633085762,-0.009138900482042073,-0.008870306751964738,0.9999188957891063,68.94196559632981,4.227557766963444,388.40174579964327,-99.2842277822279,-52.8651123046875,4761.76025390625,True
1599385577.7253122,0.0,10,0.5,0.5,-1.4578931953430179,-0.05075,-0.00825,-0.2505,-0.14512867543432345,10,1,100,0.22958703631306437,-10,-1,-100,19063.25434923102,-0.010347391237002583,-0.009321728546252758,0.9999030137325812,68.97192833988619,4.228514844717947,390.0906271984049,-99.64804565166128,-55.45599365234375,4761.76025390625,True
1599385577.7613268,0.0,10,0.5,0.5,-1.2277056274414067,-0.05075,-0.00825,-0.2505,-0.14557043303492734,10,1,100,0.2432121137159945,-10,-1,-100,19059.25751239783,-0.011561695546601799,-0.00973146599794804,0.9998858063627158,68.88032906340548,4.221804272810786,391.09286233300304,-100.01186815698124,-58.340911865234375,4761.76025390625,True
1599385577.7862542,0.0,10,0.5,0.5,-1.4705302078247073,-0.05075,-0.00825,-0.2505,-0.12246313221431497,10,1,100,0.1877371056061541,-10,-1,-100,19057.25363654201,-0.012152526775112527,-0.00988927189755027,0.9998772516635812,68.78113022396079,4.215105219361873,391.2896151790301,-100.19378384841946,-59.893096923828125,4761.76025390625,True
1599385577.8061817,0.0,10,0.5,0.5,-0.8459512176513672,-0.05075,-0.00825,-0.2505,-0.13583316444563923,10,1,100,0.2572670157958843,-10,-1,-100,19053.234969658195,-0.013314580853911576,-0.010150998128822784,0.999859829762989,68.4582248531816,4.193969890062802,390.9675388484247,-100.55763028270826,-63.217498779296875,4761.76025390625,True
1599385577.8281455,0.0,10,0.5,0.5,-1.130202426147461,-0.05075,-0.00825,-0.2505,-0.12102809013041102,10,1,100,0.20449245373264285,-10,-1,-100,19051.22017837863,-0.01388301318151045,-0.010250822123707558,0.9998510802068428,68.22718879274726,4.179104845729342,390.4040784880157,-100.73956372889387,-64.98959350585938,4761.76025390625,True
1599385577.8580673,0.0,10,0.5,0.5,-1.002619086456299,-0.05075,-0.00825,-0.2505,-0.11997633144998468,10,1,100,0.2100051544502022,-10,-1,-100,19049.201748182997,-0.014441703656729594,-0.010328755995702689,0.9998423645730723,67.94489421733628,4.16109345666538,389.5424004787159,-100.92150590653742,-66.8349609375,4761.76025390625,True
1599385577.8945432,0.0,10,0.5,0.5,-0.8703907615661621,-0.05075,-0.00825,-0.2505,-0.11986157005509357,10,1,100,0.216304135736028,-10,-1,-100,19047.17967889353,-0.014998727977649685,-0.010395576879553985,0.9998334712042769,67.6076283391441,4.139723656549217,388.359489502242,-101.10345824279277,-68.753662109375,4761.76025390625,True
1599385577.925587,0.0,10,0.5,0.5,-0.11641467361450197,-0.05075,-0.00825,-0.2505,-0.12000454700286517,10,1,100,0.2780509272228443,-10,-1,-100,19043.124622268253,-0.016058342855080027,-0.010454852751542702,0.9998163959841289,66.75612159460228,4.086240725775238,384.95312256970965,-101.46739969973586,-72.79421997070312,4761.76025390625,True
1599385577.9587274,0.0,10,0.5,0.5,0.19448553924560552,-0.05075,-0.00825,-0.2505,-0.11332352342072963,10,1,100,0.2847246514861259,-10,-1,-100,19039.055006381008,-0.017074342400507262,-0.010445793733332598,0.999799656043585,65.64680263335815,4.0172283030942735,380.0196929591086,-101.83140014471672,-77.12240600585938,4761.76025390625,True
1599385577.9924214,0.0,10,0.5,0.5,-0.18464497985839845,-0.05075,-0.00825,-0.2505,-0.11104058556924519,10,1,100,0.23743684815027905,-10,-1,-100,19037.014737602556,-0.017559763324585368,-0.010414872742016974,0.9997915708475204,64.98566266196708,3.9763524509327945,376.91801154259986,-102.01342638929434,-79.39019775390625,4761.76025390625,True
1599385578.0283246,0.0,10,0.5,0.5,0.6840145904541016,-0.05075,-0.00825,-0.2505,-0.10226831770332345,10,1,100,0.2902674747832701,-10,-1,-100,19032.923277279944,-0.018473678167826708,-0.010305610709321617,0.9997762337657661,63.44111279296389,3.8813997348593854,369.37828008953716,-102.37753759469703,-84.08682250976562,4761.76025390625,True
1599385578.059296,0.0,10,0.5,0.5,0.24422737045288084,-0.05075,-0.00825,-0.2505,-0.10508096333192271,10,1,100,0.24648307620972196,-10,-1,-100,19030.872084717383,-0.01889908232289492,-0.01023095665607395,0.999769049437546,62.69237192600813,3.8355987504892,365.7206608923369,-102.55962168147978,-86.45394897460938,4761.76025390625,True
1599385578.0922878,0.0,10,0.5,0.5,1.0975003952026368,-0.05075,-0.00825,-0.2505,-0.09206456626169099,10,1,100,0.2934101981895815,-10,-1,-100,19026.758776587085,-0.019705753221159025,-0.010044304370066577,0.9997553676973725,64.64354326958984,3.9554769898755042,378.551529510474,-102.92371314825057,-91.17774963378906,4761.76025390625,True
1599385578.1261623,0.0,10,0.5,0.5,2.017028569793701,-0.05075,-0.00825,-0.2505,-0.0716088080670246,10,1,100,0.32719476072328096,-10,-1,-100,19020.561514467117,-0.02073935621857271,-0.009688518096951529,0.9997379715309027,67.20674554803963,4.114153192119232,395.8220060092191,-103.4696628622574,-98.07245635986328,4761.76025390625,True
1599385578.161179,0.0,10,0.5,0.5,0.3186598749160767,-0.05075,-0.00825,-0.2505,-0.10714118737534231,10,1,100,0.22457693851837865,-10,-1,-100,19020.561514467117,-0.02073935621857271,-0.009688518096951529,0.9997379715309027,67.20674554803963,4.114153192119232,395.8220060092191,-103.4696628622574,-98.07245635986328,4761.76025390625,True
1599385578.1926765,0.0,10,0.5,0.5,1.6814423477172853,-0.05075,-0.00825,-0.2505,-0.07705364822026943,10,1,100,0.2886432190770918,-10,-1,-100,19016.41181222361,-0.021315543911800044,-0.009415506199202462,0.9997284610486773,68.8221685576048,4.214798520114743,406.87925722940736,-103.83350500310783,-102.505615234375,4761.76025390625,True
1599385578.2253165,0.0,10,0.5,0.5,1.858750531768799,-0.05075,-0.00825,-0.2505,-0.07413835911195807,10,1,100,0.28267031844373963,-10,-1,-100,19012.247559067095,-0.02177880286328981,-0.009141641163715481,0.9997210181559032,70.28764412531615,4.306556603218701,417.1184268528837,-104.1972514606539,-106.68283081054688,4761.76025390625,True
1599385578.259329,0.0,10,0.5,0.5,2.624399039077759,-0.05075,-0.00825,-0.2505,-0.05192235497069755,10,1,100,0.2981354421608016,-10,-1,-100,19005.97390488931,-0.022334375693994126,-0.008691849217184801,0.9997127724599428,72.18799440752757,4.426153699985711,430.8210664107022,-104.74270250450456,-112.59403228759766,4761.76025390625,True
1599385578.3002543,0.0,10,0.5,0.5,1.1764779142379762,-0.05075,-0.00825,-0.2505,-0.09672524927032976,10,1,100,0.24320576237426153,-10,-1,-100,19005.97390488931,-0.022334375693994126,-0.008691849217184801,0.9997127724599428,72.18799440752757,4.426153699985711,430.8210664107022,-104.74270250450456,-112.59403228759766,4761.76025390625,True
1599385578.3261902,0.0,10,0.5,0.5,2.3017425151824953,-0.05075,-0.00825,-0.2505,-0.0658780629075352,10,1,100,0.2702551153768268,-10,-1,-100,19001.77329009201,-0.02257549705465973,-0.008413014745264985,0.9997097419329427,73.19055292255483,4.48961203206556,438.44256541051595,-105.10624055630458,-116.23220825195312,4761.76025390625,True
1599385578.3591561,0.0,10,0.5,0.5,2.4291842910766603,-0.05075,-0.00825,-0.2505,-0.06570833356975228,10,1,100,0.26311643235731386,-10,-1,-100,18997.558136059088,-0.022725241415332824,-0.008159805738627809,0.9997084479851726,73.99012779155449,4.540435333691488,444.8879168448249,-105.4697158890663,-119.57962799072266,4761.76025390625,True
1599385578.391987,0.0,10,0.5,0.5,2.090755253791809,-0.05075,-0.00825,-0.2505,-0.07627173995844064,10,1,100,0.2536332764547496,-10,-1,-100,18995.44510735653,-0.0227712970866055,-0.008027597431555447,0.9997084703594695,74.32187376359116,4.561579368490062,447.7140355979991,-105.65143371312487,-121.14250946044922,4761.76025390625,True
1599385578.4282162,0.0,10,0.5,0.5,2.60277025642395,-0.05075,-0.00825,-0.2505,-0.0642020242738428,10,1,100,0.25174667746459983,-10,-1,-100,18991.20814773976,-0.02279249478352138,-0.007799686427288336,0.9997097914260814,74.86702794915566,4.596390804621134,452.6730582569361,-106.01483622528983,-124.04673767089844,4761.76025390625,True
1599385578.4588573,0.0,10,0.5,0.5,2.306440323638916,-0.05075,-0.00825,-0.2505,-0.07594958403127879,10,1,100,0.24762339924618243,-10,-1,-100,18989.08421724185,-0.022771474940948055,-0.0077013311647883605,0.9997110329626776,75.08713089866787,4.6104630502068895,454.8439508671069,-106.19652312067514,-125.38802337646484,4761.76025390625,True
1599385578.4928088,0.0,10,0.5,0.5,2.734290455245972,-0.05075,-0.00825,-0.2505,-0.06599372820803603,10,1,100,0.23863571949294315,-10,-1,-100,18984.825455530663,-0.022668812432922517,-0.007523216043151779,0.9997147223899672,75.43877444109883,4.632942966665524,458.6624460489859,-106.55987339619894,-127.84879302978516,4761.76025390625,True
1599385578.5258875,0.0,10,0.5,0.5,3.087523648071289,-0.05075,-0.00825,-0.2505,-0.06230952275223339,10,1,100,0.2163621758836392,-10,-1,-100,18978.41006353998,-0.022371242068983492,-0.007329768884841954,0.9997228626056253,75.78991290573386,4.655294227950386,463.34317282395256,-107.10485175197256,-130.98602294921875,4761.76025390625,True
1599385578.5618644,0.0,10,0.5,0.5,2.595701655578613,-0.05075,-0.00825,-0.2505,-0.07649412856261212,10,1,100,0.23106654563221118,-10,-1,-100,18976.264333345112,-0.022233439919337593,-0.007284754918576792,0.9997262657823538,75.87074407891618,4.66038923475545,464.68733462002257,-107.28650119425643,-131.88414001464844,4761.76025390625,True
1599385578.5858023,0.0,10,0.5,0.5,2.639842486190796,-0.05075,-0.00825,-0.2505,-0.07714355566276926,10,1,100,0.22808490170802118,-10,-1,-100,18974.11497023562,-0.02208064607757046,-0.007251425092196381,0.9997298944729667,75.93753774186041,4.664563339339231,465.9474420704181,-107.46814637850362,-132.70846557617188,4761.76025390625,True
1599385578.6077428,0.0,10,0.5,0.5,3.061572406959534,-0.05075,-0.00825,-0.2505,-0.075525519567188,10,1,100,0.1819768871225303,-10,-1,-100,18967.645084592863,-0.021522809479383533,-0.007207725307458895,0.9997423754988112,76.0757216562725,4.672960202460016,469.35474215467264,-108.01306000269473,-134.73876953125,4761.76025390625,True
1599385578.6316795,0.0,10,0.5,0.5,2.5712506744384767,-0.05075,-0.00825,-0.2505,-0.07974708564996402,10,1,100,0.23767939031976185,-10,-1,-100,18967.645084592863,-0.021522809479383533,-0.007207725307458895,0.9997423754988112,76.0757216562725,4.672960202460016,469.35474215467264,-108.01306000269473,-134.73876953125,4761.76025390625,True
1599385578.6620436,0.0,10,0.5,0.5,2.745978464508057,-0.05075,-0.00825,-0.2505,-0.08044146195858905,10,1,100,0.2131762854292847,-10,-1,-100,18965.481190730352,-0.021301010969083992,-0.007215133537026219,0.9997470724036844,76.10733711518708,4.674786265050169,470.4038792778288,-108.19469127785577,-135.26809692382812,4761.76025390625,True
1599385578.6922185,0.0,10,0.5,0.5,2.9714689252853397,-0.05075,-0.00825,-0.2505,-0.08819369421722999,10,1,100,0.15232104776343838,-10,-1,-100,18958.96771390154,-0.020547441281346033,-0.007293201922803796,0.9997622776752997,76.17886068627818,4.678642079011318,473.41236189273695,-108.73956659262213,-136.41380310058594,4761.76025390625,True
1599385578.7259536,0.0,10,0.5,0.5,2.6970683452606203,-0.05075,-0.00825,-0.2505,-0.0803134160885971,10,1,100,0.22745563095670837,-10,-1,-100,18958.96771390154,-0.020547441281346033,-0.007293201922803796,0.9997622776752997,76.17886068627818,4.678642079011318,473.41236189273695,-108.73956659262213,-136.41380310058594,4761.76025390625,True
1599385578.7599728,0.0,10,0.5,0.5,2.8526605213165284,-0.05075,-0.00825,-0.2505,-0.09734755036864332,10,1,100,0.12959922054461226,-10,-1,-100,18952.421545482357,-0.019659878508056228,-0.007448518129444657,0.9997789799524313,76.2377752367012,4.681535108747581,476.34936781108155,-109.28441413700632,-136.89642333984375,4761.76025390625,True
1599385578.795508,0.0,10,0.5,0.5,2.7273535329818728,-0.05075,-0.00825,-0.2505,-0.09989286688556154,10,1,100,0.1432663178539412,-10,-1,-100,18948.039272162365,-0.01898007832281657,-0.007613083752031372,0.999790876925092,76.27947800333465,4.683566615377209,478.3260547023975,-109.64762960457264,-136.8502655029297,4761.76025390625,True
1599385578.8263388,0.0,10,0.5,0.5,2.7463422859191895,-0.05075,-0.00825,-0.2505,-0.083445291397778,10,1,100,0.21087746296689644,-10,-1,-100,18948.039272162365,-0.01898007832281657,-0.007613083752031372,0.999790876925092,76.27947800333465,4.683566615377209,478.3260547023975,-109.64762960457264,-136.8502655029297,4761.76025390625,True
1599385578.8595283,0.0,10,0.5,0.5,2.5638183780670167,-0.05075,-0.00825,-0.2505,-0.1112778587695326,10,1,100,0.0901576493301285,-10,-1,-100,18941.43862195115,-0.017885708347706104,-0.007865849532804423,0.9998090967019794,76.3491724685623,4.687067523429157,481.3412778043713,-110.19242637973082,-136.2283172607422,4761.76025390625,True
1599385578.8931382,0.0,10,0.5,0.5,2.7232003589630125,-0.05075,-0.00825,-0.2505,-0.0860593901536502,10,1,100,0.19915987368401195,-10,-1,-100,18941.43862195115,-0.017885708347706104,-0.007865849532804423,0.9998090967019794,76.3491724685623,4.687067523429157,481.3412778043713,-110.19242637973082,-136.2283172607422,4761.76025390625,True
1599385578.929172,0.0,10,0.5,0.5,2.490449291229248,-0.05075,-0.00825,-0.2505,-0.10975018631195871,10,1,100,0.1096322347115139,-10,-1,-100,18937.02002928639,-0.017075634300437816,-0.008080661839297584,0.9998215468859813,76.39954430712972,4.689701712291911,483.37975687265754,-110.55560555980861,-135.44606018066406,4761.76025390625,True
1599385578.9540648,0.0,10,0.5,0.5,2.535829986190796,-0.05075,-0.00825,-0.2505,-0.09869412038087563,10,1,100,0.1448213869514146,-10,-1,-100,18934.805285521434,-0.01666314761890115,-0.008174642485343485,0.9998277425295158,76.4236561539327,4.690984182401234,484.39330774349867,-110.7371894467991,-134.9442901611328,4761.76025390625,True
1599385578.9750826,0.0,10,0.5,0.5,2.2930275787353516,-0.05075,-0.00825,-0.2505,-0.11391696451364286,10,1,100,0.08886747866794964,-10,-1,-100,18930.36490302265,-0.015783905707527662,-0.008397589912794112,0.9998401616279835,76.46666973473668,4.69331416388093,486.3894118912945,-111.10034570765512,-133.7205047607422,4761.76025390625,True
1599385579.0000162,0.0,10,0.5,0.5,2.3807145870208744,-0.05075,-0.00825,-0.2505,-0.10343567985777308,10,1,100,0.1263321955765853,-10,-1,-100,18928.139264676254,-0.01533019876477714,-0.008503910025990621,0.9998463224516568,76.48274931688054,4.694197892295299,487.3538575250056,-111.281918230576,-132.99819946289062,4761.76025390625,True
1599385579.0300486,0.0,10,0.5,0.5,2.0572273834228514,-0.05075,-0.00825,-0.2505,-0.11750484375341312,10,1,100,0.06690519947481907,-10,-1,-100,18923.67709363601,-0.014382235436366582,-0.008727365520581279,0.9998584821838153,76.49741222791548,4.695017816708808,489.1724728498689,-111.64505284911063,-131.33311462402344,4761.76025390625,True
1599385579.060339,0.0,10,0.5,0.5,1.879908187103272,-0.05075,-0.00825,-0.2505,-0.11843720820080346,10,1,100,0.052572456050313715,-10,-1,-100,18919.20039766503,-0.013395757657447825,-0.00893767913464199,0.9998703273767399,76.4774018780644,4.693908176948827,490.76997570606085,-112.00817531502739,-129.37384033203125,4761.76025390625,True
1599385579.0930903,0.0,10,0.5,0.5,2.3645002662658694,-0.05075,-0.00825,-0.2505,-0.09755476289525197,10,1,100,0.15059382185712858,-10,-1,-100,18919.20039766503,-0.013395757657447825,-0.00893767913464199,0.9998703273767399,76.4774018780644,4.693908176948827,490.76997570606085,-112.00817531502739,-129.37384033203125,4761.76025390625,True
1599385579.126601,0.0,10,0.5,0.5,1.6795796882629395,-0.05075,-0.00825,-0.2505,-0.12068741094482109,10,1,100,0.03629883752234431,-10,-1,-100,18914.709177023033,-0.012361789000463757,-0.009146771757472064,0.999881754378549,76.40746474929095,4.689966021633376,492.0459074790522,-112.37128858420165,-127.12071990966797,4761.76025390625,True
1599385579.1626894,0.0,10,0.5,0.5,1.863345553016663,-0.05075,-0.00825,-0.2505,-0.11007613565042723,10,1,100,0.08125049039945945,-10,-1,-100,18912.458120218245,-0.011836485510563245,-0.009238995559181786,0.9998872629310845,76.34822837451257,4.6866012202274705,492.52650967803135,-112.55284309584724,-125.88382720947266,4761.76025390625,True
1599385579.1936119,0.0,10,0.5,0.5,1.353124468612671,-0.05075,-0.00825,-0.2505,-0.12184400497920841,10,1,100,0.0125407896222417,-10,-1,-100,18907.94511283515,-0.010739802533440021,-0.00942856769461011,0.999897874161542,76.1698131051948,4.6763963421968535,493.09654014594514,-112.91595134897163,-123.18995666503906,4761.76025390625,True
1599385579.2270093,0.0,10,0.5,0.5,0.6338254398345948,-0.05075,-0.00825,-0.2505,-0.12632412071745275,10,1,100,-0.0634137872780216,-10,-1,-100,18901.148368729744,-0.009058818133156756,-0.00964021367156371,0.9999124982189175,75.70907708526849,4.64975335137264,492.6825382492645,-113.46062498053588,-118.597900390625,4761.76025390625,True
1599385579.261031,0.0,10,0.5,0.5,1.7702358047485354,-0.05075,-0.00825,-0.2505,-0.10531547820531922,10,1,100,0.10388297113357677,-10,-1,-100,18901.148368729744,-0.009058818133156756,-0.00964021367156371,0.9999124982189175,75.70907708526849,4.64975335137264,492.6825382492645,-113.46062498053588,-118.597900390625,4761.76025390625,True
1599385579.296132,0.0,10,0.5,0.5,0.7239313056945801,-0.05075,-0.00825,-0.2505,-0.11704795122692632,10,1,100,-0.024053278336583703,-10,-1,-100,18896.59904959926,-0.007902674346596883,-0.009745540179772666,0.9999212829942046,75.23942261448974,4.622336911897131,491.33035717021363,-113.8237607589207,-115.1694564819336,4761.76025390625,True
1599385579.3270497,0.0,10,0.5,0.5,0.46270613956451423,-0.05075,-0.00825,-0.2505,-0.11192214170754693,10,1,100,-0.03428202517507384,-10,-1,-100,18892.035204234766,-0.006765810688793389,-0.009793467873180105,0.9999291533867489,74.61450843388185,4.585588795321764,488.9417689112407,-114.18692448885461,-111.50225067138672,4761.76025390625,True
1599385579.3600924,0.0,10,0.5,0.5,0.1839969661712647,-0.05075,-0.00825,-0.2505,-0.11164205739501605,10,1,100,-0.055059094311277035,-10,-1,-100,18887.456831079442,-0.005551201633257442,-0.009833319957211869,0.9999362429570428,73.82364209549033,4.538767600397935,485.4361557397423,-114.5501270462037,-107.58653259277344,4761.76025390625,True
1599385579.393145,0.0,10,0.5,0.5,-0.7560874961853026,-0.05075,-0.00825,-0.2505,-0.10061092690004546,10,1,100,-0.12589416410139448,-10,-1,-100,18880.562027498847,-0.003811084615408339,-0.00976826070688953,0.9999450268473846,72.26352544163377,4.445539719449428,477.6446650245719,-115.09503006989021,-101.27489471435547,4761.76025390625,True
1599385579.416081,0.0,10,0.5,0.5,0.14642020473480233,-0.05075,-0.00825,-0.2505,-0.10254357296017338,10,1,100,-0.016370122791283886,-10,-1,-100,18878.256493516616,-0.0032335464956756506,-0.00972593036935016,0.999947473848257,71.66424407430289,4.40951856526823,474.50051129762414,-115.27669614862313,-99.09937286376953,4761.76025390625,True
1599385579.4410095,0.0,10,0.5,0.5,0.005678569412231549,-0.05075,-0.00825,-0.2505,-0.10085375249488238,10,1,100,-0.022783653342086686,-10,-1,-100,18875.947325932793,-0.0026594453919675195,-0.009671369648052899,0.9999496947143581,71.08995121276858,4.374971678603774,471.5090637838994,-115.4583779107807,-96.90606689453125,4761.76025390625,True
1599385579.462957,0.0,10,0.5,0.5,-0.773852301979065,-0.05075,-0.00825,-0.2505,-0.09083799583832111,10,1,100,-0.08986311561682855,-10,-1,-100,18871.318088494823,-0.0015365423166520164,-0.009530239751913394,0.9999534056984757,69.82306639994438,4.298348374372578,464.7011854477272,-115.82179224231433,-92.57734680175781,4761.76025390625,True
1599385579.4930058,0.0,10,0.5,0.5,-0.36964506683349607,-0.05075,-0.00825,-0.2505,-0.09526644444179608,10,1,100,-0.040355848054861025,-10,-1,-100,18868.99801783671,-0.0009751509925593648,-0.009441933702552042,0.999954948469429,69.21715959048431,4.261582989637611,461.459799640131,-116.00352378963197,-90.41084289550781,4761.76025390625,True
1599385579.5270221,0.0,10,0.5,0.5,0.14602139282226564,-0.05075,-0.00825,-0.2505,-0.10409838597872544,10,1,100,0.014806819200316061,-10,-1,-100,18868.99801783671,-0.0009751509925593648,-0.009441933702552042,0.999954948469429,69.21715959048431,4.261582989637611,461.459799640131,-116.00352378963197,-90.41084289550781,4761.76025390625,True
1599385579.5630178,0.0,10,0.5,0.5,-0.5304024662017822,-0.05075,-0.00825,-0.2505,-0.09311270198604087,10,1,100,-0.04636308977094681,-10,-1,-100,18866.67431231786,-0.00042640969931206365,-0.009342244102590375,0.9999562693687639,68.58817839094046,4.223284431386355,458.05080977177965,-116.18527136413873,-88.24264526367188,4761.76025390625,True
1599385579.5939434,0.0,10,0.5,0.5,-1.2890666912078856,-0.05075,-0.00825,-0.2505,-0.07816438478349333,10,1,100,-0.10852440832149293,-10,-1,-100,18862.015995075577,0.0006297012737051343,-0.009115994282210221,0.9999582501907529,67.24054354886066,4.140798728489937,450.589427273353,-116.5488165098464,-84.00445556640625,4761.76025390625,True
1599385579.6269753,0.0,10,0.5,0.5,-1.5183465883255005,-0.05075,-0.00825,-0.2505,-0.0704504337903401,10,1,100,-0.12031728846108655,-10,-1,-100,18857.343134445604,0.0016892534544258907,-0.008840758114561018,0.9999594928889503,66.73514141151489,4.109672471654553,448.72981298974344,-116.91240272311437,-79.80450439453125,4761.76025390625,True
1599385579.6610198,0.0,10,0.5,0.5,-1.1188491271972656,-0.05075,-0.00825,-0.2505,-0.08171924899033858,10,1,100,-0.07042933387846757,-10,-1,-100,18855.001251166337,0.0021912694278362066,-0.008693853291024109,0.9999598068188785,67.54361275781089,4.159278717003549,454.9387004164891,-117.09416442118298,-77.72503662109375,4761.76025390625,True
1599385579.697119,0.0,10,0.5,0.5,-1.83830690574646,-0.05075,-0.00825,-0.2505,-0.06174292007504013,10,1,100,-0.12811180312733156,-10,-1,-100,18850.30658088613,0.0031649950595069904,-0.008379736340093468,0.9999598806077891,69.02227049162302,4.24967740860459,466.4767643967973,-117.45761055457179,-73.68942260742188,4761.76025390625,True
1599385579.727175,0.0,10,0.5,0.5,-3.033939500617981,-0.05075,-0.00825,-0.2505,-0.015879131055353074,10,1,100,-0.23094072471562666,-10,-1,-100,18840.87363863224,0.004978666666669553,-0.0076784942339473625,0.9999581259255415,71.34515085269597,4.390651528785276,485.43560634707916,-118.18422900838252,-66.4403076171875,4761.76025390625,True
