Timestamp,Input Throttle,horizon,dT,dt,Input Roll,Roll P,Roll I,Roll D,Input Pitch,Pitch P,Pitch I,Pitch D,Input Yaw,Yaw P,Yaw I,Yaw D,Altitude,Direction X,Direction Y,Direction Z,Drag X,Drag Y,Drag Z,Vertical Velocity,Roll,Mass,Has Fuel
1599386027.2403345,0.0,10,0.5,0.5,-2.845464462280274,-0.05075,-0.03,-0.12575,0.0007534944718221653,10,1,100,0.5038528788815919,-10,-1,-100,19346.96616007446,-0.04889890726773195,-0.00016678128587905986,0.9988037189818751,61.25613028160822,3.6979986541115712,235.70143444411408,-69.03057033667754,-33.923492431640625,4761.76025390625,True
1599386027.2766802,0.0,10,0.5,0.5,-3.0136867599487305,-0.05075,-0.03,-0.12575,0.0002595778441794455,10,1,100,0.5057295806531297,-10,-1,-100,19344.19398996653,-0.04900664015181411,-0.00014910793286489668,0.9987984416226605,61.436587432804025,3.7102532024221944,237.69348675419386,-69.39546664877132,-33.9259033203125,4761.76025390625,True
1599386027.3076234,0.0,10,0.5,0.5,-3.1822122192382816,-0.05075,-0.03,-0.12575,-0.0015226682505233625,10,1,100,0.4998569562600957,-10,-1,-100,19344.19398996653,-0.04900664015181411,-0.00014910793286489668,0.9987984416226605,61.436587432804025,3.7102532024221944,237.69348675419386,-69.39546664877132,-33.9259033203125,4761.76025390625,True
1599386027.3402245,0.0,10,0.5,0.5,-3.3423711395263673,-0.05075,-0.03,-0.12575,0.01130975087107276,10,1,100,0.5102200120312939,-10,-1,-100,19341.40722448146,-0.04905629825868699,-3.231402454778203e-05,0.9987960144879227,61.618181645173294,3.7225915392791014,239.69829975462605,-69.76034919214985,-33.971588134765625,4761.76025390625,True
1599386027.3734438,0.0,10,0.5,0.5,-3.4664259567260745,-0.05075,-0.03,-0.12575,0.024022748237591336,10,1,100,0.508663394886669,-10,-1,-100,19338.605864037178,-0.04904269429247603,0.0001894643354584436,0.9987966651124744,61.809258275757365,3.7355106798486437,241.74857564221907,-70.12521737580656,-34.25360107421875,4761.76025390625,True
1599386027.4093773,0.0,10,0.5,0.5,-3.6254934387207034,-0.05075,-0.03,-0.12575,0.01737862070887381,10,1,100,0.512200568418097,-10,-1,-100,19337.19971110171,-0.04901789890594043,0.0003305076267162545,0.9987978455881628,61.909880882710034,3.7422751058274604,242.79692938964834,-70.30764561527403,-34.500823974609375,4761.76025390625,True
1599386027.4412723,0.0,10,0.5,0.5,-3.5197414169311525,-0.05075,-0.03,-0.12575,0.10545495574747707,10,1,100,0.4807264338945788,-10,-1,-100,19331.53861520777,-0.04866466742350705,0.001259122294004552,0.9988143795298545,62.338226520467636,3.7708149331646674,247.11561108792964,-71.03731592014697,-36.219451904296875,4761.76025390625,True
1599386027.4742954,0.0,10,0.5,0.5,-3.789026405334473,-0.05075,-0.03,-0.12575,0.048502781956638846,10,1,100,0.5040324635459776,-10,-1,-100,19330.114220581017,-0.048511180284104415,0.0015844257549917434,0.998821382922127,62.44741512527549,3.7780412515597104,248.20964173794152,-71.21972207076422,-36.83233642578125,4761.76025390625,True
1599386027.508295,0.0,10,0.5,0.5,-4.025599624633789,-0.05075,-0.03,-0.12575,0.01613087843341887,10,1,100,0.5242322955146517,-10,-1,-100,19330.114220581017,-0.048511180284104415,0.0015844257549917434,0.998821382922127,62.44741512527549,3.7780412515597104,248.20964173794152,-71.21972207076422,-36.83233642578125,4761.76025390625,True
1599386027.5433426,0.0,10,0.5,0.5,-3.6228320465087895,-0.05075,-0.03,-0.12575,0.19521005446125328,10,1,100,0.42768734290960153,-10,-1,-100,19324.3801630385,-0.04758939782380023,0.0032109778772857,0.9988618216929905,62.85473385791291,3.804915341126386,252.4918599530414,-71.9492997609497,-40.01800537109375,4761.76025390625,True
1599386027.575438,0.0,10,0.5,0.5,-4.000452438354492,-0.05075,-0.03,-0.12575,0.08774100409615981,10,1,100,0.4910897171491858,-10,-1,-100,19322.937529159128,-0.04728453590040737,0.003709751187072733,0.9988745719112151,62.940751266454576,3.8105943637385447,253.50441628402484,-72.13168287692262,-40.99774169921875,4761.76025390625,True
1599386027.814871,0.0,10,0.5,0.5,-4.102431533813476,-0.05075,-0.03,-0.12575,0.03825132636475169,10,1,100,0.5214144723517392,-10,-1,-100,19322.937529159128,-0.04728453590040737,0.003709751187072733,0.9988745719112151,62.940751266454576,3.8105943637385447,253.50441628402484,-72.13168287692262,-40.99774169921875,4761.76025390625,True
1599386027.8377695,0.0,10,0.5,0.5,-3.4845966796875003,-0.05075,-0.03,-0.12575,0.21683351597170858,10,1,100,0.39616200860243267,-10,-1,-100,19318.58774264052,-0.0461474426883695,0.005329717584299671,0.9989204210765716,63.12888998335757,3.823135810059834,256.26995609417173,-72.67880829565381,-44.378021240234375,4761.76025390625,True
1599386027.864697,0.0,10,0.5,0.5,-3.165152015686035,-0.05075,-0.03,-0.12575,0.26310032312148973,10,1,100,0.34972195220354646,-10,-1,-100,19314.205129842972,-0.044694138526039234,0.007218040896306566,0.9989746412532375,63.159189022539344,3.8256435614951485,258.4029725171999,-73.22590664248843,-48.4185791015625,4761.76025390625,True
1599386027.8993654,0.0,10,0.5,0.5,-3.629911193847656,-0.05075,-0.03,-0.12575,0.07499302741288567,10,1,100,0.494616152463308,-10,-1,-100,19314.205129842972,-0.044694138526039234,0.007218040896306566,0.9989746412532375,63.159189022539344,3.8256435614951485,258.4029725171999,-73.22590664248843,-48.4185791015625,4761.76025390625,True
1599386027.9262948,0.0,10,0.5,0.5,-2.7572877655029293,-0.05075,-0.03,-0.12575,0.289188939799019,10,1,100,0.29518255017924067,-10,-1,-100,19309.78969180293,-0.0428850590105172,0.009158886848397916,0.9990380305600797,62.95586354976703,3.813451658504916,259.5763107666922,-73.77299489029045,-53.121856689453125,4761.76025390625,True
1599386028.0155525,0.0,10,0.5,0.5,-2.990315788269043,-0.05075,-0.03,-0.12575,0.17542608610350013,10,1,100,0.40053474987907,-10,-1,-100,19308.31058442581,-0.04220376384812782,0.009881058699229261,0.9990601618501429,62.821076981899154,3.8052025343192573,259.68799838995534,-73.95535944029012,-54.83599853515625,4761.76025390625,True
1599386028.0434778,0.0,10,0.5,0.5,-2.5057794036865237,-0.05075,-0.03,-0.12575,0.25604849631243654,10,1,100,0.3053170517039755,-10,-1,-100,19305.341427736566,-0.04072466272034151,0.011262671441516065,0.9991069282505827,62.431164403167536,3.781237042735279,259.40361629455526,-74.32009763287338,-58.486083984375,4761.76025390625,True
1599386028.068414,0.0,10,0.5,0.5,-2.5582300872802737,-0.05075,-0.03,-0.12575,0.19627099914109214,10,1,100,0.3643623538428001,-10,-1,-100,19303.851378104417,-0.03992387945776487,0.011966452827776825,0.9991310664050851,62.16921593742581,3.765117418622323,258.9766178785785,-74.50247375406765,-60.421417236328125,4761.76025390625,True
1599386028.095342,0.0,10,0.5,0.5,-2.0086342391967777,-0.05075,-0.03,-0.12575,0.2797375596690074,10,1,100,0.25508977875387207,-10,-1,-100,19300.8603358611,-0.03821031426445616,0.013355602795474214,0.9991804640593115,61.49284421528024,3.7235221320203147,257.4685838829166,-74.86724614647314,-64.51318359375,4761.76025390625,True
1599386028.1202745,0.0,10,0.5,0.5,-2.4496883239746094,-0.05075,-0.03,-0.12575,0.1418370253910874,10,1,100,0.4255083897288086,-10,-1,-100,19300.8603358611,-0.03821031426445616,0.013355602795474214,0.9991804640593115,61.49284421528024,3.7235221320203147,257.4685838829166,-74.86724614647314,-64.51318359375,4761.76025390625,True
1599386028.1442082,0.0,10,0.5,0.5,-1.6049615478515622,-0.05075,-0.03,-0.12575,0.2945768107506214,10,1,100,0.21872060238636393,-10,-1,-100,19297.854701727978,-0.03633867458101207,0.014735377342735067,0.9992308889262093,60.58995416397537,3.668120538935772,254.98010173821308,-75.23205457034003,-68.89947509765625,4761.76025390625,True
1599386028.1781175,0.0,10,0.5,0.5,-2.072832504272461,-0.05075,-0.03,-0.12575,0.1577019186401023,10,1,100,0.40478998459883314,-10,-1,-100,19297.854701727978,-0.03633867458101207,0.014735377342735067,0.9992308889262093,60.58995416397537,3.668120538935772,254.98010173821308,-75.23205457034003,-68.89947509765625,4761.76025390625,True
1599386028.2086103,0.0,10,0.5,0.5,-0.740310577392578,-0.05075,-0.03,-0.12575,0.37240347356895187,10,1,100,0.067800063892819,-10,-1,-100,19293.318886252586,-0.033284046909236815,0.016678659060489667,0.999306756983704,58.75002684985056,3.5557075264086877,249.11938007497662,-75.77935842680161,-76.03237915039062,4761.76025390625,True
1599386028.2415226,0.0,10,0.5,0.5,-1.5544318618774415,-0.05075,-0.03,-0.12575,0.17902136360991017,10,1,100,0.37212182190866455,-10,-1,-100,19293.318886252586,-0.033284046909236815,0.016678659060489667,0.999306756983704,58.75002684985056,3.5557075264086877,249.11938007497662,-75.77935842680161,-76.03237915039062,4761.76025390625,True
1599386028.275431,0.0,10,0.5,0.5,-0.09739727020263667,-0.05075,-0.03,-0.12575,0.3734816507268334,10,1,100,0.006426073767332119,-10,-1,-100,19288.7502275249,-0.029969912918512705,0.018437879290494258,0.9993807327174793,56.25197154251932,3.403992683242672,240.33270641674045,-76.32680001514396,-83.81817626953125,4761.76025390625,True
1599386028.3114138,0.0,10,0.5,0.5,-0.012598892211914015,-0.05075,-0.03,-0.12575,0.3142624138302587,10,1,100,0.07856204038077619,-10,-1,-100,19285.686204197933,-0.027624586392605736,0.019490378261945846,0.9994283402935118,54.20263497064179,3.2801453192453858,232.7387474708619,-76.69184878958231,-89.323974609375,4761.76025390625,True
1599386028.342388,0.0,10,0.5,0.5,-0.6014891052246093,-0.05075,-0.03,-0.12575,0.20997344864137155,10,1,100,0.31163677522592087,-10,-1,-100,19285.686204197933,-0.027624586392605736,0.019490378261945846,0.9994283402935118,54.20263497064179,3.2801453192453858,232.7387474708619,-76.69184878958231,-89.323974609375,4761.76025390625,True
1599386028.375537,0.0,10,0.5,0.5,0.9905985794067382,-0.05075,-0.03,-0.12575,0.35220450868498165,10,1,100,-0.07570671843947918,-10,-1,-100,19281.062786977738,-0.024115191065036404,0.02077590816523282,0.9994932812179412,53.660458453620265,3.2486665069230836,232.13691449553818,-77.23948607399517,-97.82014465332031,4761.76025390625,True
1599386028.4084606,0.0,10,0.5,0.5,0.03440137863159182,-0.05075,-0.03,-0.12575,0.22453246389002987,10,1,100,0.2736519454781811,-10,-1,-100,19281.062786977738,-0.024115191065036404,0.02077590816523282,0.9994932812179412,53.660458453620265,3.2486665069230836,232.13691449553818,-77.23948607399517,-97.82014465332031,4761.76025390625,True
1599386028.4444869,0.0,10,0.5,0.5,1.1439832725524903,-0.05075,-0.03,-0.12575,0.30372643197164656,10,1,100,0.001921814372475461,-10,-1,-100,19277.96225710737,-0.021657730894256735,0.021489107597456827,0.9995344721154829,55.32016718653656,3.350739706466485,240.50299968257926,-77.60448245594586,-103.54060363769531,4761.76025390625,True
1599386028.4756913,0.0,10,0.5,0.5,1.5349181327819825,-0.05075,-0.03,-0.12575,0.2948527254316333,10,1,100,-0.009182892026809913,-10,-1,-100,19274.847130261478,-0.019337772120254622,0.022049406562931275,0.999569844602991,56.88576276056212,3.447550580142012,248.528221768335,-77.96938741881623,-109.16780090332031,4761.76025390625,True
1599386028.509651,0.0,10,0.5,0.5,2.3975812950134276,-0.05075,-0.03,-0.12575,0.30585281892257804,10,1,100,-0.18159202202389993,-10,-1,-100,19270.14707783598,-0.015676818327970753,0.02265212099126191,0.9996204873759387,58.83576967558704,3.569019109129827,258.9363425017964,-78.51658267555064,-117.38014221191406,4761.76025390625,True
1599386028.5428934,0.0,10,0.5,0.5,1.5103213768005372,-0.05075,-0.03,-0.12575,0.2463730504543672,10,1,100,0.18243717157918282,-10,-1,-100,19270.14707783598,-0.015676818327970753,0.02265212099126191,0.9996204873759387,58.83576967558704,3.569019109129827,258.9363425017964,-78.51658267555064,-117.38014221191406,4761.76025390625,True
1599386028.5786355,0.0,10,0.5,0.5,2.553144443511963,-0.05075,-0.03,-0.12575,0.2754291094961774,10,1,100,-0.0766104802433642,-10,-1,-100,19266.99547310872,-0.013337846246476022,0.02291083656261403,0.9996485359492638,59.84966063726847,3.6326256021441345,264.677895052527,-78.88128381902902,-122.585693359375,4761.76025390625,True
1599386028.6096005,0.0,10,0.5,0.5,2.478678001403809,-0.05075,-0.03,-0.12575,0.26185438300297026,10,1,100,0.03137839769028632,-10,-1,-100,19265.414200928644,-0.012211357972389236,0.023016960316175776,0.9996604935048068,60.23410794190927,3.6569261639958204,267.0215450231786,-79.0636116725734,-125.08128356933594,4761.76025390625,True
1599386028.6425107,0.0,10,0.5,0.5,3.130932346343994,-0.05075,-0.03,-0.12575,0.26228487393245925,10,1,100,-0.10845279513583281,-10,-1,-100,19262.24071739393,-0.009932229202023914,0.023113187208749372,0.9996835156188841,60.78490157318545,3.69207609288846,270.7615284517141,-79.42823269760643,-129.8534393310547,4761.76025390625,True
1599386028.6764114,0.0,10,0.5,0.5,3.4426539344787597,-0.05075,-0.03,-0.12575,0.2573168441927808,10,1,100,-0.11815886177416053,-10,-1,-100,19259.052650285885,-0.007788140947880262,0.023152208832594834,0.999701615526727,61.07636229143691,3.7111425025590337,273.3640769287672,-79.7928207329075,-134.33067321777344,4761.76025390625,True
1599386028.7123556,0.0,10,0.5,0.5,3.390303401947022,-0.05075,-0.03,-0.12575,0.25087558161794754,10,1,100,-0.022719163805644926,-10,-1,-100,19257.453147957684,-0.006724636557867743,0.023125797166709816,0.9997099463187153,61.138610915853285,3.7154706989655812,274.2955133185806,-79.97510692647887,-136.45895385742188,4761.76025390625,True
1599386028.7452672,0.0,10,0.5,0.5,3.950750526428223,-0.05075,-0.03,-0.12575,0.2443964696716501,10,1,100,-0.14210844770345973,-10,-1,-100,19254.243206547806,-0.004688266853791836,0.02304074928093757,0.9997235337964594,61.12072029184408,3.7152146502082233,275.52080138355365,-80.33967135745095,-140.49386596679688,4761.76025390625,True
1599386028.7759073,0.0,10,0.5,0.5,4.839369277954102,-0.05075,-0.03,-0.12575,0.21636107462406018,10,1,100,-0.3572987116072414,-10,-1,-100,19247.779575814144,-0.0008984073820623087,0.022706506846970436,0.9997417703642197,60.657445774073985,3.6878212493085303,276.0258482440497,-81.06880137219076,-147.6779327392578,4761.76025390625,True
1599386028.809918,0.0,10,0.5,0.5,4.352749271392822,-0.05075,-0.03,-0.12575,0.23979474729906852,10,1,100,-0.07660962358957789,-10,-1,-100,19246.1545538723,-2.3671683843493104e-05,0.02261457675018265,0.9997442574769116,60.478712440919686,3.677001575408771,275.8595273023336,-81.25108908361148,-149.2890625,4761.76025390625,True
1599386028.8458712,0.0,10,0.5,0.5,4.270513488769531,-0.05075,-0.03,-0.12575,0.24904427399657234,10,1,100,0.008932536188662563,-10,-1,-100,19246.1545538723,-2.3671683843493104e-05,0.02261457675018265,0.9997442574769116,60.478712440919686,3.677001575408771,275.8595273023336,-81.25108908361148,-149.2890625,4761.76025390625,True
1599386028.8757594,0.0,10,0.5,0.5,4.895740249633789,-0.05075,-0.03,-0.12575,0.23088054325708018,10,1,100,-0.17531874539129927,-10,-1,-100,19242.893572465866,0.0016371098335705896,0.02244948605640643,0.9997466381274788,60.07531479451724,3.6524457804832697,275.3057127686067,-81.61567452242517,-152.2890625,4761.76025390625,True
1599386028.9105823,0.0,10,0.5,0.5,5.100738708496094,-0.05075,-0.03,-0.12575,0.21956454104374373,10,1,100,-0.18555311745159436,-10,-1,-100,19239.618007333367,0.00322421102434831,0.02219671507370213,0.9997484235062375,59.637618785130854,3.6256864663171964,274.57779136103494,-81.98027472120586,-154.99456787109375,4761.76025390625,True
1599386028.943584,0.0,10,0.5,0.5,5.076956420898438,-0.05075,-0.03,-0.12575,0.22988760092883168,10,1,100,-0.11129096073721569,-10,-1,-100,19237.974755663658,0.003976863357405682,0.022061418471552578,0.9997487076124978,59.41287853876851,3.611919888986714,274.18001055416084,-82.16258052696371,-156.23654174804688,4761.76025390625,True
1599386028.979604,0.0,10,0.5,0.5,5.593344207763672,-0.05075,-0.03,-0.12575,0.20692742773143152,10,1,100,-0.26611878726771393,-10,-1,-100,19233.023123066756,0.006053901881980736,0.02173056138766264,0.9997455341104456,58.74511161360537,3.5709558477886527,272.98930377393583,-82.70952047602782,-159.51756286621094,4761.76025390625,True
1599386029.0095627,0.0,10,0.5,0.5,5.26974817276001,-0.05075,-0.03,-0.12575,0.23987487353831657,10,1,100,-0.06001354791860898,-10,-1,-100,19233.023123066756,0.006053901881980736,0.02173056138766264,0.9997455341104456,58.74511161360537,3.5709558477886527,272.98930377393583,-82.70952047602782,-159.51756286621094,4761.76025390625,True
1599386029.0434687,0.0,10,0.5,0.5,5.666165782928467,-0.05075,-0.03,-0.12575,0.21458251634789394,10,1,100,-0.20005929458820748,-10,-1,-100,19229.70380265126,0.007314461358222667,0.021501923274517828,0.9997420497060908,58.333091015325174,3.545650472202207,272.3276362954134,-83.07416359008177,-161.33544921875,4761.76025390625,True
1599386029.076343,0.0,10,0.5,0.5,5.895418884277344,-0.05075,-0.03,-0.12575,0.20851702811557354,10,1,100,-0.26070792159258566,-10,-1,-100,19224.697473291075,0.008999012856740506,0.021240405891267078,0.9997338960569351,57.80648059351177,3.5132785031489746,271.73335182171655,-83.62114677808003,-163.50668334960938,4761.76025390625,True
1599386029.1122885,0.0,10,0.5,0.5,5.691424644470215,-0.05075,-0.03,-0.12575,0.23448873210168147,10,1,100,-0.09362149971185504,-10,-1,-100,19224.697473291075,0.008999012856740506,0.021240405891267078,0.9997338960569351,57.80648059351177,3.5132785031489746,271.73335182171655,-83.62114677808003,-163.50668334960938,4761.76025390625,True
1599386029.1433077,0.0,10,0.5,0.5,5.929132629394531,-0.05075,-0.03,-0.12575,0.21781643627329533,10,1,100,-0.20397035596160062,-10,-1,-100,19221.34168740583,0.00999318662243019,0.021090172384605116,0.9997276333331578,57.53378712849004,3.4964931738088447,271.68942633391424,-83.9858097776465,-164.5844268798828,4761.76025390625,True
1599386029.176259,0.0,10,0.5,0.5,5.977326541900635,-0.05075,-0.03,-0.12575,0.2254517412900749,10,1,100,-0.20278648216251588,-10,-1,-100,19217.971314774826,0.010877112230968884,0.021024394155397308,0.9997197923818021,57.33414014853124,3.484174214480632,271.9810080890488,-84.35047475435819,-165.3653564453125,4761.76025390625,True
1599386029.2092588,0.0,10,0.5,0.5,6.036405624389649,-0.05075,-0.03,-0.12575,0.21975996601248782,10,1,100,-0.24087760776573042,-10,-1,-100,19212.888406163314,0.012017054122474363,0.020914297974134678,0.9997090489489764,57.187847499079574,3.4750471806401024,273.13507063861243,-84.89746711261834,-165.98321533203125,4761.76025390625,True
1599386029.2461553,0.0,10,0.5,0.5,5.99979232788086,-0.05075,-0.03,-0.12575,0.23061606533052367,10,1,100,-0.1279214130440729,-10,-1,-100,19212.888406163314,0.012017054122474363,0.020914297974134678,0.9997090489489764,57.187847499079574,3.4750471806401024,273.13507063861243,-84.89746711261834,-165.98321533203125,4761.76025390625,True
1599386029.2766387,0.0,10,0.5,0.5,6.0400837097167965,-0.05075,-0.03,-0.12575,0.2315793089623764,10,1,100,-0.19738662576988553,-10,-1,-100,19209.481567673385,0.012640562562619818,0.020924220568151127,0.9997011519307737,57.19560941947728,3.4753793936826582,274.4050697063726,-85.2621194483888,-166.02471923828125,4761.76025390625,True
1599386029.3095665,0.0,10,0.5,0.5,5.977325714111329,-0.05075,-0.03,-0.12575,0.2407302471194379,10,1,100,-0.2173365524514983,-10,-1,-100,19204.343961877166,0.01338087529694379,0.021017465271324278,0.9996895609787351,57.37082048618439,3.4858254128954442,277.101692030496,-85.8090737022063,-165.5323486328125,4761.76025390625,True
1599386029.345475,0.0,10,0.5,0.5,5.934113258361816,-0.05075,-0.03,-0.12575,0.24383748830224955,10,1,100,-0.18355030288209145,-10,-1,-100,19200.900660263374,0.013740078265321008,0.02113112909961301,0.9996822923470429,57.59271123968144,3.499170279627163,279.41612453667733,-86.17368759224692,-164.83448791503906,4761.76025390625,True
1599386029.3803425,0.0,10,0.5,0.5,5.862421527862549,-0.05075,-0.03,-0.12575,0.2516409775034186,10,1,100,-0.17507976058232086,-10,-1,-100,19197.442774711642,0.013982634055317527,0.021305945601966168,0.9996752185719526,57.89334287939334,3.5172903818890133,282.1242396242985,-86.5382790868564,-163.84072875976562,4761.76025390625,True
1599386029.4112575,0.0,10,0.5,0.5,5.8876683807373045,-0.05075,-0.03,-0.12575,0.24438717837290116,10,1,100,-0.16049344953711006,-10,-1,-100,19195.708363205544,0.014064474516087815,0.021399104228075744,0.9996720806818714,58.07185782716444,3.5280598764835065,283.62101490225973,-86.72056522637051,-163.23316955566406,4761.76025390625,True
1599386029.4443312,0.0,10,0.5,0.5,5.709672397613525,-0.05075,-0.03,-0.12575,0.2592318377940139,10,1,100,-0.16117464013756216,-10,-1,-100,19192.22860362404,0.014140462611647326,0.021618601066242922,0.9996662860200234,58.47929772189051,3.552655576180979,286.87363485399294,-87.0851158971042,-161.79647827148438,4761.76025390625,True
1599386029.478238,0.0,10,0.5,0.5,5.579530204772949,-0.05075,-0.03,-0.12575,0.26490002165217763,10,1,100,-0.15017560128693225,-10,-1,-100,19188.73426313023,0.014104877391009421,0.021869328776764594,0.9996613350993616,58.94508388845517,3.5807943494789796,290.43157203932924,-87.44963510106223,-160.06460571289062,4761.76025390625,True
1599386029.5131116,0.0,10,0.5,0.5,5.611387741088867,-0.05075,-0.03,-0.12575,0.25485431628598915,10,1,100,-0.14700017094857976,-10,-1,-100,19186.981625310495,0.014039921741200322,0.022005230140826074,0.9996592671725453,59.195830644528726,3.5959517326721455,292.30631770840336,-87.63188205023839,-159.08802795410156,4761.76025390625,True
1599386029.5440583,0.0,10,0.5,0.5,5.715360408782959,-0.05075,-0.03,-0.12575,0.24136226347838408,10,1,100,-0.1538120168805128,-10,-1,-100,19186.981625310495,0.014039921741200322,0.022005230140826074,0.9996592671725453,59.195830644528726,3.5959517326721455,292.30631770840336,-87.63188205023839,-159.08802795410156,4761.76025390625,True
1599386029.5779402,0.0,10,0.5,0.5,5.310924160003663,-0.05075,-0.03,-0.12575,0.27278889667584505,10,1,100,-0.13018775932499177,-10,-1,-100,19183.465415676823,0.01382331679286038,0.022289935049742363,0.9996559781786545,59.724272327109325,3.6279224824527816,296.20581531484487,-87.99634905363169,-156.91380310058594,4761.76025390625,True
1599386029.6109362,0.0,10,0.5,0.5,4.883994915008546,-0.05075,-0.03,-0.12575,0.2943719048174759,10,1,100,-0.09273655757261606,-10,-1,-100,19178.16376891709,0.013284295676011212,0.02274371627997599,0.9996530652472229,60.55222532667815,3.6781223586763994,302.27422787284047,-88.54297932140705,-153.10003662109375,4761.76025390625,True
1599386029.6469197,0.0,10,0.5,0.5,4.811127105712891,-0.05075,-0.03,-0.12575,0.28268694960195445,10,1,100,-0.0906624499190754,-10,-1,-100,19174.611118300934,0.012774835742831243,0.02304836371849107,0.9996527279518842,61.098532270464986,3.711365943781596,306.3213627412425,-88.9073518410439,-150.189697265625,4761.76025390625,True
1599386029.6768398,0.0,10,0.5,0.5,5.131074325561523,-0.05075,-0.03,-0.12575,0.25242529559516313,10,1,100,-0.1415478392816611,-10,-1,-100,19174.611118300934,0.012774835742831243,0.02304836371849107,0.9996527279518842,61.098532270464986,3.711365943781596,306.3213627412425,-88.9073518410439,-150.189697265625,4761.76025390625,True
1599386029.7119267,0.0,10,0.5,0.5,4.521632186889649,-0.05075,-0.03,-0.12575,0.28293619071724074,10,1,100,-0.07244182597893674,-10,-1,-100,19171.043893962284,0.012147476751463285,0.023323992551765524,0.9996541552857258,61.613447485708264,3.742853564656933,310.23415340868985,-89.27168761674733,-146.98568725585938,4761.76025390625,True
1599386029.7443178,0.0,10,0.5,0.5,3.92848331451416,-0.05075,-0.03,-0.12575,0.2984537645496611,10,1,100,-0.008082261572310373,-10,-1,-100,19165.66573404637,0.010993731771344769,0.023713798483264485,0.9996583384453086,62.26905456246684,3.7833887953006755,315.55376950607024,-89.81812918658069,-141.62881469726562,4761.76025390625,True
1599386029.7800992,0.0,10,0.5,0.5,3.8423309173583986,-0.05075,-0.03,-0.12575,0.2809562861581749,10,1,100,-0.023569726667982738,-10,-1,-100,19162.06208084745,0.010088459420056543,0.02390699525901804,0.9996632825928013,62.58546197085791,3.8034204918354964,318.51026735751105,-90.18238992555983,-137.6913299560547,4761.76025390625,True
1599386029.8111455,0.0,10,0.5,0.5,3.8983085594177247,-0.05075,-0.03,-0.12575,0.2693641108414437,10,1,100,-0.060266746587501675,-10,-1,-100,19160.254790434148,0.009602777466509773,0.02397516492119392,0.9996664334326377,62.69523783379895,3.810611535844832,319.7469319836495,-90.36451310772158,-135.61288452148438,4761.76025390625,True
1599386029.8440802,0.0,10,0.5,0.5,4.086317909240723,-0.05075,-0.03,-0.12575,0.2627577282382987,10,1,100,-0.10838473194972864,-10,-1,-100,19160.254790434148,0.009602777466509773,0.02397516492119392,0.9996664334326377,62.69523783379895,3.810611535844832,319.7469319836495,-90.36451310772158,-135.61288452148438,4761.76025390625,True
1599386029.8772027,0.0,10,0.5,0.5,2.419323722839356,-0.05075,-0.03,-0.12575,0.2784529983882418,10,1,100,0.13284883501605493,-10,-1,-100,19152.9892050412,0.00741377880707055,0.024116058345483977,0.9996816751414808,62.70723136297834,3.8142485986489816,322.52345872221167,-91.0929892054262,-126.56716918945312,4761.76025390625,True
1599386029.9131281,0.0,10,0.5,0.5,3.45925984954834,-0.05075,-0.03,-0.12575,0.2645747387797018,10,1,100,-0.08538841663445439,-10,-1,-100,19152.9892050412,0.00741377880707055,0.024116058345483977,0.9996816751414808,62.70723136297834,3.8142485986489816,322.52345872221167,-91.0929892054262,-126.56716918945312,4761.76025390625,True
1599386029.9445138,0.0,10,0.5,0.5,2.9368108139038087,-0.05075,-0.03,-0.12575,0.2642868127834156,10,1,100,-0.017609430628004005,-10,-1,-100,19151.16370261123,0.006803433059726265,0.024111780724339792,0.9996861184036232,62.58112636862023,3.8075059683156116,322.55332262722294,-91.27511216028276,-124.1229248046875,4761.76025390625,True
1599386029.9774196,0.0,10,0.5,0.5,2.255850578308106,-0.05075,-0.03,-0.12575,0.2535311048995391,10,1,100,0.05784603140174538,-10,-1,-100,19147.50177010463,0.005568506236975816,0.02400886912031496,0.9996962368348961,62.142534614837906,3.782868270537001,321.64174897194135,-91.63937577488672,-119.01588439941406,4761.76025390625,True
1599386030.0114324,0.0,10,0.5,0.5,1.355737216949463,-0.05075,-0.03,-0.12575,0.23313226188736913,10,1,100,0.15873154059705347,-10,-1,-100,19141.981549013057,0.0035352557049779295,0.02372899590254373,0.9997121769392215,60.94392757669371,3.713230572459142,317.42703159163125,-92.18584690302268,-110.807373046875,4761.76025390625,True
1599386030.047417,0.0,10,0.5,0.5,2.269810546875,-0.05075,-0.03,-0.12575,0.26118764688289753,10,1,100,-0.04366955459894982,-10,-1,-100,19141.981549013057,0.0035352557049779295,0.02372899590254373,0.9997121769392215,60.94392757669371,3.713230572459142,317.42703159163125,-92.18584690302268,-110.807373046875,4761.76025390625,True
1599386030.0773728,0.0,10,0.5,0.5,0.5967112083435058,-0.05075,-0.03,-0.12575,0.20410480872363912,10,1,100,0.18413710331998218,-10,-1,-100,19136.42853461113,0.0014721153793935346,0.02320969282532249,0.9997295349419582,59.322318427893244,3.617589477936601,310.9231874071005,-92.73244569487821,-101.94298553466797,4761.76025390625,True
1599386030.1103084,0.0,10,0.5,0.5,1.0451037654876707,-0.05075,-0.03,-0.12575,0.23151915136884052,10,1,100,0.05409641085752093,-10,-1,-100,19134.570240874193,0.0007873773934227788,0.022987278693403144,0.9997354475335523,58.646122690215414,3.577268430315736,308.02045380880907,-92.91467996046376,-98.84243774414062,4761.76025390625,True
1599386030.1442602,0.0,10,0.5,0.5,0.7583497581481933,-0.05075,-0.03,-0.12575,0.22634663045494396,10,1,100,0.06715650508086149,-10,-1,-100,19132.708302193438,5.4615715079571814e-05,0.0227388972165916,0.9997414363576699,57.944966035818986,3.5352963648405717,304.9721256475395,-93.09693232209673,-95.66905975341797,4761.76025390625,True
1599386030.1812286,0.0,10,0.5,0.5,-0.11803232002258301,-0.05075,-0.03,-0.12575,0.18796926550121118,10,1,100,0.1472941748405922,-10,-1,-100,19128.973488133866,-0.0013313753887286863,0.022165334617824082,0.9997534322926099,56.65277241302172,3.457598035829417,299.41270005862583,-93.46148722822923,-89.12173461914062,4761.76025390625,True
1599386030.2116492,0.0,10,0.5,0.5,-1.252337547302246,-0.05075,-0.03,-0.12575,0.12972366652566647,10,1,100,0.2364867288035779,-10,-1,-100,19123.343930991017,-0.003392268561985847,0.02111605392853354,0.9997712762329645,60.65081356475377,3.702266524050698,322.53771341995855,-94.00814444618673,-78.820556640625,4761.76025390625,True
1599386030.2442725,0.0,10,0.5,0.5,-0.10020425415039069,-0.05075,-0.03,-0.12575,0.2343517350130255,10,1,100,0.031478016214767486,-10,-1,-100,19123.343930991017,-0.003392268561985847,0.02111605392853354,0.9997712762329645,60.65081356475377,3.702266524050698,322.53771341995855,-94.00814444618673,-78.820556640625,4761.76025390625,True
1599386030.2781792,0.0,10,0.5,0.5,-2.7385318603515625,-0.05075,-0.03,-0.12575,0.05500089056748264,10,1,100,0.3104345186382563,-10,-1,-100,19115.786854186445,-0.00591841308640933,0.019488318983044015,0.9997925673907332,64.93173477145983,3.963314727221243,348.14894360485744,-94.73657942889743,-64.68408203125,4761.76025390625,True
1599386030.3131747,0.0,10,0.5,0.5,-1.1391867065429688,-0.05075,-0.03,-0.12575,0.21731203894230564,10,1,100,0.05909225081052151,-10,-1,-100,19115.786854186445,-0.00591841308640933,0.019488318983044015,0.9997925673907332,64.93173477145983,3.963314727221243,348.14894360485744,-94.73657942889743,-64.68408203125,4761.76025390625,True
1599386030.3441188,0.0,10,0.5,0.5,-1.9102097473144533,-0.05075,-0.03,-0.12575,0.16420601931878082,10,1,100,0.12822646567316745,-10,-1,-100,19113.88848155935,-0.00653646329486667,0.0190096465775004,0.999797933576877,65.72563858449034,4.0117262518186285,353.12498299308356,-94.918619803065,-61.239166259765625,4761.76025390625,True
1599386030.3780332,0.0,10,0.5,0.5,-2.827082893371582,-0.05075,-0.03,-0.12575,0.11140304004735589,10,1,100,0.19121988416112634,-10,-1,-100,19110.080816057045,-0.007661838453354929,0.018098753078470562,0.9998068470302248,66.97815695272685,4.088339715860028,361.31981150801124,-95.28263832225626,-54.43255615234375,4761.76025390625,True
1599386030.411115,0.0,10,0.5,0.5,-3.296822967529297,-0.05075,-0.03,-0.12575,0.09054731166511239,10,1,100,0.1982325228199903,-10,-1,-100,19106.25859154889,-0.008738478863280897,0.0170861889511722,0.9998158336085106,67.77939736129936,4.137908830165467,367.1249682756363,-95.64659645159782,-47.8798828125,4761.76025390625,True
1599386030.4471548,0.0,10,0.5,0.5,-3.194197792053223,-0.05075,-0.03,-0.12575,0.13698535320412175,10,1,100,0.1467367565877684,-10,-1,-100,19104.34202011733,-0.009239817184518238,0.016593406943868454,0.9998196260448139,68.0180993327212,4.153029907746666,369.1621608975362,-95.82856167743768,-44.711700439453125,4761.76025390625,True
1599386030.4770777,0.0,10,0.5,0.5,-4.557323730468751,-0.05075,-0.03,-0.12575,0.023191368963355358,10,1,100,0.2517514257680652,-10,-1,-100,19098.57047083543,-0.010641142474029482,0.015116745145721295,0.9998291104499041,68.15767956891078,4.164051379896605,372.1597141468825,-96.37444211152255,-35.651458740234375,4761.76025390625,True
1599386030.5110283,0.0,10,0.5,0.5,-4.104858436584473,-0.05075,-0.03,-0.12575,0.11627790355851705,10,1,100,0.16044549790065218,-10,-1,-100,19096.639342518523,-0.011075297249164031,0.014627495781971594,0.9998316729119912,68.03333809317665,4.157534497496597,372.2273107924653,-96.55640689979502,-32.780029296875,4761.76025390625,True
1599386030.5440307,0.0,10,0.5,0.5,-4.88699317932129,-0.05075,-0.03,-0.12575,0.05553547608632026,10,1,100,0.20720323983344094,-10,-1,-100,19092.766167612164,-0.011886195678802215,0.013637372327757216,0.9998363568245952,67.56726955161973,4.131466775309173,371.16250890452125,-96.92035839998994,-27.260528564453125,4761.76025390625,True
1599386030.5809307,0.0,10,0.5,0.5,-5.269459510803223,-0.05075,-0.03,-0.12575,0.05298613747113998,10,1,100,0.2109353625769548,-10,-1,-100,19088.878433259553,-0.012649582706035402,0.012720883092515938,0.9998390706462265,66.85473378650676,4.0905003238062285,368.7212802183576,-97.28435163743906,-22.037506103515625,4761.76025390625,True
1599386030.6116014,0.0,10,0.5,0.5,-5.224247428894044,-0.05075,-0.03,-0.12575,0.09321426885035808,10,1,100,0.17448530207114482,-10,-1,-100,19086.92910571699,-0.013003790986063617,0.012261053319231321,0.9998402712391082,66.42162239465166,4.065317106427266,367.065540718372,-97.46636753031572,-19.53759765625,4761.76025390625,True
1599386030.6453383,0.0,10,0.5,0.5,-6.290621170043945,-0.05075,-0.03,-0.12575,0.00034036262535022677,10,1,100,0.25234715350684833,-10,-1,-100,19081.059278895846,-0.014027192273777796,0.011005288255712337,0.9998410481208116,65.06233229818491,3.985831524441679,361.71258763474293,-98.01249648799472,-12.482086181640625,4761.76025390625,True
1599386030.6782477,0.0,10,0.5,0.5,-6.324723991394044,-0.05075,-0.03,-0.12575,0.03843993182173572,10,1,100,0.21915180131373652,-10,-1,-100,19077.12785432441,-0.014648409534319335,0.010217755218596157,0.9998404980677706,64.11504625494186,3.9299292187244825,357.86815014381455,-98.37664856859556,-8.14935302734375,4761.76025390625,True
1599386030.7143319,0.0,10,0.5,0.5,-5.939152236938477,-0.05075,-0.03,-0.12575,0.11631404639746327,10,1,100,0.15784126988352795,-10,-1,-100,19077.12785432441,-0.014648409534319335,0.010217755218596157,0.9998404980677706,64.11504625494186,3.9299292187244825,357.86815014381455,-98.37664856859556,-8.14935302734375,4761.76025390625,True
1599386030.745361,0.0,10,0.5,0.5,-6.4408157806396495,-0.05075,-0.03,-0.12575,0.0772606990927135,10,1,100,0.19370050594882893,-10,-1,-100,19075.156679432373,-0.014968051161203012,0.009869889332061954,0.9998392584455806,63.679790832309145,3.9041743462954135,356.14580028190716,-98.55874240567213,-6.09375,4761.76025390625,True
1599386030.7782705,0.0,10,0.5,0.5,-7.628103332519531,-0.05075,-0.03,-0.12575,-0.029763149442827652,10,1,100,0.2914586308754762,-10,-1,-100,19067.23555612727,-0.01614168143743231,0.008587263811816041,0.9998328385388223,61.8057677996757,3.791804994941579,348.4146424401946,-99.28722978132518,1.38739013671875,4761.76025390625,True
1599386030.811216,0.0,10,0.5,0.5,-7.123108551025391,-0.05075,-0.03,-0.12575,0.06775518376062854,10,1,100,0.20656041988247387,-10,-1,-100,19065.246168825426,-0.01643054171201991,0.008315049225380315,0.999830434251443,61.771685833581465,3.7900557713399405,348.9104466853962,-99.46936738889815,3.072723388671875,4761.76025390625,True
1599386030.8493562,0.0,10,0.5,0.5,-7.027350440979004,-0.05075,-0.03,-0.12575,0.09429647281216706,10,1,100,0.1782533323475128,-10,-1,-100,19065.246168825426,-0.01643054171201991,0.008315049225380315,0.999830434251443,61.771685833581465,3.7900557713399405,348.9104466853962,-99.46936738889815,3.072723388671875,4761.76025390625,True
1599386030.8792765,0.0,10,0.5,0.5,-7.6906887130737305,-0.05075,-0.03,-0.12575,0.04094411524125199,10,1,100,0.24358750200981852,-10,-1,-100,19061.256467259605,-0.017019620304892822,0.00783576638069617,0.9998244512362681,63.27228361411712,3.882497904056558,358.79636507071694,-99.833582796329,6.22161865234375,4761.76025390625,True
1599386030.9121609,0.0,10,0.5,0.5,-7.898677810668945,-0.05075,-0.03,-0.12575,0.041193302915468355,10,1,100,0.2462875670182033,-10,-1,-100,19057.252199371345,-0.017575025594284338,0.007407594233428061,0.9998181064688881,64.59948828560623,3.963942816979425,367.7627024287689,-100.19772281758458,9.07440185546875,4761.76025390625,True
1599386030.946097,0.0,10,0.5,0.5,-7.865460159301758,-0.05075,-0.03,-0.12575,0.06281610986368284,10,1,100,0.221450290447046,-10,-1,-100,19055.244603956584,-0.01784966839500406,0.007219748061676355,0.9998146151042774,65.20268743168887,4.00084348653554,371.9237032307152,-100.37976625802008,10.389892578125,4761.76025390625,True
1599386030.982003,0.0,10,0.5,0.5,-8.215088363647462,-0.05075,-0.03,-0.12575,0.04767104749357985,10,1,100,0.2571240708446816,-10,-1,-100,19051.218491734937,-0.018419245419810548,0.00691587943422619,0.9998064322706751,66.29667254924072,4.067554543459571,379.6426375713847,-100.743803453049,12.799346923828125,4761.76025390625,True
1599386031.0118992,0.0,10,0.5,0.5,-8.361072578430177,-0.05075,-0.03,-0.12575,0.05337254810346587,10,1,100,0.26485661286839673,-10,-1,-100,19047.177819969016,-0.0190033457760811,0.006695184695562719,0.9997970030717271,67.25619843997083,4.125806816412779,386.63778402037576,-101.10777944722707,14.91339111328125,4761.76025390625,True
1599386031.0458696,0.0,10,0.5,0.5,-8.6263641204834,-0.05075,-0.03,-0.12575,0.054835120365272105,10,1,100,0.3046941470202513,-10,-1,-100,19041.089517863467,-0.01989254646839686,0.006511051563269651,0.999780922403775,68.47896183835431,4.199621548598495,395.9595862161105,-101.65364092523481,17.5306396484375,4761.76025390625,True
1599386031.0787785,0.0,10,0.5,0.5,-8.374285095214844,-0.05075,-0.03,-0.12575,0.0728777632290463,10,1,100,0.21629849148208308,-10,-1,-100,19041.089517863467,-0.01989254646839686,0.006511051563269651,0.999780922403775,68.47896183835431,4.199621548598495,395.9595862161105,-101.65364092523481,17.5306396484375,4761.76025390625,True
1599386031.114712,0.0,10,0.5,0.5,-8.688034286499025,-0.05075,-0.03,-0.12575,0.07202240361363042,10,1,100,0.28532996228699914,-10,-1,-100,19037.012456502765,-0.020515628479980466,0.0065063290556465906,0.9997683615069499,69.1693045612807,4.241048214921642,401.4956792935076,-102.0174881948825,18.906707763671875,4761.76025390625,True
1599386031.1446335,0.0,10,0.5,0.5,-8.669485702514647,-0.05075,-0.03,-0.12575,0.0766130239236492,10,1,100,0.25894904113848305,-10,-1,-100,19034.96846837341,-0.020838263800940372,0.0065456605376768605,0.9997614320876196,69.4818856928283,4.259737422089741,404.085997537264,-102.19939548990236,19.484237670898438,4761.76025390625,True
1599386031.1795049,0.0,10,0.5,0.5,-8.810888622283935,-0.05075,-0.03,-0.12575,0.08693851965747666,10,1,100,0.29916250743966394,-10,-1,-100,19030.869578628335,-0.021493138584470186,0.006676893108637086,0.9997466999656486,70.04892229285343,4.2935165979546035,408.9488366360076,-102.56318080295392,20.41790771484375,4761.76025390625,True
1599386031.211569,0.0,10,0.5,0.5,-8.858337707519532,-0.05075,-0.03,-0.12575,0.10074065970212001,10,1,100,0.3095613384686091,-10,-1,-100,19026.756138693425,-0.022178411763512745,0.006923158679112906,0.9997300575283069,70.54377478769976,4.322839601815145,413.4149136957854,-102.92693026718513,21.05712890625,4761.76025390625,True
1599386031.2475555,0.0,10,0.5,0.5,-8.859358688354492,-0.05075,-0.03,-0.12575,0.0929406883215655,10,1,100,0.2799328577237361,-10,-1,-100,19024.693962966907,-0.022527347745453844,0.007076957283087323,0.999721178768945,70.76633700826565,4.335970102943171,415.5106626451041,-103.10879303386052,21.26617431640625,4761.76025390625,True
1599386031.277477,0.0,10,0.5,0.5,-8.904485473632814,-0.05075,-0.03,-0.12575,0.12070624193643566,10,1,100,0.3244791147049937,-10,-1,-100,19020.55869986629,-0.023245026136001577,0.007469488898608649,0.999701893313967,71.16413943275496,4.359324162320114,419.43910084461106,-103.47249707959392,21.46356201171875,4761.76025390625,True
1599386031.3034153,0.0,10,0.5,0.5,-8.895804855346679,-0.05075,-0.03,-0.12575,0.1374347031833153,10,1,100,0.33438454377900895,-10,-1,-100,19016.40888924268,-0.0239826055210442,0.00797818570511155,0.9996805405654733,71.50156196937422,4.378976360599503,423.02950109947835,-103.8361758996352,21.366790771484375,4761.76025390625,True
1599386031.329347,0.0,10,0.5,0.5,-8.90564559173584,-0.05075,-0.03,-0.12575,0.11825218848973768,10,1,100,0.3025315645180773,-10,-1,-100,19014.328529167688,-0.024358502095891542,0.00826528511719904,0.9996691194778281,71.64818043697801,4.387450807645381,424.69999180334327,-104.01800708704504,21.207977294921875,4761.76025390625,True
1599386031.3602555,0.0,10,0.5,0.5,-8.903499229431153,-0.05075,-0.03,-0.12575,0.12445352433464096,10,1,100,0.3073755718712782,-10,-1,-100,19012.244532268378,-0.024739394361400213,0.008581232999121663,0.9996571036144574,71.77977226562918,4.395007347662399,426.28494591617516,-104.19983345934415,20.975677490234375,4761.76025390625,True
1599386031.3871949,0.0,10,0.5,0.5,-8.742307456970215,-0.05075,-0.03,-0.12575,0.21969525703939474,10,1,100,0.3970834680217894,-10,-1,-100,19005.97072362539,-0.025896780160600923,0.009732410296880127,0.9996172452329575,72.08135506228878,4.41199663746691,430.5037045453325,-104.74528941390219,19.838348388671875,4761.76025390625,True
1599386031.4360607,0.0,10,0.5,0.5,-8.892249717712403,-0.05075,-0.03,-0.12575,0.10489966313690945,10,1,100,0.2819453114709388,-10,-1,-100,19005.97072362539,-0.025896780160600923,0.009732410296880127,0.9996172452329575,72.08135506228878,4.41199663746691,430.5037045453325,-104.74528941390219,19.838348388671875,4761.76025390625,True
1599386031.4659748,0.0,10,0.5,0.5,-8.696395957946779,-0.05075,-0.03,-0.12575,0.20509594392675856,10,1,100,0.3688739063789781,-10,-1,-100,19001.770003178623,-0.02668214815823708,0.010640352775659452,0.9995873377861842,72.19882892376134,4.41824471198074,432.82899683710133,-105.10891269336234,18.712860107421875,4761.76025390625,True
1599386031.4958665,0.0,10,0.5,0.5,-8.585286628723145,-0.05075,-0.03,-0.12575,0.23402436684028094,10,1,100,0.3744879651290424,-10,-1,-100,18997.55473807,-0.0274418433407639,0.01172501824445633,0.9995546354158077,72.2410163472146,4.4199381074821344,434.7088357672658,-105.47253040154739,17.294586181640625,4761.76025390625,True
1599386031.5267835,0.0,10,0.5,0.5,-8.609597953796387,-0.05075,-0.03,-0.12575,0.18719612781062872,10,1,100,0.3427703385482714,-10,-1,-100,18995.44165103766,-0.027838725351639188,0.012280777292969546,0.9995369867493031,72.23101066883297,4.41891022083071,435.4628994322563,-105.6543387291149,16.474945068359375,4761.76025390625,True
1599386031.5547075,0.0,10,0.5,0.5,-8.370887016296388,-0.05075,-0.03,-0.12575,0.26977383486564344,10,1,100,0.3875415056163977,-10,-1,-100,18991.20456867665,-0.028601392049792302,0.013531848657014551,0.9994992993718093,72.14176839509702,4.412698680897136,436.5533730713146,-106.01795792569847,14.61639404296875,4761.76025390625,True
1599386031.5866547,0.0,10,0.5,0.5,-7.995685134887695,-0.05075,-0.03,-0.12575,0.38241109983000576,10,1,100,0.430418426962976,-10,-1,-100,18984.821673031896,-0.02967899374735099,0.01568729331366428,0.9994363742423205,71.80941354108235,4.391527759851071,436.97887893141,-106.56340444745223,11.27947998046875,4761.76025390625,True
1599386031.6155818,0.0,10,0.5,0.5,-8.38474983215332,-0.05075,-0.03,-0.12575,0.16768841460653847,10,1,100,0.323301653968242,-10,-1,-100,18984.821673031896,-0.02967899374735099,0.01568729331366428,0.9994363742423205,71.80941354108235,4.391527759851071,436.97887893141,-106.56340444745223,11.27947998046875,4761.76025390625,True
1599386031.6464949,0.0,10,0.5,0.5,-8.132343948364259,-0.05075,-0.03,-0.12575,0.2560996124579379,10,1,100,0.36028296125327347,-10,-1,-100,18982.686768253916,-0.030010008915190997,0.01648402319630559,0.9994136662784704,71.63808990092411,4.380874571193226,436.7480741491639,-106.74522797272051,10.0208740234375,4761.76025390625,True
1599386031.680533,0.0,10,0.5,0.5,-7.513143188476563,-0.05075,-0.03,-0.12575,0.4634240016938044,10,1,100,0.4277961836884516,-10,-1,-100,18976.260234129033,-0.030919550629165987,0.01908561868441547,0.9993396422379748,70.91165671357275,4.336370136073908,434.7342456653729,-107.29073475905469,5.80609130859375,4761.76025390625,True
1599386031.714435,0.0,10,0.5,0.5,-7.997643356323242,-0.05075,-0.03,-0.12575,0.20431489145134568,10,1,100,0.3374600279177292,-10,-1,-100,18976.260234129033,-0.030919550629165987,0.01908561868441547,0.9993396422379748,70.91165671357275,4.336370136073908,434.7342456653729,-107.29073475905469,5.80609130859375,4761.76025390625,True
1599386031.7493372,0.0,10,0.5,0.5,-7.095523834228516,-0.05075,-0.03,-0.12575,0.5276584645656223,10,1,100,0.41674296184245474,-10,-1,-100,18969.80096698436,-0.0316357384189648,0.022016602796011135,0.9992569485652875,69.8200888554006,4.270438452133145,430.4262722350542,-107.83631532686078,0.933441162109375,4761.76025390625,True
1599386031.779263,0.0,10,0.5,0.5,-7.339093330383301,-0.05075,-0.03,-0.12575,0.3517744492510623,10,1,100,0.3635884511551196,-10,-1,-100,18967.640603032312,-0.031798378168662156,0.02307102076505744,0.9992279975794818,69.36310695917811,4.243019987123441,428.39981300142125,-108.01819624750303,-0.836822509765625,4761.76025390625,True
1599386031.8131707,0.0,10,0.5,0.5,-7.177654609680175,-0.05075,-0.03,-0.12575,0.3649722970064994,10,1,100,0.36971040306307446,-10,-1,-100,18965.476601252565,-0.031997235476631684,0.02413826238197678,0.9991964377493706,68.8546448579298,4.212599193078937,426.04493111230965,-108.20008913038738,-2.680450439453125,4761.76025390625,True
1599386031.8461523,0.0,10,0.5,0.5,-6.6601502914428705,-0.05075,-0.03,-0.12575,0.5079421903745421,10,1,100,0.3729796494679388,-10,-1,-100,18961.13768292789,-0.032203594003797416,0.026396923569669734,0.9991326893657796,68.02840330089556,4.16391233616162,422.4858541677088,-108.56390520545719,-6.58648681640625,4761.76025390625,True
1599386031.8788183,0.0,10,0.5,0.5,-6.718097274780274,-0.05075,-0.03,-0.12575,0.4123645594446992,10,1,100,0.3592889993117407,-10,-1,-100,18958.962767036166,-0.03226276414648068,0.027568531507958665,0.9990991392850479,68.77880300402016,4.211063344123062,427.93187784787125,-108.74579299224526,-8.64910888671875,4761.76025390625,True
1599386031.9097376,0.0,10,0.5,0.5,-6.140885116577149,-0.05075,-0.03,-0.12575,0.5638705947534427,10,1,100,0.35488447682684715,-10,-1,-100,18954.60202376137,-0.03227318555169672,0.02999819660661814,0.9990288032357708,70.26536491104689,4.305124388303081,438.78685340872505,-109.10949814698724,-12.9935302734375,4761.76025390625,True
1599386031.9376285,0.0,10,0.5,0.5,-5.795974670410155,-0.05075,-0.03,-0.12575,0.5989630330457938,10,1,100,0.3291230931507142,-10,-1,-100,18950.226735125063,-0.03204610680319705,0.03251299531415453,0.9989574326138527,71.70304296516093,4.397012441181215,449.4031912047675,-109.4731066717609,-17.63037109375,4761.76025390625,True
1599386031.968544,0.0,10,0.5,0.5,-4.967958419799805,-0.05075,-0.03,-0.12575,0.7792011257557749,10,1,100,0.27899640890012467,-10,-1,-100,18943.636538497754,-0.031381822526777584,0.036422407980187,0.9988436261056194,73.89774470243803,4.53855621591801,465.68912532007283,-110.01832725997942,-25.133880615234375,4761.76025390625,True
1599386031.998464,0.0,10,0.5,0.5,-5.338745918273926,-0.05075,-0.03,-0.12575,0.5342258066270903,10,1,100,0.30682742115386863,-10,-1,-100,18941.43253810529,-0.031029689829056118,0.03773124533469767,0.9988060429706086,74.59772483826504,4.584092159844255,470.95070872568755,-110.20001399302474,-27.78155517578125,4761.76025390625,True
1599386032.029383,0.0,10,0.5,0.5,-5.5709280548095705,-0.05075,-0.03,-0.12575,0.4052066338410514,10,1,100,0.3420517048460042,-10,-1,-100,18941.43253810529,-0.031029689829056118,0.03773124533469767,0.9988060429706086,74.59772483826504,4.584092159844255,470.95070872568755,-110.20001399302474,-27.78155517578125,4761.76025390625,True
1599386032.0563095,0.0,10,0.5,0.5,-3.9906310272216805,-0.05075,-0.03,-0.12575,0.8378624317848138,10,1,100,0.18744398331530127,-10,-1,-100,18934.798740116996,-0.029624064961322555,0.04164752929177707,0.9986930950392408,76.70790999655935,4.721831011761695,486.8920816099526,-110.74491022729363,-36.1641845703125,4761.76025390625,True
1599386032.0872343,0.0,10,0.5,0.5,-4.933453796386718,-0.05075,-0.03,-0.12575,0.4481971287264502,10,1,100,0.3278053027428934,-10,-1,-100,18934.798740116996,-0.029624064961322555,0.04164752929177707,0.9986930950392408,76.70790999655935,4.721831011761695,486.8920816099526,-110.74491022729363,-36.1641845703125,4761.76025390625,True
1599386032.1161494,0.0,10,0.5,0.5,-3.776545852661133,-0.05075,-0.03,-0.12575,0.7378631770048092,10,1,100,0.19488881706546218,-10,-1,-100,18930.358048969763,-0.028417709921716217,0.044263969268374226,0.9986156091246591,77.84846756625016,4.797335068208322,495.90019541486015,-111.1080506236276,-42.118438720703125,4761.76025390625,True
1599386032.1460688,0.0,10,0.5,0.5,-3.8618858566284175,-0.05075,-0.03,-0.12575,0.6100021242579543,10,1,100,0.2338007941771334,-10,-1,-100,18928.132257034653,-0.02767802288268466,0.04546188176132169,0.9985825676207378,78.31363688985967,4.828515112132103,499.7520076777949,-111.2895899983524,-45.206787109375,4761.76025390625,True
1599386032.4014602,0.0,10,0.5,0.5,-3.0055668640136717,-0.05075,-0.03,-0.12575,0.7587607993582322,10,1,100,0.13208507513119394,-10,-1,-100,18923.669782261364,-0.026085005920530265,0.047885912930193134,0.9985121490542656,78.99140832461089,4.874933838903058,505.868574402295,-111.65262159313569,-51.60235595703125,4761.76025390625,True
1599386032.4303825,0.0,10,0.5,0.5,-1.8901869812011716,-0.05075,-0.03,-0.12575,0.8805117959667221,10,1,100,-0.01875024060752195,-10,-1,-100,18916.948845217237,-0.023271194682970623,0.05117793452431505,0.9984183845041379,79.26714535900886,4.897529202696698,510.3304808336196,-112.19710459698952,-61.748321533203125,4761.76025390625,True
1599386032.4664621,0.0,10,0.5,0.5,-3.019777778625488,-0.05075,-0.03,-0.12575,0.5534276103463001,10,1,100,0.2617306840615696,-10,-1,-100,18916.948845217237,-0.023271194682970623,0.05117793452431505,0.9984183845041379,79.26714535900886,4.897529202696698,510.3304808336196,-112.19710459698952,-61.748321533203125,4761.76025390625,True
1599386032.49243,0.0,10,0.5,0.5,-1.6284717483520508,-0.05075,-0.03,-0.12575,0.7658179811044543,10,1,100,0.029864748479556474,-10,-1,-100,18912.45007114939,-0.021171299734152528,0.053091787950107217,0.9983651827461871,78.87154525142276,4.875835349491302,509.5742270600506,-112.56009904728377,-68.88119506835938,4761.76025390625,True
1599386032.5614119,0.0,10,0.5,0.5,-1.7450954666137695,-0.05075,-0.03,-0.12575,0.6680235021180899,10,1,100,0.11942051637584088,-10,-1,-100,18910.19523894263,-0.020085729964095595,0.05392746000097867,0.998342823137249,78.47926041244564,4.852715155855964,507.931968239197,-112.74161150826163,-72.55877685546875,4761.76025390625,True
1599386032.5903308,0.0,10,0.5,0.5,-0.7361654205322266,-0.05075,-0.03,-0.12575,0.7583135591369206,10,1,100,-0.02662599501508242,-10,-1,-100,18905.67468202382,-0.017781101851276317,0.055493256734063655,0.9983007216635686,77.27423021484613,4.780138166848649,501.8933364647398,-113.10469001871796,-80.1341552734375,4761.76025390625,True
1599386032.6172588,0.0,10,0.5,0.5,0.5718787040710451,-0.05075,-0.03,-0.12575,0.7955265548297991,10,1,100,-0.1878448861873513,-10,-1,-100,18898.866609044373,-0.014232403272581602,0.057238860987349476,0.9982590603094756,74.34225028886296,4.60160131365242,485.400179435258,-113.64950616480587,-92.0525131225586,4761.76025390625,True
1599386032.647329,0.0,10,0.5,0.5,0.7063236026763916,-0.05075,-0.03,-0.12575,0.7120978342538762,10,1,100,-0.09700569906475037,-10,-1,-100,18894.309727483313,-0.011846116867327089,0.0580531570926504,0.9982432070726761,71.60135420017883,4.434449563522511,469.14629766212335,-114.012891675606,-100.35570526123047,4761.76025390625,True
1599386032.6793392,0.0,10,0.5,0.5,-0.1452282466888427,-0.05075,-0.03,-0.12575,0.6323087865038708,10,1,100,0.13984514665130143,-10,-1,-100,18894.309727483313,-0.011846116867327089,0.0580531570926504,0.9982432070726761,71.60135420017883,4.434449563522511,469.14629766212335,-114.012891675606,-100.35570526123047,4761.76025390625,True
1599386032.714181,0.0,10,0.5,0.5,0.767665662765503,-0.05075,-0.03,-0.12575,0.6662976849225546,10,1,100,0.014111519940861739,-10,-1,-100,18892.025834319415,-0.010718148981827082,0.05834961145298,0.9982386709227857,69.99644637670679,4.336638465508744,459.4338940343365,-114.19464505103527,-104.53804016113281,4761.76025390625,True
1599386032.7492566,0.0,10,0.5,0.5,1.8797259025573732,-0.05075,-0.03,-0.12575,0.6834895770199645,10,1,100,-0.1208964171927026,-10,-1,-100,18887.447140943026,-0.008480796815522725,0.05876368922717277,0.9982358964261835,68.545636844253,4.2507132782725465,451.4835281960312,-114.55821996582118,-112.80996704101562,4761.76025390625,True
1599386032.780174,0.0,10,0.5,0.5,1.7477193412780763,-0.05075,-0.03,-0.12575,0.6544038549688086,10,1,100,-0.0239961081574179,-10,-1,-100,18885.152341774898,-0.007343756027480449,0.05886581902479479,0.9982388915474838,69.81235543893044,4.331654937982231,460.6263600054413,-114.73995496852116,-116.91515350341797,4761.76025390625,True
1599386032.813191,0.0,10,0.5,0.5,4.247112409591676,-0.05075,-0.03,-0.12575,0.6288177800643002,10,1,100,-0.3499821385848494,-10,-1,-100,18875.936815045192,-0.0033610527059703584,0.058719074628500664,0.9982688884260994,74.03811688292654,4.604864619354842,491.8874507307027,-115.4664797064194,-133.06314086914062,4761.76025390625,True
1599386032.8465717,0.0,10,0.5,0.5,2.4304474563598633,-0.05075,-0.03,-0.12575,0.6442463337041315,10,1,100,0.046297179368459666,-10,-1,-100,18875.936815045192,-0.0033610527059703584,0.058719074628500664,0.9982688884260994,74.03811688292654,4.604864619354842,491.8874507307027,-115.4664797064194,-133.06314086914062,4761.76025390625,True
1599386032.8835356,0.0,10,0.5,0.5,3.3074694290161135,-0.05075,-0.03,-0.12575,0.6266311239599374,10,1,100,-0.05478333492347517,-10,-1,-100,18873.62385446776,-0.0024583300733420255,0.058553820642936724,0.9982812262590964,74.87341059712168,4.659472126808069,498.2884171671098,-115.6480234607872,-136.94119262695312,4761.76025390625,True
1599386032.9144201,0.0,10,0.5,0.5,5.6210127944946295,-0.05075,-0.03,-0.12575,0.5340481844475352,10,1,100,-0.2990328582557138,-10,-1,-100,18864.33571206522,0.0005667521685306699,0.05755772087809134,0.9983420193296981,76.67591364634958,4.780653651781711,513.7676536696912,-116.37399288498155,-151.71774291992188,4761.76025390625,True
1599386032.94733,0.0,10,0.5,0.5,4.596919013977051,-0.05075,-0.03,-0.12575,0.5995482651960016,10,1,100,-0.06532489048612908,-10,-1,-100,18862.004602788715,0.0011755291777643443,0.057245754131268846,0.9983594251396111,76.77722702337891,4.788700088221764,515.3188189460575,-116.55546136759412,-155.2265625,4761.76025390625,True
1599386032.9811862,0.0,10,0.5,0.5,5.544335754394531,-0.05075,-0.03,-0.12575,0.5613916817633172,10,1,100,-0.12103613672016411,-10,-1,-100,18857.331495886552,0.002221421486058598,0.056615263700093156,0.9983935983382256,76.61632457223374,4.7815625192531,515.9820122709928,-116.91840356155,-162.02049255371094,4761.76025390625,True
1599386033.0170898,0.0,10,0.5,0.5,4.874993412017822,-0.05075,-0.03,-0.12575,0.6242969355416305,10,1,100,-0.01785365972607733,-10,-1,-100,18857.331495886552,0.002221421486058598,0.056615263700093156,0.9983935983382256,76.61632457223374,4.7815625192531,515.9820122709928,-116.91840356155,-162.02049255371094,4761.76025390625,True
1599386033.0470095,0.0,10,0.5,0.5,6.760408100128173,-0.05075,-0.03,-0.12575,0.5028817763725388,10,1,100,-0.14458188061282862,-10,-1,-100,18850.294612789527,0.00336070755016235,0.0555127967016401,0.9984523198666648,75.60267300242747,4.7216639293322356,511.7433673521823,-117.46288580551608,-171.65460205078125,4761.76025390625,True
1599386033.0810869,0.0,10,0.5,0.5,6.29072974395752,-0.05075,-0.03,-0.12575,0.573900073776691,10,1,100,-0.06109371257067112,-10,-1,-100,18847.941724409582,0.0036246398475716112,0.0551587537837672,0.9984710180405825,75.09271838401398,4.690822076739053,509.15076022760917,-117.64440989843973,-174.71670532226562,4761.76025390625,True
1599386033.1141105,0.0,10,0.5,0.5,6.618757476806642,-0.05075,-0.03,-0.12575,0.5675178315645607,10,1,100,-0.057024191777885855,-10,-1,-100,18845.58520527708,0.003816577713770079,0.054782153415993746,0.9984910362149784,74.51128034518266,4.655506527073987,506.06216879012715,-117.82595246217329,-177.70462036132812,4761.76025390625,True
1599386033.1500843,0.0,10,0.5,0.5,-55.61164510345459,-0.05075,-0.03,-0.12575,0.49093308700861615,10,1,100,-0.06810645461870582,-10,-1,-100,18838.493858517613,0.004081668769102276,0.05374727691806275,0.998546228376009,72.41532437593288,4.527828420486711,494.32227264237906,-118.37070402250524,173.780029296875,4761.76025390625,True
1599386033.1800406,0.0,10,0.5,0.5,-12.332979919433594,-0.05075,-0.03,-0.12575,0.5939235570306722,10,1,100,-0.04234162123299337,-10,-1,-100,18838.493858517613,0.004081668769102276,0.05374727691806275,0.998546228376009,72.41532437593288,4.527828420486711,494.32227264237906,-118.37070402250524,173.780029296875,4761.76025390625,True
1599386033.2149696,0.0,10,0.5,0.5,-11.380852401733401,-0.05075,-0.03,-0.12575,0.46076592697094987,10,1,100,0.0012728128805773453,-10,-1,-100,18828.98787153547,0.003678407803092476,0.052541272824529306,0.9986119786814158,69.04341795210239,4.322787393154107,474.4863453506912,-119.09735180631074,163.17007446289062,4761.76025390625,True
1599386033.247831,0.0,10,0.5,0.5,-13.131580451965332,-0.05075,-0.03,-0.12575,0.5532935598807385,10,1,100,-0.012405880369720915,-10,-1,-100,18826.60229030426,0.0034305798291077018,0.052291531718513716,0.9986259694362888,68.52088089183292,4.291909434946611,471.6852696167128,-119.27905964705013,160.428955078125,4761.76025390625,True
1599386033.2840872,0.0,10,0.5,0.5,-13.408123855590821,-0.05075,-0.03,-0.12575,0.5291130590077101,10,1,100,0.029394295013634796,-10,-1,-100,18821.82022823533,0.0028226765968541487,0.05184945905888981,0.9986509230417454,70.52793981502627,4.421905525704956,487.1272827592622,-119.6423736705011,154.73721313476562,4761.76025390625,True
1599386033.3149483,0.0,10,0.5,0.5,-15.053751731872559,-0.05075,-0.03,-0.12575,0.5727806954628627,10,1,100,-0.0315607429536295,-10,-1,-100,18821.82022823533,0.0028226765968541487,0.05184945905888981,0.9986509230417454,70.52793981502627,4.421905525704956,487.1272827592622,-119.6423736705011,154.73721313476562,4761.76025390625,True
1599386033.3479033,0.0,10,0.5,0.5,-14.948649864196778,-0.05075,-0.03,-0.12575,0.5367002895650098,10,1,100,0.057793493897087794,-10,-1,-100,18817.02363726229,0.00200981875720145,0.05152578791858315,0.9986696419777324,72.47984366227551,4.549198691622774,502.278236765369,-120.00555200043684,148.75775146484375,4761.76025390625,True
1599386033.380839,0.0,10,0.5,0.5,-16.08599320983887,-0.05075,-0.03,-0.12575,0.5545712846848585,10,1,100,0.028546177350633056,-10,-1,-100,18814.619895472075,0.00153693414678391,0.05139863181555891,0.9986770341211002,73.46964205851236,4.613931283185009,509.9827916134986,-120.18708830776964,145.65911865234375,4761.76025390625,True
1599386033.4177716,0.0,10,0.5,0.5,-16.29544347381592,-0.05075,-0.03,-0.12575,0.5519799983797521,10,1,100,0.09962934398054397,-10,-1,-100,18809.801522071823,0.00046248641649911825,0.05126321835993235,0.9986850697540723,75.33246250815982,4.736317608536964,524.6452236115475,-120.5500597250575,139.2447052001953,4761.76025390625,True
1599386033.4476938,0.0,10,0.5,0.5,-15.626227382659913,-0.05075,-0.03,-0.12575,0.5820490751046363,10,1,100,0.2833320453700332,-10,-1,-100,18800.121235703235,-0.002181434120545074,0.051417011857246994,0.9986748881577275,78.55828727682038,4.9494703161964315,550.7178391492034,-121.27563151138665,125.54661560058594,4761.76025390625,True
1599386033.4812365,0.0,10,0.5,0.5,-18.258515857696533,-0.05075,-0.03,-0.12575,0.566333211217297,10,1,100,0.019539792849045494,-10,-1,-100,18800.121235703235,-0.002181434120545074,0.051417011857246994,0.9986748881577275,78.55828727682038,4.9494703161964315,550.7178391492034,-121.27563151138665,125.54661560058594,4761.76025390625,True
1599386033.515143,0.0,10,0.5,0.5,-16.828416446685793,-0.05075,-0.03,-0.12575,0.6018781551798211,10,1,100,0.19105140684785982,-10,-1,-100,18795.259330563596,-0.0037349368815437064,0.05174226613423432,0.9986534875229669,79.5706965303066,5.017479577618747,559.6420497878366,-121.63828638854704,118.26390075683594,4761.76025390625,True
1599386033.550151,0.0,10,0.5,0.5,-16.915845623016356,-0.05075,-0.03,-0.12575,0.5938116446823478,10,1,100,0.13135493251973543,-10,-1,-100,18792.822938596946,-0.0045974108925134725,0.05196644266404925,0.9986382491422655,79.8926928468437,5.039588613660834,562.8249805817298,-121.81959717193247,114.51419067382812,4761.76025390625,True
1599386033.5960321,0.0,10,0.5,0.5,-16.566927642822264,-0.05075,-0.03,-0.12575,0.6040661262756247,10,1,100,0.1375047661386703,-10,-1,-100,18790.38292024925,-0.005429862282025753,0.05226398464214759,0.9986185420394134,80.08048273008123,5.0530384321006245,565.0695048612114,-122.00090391165885,110.69279479980469,4761.76025390625,True
