Timestamp,Input Throttle,horizon,dT,dt,Input Roll,Roll P,Roll I,Roll D,Input Pitch,Pitch P,Pitch I,Pitch D,Input Yaw,Yaw P,Yaw I,Yaw D,Altitude,Direction X,Direction Y,Direction Z,Drag X,Drag Y,Drag Z,Vertical Velocity,Roll,Mass,Has Fuel
1599388236.5804975,0.0,10,0.5,0.5,-11.215525177001954,-0.2,-0.0155,-0.001,-0.00013202607610863734,10,1,100,0.49811448179252527,-10,-1,-100,19349.722298167064,-0.04884554655101165,-0.00017362996825592478,0.998806328791907,61.076414169334655,3.6862911796183506,233.7310868471175,-68.66499511921401,-33.92236328125,4761.76025390625,True
1599388236.6164386,0.0,10,0.5,0.5,-11.302214587402345,-0.2,-0.0155,-0.001,-0.0008283274952016422,10,1,100,0.4989615777247029,-10,-1,-100,19348.345349052222,-0.04889665161973424,-0.0001652178302178957,0.9988038296699941,61.166220829177135,3.6923846840992307,234.72035292454208,-68.84745186245608,-33.92352294921875,4761.76025390625,True
1599388236.6523461,0.0,10,0.5,0.5,-11.388649697875977,-0.2,-0.0155,-0.001,0.0003030946614010258,10,1,100,0.5105811054815023,-10,-1,-100,19345.58050371823,-0.04900429134216229,-0.00014713457800491966,0.9987985571582831,61.34655255661426,3.7046262168166724,236.70787090805985,-69.21235493871701,-33.925933837890625,4761.76025390625,True
1599388236.6852543,0.0,10,0.5,0.5,-11.409975694274902,-0.2,-0.0155,-0.001,0.03418799293654613,10,1,100,0.5020803426799367,-10,-1,-100,19341.405868805363,-0.04898031661768068,0.00017748303067001853,0.9987997282157246,61.62750088301443,3.7236406890211105,239.74539986233603,-69.75968320720044,-34.25225830078125,4761.76025390625,True
1599388236.720128,0.0,10,0.5,0.5,-11.382752949523928,-0.2,-0.0155,-0.001,0.03672816192416588,10,1,100,0.5008534150504964,-10,-1,-100,19338.60453510657,-0.048902839965504596,0.0004955210447795328,0.9988034174461972,61.83160338369981,3.7373235598392522,241.8468548678454,-70.12454946901173,-34.8192138671875,4761.76025390625,True
1599388236.7560341,0.0,10,0.5,0.5,-11.468850123596193,-0.2,-0.0155,-0.001,0.00497391261769241,10,1,100,0.5134913642646554,-10,-1,-100,19338.60453510657,-0.048902839965504596,0.0004955210447795328,0.9988034174461972,61.83160338369981,3.7373235598392522,241.8468548678454,-70.12454946901173,-34.8192138671875,4761.76025390625,True
1599388236.7899413,0.0,10,0.5,0.5,-11.273220796203614,-0.2,-0.0155,-0.001,0.08601799624248566,10,1,100,0.48369360480516277,-10,-1,-100,19334.375171082676,-0.048587494115904205,0.00123183496769149,0.9988181706387551,62.15525376426998,3.758837486997747,245.0853009282483,-70.67181637477825,-36.218017578125,4761.76025390625,True
1599388236.8258457,0.0,10,0.5,0.5,-11.09684361114502,-0.2,-0.0155,-0.001,0.0870510486579891,10,1,100,0.4825925513639845,-10,-1,-100,19331.537353476277,-0.04824663604487868,0.0019094827968726721,0.998833627780824,62.3714016312396,3.773120411522211,247.25784122198527,-71.03663800827619,-37.5172119140625,4761.76025390625,True
1599388236.8637452,0.0,10,0.5,0.5,-11.17949112701416,-0.2,-0.0155,-0.001,0.019477214019558174,10,1,100,0.5215030220710248,-10,-1,-100,19331.537353476277,-0.04824663604487868,0.0019094827968726721,0.998833627780824,62.3714016312396,3.773120411522211,247.25784122198527,-71.03663800827619,-37.5172119140625,4761.76025390625,True
1599388236.9016433,0.0,10,0.5,0.5,-10.940636781311035,-0.2,-0.0155,-0.001,0.10629134476185992,10,1,100,0.4741035422435195,-10,-1,-100,19328.684943512664,-0.04777187110458783,0.002696966273805531,0.9988546314174473,62.57598774516058,3.7866041468595726,249.39393622403503,-71.40144102397724,-39.110260009765625,4761.76025390625,True
1599388236.9395413,0.0,10,0.5,0.5,-10.203767404174807,-0.2,-0.0155,-0.001,0.24627868973929865,10,1,100,0.3815722017974983,-10,-1,-100,19322.936349657364,-0.04645564363562815,0.004683020783290477,0.998909376515579,62.89303441697085,3.807568675644222,253.32246966873714,-72.13099396522597,-43.1766357421875,4761.76025390625,True
1599388236.9774404,0.0,10,0.5,0.5,-9.69622198791504,-0.2,-0.0155,-0.001,0.17292100059718485,10,1,100,0.4168407710707264,-10,-1,-100,19320.04016705905,-0.0455818692053445,0.00581722166266526,0.9989436686479746,62.971713296113585,3.8129384097204673,254.97428236500042,-72.49574816889438,-45.650604248046875,4761.76025390625,True
1599388237.0163364,0.0,10,0.5,0.5,-9.12404562225342,-0.2,-0.0155,-0.001,0.18859136624274242,10,1,100,0.3908955670501254,-10,-1,-100,19317.12939452019,-0.04455467676163971,0.006985332659335693,0.9989825253257957,62.9695900096996,3.8131912611752807,256.30115412686473,-72.86049251115747,-48.41912841796875,4761.76025390625,True
1599388237.0502448,0.0,10,0.5,0.5,-9.104349694824219,-0.2,-0.0155,-0.001,0.07249351329943321,10,1,100,0.49316984996255225,-10,-1,-100,19317.12939452019,-0.04455467676163971,0.006985332659335693,0.9989825253257957,62.9695900096996,3.8131912611752807,256.30115412686473,-72.86049251115747,-48.41912841796875,4761.76025390625,True
1599388237.0871477,0.0,10,0.5,0.5,-8.782056512451172,-0.2,-0.0155,-0.001,0.1426851810177695,10,1,100,0.43061142214841364,-10,-1,-100,19315.66853725433,-0.043989987090471215,0.007617249775294509,0.9990029321987204,62.93056125701685,3.8109272690453073,256.80988188408145,-73.04286261509174,-49.913330078125,4761.76025390625,True
1599388237.1270394,0.0,10,0.5,0.5,-7.4110049011230466,-0.2,-0.0155,-0.001,0.37106755275260933,10,1,100,0.19309125890195455,-10,-1,-100,19309.788633715012,-0.04132182486250935,0.010261448961273326,0.9990931935786808,62.44916331847785,3.7815412601201164,257.4975024989972,-73.77234938605099,-56.625518798828125,4761.76025390625,True
1599388237.164939,0.0,10,0.5,0.5,-7.383917317199707,-0.2,-0.0155,-0.001,0.107624226946377,10,1,100,0.4591493801878417,-10,-1,-100,19309.788633715012,-0.04132182486250935,0.010261448961273326,0.9990931935786808,62.44916331847785,3.7815412601201164,257.4975024989972,-73.77234938605099,-56.625518798828125,4761.76025390625,True
1599388237.2018394,0.0,10,0.5,0.5,-6.588954330444336,-0.2,-0.0155,-0.001,0.2571758498346053,10,1,100,0.2851239005380648,-10,-1,-100,19306.826796851354,-0.0397463802013781,0.011612800429353963,0.9991423162528327,61.966662009027516,3.751855664309528,256.82549618815835,-74.13711140140099,-60.423187255859375,4761.76025390625,True
1599388237.2407374,0.0,10,0.5,0.5,-4.852839137268066,-0.2,-0.0155,-0.001,0.412863054869001,10,1,100,0.046567290716843346,-10,-1,-100,19300.859347670106,-0.03615318883455995,0.01424781879371043,0.9992446880502862,60.37662244913327,3.6542113575173527,252.80719512903704,-74.86672250373464,-68.90283203125,4761.76025390625,True
1599388237.2786348,0.0,10,0.5,0.5,-4.812671070861816,-0.2,-0.0155,-0.001,0.1505950520330381,10,1,100,0.4046770826776263,-10,-1,-100,19300.859347670106,-0.03615318883455995,0.01424781879371043,0.9992446880502862,60.37662244913327,3.6542113575173527,252.80719512903704,-74.86672250373464,-68.90283203125,4761.76025390625,True
1599388237.315535,0.0,10,0.5,0.5,-3.332331085205078,-0.2,-0.0155,-0.001,0.34668282850156773,10,1,100,0.07305969094931508,-10,-1,-100,19296.345451443223,-0.033149047711820784,0.01601993416840624,0.9993220213449915,58.52613060946092,3.541176669154484,246.93292302610226,-75.4140493726732,-76.0379638671875,4761.76025390625,True
1599388237.351008,0.0,10,0.5,0.5,-2.7807681579589842,-0.2,-0.0155,-0.001,0.2297920969751416,10,1,100,0.25767679848529157,-10,-1,-100,19294.833520952147,-0.03210844457413388,0.01655799884663027,0.9993472271744316,57.76648595180028,3.494950504663286,244.34527355994467,-75.59652095785701,-78.56414794921875,4761.76025390625,True
1599388237.3904405,0.0,10,0.5,0.5,-1.120242155456543,-0.2,-0.0155,-0.001,0.3522681122753196,10,1,100,-0.01356033380805094,-10,-1,-100,19290.27582914813,-0.028708898177780134,0.018150802532122857,0.9994230073061445,55.01852363521557,3.328435441366172,234.4881449805691,-76.14403751798011,-86.584228515625,4761.76025390625,True
1599388237.429336,0.0,10,0.5,0.5,-1.069106330871582,-0.2,-0.0155,-0.001,0.19410429071333968,10,1,100,0.3248097279689376,-10,-1,-100,19290.27582914813,-0.028708898177780134,0.018150802532122857,0.9994230073061445,55.01852363521557,3.328435441366172,234.4881449805691,-76.14403751798011,-86.584228515625,4761.76025390625,True
1599388237.4702282,0.0,10,0.5,0.5,0.13904907073974612,-0.2,-0.0155,-0.001,0.29518670091846455,10,1,100,0.06241752556827354,-10,-1,-100,19287.219114586245,-0.026337919772850334,0.01905958310683055,0.9994713834191717,52.773921467235354,3.1930733039081205,226.05255553425928,-76.50913926501156,-92.30064392089844,4761.76025390625,True
1599388237.5091214,0.0,10,0.5,0.5,2.6754572090148927,-0.2,-0.0155,-0.001,0.3603619079068605,10,1,100,-0.23605344847356285,-10,-1,-100,19281.06187610363,-0.021485159701913475,0.020467847026157927,0.99955963061275,55.449798786254554,3.3576996349399186,239.89111221345797,-77.23922836728855,-104.62116241455078,4761.76025390625,True
1599388237.5490146,0.0,10,0.5,0.5,4.030455322647096,-0.2,-0.0155,-0.001,0.2760279258678624,10,1,100,-0.01796358714307217,-10,-1,-100,19277.961359628243,-0.01907422807239406,0.02097213584513294,0.9995980909053076,57.208043628378654,3.4661882807191033,248.72247658824108,-77.60412396738104,-111.05362701416016,4761.76025390625,True
1599388237.58891,0.0,10,0.5,0.5,4.108386425781251,-0.2,-0.0155,-0.001,0.22667011265874723,10,1,100,0.2209048161298577,-10,-1,-100,19277.961359628243,-0.01907422807239406,0.02097213584513294,0.9995980909053076,57.208043628378654,3.4661882807191033,248.72247658824108,-77.60412396738104,-111.05362701416016,4761.76025390625,True
1599388237.6268063,0.0,10,0.5,0.5,6.660257612228393,-0.2,-0.0155,-0.001,0.30522252330305866,10,1,100,-0.29626912444200537,-10,-1,-100,19271.716551707243,-0.014391439660039838,0.021677740182430516,0.9996614237055936,59.88193665540957,3.632459310869178,262.9073921825216,-78.33363743503652,-123.35906982421875,4761.76025390625,True
1599388237.6642148,0.0,10,0.5,0.5,7.883478142929078,-0.2,-0.0155,-0.001,0.2505182059361758,10,1,100,-0.08932663150136627,-10,-1,-100,19268.572266245144,-0.01203543808388228,0.021815132220830542,0.9996895759366088,60.659231030741886,3.6813701241637684,267.6148593354953,-78.69828857714653,-129.08602905273438,4761.76025390625,True
1599388237.703113,0.0,10,0.5,0.5,7.971035139083862,-0.2,-0.0155,-0.001,0.23753573343888518,10,1,100,0.1438617510393217,-10,-1,-100,19268.572266245144,-0.01203543808388228,0.021815132220830542,0.9996895759366088,60.659231030741886,3.6813701241637684,267.6148593354953,-78.69828857714653,-129.08602905273438,4761.76025390625,True
1599388237.741063,0.0,10,0.5,0.5,10.177257580184937,-0.2,-0.0155,-0.001,0.25899792956113943,10,1,100,-0.3218299419762668,-10,-1,-100,19262.23994234472,-0.007821071428856874,0.022004974732803377,0.9997272687731957,61.16650271740597,3.7144213772983115,272.46334551670185,-79.42748839388776,-139.65318298339844,4761.76025390625,True
1599388237.7789629,0.0,10,0.5,0.5,11.234601071548463,-0.2,-0.0155,-0.001,0.23014454457682196,10,1,100,-0.1294839518195341,-10,-1,-100,19259.051904807682,-0.005760508355845236,0.021910303538479274,0.9997433446351788,61.00502060029389,3.7051154041995162,273.0465241572791,-79.79207445001185,-144.49508666992188,4761.76025390625,True
1599388237.8178566,0.0,10,0.5,0.5,12.232826402664188,-0.2,-0.0155,-0.001,0.24252111746779553,10,1,100,-0.1278467491996079,-10,-1,-100,19255.84928382642,-0.003923015031308472,0.021933335387187707,0.9997517385590571,60.628020923688624,3.6823762170193444,272.65459553349456,-80.15667090825656,-149.0388946533203,4761.76025390625,True
1599388237.8519592,0.0,10,0.5,0.5,12.759597703170776,-0.2,-0.0155,-0.001,0.2351131152055322,10,1,100,-0.04833221419882182,-10,-1,-100,19254.24250431033,-0.0029979585845971695,0.02188348929012474,0.9997560328104123,60.377173715185215,3.6671189406640985,272.17200277925605,-80.33897622146701,-151.2006378173828,4761.76025390625,True
1599388237.8908925,0.0,10,0.5,0.5,13.673080605697633,-0.2,-0.0155,-0.001,0.2299675034215362,10,1,100,-0.15023262229848983,-10,-1,-100,19251.018006173777,-0.001251848978670143,0.021788829180046355,0.9997618115316754,59.77663747233325,3.6304617205100858,270.74407676163077,-80.7036055741693,-155.3018798828125,4761.76025390625,True
1599388238.2439861,0.0,10,0.5,0.5,13.747534475708008,-0.2,-0.0155,-0.001,0.23956561264476342,10,1,100,0.022355007221888476,-10,-1,-100,19251.018006173777,-0.001251848978670143,0.021788829180046355,0.9997618115316754,59.77663747233325,3.6304617205100858,270.74407676163077,-80.7036055741693,-155.3018798828125,4761.76025390625,True
1599388238.2798564,0.0,10,0.5,0.5,14.581008671951295,-0.2,-0.0155,-0.001,0.2268341815713066,10,1,100,-0.1599312772548141,-10,-1,-100,19247.778922000783,0.00038909689921467697,0.0216723464490741,0.9997650514010751,59.07709840396675,3.5876852111766206,268.8413472860354,-81.06826397025073,-159.1072998046875,4761.76025390625,True
1599388238.3143082,0.0,10,0.5,0.5,15.35705732498169,-0.2,-0.0155,-0.001,0.22598511440947588,10,1,100,-0.16630932079078636,-10,-1,-100,19244.525250355946,0.0019211541612809803,0.021558097709806368,0.9997657513586987,58.3149601406029,3.541084500443175,266.6238412145583,-81.43295383608194,-162.61660766601562,4761.76025390625,True
1599388238.3482165,0.0,10,0.5,0.5,15.414397200775147,-0.2,-0.0155,-0.001,0.2373980240889866,10,1,100,-0.014734853966288108,-10,-1,-100,19244.525250355946,0.0019211541612809803,0.021558097709806368,0.9997657513586987,58.3149601406029,3.541084500443175,266.6238412145583,-81.43295383608194,-162.61660766601562,4761.76025390625,True
1599388238.4060628,0.0,10,0.5,0.5,16.69836563034058,-0.2,-0.0155,-0.001,0.22057205571690747,10,1,100,-0.3186995511792815,-10,-1,-100,19237.97414065979,0.004671781779358045,0.02140536802870658,0.999759963528527,56.73331596518937,3.444579849994556,261.8298047935365,-82.16242718556263,-168.74594116210938,4761.76025390625,True
1599388238.4579237,0.0,10,0.5,0.5,17.28061647872925,-0.2,-0.0155,-0.001,0.22303895062618714,10,1,100,-0.1807185438548644,-10,-1,-100,19234.67670010985,0.005902791165694093,0.021289321694329427,0.9997559311343192,55.9707769481327,3.398213003241642,259.5146080928756,-82.52720667624143,-171.36737060546875,4761.76025390625,True
1599388238.4968214,0.0,10,0.5,0.5,17.3271520401001,-0.2,-0.0155,-0.001,0.234572018760055,10,1,100,-0.058989991480714696,-10,-1,-100,19234.67670010985,0.005902791165694093,0.021289321694329427,0.9997559311343192,55.9707769481327,3.398213003241642,259.5146080928756,-82.52720667624143,-171.36737060546875,4761.76025390625,True
1599388238.5347269,0.0,10,0.5,0.5,17.83570828552246,-0.2,-0.0155,-0.001,0.24021355326416072,10,1,100,-0.18331268337868906,-10,-1,-100,19231.364667381276,0.007022394456110643,0.021341172900588706,0.9997475883018323,55.25525658760537,3.354837371382157,257.3865427213505,-82.89201035630707,-173.69027709960938,4761.76025390625,True
1599388238.5686758,0.0,10,0.5,0.5,18.460658498382568,-0.2,-0.0155,-0.001,0.23777782771420286,10,1,100,-0.23810384513218635,-10,-1,-100,19226.36925698584,0.008528366727441646,0.021366705730812615,0.9997353303985886,54.320253366410036,3.2984270550580383,254.78671041707935,-83.43925242423427,-176.62094116210938,4761.76025390625,True
1599388238.6045399,0.0,10,0.5,0.5,18.81528320465088,-0.2,-0.0155,-0.001,0.2461803420130858,10,1,100,-0.18510476142667362,-10,-1,-100,19223.020741365035,0.009405144099226952,0.02146677369151448,0.9997253227220715,53.804998365219404,3.2675418644248917,253.53001656015564,-83.80409856893051,-178.20379638671875,4761.76025390625,True
1599388238.6429768,0.0,10,0.5,0.5,18.849198320007325,-0.2,-0.0155,-0.001,0.23614134039404625,10,1,100,-0.0984927235559327,-10,-1,-100,19223.020741365035,0.009405144099226952,0.02146677369151448,0.9997253227220715,53.804998365219404,3.2675418644248917,253.53001656015564,-83.80409856893051,-178.20379638671875,4761.76025390625,True
1599388238.6808488,0.0,10,0.5,0.5,-53.0178949874878,-0.2,-0.0155,-0.001,0.28118114555981544,10,1,100,-0.26034133616142713,-10,-1,-100,19216.27992737177,0.010866806947387904,0.021876519243465592,0.9997016206911732,53.08596661948696,3.2249969289902327,252.4327984921531,-84.53381370085411,179.52053833007812,4761.76025390625,True
1599388238.7177503,0.0,10,0.5,0.5,-53.185043801879885,-0.2,-0.0155,-0.001,0.24022700764414331,10,1,100,-0.11522282235014927,-10,-1,-100,19216.27992737177,0.010866806947387904,0.021876519243465592,0.9997016206911732,53.08596661948696,3.2249969289902327,252.4327984921531,-84.53381370085411,179.52053833007812,4761.76025390625,True
1599388238.756158,0.0,10,0.5,0.5,-53.57590526733399,-0.2,-0.0155,-0.001,0.26867159045097433,10,1,100,-0.18065404656330858,-10,-1,-100,19212.88762891211,0.011453503846792891,0.02213481688576982,0.9996893853247943,52.89779316560954,3.2142479580003838,252.68017650168971,-84.89867360712918,178.82675170898438,4761.76025390625,True
1599388238.7910643,0.0,10,0.5,0.5,-53.87750300903321,-0.2,-0.0155,-0.001,0.3066379982748699,10,1,100,-0.1977684900970093,-10,-1,-100,19207.771816979977,0.012133784742298785,0.022714257796103657,0.9996683618883813,52.73393369811156,3.205419261767144,253.6064069789247,-85.44595638136234,177.69076538085938,4761.76025390625,True
1599388238.8279657,0.0,10,0.5,0.5,-54.415615890502934,-0.2,-0.0155,-0.001,0.24882479621822595,10,1,100,-0.13048660084271405,-10,-1,-100,19207.771816979977,0.012133784742298785,0.022714257796103657,0.9996683618883813,52.73393369811156,3.205419261767144,253.6064069789247,-85.44595638136234,177.69076538085938,4761.76025390625,True
1599388238.8658645,0.0,10,0.5,0.5,-54.737934779357914,-0.2,-0.0155,-0.001,0.2979574520941769,10,1,100,-0.16762221592663412,-10,-1,-100,19204.343032989884,0.0124657167034466,0.02315962290761069,0.9996540590493527,52.63318386184906,3.200136865523681,254.25968862150356,-85.81080739950322,176.60260009765625,4761.76025390625,True
1599388238.9027653,0.0,10,0.5,0.5,-55.00120397491455,-0.2,-0.0155,-0.001,0.3127212047020853,10,1,100,-0.1583509902798161,-10,-1,-100,19200.89965556562,0.012677222866302856,0.023697015940676903,0.9996388044968569,53.06249369401098,3.2271886618462977,257.48123281265566,-86.17563762754918,175.2236328125,4761.76025390625,True
1599388238.9396667,0.0,10,0.5,0.5,-55.207101132202155,-0.2,-0.0155,-0.001,0.32226610419489476,10,1,100,-0.15255555433975132,-10,-1,-100,19197.441685588215,0.012811674661798689,0.024270185199726194,0.9996233386144658,53.57483013706932,3.259429972469562,261.1265706163118,-86.5404392571742,173.55050659179688,4761.76025390625,True
1599388238.978563,0.0,10,0.5,0.5,-55.356262902832036,-0.2,-0.0155,-0.001,0.3389900635260787,10,1,100,-0.14051369772200678,-10,-1,-100,19193.96912450611,0.012820538226693262,0.02494064462962821,0.9996067216886032,54.16352864498336,3.2964814543395478,265.1684455570059,-86.905208326631,171.58395385742188,4761.76025390625,True
1599388239.0154636,0.0,10,0.5,0.5,-55.44604036102296,-0.2,-0.0155,-0.001,0.3533915411228406,10,1,100,-0.12964165831587973,-10,-1,-100,19190.481973946095,0.012726654387334932,0.025677917661384136,0.9995892540502227,54.81938517362891,3.3378059173323296,269.56651528327956,-87.26994096450552,169.32345581054688,4761.76025390625,True
1599388239.0493736,0.0,10,0.5,0.5,-55.47358632507325,-0.2,-0.0155,-0.001,0.369946136092933,10,1,100,-0.11726810847212293,-10,-1,-100,19186.980235277326,0.012525799070894926,0.026494833877281392,0.999570471820497,55.53245759919771,3.3828159493215537,274.2759773875585,-87.63463361885893,166.76931762695312,4761.76025390625,True
1599388239.0871067,0.0,10,0.5,0.5,-55.17755972595215,-0.2,-0.0155,-0.001,0.3370021323013927,10,1,100,-0.12175112134125202,-10,-1,-100,19185.223895767238,0.012382449816465633,0.026933795571234154,0.9995605262277365,55.90668315217592,3.4064774062277583,276.7299707796546,-87.81696388390536,165.38217163085938,4761.76025390625,True
1599388239.1250055,0.0,10,0.5,0.5,-54.555167199707036,-0.2,-0.0155,-0.001,0.3973456381633899,10,1,100,-0.09565401943507176,-10,-1,-100,19181.70027824666,0.012013508074320021,0.027876831458729576,0.9995391727649146,56.6818610394766,3.455588511268217,281.7953180350456,-88.18159008819232,162.3878173828125,4761.76025390625,True
1599388239.1639028,0.0,10,0.5,0.5,-53.152131156921385,-0.2,-0.0155,-0.001,0.5407784022617877,10,1,100,-0.015782076608662113,-10,-1,-100,19174.609294618596,0.010951488824649807,0.03003285101682634,0.9994889157726186,58.51539970367242,3.5716873794150996,293.4471322888769,-88.91068477589536,155.5194091796875,4761.76025390625,True
1599388239.2087817,0.0,10,0.5,0.5,-53.1246339630127,-0.2,-0.0155,-0.001,0.3259083057741835,10,1,100,-0.12186577198391862,-10,-1,-100,19174.609294618596,0.010951488824649807,0.03003285101682634,0.9994889157726186,58.51539970367242,3.5716873794150996,293.4471322888769,-88.91068477589536,155.5194091796875,4761.76025390625,True
1599388239.2466795,0.0,10,0.5,0.5,-52.31165712432862,-0.2,-0.0155,-0.001,0.4616094892907116,10,1,100,-0.04369989500710868,-10,-1,-100,19171.04193316924,0.010241964757513034,0.031259844873139576,0.9994588156879768,59.54976258300391,3.6371695824994887,299.92476245853004,-89.27514477773582,151.64572143554688,4761.76025390625,True
1599388239.2855756,0.0,10,0.5,0.5,-51.43941716918945,-0.2,-0.0155,-0.001,0.4870422741132977,10,1,100,-0.017640135179998143,-10,-1,-100,19167.45999494777,0.00936205756345672,0.03259913713002464,0.9994246585593914,60.56995321753344,3.701892496186548,306.3753153419335,-89.63954321164776,147.47940063476562,4761.76025390625,True
1599388239.3244717,0.0,10,0.5,0.5,-50.50431793670655,-0.2,-0.0155,-0.001,0.5128058359745312,10,1,100,-0.008048131385441096,-10,-1,-100,19163.863482853398,0.008477955684639413,0.03404279690666832,0.9993844166516609,61.5485344649368,3.764105369869418,312.65848515666653,-90.0038818164493,143.0203857421875,4761.76025390625,True
1599388239.364365,0.0,10,0.5,0.5,-49.006977847290045,-0.2,-0.0155,-0.001,0.6353934633132093,10,1,100,0.08561691601042605,-10,-1,-100,19158.441392831155,0.006826666017549578,0.03646076366878061,0.9993117678401342,62.857751949695285,3.847589426463012,321.35145517988605,-90.5502871190439,135.7841796875,4761.76025390625,True
1599388239.4022634,0.0,10,0.5,0.5,-47.372264060974125,-0.2,-0.0155,-0.001,0.696371978515518,10,1,100,0.12671492568052906,-10,-1,-100,19152.986522873514,0.00495732429792983,0.03920279257341354,0.9992189779974414,63.87830323458734,3.9129715877900364,328.6449746575033,-91.0965931086073,127.89134216308594,4761.76025390625,True
1599388239.442157,0.0,10,0.5,0.5,-46.18514343643189,-0.2,-0.0155,-0.001,0.6492576510368205,10,1,100,0.09822766068227565,-10,-1,-100,19149.331733825617,0.0035239608983409134,0.041254938714262564,0.9991424381594795,64.33485825650047,3.942488679821377,332.3889642972616,-91.46076134239003,122.2655029296875,4761.76025390625,True
1599388239.4805605,0.0,10,0.5,0.5,-44.93256801071168,-0.2,-0.0155,-0.001,0.6935393422240635,10,1,100,0.12698620498449506,-10,-1,-100,19145.662378339097,0.0019676454397604074,0.04350966866688481,0.9990510683162904,64.56868710745229,3.958031232185073,334.998840616049,-91.82491850049819,116.34898376464844,4761.76025390625,True
1599388239.5164642,0.0,10,0.5,0.5,-44.245948344421386,-0.2,-0.0155,-0.001,0.6016104038697148,10,1,100,0.06132893289323456,-10,-1,-100,19143.822238259716,0.0011591655004047749,0.044708636572324004,0.998999396471883,64.58916002772843,3.9597765821059707,335.80701666679676,-92.0069984288389,113.28164672851562,4761.76025390625,True
1599388239.5583892,0.0,10,0.5,0.5,-44.172901116943365,-0.2,-0.0155,-0.001,0.48339679383715506,10,1,100,-0.01843362678493718,-10,-1,-100,19143.822238259716,0.0011591655004047749,0.044708636572324004,0.998999396471883,64.58916002772843,3.9597765821059707,335.80701666679676,-92.0069984288389,113.28164672851562,4761.76025390625,True
1599388239.59625,0.0,10,0.5,0.5,-42.830651976013186,-0.2,-0.0155,-0.001,0.7684312571802429,10,1,100,0.1708089451303994,-10,-1,-100,19140.131033069687,-0.0005523194048944257,0.047286517343119804,0.9988812142696618,64.40733293952664,3.9494316161550116,336.26375657724145,-92.37117282008349,106.92950439453125,4761.76025390625,True
1599388239.635147,0.0,10,0.5,0.5,-41.42655303192139,-0.2,-0.0155,-0.001,0.8194532692022707,10,1,100,0.1948591585684712,-10,-1,-100,19136.425259876414,-0.0023163950698493114,0.050078196638292334,0.9987426137575872,63.88894310873263,3.9183318785318524,334.9513932752487,-92.73538273046553,100.28703308105469,4761.76025390625,True
1599388239.6750755,0.0,10,0.5,0.5,-38.50862186965943,-0.2,-0.0155,-0.001,1.2384576312280011,10,1,100,0.4198023067754807,-10,-1,-100,19128.97000066971,-0.005953621240028965,0.0564081098779875,0.9983900437875586,61.6414633474313,3.7823621918428216,325.8691359234033,-93.46398333617225,86.13296508789062,4761.76025390625,True
1599388239.7139757,0.0,10,0.5,0.5,-36.91810952529907,-0.2,-0.0155,-0.001,1.0047632696155746,10,1,100,0.2575685503565324,-10,-1,-100,19125.220508966944,-0.007771414810198678,0.06001643774237199,0.9981671364619074,59.838454275560856,3.6734201739460466,317.6527151005383,-93.82840404984934,78.62261962890625,4761.76025390625,True
1599388239.7523415,0.0,10,0.5,0.5,-36.82580333328247,-0.2,-0.0155,-0.001,0.646527847260696,10,1,100,0.07741413038904489,-10,-1,-100,19125.220508966944,-0.007771414810198678,0.06001643774237199,0.9981671364619074,59.838454275560856,3.6734201739460466,317.6527151005383,-93.82840404984934,78.62261962890625,4761.76025390625,True
1599388239.7932649,0.0,10,0.5,0.5,-33.544690128326415,-0.2,-0.0155,-0.001,1.568549805269397,10,1,100,0.46855444695616694,-10,-1,-100,19117.67779129476,-0.011313964887329107,0.06837704129329328,0.9975953961514176,61.822036976763385,3.801382841985679,330.9030513003463,-94.55724379508737,62.739471435546875,4761.76025390625,True
1599388239.833126,0.0,10,0.5,0.5,-33.45958787689209,-0.2,-0.0155,-0.001,0.735406875049256,10,1,100,0.11592656816164991,-10,-1,-100,19117.67779129476,-0.011313964887329107,0.06837704129329328,0.9975953961514176,61.822036976763385,3.801382841985679,330.9030513003463,-94.55724379508737,62.739471435546875,4761.76025390625,True
1599388239.8720582,0.0,10,0.5,0.5,-29.943062899780273,-0.2,-0.0155,-0.001,1.8006227598837734,10,1,100,0.4564273583104974,-10,-1,-100,19110.07679481595,-0.014395937592513475,0.07803616560762613,0.9968465849056672,67.18801172958474,4.140617088796245,362.57632589308326,-95.28549609336781,45.70335388183594,4761.76025390625,True
1599388239.9129128,0.0,10,0.5,0.5,-29.850598291015626,-0.2,-0.0155,-0.001,0.8381629781445619,10,1,100,0.14986644609528796,-10,-1,-100,19110.07679481595,-0.014395937592513475,0.07803616560762613,0.9968465849056672,67.18801172958474,4.140617088796245,362.57632589308326,-95.28549609336781,45.70335388183594,4761.76025390625,True
1599388239.9508765,0.0,10,0.5,0.5,-27.94649770431519,-0.2,-0.0155,-0.001,1.4114758130796272,10,1,100,0.2851015914541531,-10,-1,-100,19106.254457228468,-0.01561120700205505,0.08321780271700373,0.9964090964693633,69.50549585768513,4.288199741749972,376.60687777639464,-95.64940883267437,36.7513427734375,4761.76025390625,True
1599388239.989735,0.0,10,0.5,0.5,-24.064900315093997,-0.2,-0.0155,-0.001,2.152227750216648,10,1,100,0.33948750824357765,-10,-1,-100,19098.566124422476,-0.017195169006539925,0.09462748209391565,0.9953642377518905,72.34279028473784,4.4713633861674955,395.1560956317538,-96.37697766849473,17.98553466796875,4761.76025390625,True
1599388240.0296252,0.0,10,0.5,0.5,-21.97275438613892,-0.2,-0.0155,-0.001,1.6789198815644395,10,1,100,0.207694788632234,-10,-1,-100,19094.700132387457,-0.017421888969057917,0.1006540818444966,0.9947689347747,72.63850512066573,4.492773980613391,398.3718841148403,-96.7407358957681,8.16937255859375,4761.76025390625,True
1599388240.0675235,0.0,10,0.5,0.5,-19.808503079223634,-0.2,-0.0155,-0.001,1.7581354333845622,10,1,100,0.16651081112513164,-10,-1,-100,19090.819588546292,-0.017239865963192245,0.10680697219320204,0.9941303021799968,72.04912381048617,4.459268499695991,396.73390108702796,-97.10454742814446,-1.9365234375,4761.76025390625,True
1599388240.106445,0.0,10,0.5,0.5,-19.682101268005372,-0.2,-0.0155,-0.001,1.1478862847455404,10,1,100,0.1858417361840152,-10,-1,-100,19090.819588546292,-0.017239865963192245,0.10680697219320204,0.9941303021799968,72.04912381048617,4.459268499695991,396.73390108702796,-97.10454742814446,-1.9365234375,4761.76025390625,True
1599388240.148312,0.0,10,0.5,0.5,-17.4674553604126,-0.2,-0.0155,-0.001,1.8305127146702176,10,1,100,0.11825739286029932,-10,-1,-100,19086.92448959942,-0.016616855159201197,0.11297013016119835,0.9934594253496115,70.4953063195218,4.36647666542433,389.7448813179525,-97.4684559599099,-12.33343505859375,4761.76025390625,True
1599388240.1912556,0.0,10,0.5,0.5,-12.98163320465088,-0.2,-0.0155,-0.001,2.561722996127509,10,1,100,-0.10375463222945519,-10,-1,-100,19079.09060629725,-0.014024149254439747,0.12517222751588053,0.9920359049431637,64.82655651317066,4.025477901076155,361.29560383665444,-98.1966479255824,-34.00128173828125,4761.76025390625,True
1599388240.2291548,0.0,10,0.5,0.5,-12.853352883911134,-0.2,-0.0155,-0.001,1.3471927792815497,10,1,100,0.1557869766834009,-10,-1,-100,19079.09060629725,-0.014024149254439747,0.12517222751588053,0.9920359049431637,64.82655651317066,4.025477901076155,361.29560383665444,-98.1966479255824,-34.00128173828125,4761.76025390625,True
1599388240.2690482,0.0,10,0.5,0.5,-10.43748671722412,-0.2,-0.0155,-0.001,1.9958528556002766,10,1,100,-0.05521666064418709,-10,-1,-100,19075.15181961737,-0.012103470565673392,0.13101750531312115,0.9913061682960479,68.80592195007496,4.280443177193756,385.0033246374863,-98.56063843410199,-45.274505615234375,4761.76025390625,True
1599388240.3069468,0.0,10,0.5,0.5,-5.598370937347412,-0.2,-0.0155,-0.001,2.6054797157052914,10,1,100,-0.39322543099117035,-10,-1,-100,19067.23059858603,-0.0072866760882103485,0.14182529173001684,0.9898648852127654,75.1089678818216,4.69053206934912,423.5916274097225,-99.28793422362841,-68.7042236328125,4761.76025390625,True
1599388240.3438506,0.0,10,0.5,0.5,-4.230028480529786,-0.2,-0.0155,-0.001,1.8028801694144123,10,1,100,-0.059188164270896224,-10,-1,-100,19065.241205374594,-0.005950937407523077,0.14429620248262096,0.9895166457887741,76.10871459409327,4.756963511601656,430.06882201154326,-99.469660070828,-74.7462158203125,4761.76025390625,True
1599388240.3882782,0.0,10,0.5,0.5,-4.063249256896973,-0.2,-0.0155,-0.001,1.561896934130563,10,1,100,0.07341967683837776,-10,-1,-100,19065.241205374594,-0.005950937407523077,0.14429620248262096,0.9895166457887741,76.10871459409327,4.756963511601656,430.06882201154326,-99.469660070828,-74.7462158203125,4761.76025390625,True
1599388240.4281716,0.0,10,0.5,0.5,1.0866120697021484,-0.2,-0.0155,-0.001,2.551495564955064,10,1,100,-0.5455981162812329,-10,-1,-100,19057.24728905433,-0.0003337249533439044,0.15324740028976305,0.9881877974009214,76.4901262452742,4.793951376504136,435.6091362572929,-100.19654654515179,-99.6523208618164,4761.76025390625,True
1599388240.4660695,0.0,10,0.5,0.5,2.5175102230072026,-0.2,-0.0155,-0.001,1.8795044192325805,10,1,100,-0.14565436747954344,-10,-1,-100,19055.23972241499,0.0011214448667893355,0.15522803031837396,0.9878780293967918,75.58813412368478,4.7404131785704395,431.31411932424436,-100.37832577809863,-106.06366729736328,4761.76025390625,True
1599388240.8637211,0.0,10,0.5,0.5,3.976030144500733,-0.2,-0.0155,-0.001,1.8933979617956496,10,1,100,-0.15943324137495202,-10,-1,-100,19053.228519387892,0.002552896910659648,0.15711088886029798,0.987577668499491,74.26118495774446,4.660328164559195,424.5715957384038,-100.56014718599941,-112.54891204833984,4761.76025390625,True
1599388240.8986287,0.0,10,0.5,0.5,6.73158187828064,-0.2,-0.0155,-0.001,2.111948236161909,10,1,100,-0.2981124880530295,-10,-1,-100,19049.195200147456,0.005096943954093498,0.16076366828658845,0.986979768851099,70.35768640538153,4.42239906556202,403.8287846388125,-100.92393425901714,-125.43740844726562,4761.76025390625,True
1599388240.9335606,0.0,10,0.5,0.5,9.43473949546814,-0.2,-0.0155,-0.001,2.1108617607802413,10,1,100,-0.32405545420080406,-10,-1,-100,19045.147324448335,0.007625819323001045,0.1640310511359961,0.9864256997579052,67.02789669418192,4.221662338019379,386.2140595856185,-101.28786794470523,-138.077880859375,4761.76025390625,True
1599388240.9863935,0.0,10,0.5,0.5,12.06592846336365,-0.2,-0.0155,-0.001,2.1277412095286055,10,1,100,-0.31579760922926453,-10,-1,-100,19041.084898279514,0.009830043823559873,0.16711952251169715,0.9858876383411495,71.86949810328812,4.53703415267912,415.7071012376304,-101.6515558156013,-150.42868041992188,4761.76025390625,True
1599388241.0392532,0.0,10,0.5,0.5,14.65677162284851,-0.2,-0.0155,-0.001,2.1548111563269625,10,1,100,-0.30617505920908616,-10,-1,-100,19037.007932759705,0.011724720921086278,0.17013518028323243,0.9853509787630572,75.61462755002688,4.784166923844108,439.04073792072006,-102.01497778981118,-162.48207092285156,4761.76025390625,True
1599388241.0761533,0.0,10,0.5,0.5,-52.86871152763367,-0.2,-0.0155,-0.001,2.518870682412917,10,1,100,-0.43708566013706895,-10,-1,-100,19028.81041055778,0.014615589025922162,0.17615075788089127,0.9842546901363554,79.65758723773034,5.058671858406269,466.0386477768672,-102.74141746191941,174.30947875976562,4761.76025390625,True
1599388241.1120996,0.0,10,0.5,0.5,-52.90859121665955,-0.2,-0.0155,-0.001,1.9207454692621209,10,1,100,-0.1501890761648938,-10,-1,-100,19028.81041055778,0.014615589025922162,0.17615075788089127,0.9842546901363554,79.65758723773034,5.058671858406269,466.0386477768672,-102.74141746191941,174.30947875976562,4761.76025390625,True
1599388241.1499555,0.0,10,0.5,0.5,-49.93738529472351,-0.2,-0.0155,-0.001,2.4593601504723623,10,1,100,-0.30912406794986247,-10,-1,-100,19022.624130877783,0.016041755745391472,0.18101829629607685,0.983348889498875,78.96834847185029,5.027015733004991,464.65060548624217,-103.28630061959352,157.60678100585938,4761.76025390625,True
1599388241.1898777,0.0,10,0.5,0.5,-48.05071554527283,-0.2,-0.0155,-0.001,2.356295165053888,10,1,100,-0.2372296986199558,-10,-1,-100,19018.481776767643,0.016664692411770862,0.18447299308442902,0.9826962922741153,76.82250378153194,4.899324421159792,453.75203022910154,-103.64970891429626,146.34548950195312,4761.76025390625,True
1599388241.2277477,0.0,10,0.5,0.5,-46.12630495223999,-0.2,-0.0155,-0.001,2.433150245621323,10,1,100,-0.231689912352799,-10,-1,-100,19014.324881438864,0.017165183672082415,0.18828392217645798,0.9819646231506273,73.24409210261902,4.681485860878211,434.26650005431986,-104.01327519888449,134.8182830810547,4761.76025390625,True
1599388241.2646503,0.0,10,0.5,0.5,-46.511199181747436,-0.2,-0.0155,-0.001,2.0553629256042356,10,1,100,-0.1832451602021731,-10,-1,-100,19014.324881438864,0.017165183672082415,0.18828392217645798,0.9819646231506273,73.24409210261902,4.681485860878211,434.26650005431986,-104.01327519888449,134.8182830810547,4761.76025390625,True
1599388241.3165107,0.0,10,0.5,0.5,-44.520848696136476,-0.2,-0.0155,-0.001,2.508786272422479,10,1,100,-0.22567060966340521,-10,-1,-100,19010.15344087314,0.017537585679219595,0.19237761348088186,0.9811642507347812,72.25690017947073,4.630758011179759,430.0348780390247,-104.37690566192319,123.00848388671875,4761.76025390625,True
1599388241.3554065,0.0,10,0.5,0.5,-42.48694574966431,-0.2,-0.0155,-0.001,2.59163038016797,10,1,100,-0.22842627375626695,-10,-1,-100,19005.96746452828,0.017889874775892933,0.19682353933241323,0.9802756993546075,77.39724658421959,4.974572056486791,462.351724923422,-104.74020962548697,110.91493225097656,4761.76025390625,True
1599388241.3923075,0.0,10,0.5,0.5,-40.39710937194824,-0.2,-0.0155,-0.001,2.677952701458485,10,1,100,-0.23729060620478754,-10,-1,-100,19001.766965146875,0.01828139147198898,0.20162022712899513,0.979293150562333,81.68222984273632,5.264566629303725,489.7596591847458,-105.10321865314242,98.5374755859375,4761.76025390625,True
1599388241.4292083,0.0,10,0.5,0.5,-38.25051507720947,-0.2,-0.0155,-0.001,2.7676576324987785,10,1,100,-0.2598845909729519,-10,-1,-100,18997.551951171597,0.018835032559379218,0.2067649874947838,0.9782093239663834,84.76301125849977,5.476572131734374,510.11104701169063,-105.4660422531371,85.87643432617188,4761.76025390625,True
1599388241.468106,0.0,10,0.5,0.5,-36.04623133468628,-0.2,-0.0155,-0.001,2.8575794946980806,10,1,100,-0.29058036829273687,-10,-1,-100,18993.32242569048,0.019610931240242668,0.21222621402257486,0.9770237691364192,85.95789149910415,5.565888447041487,519.2195761329509,-105.82883135267731,72.93165588378906,4761.76025390625,True
1599388241.5040092,0.0,10,0.5,0.5,-33.243047506713864,-0.2,-0.0155,-0.001,2.945707083829384,10,1,100,-0.3333244120902537,-10,-1,-100,18989.07838578848,0.020700334673537484,0.21795932944344976,0.975738298342832,85.0198608285769,5.517065723402308,515.4682514340634,-106.19172102402518,59.70283508300781,4761.76025390625,True
1599388241.5429046,0.0,10,0.5,0.5,-31.727694959259036,-0.2,-0.0155,-0.001,2.700717313961277,10,1,100,-0.3006954723731369,-10,-1,-100,18986.95092100522,0.021388543119424785,0.22090606503493274,0.975060531789699,83.69660053158752,5.437659062301578,508.3938696087992,-106.37323360132675,52.98173522949219,4761.76025390625,True
1599388241.5833914,0.0,10,0.5,0.5,-28.82735632324219,-0.2,-0.0155,-0.001,3.0706017084381183,10,1,100,-0.41898895260891766,-10,-1,-100,18982.685096448055,0.023084721720216674,0.22691123936903504,0.9736418155929358,79.29110150530973,5.165821894007138,483.4345523327178,-106.73642243818067,39.3255615234375,4761.76025390625,True
1599388241.6222875,0.0,10,0.5,0.5,-24.449800981140136,-0.2,-0.0155,-0.001,3.4753700708643915,10,1,100,-0.6277272230121458,-10,-1,-100,18976.25911597954,0.02651848651614006,0.2360116209254718,0.9713883284562486,80.63941051752724,5.281046413436536,494.3763159231317,-107.28120961614756,18.30401611328125,4761.76025390625,True
1599388241.660186,0.0,10,0.5,0.5,-22.85287421646118,-0.2,-0.0155,-0.001,2.9019551162893173,10,1,100,-0.4381845934074921,-10,-1,-100,18974.109864123515,0.02790847305889714,0.2390284430272327,0.9706114158382322,83.99317559314564,5.51053534192473,515.8716925090603,-107.46258426636051,11.15301513671875,4761.76025390625,True
1599388241.6990821,0.0,10,0.5,0.5,-19.749856930541995,-0.2,-0.0155,-0.001,3.2508106204063267,10,1,100,-0.6464109715899097,-10,-1,-100,18969.800485233893,0.031055297636346634,0.24489629086548745,0.9690517918094184,89.55054024664585,5.894679972305793,551.9907098265581,-107.8250753053134,-3.3668212890625,4761.76025390625,True
1599388241.7369802,0.0,10,0.5,0.5,-16.59131749267578,-0.2,-0.0155,-0.001,3.2792612576140887,10,1,100,-0.725205422626308,-10,-1,-100,18965.476612282335,0.03462007161439786,0.25044159589543996,0.9675125103515506,92.83432116297948,6.128674611944875,574.3016627322379,-108.18739704897622,-18.17864990234375,4761.76025390625,True
1599388241.7768736,0.0,10,0.5,0.5,-13.37041164932251,-0.2,-0.0155,-0.001,3.3096425158839926,10,1,100,-0.8075157529707329,-10,-1,-100,18961.138245412847,0.038593841691358745,0.25571023185552044,0.9659828118076937,93.05906354121191,6.160753461416411,577.7926528732169,-108.54977283682264,-33.28125,4761.76025390625,True
1599388241.816767,0.0,10,0.5,0.5,-10.086238101959228,-0.2,-0.0155,-0.001,3.3107303390935554,10,1,100,-0.8732107389712758,-10,-1,-100,18956.7853776447,0.042785121224765056,0.2604606174804746,0.9645360025128519,89.95018915653273,5.97401013997773,560.5428880611356,-108.91235165014363,-48.679046630859375,4761.76025390625,True
1599388241.8546653,0.0,10,0.5,0.5,-6.738973432159424,-0.2,-0.0155,-0.001,3.3127964921743396,10,1,100,-0.9315488176286914,-10,-1,-100,18952.41799890634,0.047103948707778766,0.264749118867544,0.9631661964972578,83.43451039648114,5.5630824636329,521.8410604979817,-109.27518616732948,-64.37109375,4761.76025390625,True
1599388241.8937132,0.0,10,0.5,0.5,-0.05592193145751962,-0.2,-0.0155,-0.001,3.6801455725128465,10,1,100,-1.4310677140478625,-10,-1,-100,18943.63972765801,0.055546242734813206,0.27193954549082533,0.9607098930042766,93.14563666857445,6.263781673161556,586.7249485882257,-110.00003829576214,-96.63937377929688,4761.76025390625,True
1599388241.934604,0.0,10,0.5,0.5,0.15414021224975594,-0.2,-0.0155,-0.001,2.9665009317894495,10,1,100,-0.5903229021505461,-10,-1,-100,18943.63972765801,0.055546242734813206,0.27193954549082533,0.9607098930042766,93.14563666857445,6.263781673161556,586.7249485882257,-110.00003829576214,-96.63937377929688,4761.76025390625,True
1599388241.9725027,0.0,10,0.5,0.5,3.717478567504883,-0.2,-0.0155,-0.001,3.3061671423828756,10,1,100,-1.019596036814228,-10,-1,-100,18939.228868319537,0.05941767332301451,0.274981026059442,0.9596118879026957,97.18507099862897,6.558312950715364,614.3220588451347,-110.36195353254794,-113.21363067626953,4761.76025390625,True
1599388242.0109134,0.0,10,0.5,0.5,8.980427788925171,-0.2,-0.0155,-0.001,3.4620951880975457,10,1,100,-1.2068886258033131,-10,-1,-100,18932.58542965981,0.06460678561982301,0.2791198362767811,0.9580804142913564,95.24405341550032,6.459217620768695,605.2783805601945,-110.90505199585914,-138.30361938476562,4761.76025390625,True
1599388242.050649,0.0,10,0.5,0.5,10.878123855209353,-0.2,-0.0155,-0.001,3.1945926856914726,10,1,100,-0.8633738452560975,-10,-1,-100,18930.363704709802,0.06616667306730725,0.28041136080216933,0.9575967001343937,92.39768152267419,6.278087423539947,588.244469042474,-111.0862381014796,-146.66204833984375,4761.76025390625,True
1599388242.0859528,0.0,10,0.5,0.5,14.44088031578064,-0.2,-0.0155,-0.001,3.375867253712535,10,1,100,-1.015822796635969,-10,-1,-100,18925.909377008444,0.0689358719411932,0.28319580379110015,0.9565814038934796,83.67683768715979,5.710321274451379,534.622586405243,-111.44886678171852,-163.21180725097656,4761.76025390625,True
1599388242.1248472,0.0,10,0.5,0.5,16.31431205635071,-0.2,-0.0155,-0.001,3.258209795538236,10,1,100,-0.8843895614550914,-10,-1,-100,18923.676774917287,0.0702240409846226,0.2846226846040658,0.9560640728929022,85.90946347339326,5.8762981448120994,549.8460340875615,-111.63009979049355,-171.38206481933594,4761.76025390625,True
1599388242.164772,0.0,10,0.5,0.5,-52.57732587623596,-0.2,-0.0155,-0.001,3.449134260174874,10,1,100,-1.0200985038983625,-10,-1,-100,18919.200709766825,0.07259645416506975,0.28762445221372346,0.9549879210395358,94.41829739383871,6.486691036296506,606.3884547169174,-111.99209323682902,172.503173828125,4761.76025390625,True
1599388242.2032576,0.0,10,0.5,0.5,-49.37538827552796,-0.2,-0.0155,-0.001,3.522698396373724,10,1,100,-1.0274123011412768,-10,-1,-100,18914.710176039138,0.0747887710199812,0.2909930838058034,0.9537974968023922,100.20121494852512,6.910139501407708,645.7419203727962,-112.35373636878745,156.69711303710938,4761.76025390625,True
1599388242.2421534,0.0,10,0.5,0.5,-45.043159769058235,-0.2,-0.0155,-0.001,3.819744020213803,10,1,100,-1.162884055861304,-10,-1,-100,18907.94725280034,0.07798425352208711,0.2967281341368538,0.9517724888933616,101.25433486523566,7.020671275802568,655.955796774696,-112.89624806309916,133.48135375976562,4761.76025390625,True
1599388242.2830396,0.0,10,0.5,0.5,-40.653288582229614,-0.2,-0.0155,-0.001,3.980169284141387,10,1,100,-1.2375042316680847,-10,-1,-100,18901.15175776626,0.08153952984514112,0.30337115591417824,0.9493772942470917,93.07561199868184,6.497696190994479,606.1688415837677,-113.43931689402305,109.99996948242188,4761.76025390625,True
1599388242.322945,0.0,10,0.5,0.5,-40.99706094856263,-0.2,-0.0155,-0.001,3.3190102674512767,10,1,100,-0.8845759280737165,-10,-1,-100,18901.15175776626,0.08153952984514112,0.30337115591417824,0.9493772942470917,93.07561199868184,6.497696190994479,606.1688415837677,-113.43931689402305,109.99996948242188,4761.76025390625,True
1599388242.3628342,0.0,10,0.5,0.5,-38.10405090522766,-0.2,-0.0155,-0.001,3.8558523694016915,10,1,100,-1.193598439573059,-10,-1,-100,18896.603318563313,0.08432519514321667,0.30822296446788805,0.9475694516174977,92.33568642698673,6.480439979388068,603.4195728066449,-113.801468330212,94.01339721679688,4761.76025390625,True
1599388242.403713,0.0,10,0.5,0.5,-35.172051168823245,-0.2,-0.0155,-0.001,3.9334637409971274,10,1,100,-1.2765741031010358,-10,-1,-100,18892.04041461926,0.08758929915370313,0.31330903749630235,0.9456032792333706,101.28878173302842,7.144535375685582,664.1514615732267,-114.16292872098808,77.748779296875,4761.76025390625,True
1599388242.4445834,0.0,10,0.5,0.5,-28.815048963928223,-0.2,-0.0155,-0.001,4.569999640265855,10,1,100,-1.8556230266647682,-10,-1,-100,18882.871270164498,0.0957998543651485,0.3236883491507406,0.9413013547890412,108.58558677474504,7.723795575022861,716.8228930180472,-114.88514028883799,44.374908447265625,4761.76025390625,True
1599388242.4855049,0.0,10,0.5,0.5,-25.704509091186527,-0.2,-0.0155,-0.001,4.0839901661600075,10,1,100,-1.5894313416777763,-10,-1,-100,18878.265022755833,0.1008171318017645,0.3286664763553144,0.9390496543077194,104.44394918026195,7.463766521457133,691.8726534649888,-115.24655710973225,27.2603759765625,4761.76025390625,True
1599388242.525406,0.0,10,0.5,0.5,-22.51880039291382,-0.2,-0.0155,-0.001,4.10130463405766,10,1,100,-1.705401284260998,-10,-1,-100,18873.64430771733,0.10640358234957147,0.3333081138198472,0.9367945233214346,94.92235830795339,6.8211524134194885,630.9585809758007,-115.60834557846255,9.85711669921875,4761.76025390625,True
1599388242.5642936,0.0,10,0.5,0.5,-19.260415643310548,-0.2,-0.0155,-0.001,4.10101985047293,10,1,100,-1.8183708771767095,-10,-1,-100,18869.009127407102,0.11247627956375249,0.33748093581936517,0.9345885214863182,100.98493580797532,7.298666330162835,673.4803180374194,-115.96980682330724,-7.83795166015625,4761.76025390625,True
1599388242.6021621,0.0,10,0.5,0.5,-18.998581967163087,-0.2,-0.0155,-0.001,3.688723298881699,10,1,100,-1.2150891382984756,-10,-1,-100,18869.009127407102,0.11247627956375249,0.33748093581936517,0.9345885214863182,100.98493580797532,7.298666330162835,673.4803180374194,-115.96980682330724,-7.83795166015625,4761.76025390625,True
1599388242.6420796,0.0,10,0.5,0.5,-15.12764432220459,-0.2,-0.0155,-0.001,4.089950351256094,10,1,100,-1.926553033018304,-10,-1,-100,18864.3595112412,0.11890987178071113,0.34108619279366553,0.932480912125614,110.64072629686788,8.036781513622522,740.2777597527111,-116.33055895381924,-25.827545166015625,4761.76025390625,True
1599388242.68197,0.0,10,0.5,0.5,-7.488118269348146,-0.2,-0.0155,-0.001,4.321412010891075,10,1,100,-2.7528923909515615,-10,-1,-100,18855.017004847177,0.13223356285164986,0.3464275705318413,0.9287099779968798,113.21582025220509,8.30229444150487,762.5857725301044,-117.05189311278035,-62.696136474609375,4761.76025390625,True
1599388242.7208738,0.0,10,0.5,0.5,-7.25730789642334,-0.2,-0.0155,-0.001,3.791579878535264,10,1,100,-1.4255926871583398,-10,-1,-100,18855.017004847177,0.13223356285164986,0.3464275705318413,0.9287099779968798,113.21582025220509,8.30229444150487,762.5857725301044,-117.05189311278035,-62.696136474609375,4761.76025390625,True
1599388242.759738,0.0,10,0.5,0.5,-3.1949013015747076,-0.2,-0.0155,-0.001,3.991533727013037,10,1,100,-2.1526451325307567,-10,-1,-100,18850.324094996322,0.13879704505230228,0.3482061905956232,0.9270856643890217,104.27366953602343,7.693088502474617,704.7283262107449,-117.41305692318727,-81.57537841796875,4761.76025390625,True
1599388242.7986674,0.0,10,0.5,0.5,0.9124472595214845,-0.2,-0.0155,-0.001,3.959682529708279,10,1,100,-2.1956452881596817,-10,-1,-100,18845.61673480028,0.14510523769505917,0.349497213199811,0.9256328472774864,103.86771895032341,7.712119073443794,704.2584970908281,-117.7742237609306,-100.74983215332031,4761.76025390625,True
1599388242.8385608,0.0,10,0.5,0.5,5.082911374664307,-0.2,-0.0155,-0.001,3.9365739426201745,10,1,100,-2.2251064220703123,-10,-1,-100,18840.894955092343,0.15105549955262448,0.350427893706723,0.924328149180353,114.51576357142899,8.548737541063268,778.9008608009832,-118.13453400497326,-120.21732330322266,4761.76025390625,True
1599388242.8814144,0.0,10,0.5,0.5,9.289690466690065,-0.2,-0.0155,-0.001,3.9256453962439277,10,1,100,-2.24468950574152,-10,-1,-100,18836.158770443406,0.15659262414270622,0.35115030779635353,0.9231317410850021,118.99705172929701,8.924724987999744,811.9759916009846,-118.49464928646597,-139.97418212890625,4761.76025390625,True
1599388242.9213052,0.0,10,0.5,0.5,13.499805009841918,-0.2,-0.0155,-0.001,3.929984563611965,10,1,100,-2.260178102524433,-10,-1,-100,18831.408172051306,0.16171647420231525,0.3518260550071443,0.9219903518962016,115.21858569718323,8.6858426942102,788.7891564036903,-118.85509880718517,-159.72869873046875,4761.76025390625,True
1599388242.9602406,0.0,10,0.5,0.5,17.66314459114075,-0.2,-0.0155,-0.001,3.9492909166098746,10,1,100,-2.2773741704289745,-10,-1,-100,18826.64314043033,0.16648056315395315,0.3525990484613103,0.9208464221118098,103.57434322003,7.856347505734102,711.4001480384574,-119.21605379494075,-179.23236083984375,4761.76025390625,True
1599388243.0001273,0.0,10,0.5,0.5,-48.68479853630066,-0.2,-0.0155,-0.001,4.047943696932821,10,1,100,-2.544282692776961,-10,-1,-100,18819.468535917113,0.17318889941897822,0.3541848695019953,0.9189987395714412,113.55969556235277,8.689015188457129,783.6266768308676,-119.75683751547261,152.08157348632812,4761.76025390625,True
1599388243.0380316,0.0,10,0.5,0.5,-44.836072527694704,-0.2,-0.0155,-0.001,4.048604582626918,10,1,100,-2.361896564193604,-10,-1,-100,18814.667467509047,0.17757413792746574,0.3556173476510347,0.9176076109040076,121.52707575248027,9.342805765851999,841.21811256403,-120.11665521961733,133.3488006591797,4761.76025390625,True
1599388243.0809228,0.0,10,0.5,0.5,-43.24264361152649,-0.2,-0.0155,-0.001,3.998476289996143,10,1,100,-2.1739500683465107,-10,-1,-100,18812.261535547907,0.17979878273098376,0.3564506786218295,0.9168507574510115,122.62595787236516,9.450171337651621,850.1798577442092,-120.29658852517292,124.10061645507812,4761.76025390625,True
1599388243.4389129,0.0,10,0.5,0.5,-39.81078137702942,-0.2,-0.0155,-0.001,4.1219899766573125,10,1,100,-2.4637688189080773,-10,-1,-100,18807.4388691216,0.18441266190303318,0.35832199201211723,0.9152034310306675,119.04888268940975,9.226410540277335,828.0629658271592,-120.6567107839244,105.54019165039062,4761.76025390625,True
1599388243.473858,0.0,10,0.5,0.5,-38.20839834785462,-0.2,-0.0155,-0.001,4.048127840044684,10,1,100,-2.274272446053128,-10,-1,-100,18805.022130590747,0.18683696767071367,0.35934089892364557,0.9143117990447017,114.4151602270073,8.896460895002997,797.1200932422752,-120.8369269050416,96.17845153808594,4761.76025390625,True
1599388243.5087593,0.0,10,0.5,0.5,-32.76779033470154,-0.2,-0.0155,-0.001,4.2999890234003075,10,1,100,-2.9083311664660165,-10,-1,-100,18797.75028609077,0.19476137953361455,0.36254670259342425,0.9113878940828644,113.40698356087046,8.905708121438348,793.7478732081065,-121.37745599943035,67.69343566894531,4761.76025390625,True
1599388243.5436335,0.0,10,0.5,0.5,-31.12100455131531,-0.2,-0.0155,-0.001,4.096821577666174,10,1,100,-2.4388548729403947,-10,-1,-100,18795.31914179912,0.19765228206616556,0.3636022296143731,0.9103444370201279,119.38667434010627,9.401054927075192,836.840703961152,-121.55721309331538,58.059814453125,4761.76025390625,True
1599388243.5835676,0.0,10,0.5,0.5,-27.491546868133547,-0.2,-0.0155,-0.001,4.209006604420724,10,1,100,-2.8343767201693235,-10,-1,-100,18790.446074712207,0.20383366772282624,0.3655696868439974,0.9081908609777143,127.24073851317881,10.068763790822073,894.5881638920055,-121.91648443845705,38.580108642578125,4761.76025390625,True
1599388243.6334171,0.0,10,0.5,0.5,-23.814662006378175,-0.2,-0.0155,-0.001,4.193839661786351,10,1,100,-2.9569627988029983,-10,-1,-100,18785.558631985565,0.21052458172229652,0.3672072945023909,0.9060012159787019,126.31834412570034,10.049038392639726,890.8907854499396,-122.275960912248,18.813323974609375,4761.76025390625,True
1599388243.669305,0.0,10,0.5,0.5,-20.079434520721435,-0.2,-0.0155,-0.001,4.1589659377160615,10,1,100,-3.0765195206825604,-10,-1,-100,18780.65679554711,0.2176497390957019,0.368365011937114,0.9038450138448199,116.24637564505842,9.308673547559719,822.4457429605828,-122.6359325022789,-1.24505615234375,4761.76025390625,True
1599388243.7072031,0.0,10,0.5,0.5,-20.375373223114014,-0.2,-0.0155,-0.001,4.044770790591333,10,1,100,-2.369120700936197,-10,-1,-100,18780.65679554711,0.2176497390957019,0.368365011937114,0.9038450138448199,116.24637564505842,9.308673547559719,822.4457429605828,-122.6359325022789,-1.24505615234375,4761.76025390625,True
1599388243.7451022,0.0,10,0.5,0.5,-16.046470151519777,-0.2,-0.0155,-0.001,4.107869338160513,10,1,100,-3.1916256298784127,-10,-1,-100,18775.74055179546,0.22508663768637957,0.36892574405825646,0.9017925487084612,112.13881983765367,9.040026850004148,795.758971684942,-122.99605768809258,-21.599517822265625,4761.76025390625,True
1599388243.7870214,0.0,10,0.5,0.5,-7.463109004211426,-0.2,-0.0155,-0.001,3.958262543026417,10,1,100,-4.11718886279539,-10,-1,-100,18765.8649624018,0.24021847261373278,0.3680633402158876,0.8982340802954702,133.06596278702898,10.838687625398556,949.8210390598794,-123.71400824356793,-63.209197998046875,4761.76025390625,True
1599388243.8248897,0.0,10,0.5,0.5,-7.214388471984863,-0.2,-0.0155,-0.001,4.045664193422708,10,1,100,-2.6100473390483443,-10,-1,-100,18765.8649624018,0.24021847261373278,0.3680633402158876,0.8982340802954702,133.06596278702898,10.838687625398556,949.8210390598794,-123.71400824356793,-63.209197998046875,4761.76025390625,True
1599388243.8593907,0.0,10,0.5,0.5,-2.6803255752563473,-0.2,-0.0155,-0.001,3.8968514283797226,10,1,100,-3.4226535709668773,-10,-1,-100,18760.905628474895,0.2475550694396188,0.36670164112622067,0.8967978557010949,128.87073409156065,10.561926708992731,922.7195453051246,-124.07316370957045,-84.46542358398438,4761.76025390625,True
1599388243.8952909,0.0,10,0.5,0.5,-0.2628135536193846,-0.2,-0.0155,-0.001,3.937854536117883,10,1,100,-3.0846641789584286,-10,-1,-100,18758.420569721726,0.2510968738069212,0.36582979680395894,0.8961690240879592,122.71214357294745,10.093580267773605,879.9660573269445,-124.25293082885939,-95.20557403564453,4761.76025390625,True
1599388243.9352183,0.0,10,0.5,0.5,4.341123736190797,-0.2,-0.0155,-0.001,3.8013924120742693,10,1,100,-3.4802113024111208,-10,-1,-100,18753.439662374556,0.2578613648137903,0.36379366166131494,0.8950763589054412,116.63710021517807,9.660423816367748,838.8194592950646,-124.61252048119113,-116.9079818725586,4761.76025390625,True
1599388243.9720855,0.0,10,0.5,0.5,9.011580160522461,-0.2,-0.0155,-0.001,3.7533703364619257,10,1,100,-3.501004362428615,-10,-1,-100,18748.44440170494,0.2641451943813325,0.3615058913605746,0.894170457349629,130.97720758441253,10.904832484700194,944.569897525404,-124.97112643520714,-138.90280151367188,4761.76025390625,True
1599388244.0139766,0.0,10,0.5,0.5,13.720966963195801,-0.2,-0.0155,-0.001,3.7216454877005916,10,1,100,-3.516354813744681,-10,-1,-100,18743.434803556884,0.2699424876122819,0.3591413868216016,0.8933915813648291,135.6979544988853,11.352398604529958,981.456439286824,-125.32958268408106,-161.0733642578125,4761.76025390625,True
1599388244.05287,0.0,10,0.5,0.5,-53.94802222290039,-0.2,-0.0155,-0.001,3.706013188091574,10,1,100,-3.533435992355317,-10,-1,-100,18738.410852823406,0.27531402134970534,0.35685705806943585,0.892667479946638,128.04953952489194,10.778350158476071,928.9217454134749,-125.68853604238144,176.8651580810547,4761.76025390625,True
1599388244.090805,0.0,10,0.5,0.5,-49.50827356643677,-0.2,-0.0155,-0.001,3.703350316797358,10,1,100,-3.558910316188365,-10,-1,-100,18733.372525432264,0.28037639652561436,0.3547666494228538,0.8919247169624762,111.41900245989294,9.441872234275522,810.6050463733565,-126.0481032168112,155.08465576171875,4761.76025390625,True
1599388244.129698,0.0,10,0.5,0.5,-41.14469407119751,-0.2,-0.0155,-0.001,3.5346996108404127,10,1,100,-4.139192733797981,-10,-1,-100,18723.252822030452,0.2901968262479555,0.35134545183772903,0.8901360432588695,137.82058173491654,11.793323190747744,1008.2371180764629,-126.76495719472474,112.16091918945312,4761.76025390625,True
1599388244.1695986,0.0,10,0.5,0.5,-41.39494648513794,-0.2,-0.0155,-0.001,3.875061340130837,10,1,100,-3.163660780420024,-10,-1,-100,18723.252822030452,0.2901968262479555,0.35134545183772903,0.8901360432588695,137.82058173491654,11.793323190747744,1008.2371180764629,-126.76495719472474,112.16091918945312,4761.76025390625,True
1599388244.2094526,0.0,10,0.5,0.5,-37.30926339187623,-0.2,-0.0155,-0.001,3.7195148582155335,10,1,100,-3.728233578225476,-10,-1,-100,18718.171471718815,0.2952838713610649,0.34994659099157005,0.8890133962811814,135.24654054864482,11.640383455785793,992.3104791778419,-127.12338965624147,90.48178100585938,4761.76025390625,True
1599388244.246355,0.0,10,0.5,0.5,-30.931581424713137,-0.2,-0.0155,-0.001,3.6332012843428285,10,1,100,-4.130015376420314,-10,-1,-100,18710.52253260184,0.3035109601758925,0.3479067002318776,0.8870411630735489,119.5054069640026,10.390907486892715,880.5064539464032,-127.66179945444662,57.458984375,4761.76025390625,True
1599388244.2873778,0.0,10,0.5,0.5,-26.688871309661863,-0.2,-0.0155,-0.001,3.6621254194654815,10,1,100,-3.969341081065684,-10,-1,-100,18705.4053184737,0.3094785874218426,0.3463322870795398,0.88559412309118,135.81203239055745,11.865672562463685,1003.2780074862526,-128.01980262108887,35.09223937988281,4761.76025390625,True
1599388244.327271,0.0,10,0.5,0.5,-22.359259678268433,-0.2,-0.0155,-0.001,3.6031286943981446,10,1,100,-4.074525396799848,-10,-1,-100,18700.27379377163,0.3158068498670033,0.3443823935401882,0.8841192230670086,141.95106017847434,12.458102889965271,1051.518549351916,-128.37756308874972,12.435821533203125,4761.76025390625,True
1599388244.3671649,0.0,10,0.5,0.5,-17.968961949157716,-0.2,-0.0155,-0.001,3.5239910621152806,10,1,100,-4.172442888659672,-10,-1,-100,18695.12794600916,0.32239729702946307,0.3419079766364981,0.8826997894983505,134.47435543357665,11.873776567210037,998.9826323710892,-128.73578609282592,-10.5166015625,4761.76025390625,True
1599388244.407058,0.0,10,0.5,0.5,-18.190912982177736,-0.2,-0.0155,-0.001,3.769472961011883,10,1,100,-3.5192233826785086,-10,-1,-100,18695.12794600916,0.32239729702946307,0.3419079766364981,0.8826997894983505,134.47435543357665,11.873776567210037,998.9826323710892,-128.73578609282592,-10.5166015625,4761.76025390625,True
1599388244.4459016,0.0,10,0.5,0.5,-11.39019606933594,-0.2,-0.0155,-0.001,3.2293042872131097,10,1,100,-4.628494977826724,-10,-1,-100,18687.382276726654,0.33243389806770396,0.3370130190657684,0.8808574960773663,128.33280183850536,11.434309643793519,957.1581756282214,-129.27367096912988,-45.51202392578125,4761.76025390625,True
1599388244.4847975,0.0,10,0.5,0.5,-3.9081842582702633,-0.2,-0.0155,-0.001,3.023645972012897,10,1,100,-4.690729027740287,-10,-1,-100,18679.604405670543,0.3420719177592117,0.3307114766260156,0.8795548432635543,145.37178191244723,13.03596843999839,1088.5469970500972,-129.80989904907509,-81.19522094726562,4761.76025390625,True
1599388244.5246894,0.0,10,0.5,0.5,-3.5776336463928224,-0.2,-0.0155,-0.001,3.651394698708497,10,1,100,-3.7330966107128725,-10,-1,-100,18679.604405670543,0.3420719177592117,0.3307114766260156,0.8795548432635543,145.37178191244723,13.03596843999839,1088.5469970500972,-129.80989904907509,-81.19522094726562,4761.76025390625,True
1599388244.5635858,0.0,10,0.5,0.5,1.579710475921631,-0.2,-0.0155,-0.001,3.11945976812064,10,1,100,-4.388699741337082,-10,-1,-100,18674.401277309633,0.34798478704533065,0.3258944626890457,0.8790332116442667,138.7255649553723,12.516832827264947,1041.6693764902184,-130.16768435025665,-105.36259460449219,4761.76025390625,True
1599388244.6084652,0.0,10,0.5,0.5,6.809929585266114,-0.2,-0.0155,-0.001,3.0351992888740087,10,1,100,-4.394246478498237,-10,-1,-100,18669.183820216334,0.35335801313345166,0.32077249201605706,0.8787736471470842,122.17313491531148,11.094539347708707,919.7656055678266,-130.5260271490191,-129.82640075683594,4761.76025390625,True
1599388244.6483607,0.0,10,0.5,0.5,12.10236513748169,-0.2,-0.0155,-0.001,2.968162425937906,10,1,100,-4.389913463699781,-10,-1,-100,18663.952055309783,0.3581505784046917,0.31553325092208057,0.8787302946586785,140.81204425814113,12.83988336097206,1062.6964621990794,-130.88341242331092,-154.57974243164062,4761.76025390625,True
