Timestamp,Input Throttle,horizon,dT,dt,Input Roll,Roll P,Roll I,Roll D,Input Pitch,Pitch P,Pitch I,Pitch D,Input Yaw,Yaw P,Yaw I,Yaw D,Altitude,Direction X,Direction Y,Direction Z,Drag X,Drag Y,Drag Z,Vertical Velocity,Roll,Mass,Has Fuel
1599387881.1282349,0.0,10,0.5,0.5,-11.215433593750001,-0.2,-0.001,-0.001,-0.00016877542825425966,10,1,100,0.4981553146401647,-10,-1,-100,19349.722302026115,-0.048846958812138186,-0.0001750682299243338,0.9988062594747392,61.076614847929214,3.6863028833308817,233.73185856370688,-68.66499555702661,-33.922821044921875,4761.76025390625,True
1599387881.1641362,0.0,10,0.5,0.5,-11.220313558959962,-0.2,-0.001,-0.001,0.0011397453752859232,10,1,100,0.5108045177349471,-10,-1,-100,19345.58050748089,-0.04900559730061411,-0.00014863246176504566,0.9987984928610981,61.34677643377302,3.704639177001026,236.70873600561293,-69.21235518559129,-33.92645263671875,4761.76025390625,True
1599387881.1990433,0.0,10,0.5,0.5,-11.195610153198244,-0.2,-0.001,-0.001,0.02174841089240457,10,1,100,0.49828316512396076,-10,-1,-100,19342.80106603261,-0.04899143308703724,6.28866798642631e-05,0.99879919680051,61.53096824050563,3.717127051646285,238.71955730361935,-69.57724442308965,-34.0772705078125,4761.76025390625,True
1599387881.2359447,0.0,10,0.5,0.5,-11.201353244018556,-0.2,-0.001,-0.001,0.0006027853974601194,10,1,100,0.5045987297903514,-10,-1,-100,19342.80106603261,-0.04899143308703724,6.28866798642631e-05,0.99879919680051,61.53096824050563,3.717127051646285,238.71955730361935,-69.57724442308965,-34.0772705078125,4761.76025390625,True
1599387881.2718494,0.0,10,0.5,0.5,-11.121989157104494,-0.2,-0.001,-0.001,0.02888478980038251,10,1,100,0.5050959026243904,-10,-1,-100,19340.00703008729,-0.0489514151736312,0.0003199386410909537,0.998801109626819,61.728178617333775,3.7304009579541084,240.78961556783437,-69.9421186466524,-34.49993896484375,4761.76025390625,True
1599387881.3087869,0.0,10,0.5,0.5,-11.063664895629884,-0.2,-0.001,-0.001,0.02220115269200534,10,1,100,0.5081486679024995,-10,-1,-100,19338.6045388832,-0.04889828637745067,0.0004925710515471609,0.9988036418451367,61.831704150609426,3.737328886116315,241.8472507235066,-70.12454969146087,-34.81982421875,4761.76025390625,True
1599387881.3456879,0.0,10,0.5,0.5,-10.896811361694336,-0.2,-0.001,-0.001,0.05578828190606201,10,1,100,0.4987839236364656,-10,-1,-100,19335.788611262804,-0.04872040044543401,0.0009543993529519125,0.9988120001793689,62.045869095400256,3.751587735610457,243.9974979257347,-70.4893987829025,-35.678985595703125,4761.76025390625,True
1599387881.3816288,0.0,10,0.5,0.5,-10.671450860595703,-0.2,-0.001,-0.001,0.07613417565416769,10,1,100,0.4895308083753619,-10,-1,-100,19332.958090169705,-0.0484302754590039,0.001558338297981782,0.9988253500991623,62.263727752943886,3.7660128428665436,246.1719471911699,-70.8542297411257,-36.83148193359375,4761.76025390625,True
1599387881.4180746,0.0,10,0.5,0.5,-10.037631420898439,-0.2,-0.001,-0.001,0.19481437290767142,10,1,100,0.42188382773559485,-10,-1,-100,19327.253270628164,-0.047507525396925,0.0031848679154971686,0.9988658026216641,62.67022468497033,3.792811188417694,250.43321522097938,-71.58383572460521,-40.016998291015625,4761.76025390625,True
1599387881.451984,0.0,10,0.5,0.5,-10.045815237426758,-0.2,-0.001,-0.001,0.032479897947682496,10,1,100,0.5189095864831772,-10,-1,-100,19327.253270628164,-0.047507525396925,0.0031848679154971686,0.9988658026216641,62.67022468497033,3.792811188417694,250.43321522097938,-71.58383572460521,-40.016998291015625,4761.76025390625,True
1599387881.4888842,0.0,10,0.5,0.5,-9.853855865478517,-0.2,-0.001,-0.001,0.0860549009509331,10,1,100,0.4895578988729011,-10,-1,-100,19325.817946004216,-0.04719750321374347,0.0036690180628762676,0.9988788384968633,62.75632772822333,3.798489713175741,251.44201822091875,-71.7662259475162,-40.99688720703125,4761.76025390625,True
1599387881.8435683,0.0,10,0.5,0.5,-9.415882345581053,-0.2,-0.001,-0.001,0.1512539804958391,10,1,100,0.4402960321713505,-10,-1,-100,19322.936353772995,-0.04646932921865379,0.004698378841544775,0.9989086678361688,62.89556721893338,3.8077243173864987,253.33267589219804,-72.13099411261689,-43.177215576171875,4761.76025390625,True
1599387881.8784401,0.0,10,0.5,0.5,-9.175953546142578,-0.2,-0.001,-0.001,0.11309722398527014,10,1,100,0.4680164002590351,-10,-1,-100,19321.490086251055,-0.046061661903989366,0.005282875389053419,0.9989246290537972,62.94389121091325,3.810980846041536,254.1944091094153,-72.3133727711068,-44.37713623046875,4761.76025390625,True
1599387881.921357,0.0,10,0.5,0.5,-8.920180944824219,-0.2,-0.001,-0.001,0.12209679232830553,10,1,100,0.45952862182626186,-10,-1,-100,19320.040171016473,-0.04561655706052654,0.005891304700171427,0.9989416510742125,62.974896492592826,3.813135797462591,254.98718097398074,-72.49574837362114,-45.650482177734375,4761.76025390625,True
1599387881.9622173,0.0,10,0.5,0.5,-7.748690493774415,-0.2,-0.001,-0.001,0.344664121562446,10,1,100,0.2643013977741296,-10,-1,-100,19314.20403646049,-0.04344019141692868,0.008462463050570614,0.9990201882288358,62.86970540613912,3.8072888928700337,257.2286943751429,-73.22523221981226,-51.4793701171875,4761.76025390625,True
1599387882.0071337,0.0,10,0.5,0.5,-7.078433560180664,-0.2,-0.001,-0.001,0.2420027506855575,10,1,100,0.33594913483122446,-10,-1,-100,19311.264084839146,-0.04211803046304668,0.009859192248044088,0.9990639958671966,62.63665790410985,3.7930647431741615,257.605216693947,-73.58997421040159,-54.83453369140625,4761.76025390625,True
1599387882.0609517,0.0,10,0.5,0.5,-6.3459483245849615,-0.2,-0.001,-0.001,0.2477378322608227,10,1,100,0.30627901871058616,-10,-1,-100,19308.309543009032,-0.04065250150016124,0.011172568058980115,0.9991108786539894,62.24822755066754,3.769193167704357,257.33058384447247,-73.95472676175282,-58.4854736328125,4761.76025390625,True
1599387882.1078255,0.0,10,0.5,0.5,-5.554458020019532,-0.2,-0.001,-0.001,0.2695788564264968,10,1,100,0.2731052631333246,-10,-1,-100,19305.340410630917,-0.03902595730042235,0.012555811589786242,0.9991593097460022,61.67513312817694,3.733938295008456,256.2734220100483,-74.31949941103436,-62.4300537109375,4761.76025390625,True
1599387882.1497507,0.0,10,0.5,0.5,-4.703629241943359,-0.2,-0.001,-0.001,0.27732462043354433,10,1,100,0.24040487839452043,-10,-1,-100,19302.356686405838,-0.03725855391045112,0.013873724042136059,0.9992093474050894,60.88899113087293,3.685649173856921,254.30359489435347,-74.68430272894481,-66.669921875,4761.76025390625,True
1599387882.1906378,0.0,10,0.5,0.5,-4.705203817749023,-0.2,-0.001,-0.001,0.14660226081122663,10,1,100,0.416120320242996,-10,-1,-100,19302.356686405838,-0.03725855391045112,0.013873724042136059,0.9992093474050894,60.88899113087293,3.685649173856921,254.30359489435347,-74.68430272894481,-66.669921875,4761.76025390625,True
1599387882.2285368,0.0,10,0.5,0.5,-3.7909721191406254,-0.2,-0.001,-0.001,0.2852666260451013,10,1,100,0.205917474302618,-10,-1,-100,19299.358368781395,-0.03535693619416266,0.01512459203869252,0.9992602933063162,59.861006298171105,3.6226829582478164,251.28674288065352,-75.04914757266012,-71.205078125,4761.76025390625,True
1599387882.267183,0.0,10,0.5,0.5,-2.8215671447753907,-0.2,-0.001,-0.001,0.2905114088956602,10,1,100,0.17260202456115092,-10,-1,-100,19296.345456095296,-0.03333608924263216,0.016299010448770915,0.9993112865430861,58.5635409642553,3.5434968908714786,247.09081552851282,-75.41404450689132,-76.0355224609375,4761.76025390625,True
1599387882.308077,0.0,10,0.5,0.5,-1.7930174285888674,-0.2,-0.001,-0.001,0.3017762302587126,10,1,100,0.13040108103573936,-10,-1,-100,19293.317945288494,-0.031127250018260708,0.01745852498704518,0.9993629441857335,56.97085695419618,3.4466824388461954,241.58927548817744,-75.77900308195939,-81.16036987304688,4761.76025390625,True
1599387882.3469713,0.0,10,0.5,0.5,0.4442266067504883,-0.2,-0.001,-0.001,0.39553255964852435,10,1,100,-0.15502618723332579,-10,-1,-100,19287.21912002575,-0.02653799774991855,0.019353890607567356,0.9994604352318184,52.81843433331042,3.195821917706116,226.24334416393177,-76.50913098983375,-92.29813385009766,4761.76025390625,True
1599387882.3848693,0.0,10,0.5,0.5,0.43775360794067386,-0.2,-0.001,-0.001,0.20734225618704646,10,1,100,0.301991183669829,-10,-1,-100,19287.21912002575,-0.02653799774991855,0.019353890607567356,0.9994604352318184,52.81843433331042,3.195821917706116,226.24334416393177,-76.50913098983375,-92.29813385009766,4761.76025390625,True
1599387882.4247618,0.0,10,0.5,0.5,2.874557781982422,-0.2,-0.001,-0.001,0.36364455725848466,10,1,100,-0.21719718392087078,-10,-1,-100,19281.061882223003,-0.02183346912970038,0.020764919319528615,0.999545955797639,55.41880118913381,3.355884361743509,239.7572086988607,-77.23922210601724,-104.40122985839844,4761.76025390625,True
1599387882.46366,0.0,10,0.5,0.5,4.072276559448243,-0.2,-0.001,-0.001,0.2806179669731522,10,1,100,-0.02607721394702961,-10,-1,-100,19277.961365854833,-0.01931251971229455,0.021282971212289024,0.999586945552381,57.08901697348636,3.459036290706845,248.20531940226778,-77.60412318182937,-110.39558410644531,4761.76025390625,True
1599387882.5025547,0.0,10,0.5,0.5,4.071473216247559,-0.2,-0.001,-0.001,0.2298238180124422,10,1,100,0.2238837296147667,-10,-1,-100,19277.961365854833,-0.01931251971229455,0.021282971212289024,0.999586945552381,57.08901697348636,3.459036290706845,248.20531940226778,-77.60412318182937,-110.39558410644531,4761.76025390625,True
1599387882.5414505,0.0,10,0.5,0.5,5.2392839981079105,-0.2,-0.001,-0.001,0.2742263064162309,10,1,100,-0.022804698220702718,-10,-1,-100,19274.846256018034,-0.017087818947961308,0.02167869641630301,0.9996189476822113,58.47929803558482,3.5454400880285273,255.50061646621793,-77.96893329635688,-116.18172454833984,4761.76025390625,True
1599387882.5803463,0.0,10,0.5,0.5,6.3449872230529785,-0.2,-0.001,-0.001,0.26619844809465587,10,1,100,-0.05691797662123657,-10,-1,-100,19271.71655653417,-0.014773580026710316,0.021958370642143073,0.9996497242994351,59.633785185447096,3.617540756080297,261.81891716226534,-78.33366179588965,-121.6868896484375,4761.76025390625,True
1599387882.6162498,0.0,10,0.5,0.5,7.894501882171631,-0.2,-0.001,-0.001,0.25835481140207256,10,1,100,-0.20135131783547328,-10,-1,-100,19266.994656940107,-0.011377136972610663,0.02213396447151964,0.9996902762211304,60.70561905385187,3.6852625555044822,268.4688531992616,-78.88064173999375,-129.39593505859375,4761.76025390625,True
1599387882.6591356,0.0,10,0.5,0.5,7.892611922454835,-0.2,-0.001,-0.001,0.2414963657076987,10,1,100,0.1358950076523368,-10,-1,-100,19266.994656940107,-0.011377136972610663,0.02213396447151964,0.9996902762211304,60.70561905385187,3.6852625555044822,268.4688531992616,-78.88064173999375,-129.39593505859375,4761.76025390625,True
1599387882.6972532,0.0,10,0.5,0.5,8.856838436126708,-0.2,-0.001,-0.001,0.24466546659776528,10,1,100,-0.10183958831546915,-10,-1,-100,19263.82849276217,-0.009235876056785174,0.02215746997595411,0.999711831038189,61.04114280149503,3.7069821448025104,271.2554524230347,-79.2452466264545,-134.16653442382812,4761.76025390625,True
1599387882.7381766,0.0,10,0.5,0.5,9.75682014389038,-0.2,-0.001,-0.001,0.24139598896322723,10,1,100,-0.1140397102660767,-10,-1,-100,19260.64774499426,-0.007198266273721457,0.022144844324227,0.9997288586574403,61.130934888871536,3.713399103688475,272.9592729195878,-79.60983185184418,-138.64141845703125,4761.76025390625,True
1599387882.779071,0.0,10,0.5,0.5,10.597421879577636,-0.2,-0.001,-0.001,0.22254854528067203,10,1,100,-0.1370894299935419,-10,-1,-100,19257.452414110303,-0.005153932411119482,0.02195948883125489,0.9997455765498398,61.02175107645834,3.7073684226939103,273.7747386901487,-79.97441067693086,-142.82272338867188,4761.76025390625,True
1599387882.81793,0.0,10,0.5,0.5,11.379084918975831,-0.2,-0.001,-0.001,0.22561208711486297,10,1,100,-0.14045668942846445,-10,-1,-100,19254.242500106455,-0.0032842756914718448,0.02181646549229681,0.9997565980610509,60.7492575538637,3.691103895537651,273.85018202646376,-80.33899360894193,-146.70726013183594,4761.76025390625,True
1599387882.8598175,0.0,10,0.5,0.5,12.100903702545168,-0.2,-0.001,-0.001,0.2173241551751285,10,1,100,-0.15296162652667145,-10,-1,-100,19251.018002263736,-0.001487769421297773,0.021610143488180272,0.9997653665938669,60.357071006285004,3.667319860848627,273.3728861371624,-80.70358822390205,-150.2966766357422,4761.76025390625,True
1599387882.8997114,0.0,10,0.5,0.5,12.763319928741456,-0.2,-0.001,-0.001,0.21364338021680013,10,1,100,-0.16184602227346304,-10,-1,-100,19247.77892005304,0.0002099810126576732,0.021388819010020533,0.9997712109924605,59.88167946449256,3.6383039169000284,272.5013265616202,-81.06819969391674,-153.5902862548828,4761.76025390625,True
1599387882.936612,0.0,10,0.5,0.5,13.366904138946534,-0.2,-0.001,-0.001,0.21051319320909267,10,1,100,-0.16892202787800806,-10,-1,-100,19244.52525327506,0.0017999700938176226,0.021159062468170946,0.9997745016668155,59.35620642620191,3.6061351511333934,271.3816304219761,-81.4328306686962,-156.5880889892578,4761.76025390625,True
1599387882.9745908,0.0,10,0.5,0.5,14.160200299072267,-0.2,-0.001,-0.001,0.19809891011776803,10,1,100,-0.25275816732770684,-10,-1,-100,19239.617403868586,0.003990390718013221,0.02083780816015758,0.9997749059328294,58.536766935845094,3.555899748977862,269.5182628115164,-81.97981506800839,-160.52964782714844,4761.76025390625,True
1599387883.0149133,0.0,10,0.5,0.5,14.394472285461427,-0.2,-0.001,-0.001,0.21924812241975555,10,1,100,-0.11017608047503065,-10,-1,-100,19237.97416068311,0.004668423249762414,0.020739043048783486,0.999774023426185,58.26769675018333,3.539401060307182,268.90479036191084,-82.16215286837935,-161.69546508789062,4761.76025390625,True
1599387883.0538106,0.0,10,0.5,0.5,15.010154432678222,-0.2,-0.001,-0.001,0.2034874772910134,10,1,100,-0.25067541867363874,-10,-1,-100,19233.022549696965,0.006547496298410506,0.020507246102202777,0.9997682647241438,57.5098789181258,3.4929524306435833,267.2607816202865,-82.70919198485359,-164.748291015625,4761.76025390625,True
1599387883.091708,0.0,10,0.5,0.5,15.49036117706299,-0.2,-0.001,-0.001,0.20712689218074604,10,1,100,-0.2465566166497669,-10,-1,-100,19228.03811523656,0.008202005748536282,0.02033108603009908,0.9997596581391638,56.87242073579308,3.453924339392447,266.1331975062477,-83.25626164250559,-167.13497924804688,4761.76025390625,True
1599387883.1325977,0.0,10,0.5,0.5,15.491271333312989,-0.2,-0.001,-0.001,0.22456026099653018,10,1,100,-0.08284945981772153,-10,-1,-100,19228.03811523656,0.008202005748536282,0.02033108603009908,0.9997596581391638,56.87242073579308,3.453924339392447,266.1331975062477,-83.25626164250559,-167.13497924804688,4761.76025390625,True
1599387883.1714933,0.0,10,0.5,0.5,15.925024253845216,-0.2,-0.001,-0.001,0.22659366810224219,10,1,100,-0.2875576345983081,-10,-1,-100,19221.341141473153,0.010048988908339562,0.020351220420418398,0.9997423896431118,56.282096961441404,3.417845210568831,265.79454500633796,-83.98571369132016,-169.27877807617188,4761.76025390625,True
1599387883.2083948,0.0,10,0.5,0.5,15.92552606048584,-0.2,-0.001,-0.001,0.22441940222922688,10,1,100,-0.10437961074992602,-10,-1,-100,19221.341141473153,0.010048988908339562,0.020351220420418398,0.9997423896431118,56.282096961441404,3.417845210568831,265.79454500633796,-83.98571369132016,-169.27877807617188,4761.76025390625,True
1599387883.2462938,0.0,10,0.5,0.5,16.05412589416504,-0.2,-0.001,-0.001,0.2266193047418825,10,1,100,-0.19151149769360531,-10,-1,-100,19217.970770909218,0.010828975821827727,0.020372551575144247,0.9997338107841348,56.11965079030604,3.4079345038533475,266.23678508330715,-84.35044168488412,-169.9073486328125,4761.76025390625,True
1599387883.2812006,0.0,10,0.5,0.5,16.121954377746583,-0.2,-0.001,-0.001,0.24339171919140193,10,1,100,-0.18774497853293376,-10,-1,-100,19214.58581137506,0.011492616709680749,0.020545545112538866,0.9997228617657961,56.04993333157024,3.4036868784280623,267.1145430193483,-84.71516517051555,-170.23817443847656,4761.76025390625,True
1599387883.3181021,0.0,10,0.5,0.5,16.13438173980713,-0.2,-0.001,-0.001,0.2322067187246605,10,1,100,-0.15582866474540366,-10,-1,-100,19212.887860703166,0.011795521359026838,0.020601896754924943,0.9997181740500509,56.05253783828523,3.4038459830733476,267.73144913783534,-84.89752386480176,-170.29336547851562,4761.76025390625,True
1599387883.3560004,0.0,10,0.5,0.5,16.079530801391602,-0.2,-0.001,-0.001,0.2602248846897035,10,1,100,-0.20785902564506914,-10,-1,-100,19207.7721264679,0.012534805638188233,0.020908342634697447,0.9997028157687078,56.20405218671768,3.4130617853738614,270.2743281114778,-85.44458134443715,-170.01393127441406,4761.76025390625,True
1599387883.3938992,0.0,10,0.5,0.5,15.96899044494629,-0.2,-0.001,-0.001,0.2583626905351524,10,1,100,-0.17470305068909514,-10,-1,-100,19204.34340231947,0.012897696651535033,0.021169936638108768,0.9996926943835408,56.42476285133827,3.4264684793029754,272.5538461746742,-85.80926526438773,-169.45787048339844,4761.76025390625,True
1599387883.432795,0.0,10,0.5,0.5,15.691184364318849,-0.2,-0.001,-0.001,0.28648738835752635,10,1,100,-0.17571239276196238,-10,-1,-100,19199.172966806334,0.013229292252147487,0.021663036718150345,0.9996777974260783,56.92600899265405,3.4568763719023963,276.8193564226411,-86.35624874894398,-168.06912231445312,4761.76025390625,True
1599387883.4712029,0.0,10,0.5,0.5,15.692905195617676,-0.2,-0.001,-0.001,0.2372929594149634,10,1,100,-0.14322101229609063,-10,-1,-100,19199.172966806334,0.013229292252147487,0.021663036718150345,0.9996777974260783,56.92600899265405,3.4568763719023963,276.8193564226411,-86.35624874894398,-168.06912231445312,4761.76025390625,True
1599387883.5101004,0.0,10,0.5,0.5,15.11297056427002,-0.2,-0.001,-0.001,0.32480019707856245,10,1,100,-0.14751352746784818,-10,-1,-100,19192.228005161393,0.013263744856887454,0.022457346196284835,0.999659812473319,57.88018274184282,3.5146777135206992,283.96083989567586,-87.08545867680238,-165.18341064453125,4761.76025390625,True
1599387883.5479972,0.0,10,0.5,0.5,15.11566111907959,-0.2,-0.001,-0.001,0.24558187528173203,10,1,100,-0.14457444090468657,-10,-1,-100,19192.228005161393,0.013263744856887454,0.022457346196284835,0.999659812473319,57.88018274184282,3.5146777135206992,283.96083989567586,-87.08545867680238,-165.18341064453125,4761.76025390625,True
1599387883.5858967,0.0,10,0.5,0.5,14.524501246643068,-0.2,-0.001,-0.001,0.3203621986224948,10,1,100,-0.11389600631805102,-10,-1,-100,19186.981004209025,0.012981927491601179,0.023135252657768255,0.9996480528881474,58.765010767534356,3.5682347647438104,290.2073173902092,-87.632273456766,-162.24435424804688,4761.76025390625,True
1599387883.6247926,0.0,10,0.5,0.5,14.058817472839358,-0.2,-0.001,-0.001,0.3058559938809495,10,1,100,-0.10437574943224086,-10,-1,-100,19183.464778296766,0.012636515789121507,0.023617125732159724,0.9996412105554987,59.409113802103164,3.6072226351133763,294.6726209730392,-87.99676661138382,-159.91639709472656,4761.76025390625,True
1599387883.6626918,0.0,10,0.5,0.5,13.533094866943362,-0.2,-0.001,-0.001,0.31005508389452474,10,1,100,-0.08575698756410259,-10,-1,-100,19179.933973532054,0.012151600460823008,0.02409041609613264,0.9996359289554151,60.07660007161258,3.6476528279685896,299.28233606648195,-88.36121717432377,-157.29425048828125,4761.76025390625,True
1599387883.7015862,0.0,10,0.5,0.5,13.534422621154786,-0.2,-0.001,-0.001,0.2630805345955926,10,1,100,-0.13431441876906666,-10,-1,-100,19179.933973532054,0.012151600460823008,0.02409041609613264,0.9996359289554151,60.07660007161258,3.6476528279685896,299.28233606648195,-88.36121717432377,-157.29425048828125,4761.76025390625,True
1599387883.7394853,0.0,10,0.5,0.5,12.301691007995606,-0.2,-0.001,-0.001,0.3651187299358683,10,1,100,0.012960505365151212,-10,-1,-100,19172.828636266757,0.01081241380587394,0.02501486467255223,0.9996286051594885,61.39612524685239,3.727803013128713,308.51080301043754,-89.08998748850843,-151.167724609375,4761.76025390625,True
1599387883.7783809,0.0,10,0.5,0.5,11.601586416625977,-0.2,-0.001,-0.001,0.323091712567125,10,1,100,-0.02684383805526888,-10,-1,-100,19169.254106669687,0.009958394870498892,0.025469475473183414,0.9996259981566727,61.997640680137515,3.7645608285890644,312.87394888785076,-89.454309446729,-147.66351318359375,4761.76025390625,True
1599387883.819272,0.0,10,0.5,0.5,11.602911192321779,-0.2,-0.001,-0.001,0.278060586387514,10,1,100,-0.11195180141467007,-10,-1,-100,19169.254106669687,0.009958394870498892,0.025469475473183414,0.9996259981566727,61.997640680137515,3.7645608285890644,312.87394888785076,-89.454309446729,-147.66351318359375,4761.76025390625,True
1599387883.85717,0.0,10,0.5,0.5,10.837827571105958,-0.2,-0.001,-0.001,0.315755361631041,10,1,100,-0.0039513880639390625,-10,-1,-100,19165.665005179704,0.008979546474021018,0.025808694849256356,0.9996265697825858,62.521728771074805,3.7968458685573943,316.8708589358043,-89.81859383223086,-143.86727905273438,4761.76025390625,True
1599387883.8960662,0.0,10,0.5,0.5,9.13623038482666,-0.2,-0.001,-0.001,0.3487468271358307,10,1,100,0.151190766094369,-10,-1,-100,19158.44309277495,0.006683164481036629,0.026413229733792478,0.9996287693976946,63.20363393409417,3.8400931556030007,323.06192332090956,-90.54707712975909,-135.394775390625,4761.76025390625,True
1599387883.9349627,0.0,10,0.5,0.5,9.141724024963379,-0.2,-0.001,-0.001,0.2886889270359694,10,1,100,-0.07778937516648485,-10,-1,-100,19158.44309277495,0.006683164481036629,0.026413229733792478,0.9996287693976946,63.20363393409417,3.8400931556030007,323.06192332090956,-90.54707712975909,-135.394775390625,4761.76025390625,True
1599387883.9738593,0.0,10,0.5,0.5,8.19921063079834,-0.2,-0.001,-0.001,0.3063301201283379,10,1,100,0.06488822505510396,-10,-1,-100,19154.81028272363,0.0053920777339093225,0.026570007958689003,0.9996324125271183,63.290598374668534,3.8468288433450692,324.87725593379076,-90.91129601942653,-130.72047424316406,4761.76025390625,True
1599387884.0157459,0.0,10,0.5,0.5,7.202617996215821,-0.2,-0.001,-0.001,0.2942500162672569,10,1,100,0.0839691295040582,-10,-1,-100,19151.16290409572,0.004051799604946452,0.026599591986856998,0.9996379567753987,63.15460320397935,3.840379265271363,325.5486095649471,-91.27551768287684,-125.75473022460938,4761.76025390625,True
1599387884.055595,0.0,10,0.5,0.5,6.147172441101075,-0.2,-0.001,-0.001,0.29199018999158644,10,1,100,0.11351926409423518,-10,-1,-100,19147.50095618947,0.002572531642509666,0.026603231349726628,0.9996427612715961,62.75445185440979,3.8181765266435086,324.84873539977417,-91.63975824729236,-120.49604797363281,4761.76025390625,True
1599387884.0914996,0.0,10,0.5,0.5,5.033350973510743,-0.2,-0.001,-0.001,0.27337612352798946,10,1,100,0.12905153433812944,-10,-1,-100,19143.82443734957,0.0010952483733665612,0.026435036697890324,0.9996499333595645,62.053956055242445,3.7778958581367577,322.572766074991,-92.00403566344686,-114.94679260253906,4761.76025390625,True
1599387884.124414,0.0,10,0.5,0.5,3.8606636672973633,-0.2,-0.001,-0.001,0.26067272662786845,10,1,100,0.14988667345426507,-10,-1,-100,19140.13334595505,-0.0004270955431943521,0.02616451556930917,0.9996575592243678,61.09048962930515,3.7216286845033735,318.896488682245,-92.36836704486772,-109.10598754882812,4761.76025390625,True
1599387884.1643076,0.0,10,0.5,0.5,3.25335135345459,-0.2,-0.001,-0.001,0.26775502426767783,10,1,100,0.08293341819317877,-10,-1,-100,19138.282334515126,-0.0011921608655588813,0.025981926657418424,0.9996617018970164,60.54981333241321,3.689848745039266,316.7353942647379,-92.55055587286425,-106.07640075683594,4761.76025390625,True
1599387884.2022052,0.0,10,0.5,0.5,1.9904408645629885,-0.2,-0.001,-0.001,0.2360302661225791,10,1,100,0.17575691263836984,-10,-1,-100,19134.569379427354,-0.0027213878756319563,0.025527063980576636,0.9996704272171713,59.20474709657796,3.6099592791265622,310.9946817611664,-92.91498863038363,-99.79888153076172,4761.76025390625,True
1599387884.241099,0.0,10,0.5,0.5,-0.7071270317077637,-0.2,-0.001,-0.001,0.14246011013296805,10,1,100,0.3539068701807119,-10,-1,-100,19127.099728168454,-0.005719612241768651,0.024262862321262735,0.9996892514915741,58.46612644922979,3.567490275387696,309.679616279899,-93.64402705612102,-86.3707275390625,4761.76025390625,True
1599387884.2809956,0.0,10,0.5,0.5,-0.6994485328674317,-0.2,-0.001,-0.001,0.26872569281155884,10,1,100,0.05555434943862137,-10,-1,-100,19127.099728168454,-0.005719612241768651,0.024262862321262735,0.9996892514915741,58.46612644922979,3.567490275387696,309.679616279899,-93.64402705612102,-86.3707275390625,4761.76025390625,True
1599387884.318894,0.0,10,0.5,0.5,-3.5859847877502444,-0.2,-0.001,-0.001,0.09236957073973295,10,1,100,0.3521544038978846,-10,-1,-100,19119.571769542876,-0.008404701121650312,0.022661579727348436,0.9997078642300042,63.616740894827245,3.8821223908863525,339.75364884733204,-94.37268117473462,-72.03424072265625,4761.76025390625,True
1599387884.357816,0.0,10,0.5,0.5,-3.577984354400635,-0.2,-0.001,-0.001,0.25212266513051845,10,1,100,0.0851543024699872,-10,-1,-100,19119.571769542876,-0.008404701121650312,0.022661579727348436,0.9997078642300042,63.616740894827245,3.8821223908863525,339.75364884733204,-94.37268117473462,-72.03424072265625,4761.76025390625,True
1599387884.3976831,0.0,10,0.5,0.5,-4.993331127166749,-0.2,-0.001,-0.001,0.14367715091731897,10,1,100,0.2292775275005665,-10,-1,-100,19115.7859375393,-0.009702369732059615,0.021679264532893296,0.9997178969643863,65.57223667395158,4.001306059512802,351.6347506379659,-94.73681983136646,-65.02191162109375,4761.76025390625,True
1599387884.4355807,0.0,10,0.5,0.5,-7.653280477142334,-0.2,-0.001,-0.001,0.02673283372642421,10,1,100,0.3391955420978825,-10,-1,-100,19108.170589679852,-0.011868819356646394,0.019727593588429546,0.9997349414611301,68.05129491850575,4.153079211351836,367.90941858866825,-95.4648232633071,-51.783660888671875,4761.76025390625,True
1599387884.4734805,0.0,10,0.5,0.5,-8.88858286819458,-0.2,-0.001,-0.001,0.11326487582994052,10,1,100,0.22720725681225928,-10,-1,-100,19104.341078968137,-0.012807115193674931,0.018746252783277465,0.9997422446845995,68.62591394631197,4.18916592668485,372.51888952398497,-95.82874190858061,-45.606201171875,4761.76025390625,True
1599387884.5123763,0.0,10,0.5,0.5,-8.88933946762085,-0.2,-0.001,-0.001,0.21063007795368732,10,1,100,0.13476790946610973,-10,-1,-100,19104.341078968137,-0.012807115193674931,0.018746252783277465,0.9997422446845995,68.62591394631197,4.18916592668485,372.51888952398497,-95.82874190858061,-45.606201171875,4761.76025390625,True
1599387884.545288,0.0,10,0.5,0.5,-10.077705376434327,-0.2,-0.001,-0.001,0.10764252639548445,10,1,100,0.2307533453416165,-10,-1,-100,19100.497012026608,-0.013668455501951829,0.01781674618982656,0.9997478366465209,68.8175767303435,4.202470410090705,375.06768230975297,-96.19264049932127,-39.72552490234375,4761.76025390625,True
1599387884.5831907,0.0,10,0.5,0.5,-10.646955850982668,-0.2,-0.001,-0.001,0.1457819434138475,10,1,100,0.18982227519263412,-10,-1,-100,19098.56952000677,-0.014068049422088811,0.017325885060008664,0.9997509208259551,68.78494172312946,4.201483433435308,375.64444353907726,-96.3745897589085,-36.897186279296875,4761.76025390625,True
1599387884.623087,0.0,10,0.5,0.5,-12.775271319580078,-0.2,-0.001,-0.001,-0.0062245802765202585,10,1,100,0.30310191087548966,-10,-1,-100,19090.82316064497,-0.015450816345197066,0.015505225798371387,0.9997604014198644,67.9455993667816,4.155197245524953,374.049536830242,-97.10244354495177,-26.325775146484375,4761.76025390625,True
1599387884.6619813,0.0,10,0.5,0.5,-13.264610623168945,-0.2,-0.001,-0.001,0.1273580083433684,10,1,100,0.19853607432142475,-10,-1,-100,19088.877471857588,-0.015748432121073592,0.01507242967208457,0.999762376142205,67.59010092330358,4.134850580330487,372.8378189221711,-97.28443048069948,-23.8685302734375,4761.76025390625,True
1599387884.6978858,0.0,10,0.5,0.5,-14.66089660949707,-0.2,-0.001,-0.001,0.043302829907541876,10,1,100,0.2621540816623406,-10,-1,-100,19083.018564801314,-0.016588220329624846,0.013923195601179203,0.9997654602808337,66.28499311260353,4.059145945534241,367.836550490113,-97.8304678522168,-16.940704345703125,4761.76025390625,True
1599387884.7357845,0.0,10,0.5,0.5,-14.659478137207032,-0.2,-0.001,-0.001,0.15735239858546168,10,1,100,0.17899361272801267,-10,-1,-100,19083.018564801314,-0.016588220329624846,0.013923195601179203,0.9997654602808337,66.28499311260353,4.059145945534241,367.836550490113,-97.8304678522168,-16.940704345703125,4761.76025390625,True
1599387884.7742255,0.0,10,0.5,0.5,-15.518728366088867,-0.2,-0.001,-0.001,0.07617412518119132,10,1,100,0.23093427679066486,-10,-1,-100,19079.09442312538,-0.017052968621823525,0.013193155283073263,0.9997675414389385,65.42064256314963,4.008778572314462,364.4901139968836,-98.19455675580821,-12.6932373046875,4761.76025390625,True
1599387884.8141177,0.0,10,0.5,0.5,-16.31409560241699,-0.2,-0.001,-0.001,0.08195426073421933,10,1,100,0.23629653526095687,-10,-1,-100,19075.155716761015,-0.017517532510925193,0.01258974359823159,0.9997672901284875,64.53820266058352,3.9569688009164734,361.0069279220852,-98.55869510331426,-8.7410888671875,4761.76025390625,True
1599387884.854013,0.0,10,0.5,0.5,-17.049182208251956,-0.2,-0.001,-0.001,0.07813194314448449,10,1,100,0.2324324371982438,-10,-1,-100,19071.202443224494,-0.017899599961216338,0.012012928133914478,0.9997676199391926,63.70190478804594,3.9075805274760067,357.74598334385354,-98.9228765250254,-5.085693359375,4761.76025390625,True
1599387884.892918,0.0,10,0.5,0.5,-18.340811254882812,-0.2,-0.001,-0.001,0.03993951607487106,10,1,100,0.27595274796891445,-10,-1,-100,19063.25218958268,-0.018637943664152983,0.011147467760856402,0.9997641526972711,61.95980073183992,3.8031856923890466,350.72404049785723,-99.65135937087615,1.338348388671875,4761.76025390625,True
1599387884.9278862,0.0,10,0.5,0.5,-18.33908166809082,-0.2,-0.001,-0.001,0.12572567487843656,10,1,100,0.20270146052229773,-10,-1,-100,19063.25218958268,-0.018637943664152983,0.011147467760856402,0.9997641526972711,61.95980073183992,3.8031856923890466,350.72404049785723,-99.65135937087615,1.338348388671875,4761.76025390625,True
1599387884.9667513,0.0,10,0.5,0.5,-18.628837713623046,-0.2,-0.001,-0.001,0.1064154728305324,10,1,100,0.2217810670813338,-10,-1,-100,19061.25551973388,-0.0188068769163604,0.010977983449901791,0.9997628645133938,62.51598764049322,3.8376840534966647,354.56969914185004,-99.83347924190439,2.759490966796875,4761.76025390625,True
1599387885.005163,0.0,10,0.5,0.5,-19.158154608154295,-0.2,-0.001,-0.001,0.0933791565699161,10,1,100,0.2424913939467253,-10,-1,-100,19057.251254637376,-0.01914442027396682,0.010711165657219367,0.9997593520956117,63.80345873570081,3.917171202970999,363.2958803990135,-100.1976660628178,5.3802490234375,4761.76025390625,True
1599387885.0430605,0.0,10,0.5,0.5,-20.03401872253418,-0.2,-0.001,-0.001,0.08592088228417609,10,1,100,0.27479490905809345,-10,-1,-100,19049.19903038314,-0.019741588369231667,0.010405159770493302,0.999750970161475,65.91674218289742,4.04695996888123,378.2733397258805,-100.92584663996054,9.73504638671875,4761.76025390625,True
1599387885.0815475,0.0,10,0.5,0.5,-20.381688864135743,-0.2,-0.001,-0.001,0.1144385570813079,10,1,100,0.24794410556137103,-10,-1,-100,19045.151076114154,-0.020036740100185725,0.010390467162444978,0.9997452511706688,66.76935353892581,4.099011647052032,384.6582661365309,-101.28985140109826,11.469696044921875,4761.76025390625,True
1599387885.1194472,0.0,10,0.5,0.5,-20.3827952545166,-0.2,-0.001,-0.001,0.11555454504226685,10,1,100,0.21877378444302129,-10,-1,-100,19045.151076114154,-0.020036740100185725,0.010390467162444978,0.9997452511706688,66.76935353892581,4.099011647052032,384.6582661365309,-101.28985140109826,11.469696044921875,4761.76025390625,True
1599387885.1583395,0.0,10,0.5,0.5,-20.9050846282959,-0.2,-0.001,-0.001,0.14326902240577127,10,1,100,0.28206280795407135,-10,-1,-100,19037.01149326435,-0.020608959841403852,0.010645628527966595,0.9997309344856246,68.13739601690361,4.1820145097378285,395.5865983929331,-102.01771781286067,14.05401611328125,4761.76025390625,True
1599387885.1977782,0.0,10,0.5,0.5,-20.905175033569336,-0.2,-0.001,-0.001,0.11749813317809893,10,1,100,0.22519643295421668,-10,-1,-100,19037.01149326435,-0.020608959841403852,0.010645628527966595,0.9997309344856246,68.13739601690361,4.1820145097378285,395.5865983929331,-102.01771781286067,14.05401611328125,4761.76025390625,True
1599387885.235671,0.0,10,0.5,0.5,-21.0782505645752,-0.2,-0.001,-0.001,0.14560765404293505,10,1,100,0.25600063048517435,-10,-1,-100,19032.9198677697,-0.020886187612293942,0.010902937004074437,0.9997224080372058,68.67375510651873,4.214326480692202,400.2370910965636,-102.38158995398351,14.90374755859375,4761.76025390625,True
1599387885.2745411,0.0,10,0.5,0.5,-21.191057583618164,-0.2,-0.001,-0.001,0.16194955862487373,10,1,100,0.2581694421630846,-10,-1,-100,19028.81368887052,-0.021155214248674045,0.011286425652308136,0.9997124954236032,69.12156586776342,4.241160122463248,404.39438111876876,-102.74542818858609,15.459259033203125,4761.76025390625,True
1599387885.3144686,0.0,10,0.5,0.5,-21.237529901123047,-0.2,-0.001,-0.001,0.23564344059192596,10,1,100,0.28827315464844905,-10,-1,-100,19020.557673938107,-0.021671165603809706,0.012304869752319744,0.9996894271531287,69.77463734498112,4.279904582777293,411.3423216991386,-103.47302234261555,15.686203002929688,4761.76025390625,True
1599387885.3543267,0.0,10,0.5,0.5,-21.23873774261475,-0.2,-0.001,-0.001,0.13391477078991143,10,1,100,0.23698134132884863,-10,-1,-100,19020.557673938107,-0.021671165603809706,0.012304869752319744,0.9996894271531287,69.77463734498112,4.279904582777293,411.3423216991386,-103.47302234261555,15.686203002929688,4761.76025390625,True
1599387885.3922253,0.0,10,0.5,0.5,-21.17413249511719,-0.2,-0.001,-0.001,0.2074689648383687,10,1,100,0.26296728929956165,-10,-1,-100,19016.407839876018,-0.02190479759564578,0.01297233798339443,0.9996758966232696,69.98488581894183,4.292162261242702,414.1519486148081,-103.83678774108847,15.358352661132812,4761.76025390625,True
1599387885.4291255,0.0,10,0.5,0.5,-21.0505109664917,-0.2,-0.001,-0.001,0.2280824774241338,10,1,100,0.26069663986664565,-10,-1,-100,19012.2434554887,-0.022094038613995993,0.013764467242127305,0.9996611390362554,70.1170783557632,4.299670817813472,416.508788604616,-104.20053834976275,14.736724853515625,4761.76025390625,True
1599387885.4670248,0.0,10,0.5,0.5,-20.966952433776857,-0.2,-0.001,-0.001,0.19519511450322463,10,1,100,0.253620374192178,-10,-1,-100,19010.155807247735,-0.022199607624323967,0.014182554807629259,0.9996529560604793,70.1526972634846,4.30157701245042,417.508639582621,-104.38240968617778,14.3154296875,4761.76025390625,True
1599387885.521696,0.0,10,0.5,0.5,-20.481438026428226,-0.2,-0.001,-0.001,0.3719810108302719,10,1,100,0.27412449465838673,-10,-1,-100,19001.768840416335,-0.022480014303838444,0.016166331572290388,0.9996165758331511,70.08148391727005,4.296312051319495,420.2390307214455,-105.10988293657051,11.89642333984375,4761.76025390625,True
1599387885.560585,0.0,10,0.5,0.5,-20.483899705505372,-0.2,-0.001,-0.001,0.17418092080514355,10,1,100,0.24632815412730438,-10,-1,-100,19001.768840416335,-0.022480014303838444,0.016166331572290388,0.9996165758331511,70.08148391727005,4.296312051319495,420.2390307214455,-105.10988293657051,11.89642333984375,4761.76025390625,True
1599387885.5984561,0.0,10,0.5,0.5,-19.76146287689209,-0.2,-0.001,-0.001,0.4410227711947001,10,1,100,0.2518730981903624,-10,-1,-100,18993.32367523492,-0.022528721927627667,0.018587147754882426,0.999573396317972,69.6186070355853,4.267571987703764,420.6044393643242,-105.837369684423,8.30328369140625,4761.76025390625,True
1599387885.6413755,0.0,10,0.5,0.5,-19.76448094329834,-0.2,-0.001,-0.001,0.19973530485818788,10,1,100,0.24719431202006245,-10,-1,-100,18993.32367523492,-0.022528721927627667,0.018587147754882426,0.999573396317972,69.6186070355853,4.267571987703764,420.6044393643242,-105.837369684423,8.30328369140625,4761.76025390625,True
1599387885.6798003,0.0,10,0.5,0.5,-18.80572784881592,-0.2,-0.001,-0.001,0.5114091264546903,10,1,100,0.2199023150311737,-10,-1,-100,18984.820308414288,-0.022279119651078375,0.02141356048689535,0.9995224360937813,68.67222563020735,4.2100861991178435,417.99319013610733,-106.56491767705732,3.536651611328125,4761.76025390625,True
1599387885.7186935,0.0,10,0.5,0.5,-18.241861210632326,-0.2,-0.001,-0.001,0.40120248811424997,10,1,100,0.22260566289634437,-10,-1,-100,18980.54679721454,-0.022075762648078385,0.022971941590326197,0.9994923464454724,67.98238621281074,4.168538565208758,415.3347363663287,-106.92873074200534,0.71356201171875,4761.76025390625,True
1599387885.7575955,0.0,10,0.5,0.5,-17.6168041015625,-0.2,-0.001,-0.001,0.4263975396340255,10,1,100,0.19147279424584712,-10,-1,-100,18976.25873249024,-0.021607498751215447,0.02460800026922674,0.9994636373177697,67.13104851310426,4.117489860131567,411.6563331471414,-107.29257870197247,-2.40277099609375,4761.76025390625,True
1599387885.7964506,0.0,10,0.5,0.5,-17.618111537170414,-0.2,-0.001,-0.001,0.2640219847956619,10,1,100,0.2382928172468815,-10,-1,-100,18976.25873249024,-0.021607498751215447,0.02460800026922674,0.9994636373177697,67.13104851310426,4.117489860131567,411.6563331471414,-107.29257870197247,-2.40277099609375,4761.76025390625,True
1599387885.834382,0.0,10,0.5,0.5,-16.931041235351564,-0.2,-0.001,-0.001,0.45376689843660545,10,1,100,0.18035573051036252,-10,-1,-100,18971.95611289004,-0.021081068234378393,0.02632237615479365,0.9994311987704122,66.09538344751144,4.055596012894017,406.80605383125317,-107.6564683655499,-5.81219482421875,4761.76025390625,True
1599387885.8712857,0.0,10,0.5,0.5,-16.188135116577147,-0.2,-0.001,-0.001,0.47721328653043515,10,1,100,0.1555025779351279,-10,-1,-100,18967.638937946293,-0.020377478168733136,0.02808263238896869,0.999397880797027,66.97996322241048,4.112085220463585,413.771858582235,-108.02032863832383,-9.514984130859375,4761.76025390625,True
1599387885.908188,0.0,10,0.5,0.5,-14.524199798583984,-0.2,-0.001,-0.001,0.7067924717806735,10,1,100,0.025973196621506933,-10,-1,-100,18958.96093511826,-0.018561967487527795,0.03175731239723786,0.9993232342301946,69.28955174336453,4.260098469445404,431.18681128464755,-108.74781169729575,-17.799835205078125,4761.76025390625,True
1599387885.942098,0.0,10,0.5,0.5,-14.076320382690431,-0.2,-0.001,-0.001,0.4421610821163965,10,1,100,0.1453067218939835,-10,-1,-100,18956.78234222019,-0.017999915322378462,0.03267801706160281,0.9993038328002694,69.83234490701331,4.295335466077544,435.35705642692074,-108.92963141063538,-20.054534912109375,4761.76025390625,True
1599387885.9803483,0.0,10,0.5,0.5,-14.075379986572267,-0.2,-0.001,-0.001,0.3517417842288324,10,1,100,0.2010639285107707,-10,-1,-100,18956.78234222019,-0.017999915322378462,0.03267801706160281,0.9993038328002694,69.83234490701331,4.295335466077544,435.35705642692074,-108.92963141063538,-20.054534912109375,4761.76025390625,True
1599387886.019244,0.0,10,0.5,0.5,-13.121775192260744,-0.2,-0.001,-0.001,0.5502900393561334,10,1,100,0.05941731364187325,-10,-1,-100,18952.41424930666,-0.016716335920484167,0.0344701913179358,0.9992659155719755,71.02963912091225,4.373040710076045,444.4322260768042,-109.29320296339482,-24.78472900390625,4761.76025390625,True
1599387886.0587149,0.0,10,0.5,0.5,-12.113534719848635,-0.2,-0.001,-0.001,0.5722877725045825,10,1,100,0.03215857922858176,-10,-1,-100,18948.031616478693,-0.01530692286592047,0.036284980903621644,0.9992242482412047,72.14702298770395,4.446188365322375,453.05777204356997,-109.65668522915972,-29.80792236328125,4761.76025390625,True
1599387886.0985742,0.0,10,0.5,0.5,-11.04657059326172,-0.2,-0.001,-0.001,0.5887698656954167,10,1,100,-0.0022505946945277355,-10,-1,-100,18943.634446923388,-0.013719165959548075,0.03807110735560115,0.9991808521334328,73.24714818292617,4.518452476135802,461.6226785992803,-110.02007736061884,-35.124603271484375,4761.76025390625,True
1599387886.1385012,0.0,10,0.5,0.5,-9.334086538696289,-0.2,-0.001,-0.001,0.67514201139687,10,1,100,-0.14446060991158424,-10,-1,-100,18937.011443789932,-0.010990529176044048,0.04046633348580912,0.9991204552618496,74.51218958608216,4.6029496322793655,472.1183598630564,-110.56501810511007,-43.653045654296875,4761.76025390625,True
1599387886.1764045,0.0,10,0.5,0.5,-8.737520318603515,-0.2,-0.001,-0.001,0.519646854071369,10,1,100,0.019344622846100043,-10,-1,-100,18934.796510969754,-0.010008740552087673,0.04121580278011492,0.9991001364796983,74.80637216507681,4.62309124131618,474.8256575498544,-110.74663367225043,-46.6429443359375,4761.76025390625,True
1599387886.214298,0.0,10,0.5,0.5,-7.489650653076172,-0.2,-0.001,-0.001,0.5969072347165322,10,1,100,-0.11099185575044619,-10,-1,-100,18930.35574940988,-0.00794187268688521,0.042584407596702685,0.9990613068715368,75.1648086298569,4.648789150286346,478.7945950124887,-111.10983293009473,-52.8441162109375,4761.76025390625,True
1599387886.5706577,0.0,10,0.5,0.5,-6.185170025634766,-0.2,-0.001,-0.001,0.5848988955518319,10,1,100,-0.14343006942462305,-10,-1,-100,18925.90046048048,-0.005779953771979083,0.04370464340897437,0.9990277755292334,75.17464633123001,4.652320086636927,480.5510205891392,-111.47301096745521,-59.341522216796875,4761.76025390625,True
1599387886.602559,0.0,10,0.5,0.5,-5.511585351562501,-0.2,-0.001,-0.001,0.5331617708431483,10,1,100,-0.053406203531767435,-10,-1,-100,18923.667368382332,-0.004646242197814705,0.044238500276396954,0.9990101939053146,75.03334204495548,4.644792369629265,480.4933464305946,-111.6546007130674,-62.700225830078125,4761.76025390625,True
1599387886.6374247,0.0,10,0.5,0.5,-3.3957522033691405,-0.2,-0.001,-0.001,0.6100707523622361,10,1,100,-0.32183069460785596,-10,-1,-100,18916.946299754898,-0.0011880233254187497,0.04541165072615541,0.9989676524186876,73.95409699189868,4.580758186831131,476.0857396106645,-112.19941874086683,-73.22113037109375,4761.76025390625,True
1599387886.6715395,0.0,10,0.5,0.5,-2.666393704223633,-0.2,-0.001,-0.001,0.5259733561037838,10,1,100,-0.10751198320775689,-10,-1,-100,18914.69867836102,-7.823446875109402e-06,0.04570205332025485,0.9989551152384707,73.35935002870976,4.544641707345712,473.0863691506561,-112.38105387737819,-76.87567138671875,4761.76025390625,True
1599387886.7253957,0.0,10,0.5,0.5,-1.1505910156249999,-0.2,-0.001,-0.001,0.5395262382222004,10,1,100,-0.2447808585592786,-10,-1,-100,18910.19253617397,0.002296627953291576,0.04607742366482299,0.9989352313981404,71.79164887442379,4.448853034844193,464.6024694254088,-112.74439053461927,-84.40689086914062,4761.76025390625,True
1599387886.7788672,0.0,10,0.5,0.5,-1.1521600189208985,-0.2,-0.001,-0.001,0.5031499270000752,10,1,100,-0.01623701492998761,-10,-1,-100,18910.19253617397,0.002296627953291576,0.04607742366482299,0.9989352313981404,71.79164887442379,4.448853034844193,464.6024694254088,-112.74439053461927,-84.40689086914062,4761.76025390625,True
1599387886.8197184,0.0,10,0.5,0.5,2.0587646759033205,-0.2,-0.001,-0.001,0.5175527682927872,10,1,100,-0.5112526531117288,-10,-1,-100,18901.136636260897,0.006780766890562667,0.04619945636497382,0.9989092208163647,67.08029820648949,4.160213879275436,437.16038183527064,-113.47141959142432,-100.35447692871094,4761.76025390625,True
1599387886.8586159,0.0,10,0.5,0.5,2.887767338562012,-0.2,-0.001,-0.001,0.4946148539927696,10,1,100,-0.1861132807099819,-10,-1,-100,18898.863570794812,0.007882808054565859,0.0460944792814659,0.9989059817204747,65.57013493014408,4.0677665774494525,428.0642669928472,-113.65326597741131,-104.5257568359375,4761.76025390625,True
1599387886.8945174,0.0,10,0.5,0.5,3.7429365493774416,-0.2,-0.001,-0.001,0.48814964991040366,10,1,100,-0.19510069954370463,-10,-1,-100,18896.58686814527,0.008949209886483867,0.04593515449044114,0.9989043363727815,64.66414827367208,4.012973532937831,422.88469107124604,-113.83513150864815,-108.77079772949219,4761.76025390625,True
1599387886.9304216,0.0,10,0.5,0.5,5.434988392639161,-0.2,-0.001,-0.001,0.46401480314306087,10,1,100,-0.290269349772197,-10,-1,-100,18892.022553943214,0.010766601144451467,0.04556661575370612,0.9989032805174636,67.03133107615321,4.163334228329719,439.8873248075932,-114.1987409350859,-117.1791763305664,4761.76025390625,True
1599387886.9673226,0.0,10,0.5,0.5,7.871265648651123,-0.2,-0.001,-0.001,0.4027203766729657,10,1,100,-0.39760504608693104,-10,-1,-100,18885.14882233215,0.013377546369254744,0.04467164738134888,0.9989121508788323,69.81210965079207,4.341912841751881,460.50703040739006,-114.74388007334417,-129.30978393554688,4761.76025390625,True
1599387886.9992373,0.0,10,0.5,0.5,9.418125077056885,-0.2,-0.001,-0.001,0.41565223265768136,10,1,100,-0.29753547099950894,-10,-1,-100,18880.548168127425,0.014823993618152764,0.04397472300272846,0.9989226561401249,71.18059619680507,4.430711703435566,471.14191132557625,-115.10716332884412,-137.03114318847656,4761.76025390625,True
1599387887.034144,0.0,10,0.5,0.5,9.417836809539795,-0.2,-0.001,-0.001,0.4853182927923566,10,1,100,-0.1548377696913037,-10,-1,-100,18880.548168127425,0.014823993618152764,0.04397472300272846,0.9989226561401249,71.18059619680507,4.430711703435566,471.14191132557625,-115.10716332884412,-137.03114318847656,4761.76025390625,True
1599387887.0710456,0.0,10,0.5,0.5,10.916382727813723,-0.2,-0.001,-0.001,0.4054506472134968,10,1,100,-0.2926166467960881,-10,-1,-100,18875.932985067135,0.016061972485520284,0.04324995979539648,0.9989351600667438,72.0100912808506,4.4855146835912345,478.25732543213655,-115.47037112685894,-144.45484924316406,4761.76025390625,True
1599387887.108944,0.0,10,0.5,0.5,12.348050496673585,-0.2,-0.001,-0.001,0.39299246800888277,10,1,100,-0.28577885764520955,-10,-1,-100,18871.303274745354,0.01711063719454423,0.042480057153711705,0.998950784993442,72.32894552013406,4.507912654124819,482.0074117378536,-115.83354228380772,-151.5808868408203,4761.76025390625,True
1599387887.1458452,0.0,10,0.5,0.5,13.720177793121339,-0.2,-0.001,-0.001,0.37923632661605633,10,1,100,-0.273700200614585,-10,-1,-100,18866.659038006677,0.017940695494068272,0.04165836016361904,0.9989708266379291,72.19851367231308,4.501725949103042,482.76945833805576,-116.19671107093168,-158.409423828125,4761.76025390625,True
1599387887.179755,0.0,10,0.5,0.5,15.033000165557862,-0.2,-0.001,-0.001,0.3815993387973519,10,1,100,-0.262527434941376,-10,-1,-100,18862.0002735398,0.01857950147156934,0.040936862159274945,0.9989889766366896,71.68204665043018,4.471020742162761,480.9385504321339,-116.55990605787031,-164.9380340576172,4761.76025390625,True
1599387887.2196484,0.0,10,0.5,0.5,15.666566339874269,-0.2,-0.001,-0.001,0.41399076830281684,10,1,100,-0.22737865784883138,-10,-1,-100,18859.66544300737,0.018829973718837174,0.0405802066001079,0.9989988382986441,71.30014641972282,4.4478480995698515,479.1845291072799,-116.74152039393782,-168.0904541015625,4761.76025390625,True
1599387887.2575467,0.0,10,0.5,0.5,16.89195503616333,-0.2,-0.001,-0.001,0.3756905312093307,10,1,100,-0.24358798590589897,-10,-1,-100,18854.98488404113,0.019195081320813753,0.03991280327518013,0.9990187770947072,70.32966602480437,4.388529936203426,474.25952614526346,-117.10479332837788,-174.1709747314453,4761.76025390625,True
1599387887.2954454,0.0,10,0.5,0.5,18.054442716217043,-0.2,-0.001,-0.001,0.37710596847960687,10,1,100,-0.22957148362988627,-10,-1,-100,18850.28979195666,0.01939026014607023,0.03932441545608036,0.999038341686897,69.13498327754107,4.315282431246138,467.77686353270644,-117.4681349319169,-179.95220947265625,4761.76025390625,True
1599387887.3323476,0.0,10,0.5,0.5,-53.203192562866214,-0.2,-0.001,-0.001,0.38005425421008826,10,1,100,-0.2133071876043711,-10,-1,-100,18845.580164248124,0.01941199851516087,0.03882199476381006,0.9990575694304139,67.77458387620175,4.231912575025677,460.11756804028687,-117.83155228958246,174.56585693359375,4761.76025390625,True
1599387887.3702445,0.0,10,0.5,0.5,-51.83741734619141,-0.2,-0.001,-0.001,0.38704917918703924,10,1,100,-0.19976424687184258,-10,-1,-100,18840.855997358565,0.01930315716026946,0.03843415677300711,0.999074673744057,66.30203853634751,4.141865543547697,451.634270030173,-118.1950482079062,169.383544921875,4761.76025390625,True
1599387887.4081435,0.0,10,0.5,0.5,-50.891771278381356,-0.2,-0.001,-0.001,0.3944760556499842,10,1,100,-0.1832861737444737,-10,-1,-100,18836.117288627313,0.01905033784235381,0.03815413071851276,0.9990902596548555,65.29166455665938,4.081080820470664,446.2435219446119,-118.5586073933999,164.5006103515625,4761.76025390625,True
1599387887.4430509,0.0,10,0.5,0.5,-49.43642747497559,-0.2,-0.001,-0.001,0.4008737506672809,10,1,100,-0.14128564037951757,-10,-1,-100,18828.98196340259,0.018434836937090707,0.03796301388938806,0.9991090863181741,67.55535558513844,4.227016720522301,464.03043021328,-119.10379960870269,157.08578491210938,4761.76025390625,True
1599387887.4799511,0.0,10,0.5,0.5,-49.47399636383057,-0.2,-0.001,-0.001,0.4194567389891498,10,1,100,-0.20307301735098485,-10,-1,-100,18828.98196340259,0.018434836937090707,0.03796301388938806,0.9991090863181741,67.55535558513844,4.227016720522301,464.03043021328,-119.10379960870269,157.08578491210938,4761.76025390625,True
1599387887.5178504,0.0,10,0.5,0.5,-48.44572405395508,-0.2,-0.001,-0.001,0.4230062483387572,10,1,100,-0.14231773259214633,-10,-1,-100,18824.206910778186,0.01788131234860804,0.03799938855917024,0.9991177633981995,69.05806764035619,4.324480912867437,475.92977629295035,-119.46713319248957,151.81643676757812,4761.76025390625,True
1599387887.557744,0.0,10,0.5,0.5,-47.36503307800293,-0.2,-0.001,-0.001,0.4367536059645234,10,1,100,-0.12425416097963553,-10,-1,-100,18819.417328167823,0.017213947874551393,0.038160758757028686,0.9991233339731685,70.51846591012485,4.419622344676476,487.6042024666252,-119.83036121263845,146.25930786132812,4761.76025390625,True
1599387887.59575,0.0,10,0.5,0.5,-46.22659479827881,-0.2,-0.001,-0.001,0.4572745839176605,10,1,100,-0.10854017021397049,-10,-1,-100,18814.613219578518,0.01646563984899114,0.0384965370122942,0.9991230651638587,71.95978618174648,4.513738991077645,499.21178255815414,-120.19348632892113,140.4129638671875,4761.76025390625,True
1599387887.6336484,0.0,10,0.5,0.5,-45.02985088653565,-0.2,-0.001,-0.001,0.47495875737692295,10,1,100,-0.08992853106552101,-10,-1,-100,18809.79458903568,0.015618312500650317,0.038964449429972334,0.9991185315042712,73.26721037231927,4.599440223730824,509.95217838972434,-120.5565136601966,134.2764434814453,4761.76025390625,True
1599387887.6735423,0.0,10,0.5,0.5,-43.775216380310056,-0.2,-0.001,-0.001,0.49817618237792516,10,1,100,-0.07290773954097181,-10,-1,-100,18804.96143963444,0.014696532050862908,0.03960175399500267,0.9991074581976642,74.333149133163,4.669768412080384,519.0655224722872,-120.91945992133859,127.85049438476562,4761.76025390625,True
1599387887.7114398,0.0,10,0.5,0.5,-42.462693000793465,-0.2,-0.001,-0.001,0.5236856635565564,10,1,100,-0.05601363331873363,-10,-1,-100,18800.113774579833,0.013709234065486013,0.0404127740298006,0.999089017353586,75.10515017893465,4.721251745329981,526.1688890084616,-121.28234620307326,121.13542175292969,4761.76025390625,True
1599387887.749339,0.0,10,0.5,0.5,-39.59049129943848,-0.2,-0.001,-0.001,0.6817776618085866,10,1,100,0.07910954121913619,-10,-1,-100,18790.374901457108,0.011588482277935179,0.04258581879166627,0.9990256028332494,75.55265619900617,4.753881034396413,532.7573761589919,-122.00804706390748,106.83903503417969,4761.76025390625,True
1599387887.8031955,0.0,10,0.5,0.5,-38.84392140350342,-0.2,-0.001,-0.001,0.5383233429216081,10,1,100,-0.07163392344282457,-10,-1,-100,18787.93111166265,0.011037934581527095,0.04325340961982739,0.9990031564296649,75.39743103494723,4.7449916356711,532.5271503025026,-122.1894797037801,103.08474731445312,4761.76025390625,True
1599387887.841095,0.0,10,0.5,0.5,-38.07245208892822,-0.2,-0.001,-0.001,0.5508975035054106,10,1,100,-0.06529048645230474,-10,-1,-100,18785.4836933061,0.010487053069661226,0.04396998521537087,0.9989778086214299,75.12308165533723,4.72855604783689,531.4520552945851,-122.37092335357868,99.25846862792969,4761.76025390625,True
1599387887.8750038,0.0,10,0.5,0.5,-35.6767014465332,-0.2,-0.001,-0.001,0.7580578881268083,10,1,100,0.06680838633394014,-10,-1,-100,18778.119661071803,0.008792578109787692,0.04649923291576312,0.9988796283378838,73.53699613599967,4.631311447981038,522.7736001754322,-122.91536017696208,87.34904479980469,4761.76025390625,True
1599387887.9129016,0.0,10,0.5,0.5,-34.01346539764404,-0.2,-0.001,-0.001,0.7183068051707628,10,1,100,0.015557643865583698,-10,-1,-100,18773.192154291086,0.007726827858548903,0.04842941532649532,0.9987967199897976,71.79840320536724,4.524098024425263,512.0753843180996,-123.27844252920427,79.0496826171875,4761.76025390625,True
1599387887.950802,0.0,10,0.5,0.5,-34.014488084411624,-0.2,-0.001,-0.001,0.5263315667742753,10,1,100,-0.09000193280928921,-10,-1,-100,18773.192154291086,0.007726827858548903,0.04842941532649532,0.9987967199897976,71.79840320536724,4.524098024425263,512.0753843180996,-123.27844252920427,79.0496826171875,4761.76025390625,True
1599387887.9886992,0.0,10,0.5,0.5,-30.498937577819824,-0.2,-0.001,-0.001,1.0462380016053916,10,1,100,0.12309152087509626,-10,-1,-100,18763.29355938232,0.00579823929779631,0.05314650231898777,0.9985698922520663,71.72360535119904,4.526876098044662,514.8678427330199,-124.0047953334248,61.59281921386719,4761.76025390625,True
1599387888.0275943,0.0,10,0.5,0.5,-30.508512426757814,-0.2,-0.001,-0.001,0.575994298886816,10,1,100,-0.06870059514504356,-10,-1,-100,18763.29355938232,0.00579823929779631,0.05314650231898777,0.9985698922520663,71.72360535119904,4.526876098044662,514.8678427330199,-124.0047953334248,61.59281921386719,4761.76025390625,True
1599387888.0664911,0.0,10,0.5,0.5,-28.66005572509766,-0.2,-0.001,-0.001,0.863372251431553,10,1,100,0.01703474720119963,-10,-1,-100,18758.32247891219,0.005027754433923967,0.055746136384949914,0.9984323161654488,74.67594841257683,4.718464421749229,537.7904524723729,-124.36773148537287,52.43267822265625,4761.76025390625,True
1599387888.1043892,0.0,10,0.5,0.5,-26.763571118164066,-0.2,-0.001,-0.001,0.9380086746487106,10,1,100,-0.001955676380612767,-10,-1,-100,18753.33688659931,0.004508743660799166,0.05877327630835334,0.9982611748548489,77.17692244792299,4.882183840772811,557.5853981273672,-124.73047988304472,42.9893798828125,4761.76025390625,True
1599387888.144282,0.0,10,0.5,0.5,-22.79503269805908,-0.2,-0.001,-0.001,1.3270363399628398,10,1,100,-0.009646031810929892,-10,-1,-100,18743.32219251967,0.004115192089511037,0.06504514546677713,0.9978738368377399,80.9112109521819,5.129109871173547,588.299782530361,-125.455530037709,23.2373046875,4761.76025390625,True
1599387888.18318,0.0,10,0.5,0.5,-22.806424600219728,-0.2,-0.001,-0.001,0.7020953567879721,10,1,100,-0.04825385992090043,-10,-1,-100,18743.32219251967,0.004115192089511037,0.06504514546677713,0.9978738368377399,80.9112109521819,5.129109871173547,588.299782530361,-125.455530037709,23.2373046875,4761.76025390625,True
1599387888.2190826,0.0,10,0.5,0.5,-19.66938364257813,-0.2,-0.001,-0.001,1.2597895319322938,10,1,100,-0.11329394281184627,-10,-1,-100,18735.773115514545,0.004712758972603286,0.07009528184459192,0.9975291681780505,81.61920110091903,5.180129822793337,596.2820311323273,-125.99914999459564,7.66986083984375,4761.76025390625,True
1599387888.258978,0.0,10,0.5,0.5,-19.675792225646976,-0.2,-0.001,-0.001,0.757388423813737,10,1,100,-0.052959825092915525,-10,-1,-100,18735.773115514545,0.004712758972603286,0.07009528184459192,0.9975291681780505,81.61920110091903,5.180129822793337,596.2820311323273,-125.99914999459564,7.66986083984375,4761.76025390625,True
1599387888.296969,0.0,10,0.5,0.5,-17.509368435668947,-0.2,-0.001,-0.001,1.1333889232017467,10,1,100,-0.13967514618106436,-10,-1,-100,18730.722275902284,0.005504788999892989,0.07349201724909307,0.9972806128160348,80.90862335226271,5.138663991354096,592.9744587174144,-126.36160920598013,-3.0687255859375,4761.76025390625,True
1599387888.3358648,0.0,10,0.5,0.5,-15.295251870727538,-0.2,-0.001,-0.001,1.160904462778773,10,1,100,-0.19619087254771242,-10,-1,-100,18725.656934604747,0.006740615663361024,0.07680731561122836,0.9970231694244002,79.18409863259684,5.03314797835221,582.1880212726655,-126.72417792132342,-14.0968017578125,4761.76025390625,True
1599387888.3757575,0.0,10,0.5,0.5,-10.688778988647462,-0.2,-0.001,-0.001,1.5163811646725511,10,1,100,-0.440742514180473,-10,-1,-100,18715.482723293942,0.01008818774698905,0.08302703150285412,0.9964962320590107,74.44123955465373,4.7431294658843814,550.8096381603793,-127.44977426545132,-37.023101806640625,4761.76025390625,True
1599387888.413656,0.0,10,0.5,0.5,-10.701843696594239,-0.2,-0.001,-0.001,0.8973976284283617,10,1,100,-0.10641430066258963,-10,-1,-100,18715.482723293942,0.01008818774698905,0.08302703150285412,0.9964962320590107,74.44123955465373,4.7431294658843814,550.8096381603793,-127.44977426545132,-37.023101806640625,4761.76025390625,True
1599387888.4515543,0.0,10,0.5,0.5,-7.081668048095704,-0.2,-0.001,-0.001,1.3296875861522324,10,1,100,-0.45606323715726993,-10,-1,-100,18707.813977988902,0.013262914489259606,0.08692977609199488,0.9961261512117057,79.47618328664684,5.076513529968298,590.8449845517285,-127.99367010484346,-54.98486328125,4761.76025390625,True
1599387888.4907103,0.0,10,0.5,0.5,-5.855984185791016,-0.2,-0.001,-0.001,1.0655547515223884,10,1,100,-0.26282635725564263,-10,-1,-100,18705.250480807386,0.014384844292167739,0.08804816936757241,0.9960123473761304,80.688487641726,5.15819127312025,600.7940594245548,-128.174857657848,-61.11871337890625,4761.76025390625,True
1599387888.5296052,0.0,10,0.5,0.5,-0.7730344360351563,-0.2,-0.001,-0.001,1.3531227287331977,10,1,100,-0.6729242068853919,-10,-1,-100,18694.96026804764,0.01912396447268979,0.09165253132632369,0.9956073962583468,83.26708543203071,5.3377342459099815,623.8528862533049,-128.89929757601675,-86.3857421875,4761.76025390625,True
1599387888.5655086,0.0,10,0.5,0.5,-0.78733916015625,-0.2,-0.001,-0.001,0.995347271444025,10,1,100,-0.2005130660715046,-10,-1,-100,18694.96026804764,0.01912396447268979,0.09165253132632369,0.9956073962583468,83.26708543203071,5.3377342459099815,623.8528862533049,-128.89929757601675,-86.3857421875,4761.76025390625,True
1599387888.6044047,0.0,10,0.5,0.5,1.8513770278930666,-0.2,-0.001,-0.001,1.1313563819071877,10,1,100,-0.4579994451427456,-10,-1,-100,18689.793429301586,0.021451105398443637,0.09286478925248012,0.9954476284537913,82.43686069027142,5.2901893288884505,619.5509126895015,-129.26152448726685,-99.45914459228516,4761.76025390625,True
1599387888.6413062,0.0,10,0.5,0.5,4.528526314544679,-0.2,-0.001,-0.001,1.112534219814628,10,1,100,-0.44293731463918184,-10,-1,-100,18684.612097588717,0.02341454292052761,0.09377503179595553,0.9953180409253568,80.06138778890148,5.143263976340293,603.5707343936829,-129.6238977650067,-112.7900390625,4761.76025390625,True
1599387888.675216,0.0,10,0.5,0.5,7.253604477691651,-0.2,-0.001,-0.001,1.0828175697691624,10,1,100,-0.45779338977428674,-10,-1,-100,18679.41626401269,0.025317539729152242,0.0943108466078368,0.9952208229303565,76.17031473267241,4.899554014845787,576.0231207832992,-129.98649632266373,-126.35403442382812,4761.76025390625,True
1599387888.714111,0.0,10,0.5,0.5,8.616734415435792,-0.2,-0.001,-0.001,1.0551384689664094,10,1,100,-0.3528418706741695,-10,-1,-100,18676.81290606677,0.02607542051723788,0.09452739658465042,0.9951807090874387,73.6796876868837,4.742935055076592,558.0511980299111,-130.16789747348355,-133.1419219970703,4761.76025390625,True
1599387888.7530437,0.0,10,0.5,0.5,11.315449169158937,-0.2,-0.001,-0.001,1.0700656758516192,10,1,100,-0.4208491708254894,-10,-1,-100,18671.595311071607,0.027365074139733297,0.09484385291618888,0.9951159712723635,77.28505756745335,4.9833395476826485,587.1610837373026,-130.53049678402596,-146.54290771484375,4761.76025390625,True
1599387888.7905617,0.0,10,0.5,0.5,15.244866374969483,-0.2,-0.001,-0.001,1.0761756329900163,10,1,100,-0.4313938179854375,-10,-1,-100,18663.74174234108,0.028617640692189802,0.09517634299028806,0.9950489909427614,81.68280121063125,5.279426480355157,623.4150335617785,-131.0739133979087,-166.10443115234375,4761.76025390625,True
