Timestamp,Input Throttle,horizon,dT,dt,Input Roll,Roll P,Roll I,Roll D,Input Pitch,Pitch P,Pitch I,Pitch D,Input Yaw,Yaw P,Yaw I,Yaw D,Altitude,Direction X,Direction Y,Direction Z,Drag X,Drag Y,Drag Z,Vertical Velocity,Roll,Mass,Has Fuel
1599385606.690297,0.0,10,0.5,0.5,-2.8451062469482427,-0.05075,-0.00825,-0.37525,-0.0001947033811296353,10,1,100,0.49818363263975424,-10,-1,-100,19348.346772956313,-0.048847641204958124,-0.0001763966702553183,0.9988062258681242,61.166349110848735,3.691903735241539,234.710249628251,-68.84811692064889,-33.92254638671875,4761.76025390625,True
1599385606.7102437,0.0,10,0.5,0.5,-2.8911936325073246,-0.05075,-0.00825,-0.37525,0.00011904936715796156,10,1,100,0.5048727649601612,-10,-1,-100,19345.581901032245,-0.048952292012140707,-0.00015911798173953034,0.998801105219766,61.34630357094586,3.704120388281109,236.69620630669482,-69.21302001862298,-33.924896240234375,4761.76025390625,True
1599385606.731188,0.0,10,0.5,0.5,-2.9383373756408697,-0.05075,-0.00825,-0.37525,-0.0016247312825947882,10,1,100,0.49930291344311695,-10,-1,-100,19345.581901032245,-0.048952292012140707,-0.00015911798173953034,0.998801105219766,61.34630357094586,3.704120388281109,236.69620630669482,-69.21302001862298,-33.924896240234375,4761.76025390625,True
1599385606.7531269,0.0,10,0.5,0.5,-2.9840663162231444,-0.05075,-0.00825,-0.37525,-0.0006333735839556262,10,1,100,0.5102154733388216,-10,-1,-100,19344.193991558393,-0.04900699501845426,-0.00014996098631395657,0.9987984240831399,61.43666940408621,3.7102577934633874,237.69380371220785,-69.39546636633479,-33.9261474609375,4761.76025390625,True
1599385606.7873566,0.0,10,0.5,0.5,-3.011894055175781,-0.05075,-0.00825,-0.37525,0.010102256993815763,10,1,100,0.5087678625443345,-10,-1,-100,19342.802433225443,-0.04899901311240901,-4.3903475232500545e-05,0.9987988259837387,61.52733098010013,3.7164168487333034,238.69463683828414,-69.57790935395803,-33.97052001953125,4761.76025390625,True
1599385606.8102946,0.0,10,0.5,0.5,-2.84936671295166,-0.05075,-0.00825,-0.37525,0.03934682800381776,10,1,100,0.5096560887654639,-10,-1,-100,19338.60586584499,-0.048955287060639584,0.00031841209263723443,0.9988009203452656,61.81836217160303,3.7360482178215997,241.7841479025585,-70.12521625966072,-34.4996337890625,4761.76025390625,True
1599385606.8312378,0.0,10,0.5,0.5,-2.9574593399047853,-0.05075,-0.00825,-0.37525,0.02252270936891104,10,1,100,0.5131661773697671,-10,-1,-100,19337.199712865287,-0.04890294119446956,0.0004945538830263531,0.9988034129692323,61.92204946733875,3.7429887020280335,242.84458996049844,-70.30764387613524,-34.8194580078125,4761.76025390625,True
1599385606.8561723,0.0,10,0.5,0.5,-2.9556160385131838,-0.05075,-0.00825,-0.37525,0.028439423798445516,10,1,100,0.5148740389399771,-10,-1,-100,19335.789911407745,-0.048826422838412833,0.0007080215019367505,0.9988070279780562,62.02835983978512,3.7500797286754946,243.9176872478521,-70.49006721074532,-35.212371826171875,4761.76025390625,True
1599385606.8873115,0.0,10,0.5,0.5,-3.1482567420959473,-0.05075,-0.00825,-0.37525,0.007163464057599455,10,1,100,0.5274085168294907,-10,-1,-100,19335.789911407745,-0.048826422838412833,0.0007080215019367505,0.9988070279780562,62.02835983978512,3.7500797286754946,243.9176872478521,-70.49006721074532,-35.212371826171875,4761.76025390625,True
1599385606.9209883,0.0,10,0.5,0.5,-2.994835075378418,-0.05075,-0.00825,-0.37525,0.03444867729156868,10,1,100,0.5205029805564931,-10,-1,-100,19334.3764617634,-0.04871925757880521,0.0009554252390619828,0.9988120549450645,62.136500393620814,3.7572703625895167,245.00039093357742,-70.67248613486493,-35.678619384765625,4761.76025390625,True
1599385606.953858,0.0,10,0.5,0.5,-2.4313691932678227,-0.05075,-0.00825,-0.37525,0.11716436634337489,10,1,100,0.48385459305981426,-10,-1,-100,19330.114222873584,-0.04824437722230228,0.0019314299685203758,0.9988336946883144,62.46138895462214,3.778771516528855,248.2648731696076,-71.21971516862591,-37.5172119140625,4761.76025390625,True
1599385606.9902527,0.0,10,0.5,0.5,-2.439917960357666,-0.05075,-0.00825,-0.37525,0.11120119329689725,10,1,100,0.4803185588830131,-10,-1,-100,19327.254489964922,-0.047781070463858384,0.002762580125206595,0.998854012084038,62.66576037487613,3.792248059861226,250.40443673559014,-71.58451118927901,-39.1097412109375,4761.76025390625,True
1599385607.02117,0.0,10,0.5,0.5,-2.2296118988037112,-0.05075,-0.00825,-0.37525,0.13079081333728818,10,1,100,0.45981408034973226,-10,-1,-100,19324.380166092073,-0.047174542898196184,0.003693602542464033,0.9988798325137035,62.84513516798604,3.8040811324713855,252.4527126340052,-71.94928889220579,-40.996185302734375,4761.76025390625,True
1599385607.0543306,0.0,10,0.5,0.5,-2.931666230773926,-0.05075,-0.00825,-0.37525,0.0380738436639647,10,1,100,0.5202890620045578,-10,-1,-100,19324.380166092073,-0.047174542898196184,0.003693602542464033,0.9988798325137035,62.84513516798604,3.8040811324713855,252.4527126340052,-71.94928889220579,-40.996185302734375,4761.76025390625,True
1599385607.0792632,0.0,10,0.5,0.5,-2.4771475975036625,-0.05075,-0.00825,-0.37525,0.09523212400565631,10,1,100,0.4816784553223187,-10,-1,-100,19322.93753255345,-0.04682520324846697,0.004209729124180522,0.998894227894746,62.9202260850444,3.8090549634782316,253.42108935961915,-72.1316713974352,-42.0494384765625,4761.76025390625,True
1599385607.101672,0.0,10,0.5,0.5,-1.8744545127868657,-0.05075,-0.00825,-0.37525,0.16558309154541448,10,1,100,0.42757247919072505,-10,-1,-100,19320.04132271232,-0.04601772542921133,0.005314622419193848,0.9989264856509027,63.03011215327357,3.816423769442683,255.1998435111519,-72.4964251166567,-44.3763427734375,4761.76025390625,True
1599385607.1236138,0.0,10,0.5,0.5,-1.623320143890381,-0.05075,-0.00825,-0.37525,0.19223903379182128,10,1,100,0.40378180431388466,-10,-1,-100,19317.130523224594,-0.04507004633249077,0.00655685560751279,0.9989623108847148,63.06975758951526,3.819327879343577,256.6979327385271,-72.86116674310313,-46.996429443359375,4761.76025390625,True
1599385607.155141,0.0,10,0.5,0.5,-2.5964616653442385,-0.05075,-0.00825,-0.37525,0.06862194513237567,10,1,100,0.49816642449974297,-10,-1,-100,19317.130523224594,-0.04507004633249077,0.00655685560751279,0.9989623108847148,63.06975758951526,3.819327879343577,256.6979327385271,-72.86116674310313,-46.996429443359375,4761.76025390625,True
1599385607.187278,0.0,10,0.5,0.5,-1.9816320907592777,-0.05075,-0.00825,-0.37525,0.13933152824508474,10,1,100,0.4390030869075843,-10,-1,-100,19315.66965242976,-0.044535612696658344,0.007194352877532349,0.9989818919722252,63.056782133360535,3.81870630051622,257.3140089801582,-73.04353443329158,-48.4168701171875,4761.76025390625,True
1599385607.235116,0.0,10,0.5,0.5,-1.1994977561950686,-0.05075,-0.00825,-0.37525,0.21914529500033147,10,1,100,0.36180130001116306,-10,-1,-100,19312.73696861393,-0.04335183024697209,0.008493578883165468,0.9990237624461157,62.95030018093706,3.8124012139750656,258.2155698759986,-73.4082671229574,-51.478515625,4761.76025390625,True
1599385607.2839854,0.0,10,0.5,0.5,0.6483317443847652,-0.05075,-0.00825,-0.37525,0.4060198335231739,10,1,100,0.16701232580304243,-10,-1,-100,19306.82783287787,-0.040509735006576064,0.011366700007908594,0.9991144876842831,62.324939607474164,3.7740746037567536,258.2988659133348,-74.13774776678214,-58.482452392578125,4761.76025390625,True
1599385607.322881,0.0,10,0.5,0.5,-1.9625992042541505,-0.05075,-0.00825,-0.37525,0.11965124805280006,10,1,100,0.45044838562107237,-10,-1,-100,19306.82783287787,-0.040509735006576064,0.011366700007908594,0.9991144876842831,62.324939607474164,3.7740746037567536,258.2988659133348,-74.13774776678214,-58.482452392578125,4761.76025390625,True
1599385607.353799,0.0,10,0.5,0.5,-0.26653761596679715,-0.05075,-0.00825,-0.37525,0.2782867093763681,10,1,100,0.2677670966276179,-10,-1,-100,19303.85137996555,-0.038855606320687644,0.012801018638229484,0.9991628374690863,61.7521878048691,3.738843299031154,257.2390516884152,-74.50251342873833,-62.426300048828125,4761.76025390625,True
1599385607.3787327,0.0,10,0.5,0.5,-0.028413740539551258,-0.05075,-0.00825,-0.37525,0.2818965161223568,10,1,100,0.23768608615627893,-10,-1,-100,19300.860335430712,-0.03708595190793828,0.014129481621579494,0.9992121846335681,60.98294236818175,3.6915827862195685,255.3336489039973,-74.86730909213964,-66.41778564453125,4761.76025390625,True
1599385607.404664,0.0,10,0.5,0.5,-0.6476686805725098,-0.05075,-0.00825,-0.37525,0.2313711472167804,10,1,100,0.3065001785734439,-10,-1,-100,19299.35934093746,-0.036111929273767863,0.01486836654450234,0.9992371391418678,60.54477552742392,3.6646912802365024,254.14448888333783,-75.04972035447987,-68.43087768554688,4761.76025390625,True
1599385607.4345846,0.0,10,0.5,0.5,1.301840994262695,-0.05075,-0.00825,-0.37525,0.3747270358708603,10,1,100,0.0654153624745456,-10,-1,-100,19294.834465687978,-0.033044513345418136,0.016833625791814452,0.9993121079925257,58.934976784720845,3.5662184850594563,249.2743680481595,-75.59701868099219,-74.7293701171875,4761.76025390625,True
1599385607.4654994,0.0,10,0.5,0.5,-1.0366270431518556,-0.05075,-0.00825,-0.37525,0.17935301147691116,10,1,100,0.370859634101139,-10,-1,-100,19294.834465687978,-0.033044513345418136,0.016833625791814452,0.9993121079925257,58.934976784720845,3.5662184850594563,249.2743680481595,-75.59701868099219,-74.7293701171875,4761.76025390625,True
1599385607.4964175,0.0,10,0.5,0.5,-0.09536687393188492,-0.05075,-0.00825,-0.37525,0.24963597249006303,10,1,100,0.2493289792962116,-10,-1,-100,19293.318876223522,-0.03195062151354341,0.01746321928267556,0.9993368770125435,58.303643903656365,3.5277316579291784,247.227177121797,-75.77947564167378,-76.88519287109375,4761.76025390625,True
1599385607.5233474,0.0,10,0.5,0.5,0.982066792297363,-0.05075,-0.00825,-0.37525,0.31469963857360506,10,1,100,0.11180532786873507,-10,-1,-100,19290.27674854675,-0.02971788613051564,0.018617149999058617,0.9993849353326506,56.88765076514009,3.4416673373696316,242.43997167581696,-76.14442979743583,-81.2554931640625,4761.76025390625,True
1599385607.5562594,0.0,10,0.5,0.5,0.30829374237060536,-0.05075,-0.00825,-0.37525,0.2641602030969587,10,1,100,0.20182120869908804,-10,-1,-100,19288.750209729886,-0.028519923541281005,0.019196344148599588,0.9994088824562887,56.12494732273446,3.3954416738239592,239.79040518441525,-76.32692755256096,-83.45993041992188,4761.76025390625,True
1599385607.5921621,0.0,10,0.5,0.5,1.4467331657409668,-0.05075,-0.00825,-0.37525,0.3228509609858532,10,1,100,0.05124886985701199,-10,-1,-100,19285.68618144258,-0.02607551074950855,0.02024670684238548,0.9994549207448982,54.443207935689486,3.293816400456972,233.7717970936153,-76.69196556939926,-88.01220703125,4761.76025390625,True
1599385607.6290634,0.0,10,0.5,0.5,0.7246327880859375,-0.05075,-0.00825,-0.37525,0.2695477008796721,10,1,100,0.16077722285240387,-10,-1,-100,19284.14869111986,-0.024862151624452666,0.020708934193194212,0.9994763696362134,53.5257718080845,3.238530452195848,230.40617862011462,-76.87450620226251,-90.26990509033203,4761.76025390625,True
1599385607.6569877,0.0,10,0.5,0.5,1.7635645956039427,-0.05075,-0.00825,-0.37525,0.3197355054954757,10,1,100,0.002610713066002579,-10,-1,-100,19281.06275763712,-0.022335445588509237,0.02157690070481374,0.9995176662902648,52.55612591306653,3.180645740629913,227.35923555988168,-77.23961170923435,-94.6358871459961,4761.76025390625,True
1599385607.6890032,0.0,10,0.5,0.5,1.9176688121795653,-0.05075,-0.00825,-0.37525,0.3144480269823158,10,1,100,-0.024508675136731578,-10,-1,-100,19277.962221272173,-0.019806918536474153,0.022309915108833147,0.9995548777660613,53.85528102274341,3.260509711105016,234.13431576575786,-77.60466244473012,-98.78111267089844,4761.76025390625,True
1599385607.7260091,0.0,10,0.5,0.5,1.232220853805542,-0.05075,-0.00825,-0.37525,0.2779363737776461,10,1,100,0.08314141582434062,-10,-1,-100,19276.40647778404,-0.0185026029827897,0.02263693096200174,0.9995725201502302,54.41643178089165,3.2952400576452066,237.15728723435586,-77.78716309919646,-100.76080322265625,4761.76025390625,True
1599385607.755929,0.0,10,0.5,0.5,3.618960955429077,-0.05075,-0.00825,-0.37525,0.3535084080449978,10,1,100,-0.34990681273770363,-10,-1,-100,19270.147010380402,-0.013396067970958866,0.023614174263296844,0.9996313901317725,56.24153520804952,3.409473569984809,247.52209997390847,-78.51701288098715,-108.04471588134766,4761.76025390625,True
1599385607.789984,0.0,10,0.5,0.5,0.9131578905105592,-0.05075,-0.00825,-0.37525,0.2564621327626358,10,1,100,0.1587818439079338,-10,-1,-100,19270.147010380402,-0.013396067970958866,0.023614174263296844,0.9996313901317725,56.24153520804952,3.409473569984809,247.52209997390847,-78.51701288098715,-108.04471588134766,4761.76025390625,True
1599385607.822987,0.0,10,0.5,0.5,2.944710570907593,-0.05075,-0.00825,-0.37525,0.30496692977881334,10,1,100,-0.2530979752649738,-10,-1,-100,19265.414099210873,-0.009669568201545579,0.024048962828469838,0.9996640169765394,57.309954478059986,3.477377008164985,254.06514901751638,-79.06425303584079,-112.74909973144531,4761.76025390625,True
1599385607.8587534,0.0,10,0.5,0.5,1.2089782543182375,-0.05075,-0.00825,-0.37525,0.2621466476160934,10,1,100,0.1173238963451552,-10,-1,-100,19265.414099210873,-0.009669568201545579,0.024048962828469838,0.9996640169765394,57.309954478059986,3.477377008164985,254.06514901751638,-79.06425303584079,-112.74909973144531,4761.76025390625,True
1599385607.8900802,0.0,10,0.5,0.5,2.4201759948730466,-0.05075,-0.00825,-0.37525,0.27647002685346567,10,1,100,-0.16367513992886443,-10,-1,-100,19262.240585747873,-0.007133257251717191,0.024174237355328303,0.9996823109814784,57.903526255560685,3.5155102572472163,257.93587149939617,-79.42901793922356,-115.53129577636719,4761.76025390625,True
1599385607.9229968,0.0,10,0.5,0.5,1.9500858676910402,-0.05075,-0.00825,-0.37525,0.2705657298017825,10,1,100,-0.03798126295144366,-10,-1,-100,19260.648358057486,-0.005989634057385722,0.02422992250363276,0.999688469043895,58.14488231679502,3.531210040472186,259.63308981426525,-79.61138439945847,-116.81643676757812,4761.76025390625,True
1599385607.9558966,0.0,10,0.5,0.5,2.493599834060669,-0.05075,-0.00825,-0.37525,0.2659993141558752,10,1,100,-0.18332224931375635,-10,-1,-100,19257.45296125696,-0.0036469548016925643,0.024235411391072888,0.9996996271657702,58.53488777281855,3.556947293169732,262.6268132200763,-79.97608952172898,-119.16854858398438,4761.76025390625,True
1599385607.991696,0.0,10,0.5,0.5,2.511502433204651,-0.05075,-0.00825,-0.37525,0.2601141094519113,10,1,100,-0.19470580708630958,-10,-1,-100,19254.242977459566,-0.0014330460411508103,0.024183693539438895,0.9997065046031433,58.81522043611204,3.5759546854600255,265.142567683117,-80.34076264268695,-121.22650909423828,4761.76025390625,True
1599385608.02264,0.0,10,0.5,0.5,2.1526184663772585,-0.05075,-0.00825,-0.37525,0.25790596970198176,10,1,100,-0.09654336192011044,-10,-1,-100,19252.63251552405,-0.00033178975993953353,0.024114233501286247,0.9997091545335576,58.92101187336931,3.58333817452332,266.2495549256755,-80.52308895174025,-122.14535522460938,4761.76025390625,True
1599385608.0556152,0.0,10,0.5,0.5,2.5157425706863403,-0.05075,-0.00825,-0.37525,0.24615817975979915,10,1,100,-0.21943315774123218,-10,-1,-100,19249.40065257717,0.0017688276133749749,0.023942649632225404,0.9997117688501336,59.073530354012945,3.5944468880063414,268.20211393594724,-80.8877242000934,-123.76189422607422,4761.76025390625,True
1599385608.0893805,0.0,10,0.5,0.5,2.725734418106079,-0.05075,-0.00825,-0.37525,0.2240996694596163,10,1,100,-0.3362803493759506,-10,-1,-100,19244.525512034772,0.0047222983943436365,0.02358494536792277,0.9997106832728492,59.187569093375046,3.6039641428665985,270.6186515430023,-81.43464073580519,-125.63424682617188,4761.76025390625,True
1599385608.125689,0.0,10,0.5,0.5,2.0376454679489138,-0.05075,-0.00825,-0.37525,0.2598671730003421,10,1,100,-0.042745107915614644,-10,-1,-100,19244.525512034772,0.0047222983943436365,0.02358494536792277,0.9997106832728492,59.187569093375046,3.6039641428665985,270.6186515430023,-81.43464073580519,-125.63424682617188,4761.76025390625,True
1599385608.156244,0.0,10,0.5,0.5,2.5671516735076905,-0.05075,-0.00825,-0.37525,0.21229374233181866,10,1,100,-0.3394689425476735,-10,-1,-100,19239.617557774996,0.007403316557939351,0.023152486206295626,0.999704532992829,59.20256014665552,3.60727738625093,272.58681611353325,-81.98152320224008,-126.84315490722656,4761.76025390625,True
1599385608.19022,0.0,10,0.5,0.5,2.233924597549439,-0.05075,-0.00825,-0.37525,0.23919629672923495,10,1,100,-0.16358019366047333,-10,-1,-100,19237.974281549337,0.00822609636699774,0.02300472516899489,0.9997015124318157,59.192385089986644,3.6074261560572305,273.1731862516198,-82.1638111672136,-127.09852600097656,4761.76025390625,True
1599385608.2481074,0.0,10,0.5,0.5,2.2276647907257083,-0.05075,-0.00825,-0.37525,0.23154949119118895,10,1,100,-0.1756604353598165,-10,-1,-100,19236.327359364717,0.00906762960470981,0.022801829846247873,0.9996988819884788,59.176824853443094,3.607234389580825,273.73450199408757,-82.34609640851666,-127.28099060058594,4761.76025390625,True
1599385608.2889972,0.0,10,0.5,0.5,2.1650988056182863,-0.05075,-0.00825,-0.37525,0.168384571034277,10,1,100,-0.4179753819639728,-10,-1,-100,19229.703215203364,0.01202079489279818,0.022044400649150548,0.9996847227452088,59.05953761748341,3.6030280841580895,275.72033928511644,-83.07521496268691,-127.2720947265625,4761.76025390625,True
1599385608.327893,0.0,10,0.5,0.5,1.9869112583160398,-0.05075,-0.00825,-0.37525,0.19777342920348512,10,1,100,-0.26843061578974287,-10,-1,-100,19226.369269855903,0.013329619617703532,0.021624986927740765,0.9996772885192613,58.97330655370578,3.599219500573006,276.5807315663714,-83.43976322990542,-126.82572937011719,4761.76025390625,True
1599385608.356815,0.0,10,0.5,0.5,2.018287182617188,-0.05075,-0.00825,-0.37525,0.2203051933806464,10,1,100,-0.20259853475206432,-10,-1,-100,19224.696829079185,0.013905553563257322,0.021450909059400003,0.9996731936391137,58.92310605045888,3.5968837530834614,276.9764182023963,-83.62203521166538,-126.49136352539062,4761.76025390625,True
1599385608.3847427,0.0,10,0.5,0.5,1.9742979429244998,-0.05075,-0.00825,-0.37525,0.2174062463227301,10,1,100,-0.20685622442952495,-10,-1,-100,19223.020742833614,0.014453891965733675,0.021268786737181924,0.999669307180015,58.86880512783758,3.5943006135908955,277.3518406068569,-83.80430609941504,-126.0833740234375,4761.76025390625,True
1599385608.413665,0.0,10,0.5,0.5,1.9256531698226926,-0.05075,-0.00825,-0.37525,0.21197923746621433,10,1,100,-0.21312843505834805,-10,-1,-100,19221.341011291137,0.014995959990314504,0.02105647131534635,0.999665817260806,58.81032753903422,3.5914673070665826,277.706515300148,-83.98657597749067,-125.6021728515625,4761.76025390625,True
1599385608.4396226,0.0,10,0.5,0.5,1.6035312019348145,-0.05075,-0.00825,-0.37525,0.18684605136780869,10,1,100,-0.26797462434973995,-10,-1,-100,19217.970611874247,0.01597532615860342,0.020637597583980212,0.9996593812494775,58.675809035225775,3.5847493395095853,278.32924661583866,-84.35111390820231,-124.4185791015625,4761.76025390625,True
1599385608.469548,0.0,10,0.5,0.5,1.747475343322754,-0.05075,-0.00825,-0.37525,0.20553044465185755,10,1,100,-0.219586162038862,-10,-1,-100,19216.279944122536,0.016415533901708763,0.02042934081057866,0.9996565271535856,58.59769481638093,3.5807402905273458,278.58708763473976,-84.53338238074981,-123.71623992919922,4761.76025390625,True
1599385608.498015,0.0,10,0.5,0.5,0.9235734781265261,-0.05075,-0.00825,-0.37525,0.15689906714144983,10,1,100,-0.30085634332122707,-10,-1,-100,19211.186068543,0.017543912374819334,0.019800781770625674,0.9996500088430234,58.30627731682414,3.5652853954148243,279.07847741779443,-85.08018983984213,-121.16724395751953,4761.76025390625,True
1599385608.5259347,0.0,10,0.5,0.5,1.450717889404297,-0.05075,-0.00825,-0.37525,0.19597420362444087,10,1,100,-0.22349337480165302,-10,-1,-100,19209.480819249642,0.017857192549453834,0.01958763997909167,0.999648660797533,58.18606890103011,3.5587438987890057,279.12784485658676,-85.26246099425678,-120.17033386230469,4761.76025390625,True
1599385608.5568645,0.0,10,0.5,0.5,1.3631492694854739,-0.05075,-0.00825,-0.37525,0.19185849332564497,10,1,100,-0.22525132459066327,-10,-1,-100,19207.771924525732,0.018149218527946695,0.019359565606971614,0.9996478445364319,58.05194850783744,3.5513611036405273,279.1079676128564,-85.44473377144894,-119.10004425048828,4761.76025390625,True
1599385608.589823,0.0,10,0.5,0.5,1.272051663017273,-0.05075,-0.00825,-0.37525,0.19096124858895608,10,1,100,-0.2245060739955706,-10,-1,-100,19206.059384143795,0.018399665694872783,0.019147197829473734,0.9996473563800365,57.90214162723042,3.543027074238207,279.0098607707529,-85.62700885571473,-117.95925903320312,4761.76025390625,True
1599385608.6266916,0.0,10,0.5,0.5,1.177167373085022,-0.05075,-0.00825,-0.37525,0.1880955127990679,10,1,100,-0.2242733825301262,-10,-1,-100,19204.34319841594,0.018619430587117847,0.018930717890767293,0.9996474102025932,57.735749651497244,3.533684820376392,278.8286908383574,-85.80928660077339,-116.74967956542969,4761.76025390625,True
1599385608.656644,0.0,10,0.5,0.5,-0.10751815929412833,-0.05075,-0.00825,-0.37525,0.13058851317936235,10,1,100,-0.25930002050736656,-10,-1,-100,19199.172766674426,0.01913283191534335,0.01821357637634318,0.999651039302457,57.11766554420835,3.498392614409338,277.6872595817626,-86.35614196496792,-112.68801879882812,4761.76025390625,True
1599385608.6898801,0.0,10,0.5,0.5,0.7661022790908815,-0.05075,-0.00825,-0.37525,0.1747706044876127,10,1,100,-0.22080400449510895,-10,-1,-100,19197.44199786603,0.019244844542389568,0.017966227950289952,0.9996533652280561,56.86426022636989,3.483719468256614,277.06766345381186,-86.53843674797903,-111.18771362304688,4761.76025390625,True
1599385608.7230728,0.0,10,0.5,0.5,-0.055242655754089265,-0.05075,-0.00825,-0.37525,0.14200630119139424,10,1,100,-0.22582796627998852,-10,-1,-100,19193.96952211554,0.019387991171769894,0.017446510768264024,0.9996598046637347,56.27291766178785,3.44915229452738,275.3993418404458,-86.90304490874384,-107.96694946289062,4761.76025390625,True
1599385608.7600124,0.0,10,0.5,0.5,0.42668203983306885,-0.05075,-0.00825,-0.37525,0.16517133158837222,10,1,100,-0.2150391190729637,-10,-1,-100,19192.227814953425,0.019416051286432277,0.01718791357052851,0.9996637397542908,55.985530341375565,3.4323441495365357,274.5967404613481,-87.08535875372166,-106.2953109741211,4761.76025390625,True
1599385608.7909288,0.0,10,0.5,0.5,-0.4436832515716551,-0.05075,-0.00825,-0.37525,0.12752029196853706,10,1,100,-0.2113830951191124,-10,-1,-100,19188.733460806427,0.01940519596824686,0.016613679106964496,0.9996736587686829,55.35133087011746,3.3949912073552873,272.68115969675745,-87.45000724584843,-102.81480407714844,4761.76025390625,True
1599385608.8230839,0.0,10,0.5,0.5,-0.6762943658828734,-0.05075,-0.00825,-0.37525,0.11887763282024302,10,1,100,-0.2004155399188008,-10,-1,-100,19185.224520084797,0.019292904575287706,0.016016546931197823,0.9996855775980013,54.67216665757784,3.354713014257233,270.51696470490833,-87.81468566866191,-99.24337768554688,4761.76025390625,True
1599385608.857023,0.0,10,0.5,0.5,-0.12443073081970202,-0.05075,-0.00825,-0.37525,0.14284206428186857,10,1,100,-0.20181313687747807,-10,-1,-100,19183.464579139953,0.019201936924766932,0.015694998180006015,0.9996924290252811,54.33161164053124,3.3344373314360194,269.4194732747693,-87.99703561497756,-97.43533325195312,4761.76025390625,True
1599385608.89355,0.0,10,0.5,0.5,-1.024045748901367,-0.05075,-0.00825,-0.37525,0.10108786264828867,10,1,100,-0.18366244972183285,-10,-1,-100,19179.93375593447,0.018953010318900988,0.015026636247525541,0.9997074490084268,53.58209433293902,3.289506720152836,266.8624914578182,-88.36175855782513,-93.77494049072266,4761.76025390625,True
1599385608.9443862,0.0,10,0.5,0.5,-0.4346027416229247,-0.05075,-0.00825,-0.37525,0.12928070619367116,10,1,100,-0.19156292097496835,-10,-1,-100,19178.162873205263,0.01879780515060504,0.014679272095100811,0.9997155402874749,53.18022526021158,3.265277132987026,265.43687076057995,-88.5441318252314,-91.98332977294922,4761.76025390625,True
1599385608.9862738,0.0,10,0.5,0.5,-2.6577196546554562,-0.05075,-0.00825,-0.37525,-0.003400590746306026,10,1,100,-0.11702295865422989,-10,-1,-100,19171.042866665055,0.01797871157700589,0.013161354644109785,0.9997517415208451,53.78577226583649,3.303593828757423,270.790808155882,-89.27362408550779,-85.23687744140625,4761.76025390625,True
1599385609.0341485,0.0,10,0.5,0.5,-0.8158124067306518,-0.05075,-0.00825,-0.37525,0.1021276264622896,10,1,100,-0.17114088626733076,-10,-1,-100,19169.2537472368,0.01772664468749859,0.012746021993511228,0.9997616240841934,54.374235489116145,3.3398753912357337,274.34308583253943,-89.45596490370609,-83.67889404296875,4761.76025390625,True
1599385609.0600767,0.0,10,0.5,0.5,-2.117977631187439,-0.05075,-0.00825,-0.37525,0.004685833763853148,10,1,100,-0.10471250327638826,-10,-1,-100,19163.864510946092,0.016894876930963244,0.011487582881511147,0.9997912775039739,55.97960576227255,3.43862367562166,284.2645031267246,-90.00290395011594,-79.30596923828125,4761.76025390625,True
1599385609.0900342,0.0,10,0.5,0.5,-0.5033400373458863,-0.05075,-0.00825,-0.37525,0.1298818804569834,10,1,100,-0.18765428216878016,-10,-1,-100,19163.864510946092,0.016894876930963244,0.011487582881511147,0.9997912775039739,55.97960576227255,3.43862367562166,284.2645031267246,-90.00290395011594,-79.30596923828125,4761.76025390625,True
1599385609.114935,0.0,10,0.5,0.5,-1.6238495428085327,-0.05075,-0.00825,-0.37525,0.029942458284319837,10,1,100,-0.1177688069370104,-10,-1,-100,19160.2534576467,0.016261820896347888,0.010584459887111253,0.999811743474757,56.90576724151588,3.495420464883559,290.20245563174205,-90.36746479216289,-76.73117065429688,4761.76025390625,True
1599385609.1458476,0.0,10,0.5,0.5,-1.1866607425689697,-0.05075,-0.00825,-0.37525,0.07050762363500025,10,1,100,-0.1446851954614271,-10,-1,-100,19158.44246289553,0.015933877333637794,0.010138216353284279,0.9998216481564552,57.32830821806175,3.521284783803932,292.97944732166303,-90.5497273683277,-75.546630859375,4761.76025390625,True
1599385609.170783,0.0,10,0.5,0.5,-1.689656169128418,-0.05075,-0.00825,-0.37525,0.010444620502408505,10,1,100,-0.09961608706873756,-10,-1,-100,19154.80953863135,0.015229183399090174,0.009192399896557723,0.9998417733607347,58.09710126487686,3.568256478762777,298.16967367307916,-90.91421922589107,-73.37527465820312,4761.76025390625,True
1599385609.2007012,0.0,10,0.5,0.5,-1.7137706466674805,-0.05075,-0.00825,-0.37525,-0.0005618169463037781,10,1,100,-0.08794628637576808,-10,-1,-100,19151.16203600983,0.014486157744270978,0.008238712001849505,0.9998611277864335,58.784727397775555,3.6101654322807577,302.97533936632334,-91.27867007350191,-71.45608520507812,4761.76025390625,True
1599385609.2296236,0.0,10,0.5,0.5,-1.0150276840209962,-0.05075,-0.00825,-0.37525,0.09406134390670229,10,1,100,-0.16177727393963817,-10,-1,-100,19151.16203600983,0.014486157744270978,0.008238712001849505,0.9998611277864335,58.784727397775555,3.6101654322807577,302.97533936632334,-91.27867007350191,-71.45608520507812,4761.76025390625,True
1599385609.2605748,0.0,10,0.5,0.5,-2.0274970750808716,-0.05075,-0.00825,-0.37525,-0.07145097850812616,10,1,100,-0.02927670828757456,-10,-1,-100,19145.663450784166,0.013285667922501881,0.0067402253655744065,0.9998890240371049,59.66749577316919,3.663787985351364,309.4696318727837,-91.82527797858825,-69.12261962890625,4761.76025390625,True
1599385609.2916083,0.0,10,0.5,0.5,-1.170724203491211,-0.05075,-0.00825,-0.37525,0.07760378044643107,10,1,100,-0.14877447674167388,-10,-1,-100,19145.663450784166,0.013285667922501881,0.0067402253655744065,0.9998890240371049,59.66749577316919,3.663787985351364,309.4696318727837,-91.82527797858825,-69.12261962890625,4761.76025390625,True
1599385609.3262272,0.0,10,0.5,0.5,-1.894495150756836,-0.05075,-0.00825,-0.37525,-0.09357492101840811,10,1,100,-0.006326819892165103,-10,-1,-100,19140.13207177713,0.01199495562719226,0.005189892742510901,0.9999145893789244,60.39226556574745,3.7076051374626213,315.1981718045376,-92.37181525982476,-67.454833984375,4761.76025390625,True
1599385609.3581796,0.0,10,0.5,0.5,-1.2820434371948242,-0.05075,-0.00825,-0.37525,0.060702728362842434,10,1,100,-0.13482488051709662,-10,-1,-100,19140.13207177713,0.01199495562719226,0.005189892742510901,0.9999145893789244,60.39226556574745,3.7076051374626213,315.1981718045376,-92.37181525982476,-67.454833984375,4761.76025390625,True
1599385609.3931699,0.0,10,0.5,0.5,-1.6077194885253907,-0.05075,-0.00825,-0.37525,-0.056601414720388626,10,1,100,-0.03433912724795471,-10,-1,-100,19136.42626933509,0.011085903253203489,0.004129216614607891,0.9999300237112647,60.798562464657074,3.732045568597234,318.6414245746387,-92.73614032017555,-66.71328735351562,4761.76025390625,True
1599385609.6215873,0.0,10,0.5,0.5,-1.5300532218933105,-0.05075,-0.00825,-0.37525,-0.06244803595868253,10,1,100,-0.022721929152090634,-10,-1,-100,19132.705894182203,0.010159161997503805,0.003118503910954214,0.999943531586092,61.148034461262455,3.752957250780248,321.80414164277573,-93.10044275429314,-66.26678466796875,4761.76025390625,True
1599385609.6464944,0.0,10,0.5,0.5,-1.37283927154541,-0.05075,-0.00825,-0.37525,-0.197510867734766,10,1,100,0.10365485938482066,-10,-1,-100,19125.2214304565,0.008173337922803848,0.0009786174878284363,0.9999661188535401,61.68004421839264,3.784405459728184,327.2923842511142,-93.82899347435105,-66.26278686523438,4761.76025390625,True
1599385609.6806839,0.0,10,0.5,0.5,-1.378998267364502,-0.05075,-0.00825,-0.37525,0.015561814691266154,10,1,100,-0.09415149414409164,-10,-1,-100,19125.2214304565,0.008173337922803848,0.0009786174878284363,0.9999661188535401,61.68004421839264,3.784405459728184,327.2923842511142,-93.82899347435105,-66.26278686523438,4761.76025390625,True
1599385609.7096074,0.0,10,0.5,0.5,-1.0561357231140138,-0.05075,-0.00825,-0.37525,-0.1534339139932299,10,1,100,0.0767678333381659,-10,-1,-100,19119.56983527902,0.006625940259761767,-0.0005502402434772284,0.9999778968313993,61.92351910127308,3.7983263190089076,330.61164533,-94.3753726616667,-67.03445434570312,4761.76025390625,True
1599385609.7932959,0.0,10,0.5,0.5,-1.3493517906188965,-0.05075,-0.00825,-0.37525,-0.0014270360871960971,10,1,100,-0.07718591121759127,-10,-1,-100,19119.56983527902,0.006625940259761767,-0.0005502402434772284,0.9999778968313993,61.92351910127308,3.7983263190089076,330.61164533,-94.3753726616667,-67.03445434570312,4761.76025390625,True
1599385609.8192334,0.0,10,0.5,0.5,-1.1802881492614745,-0.05075,-0.00825,-0.37525,-0.061804175520639576,10,1,100,-0.01657316836536498,-10,-1,-100,19117.67868532194,0.006082060977000173,-0.0010911333726491448,0.9999809087988807,61.97156140505627,3.8009124189474988,331.5450942468009,-94.55749513375089,-67.43988037109375,4761.76025390625,True
1599385609.842172,0.0,10,0.5,0.5,-0.8945910285949707,-0.05075,-0.00825,-0.37525,-0.11879751739805326,10,1,100,0.048763267788161174,-10,-1,-100,19113.885458037723,0.005000206397589851,-0.00209385627192899,0.9999853067430011,62.011933886546366,3.8026388878506827,333.1169375602398,-94.9217374622425,-68.47091674804688,4761.76025390625,True
1599385609.8671007,0.0,10,0.5,0.5,-0.7168418563842776,-0.05075,-0.00825,-0.37525,-0.1325417034197971,10,1,100,0.06554824218762109,-10,-1,-100,19110.07766095933,0.0038716437958807516,-0.003122338706346972,0.9999876306111595,61.968807526956155,3.7992162302432444,334.2417160589171,-95.28598014583085,-69.79763793945312,4761.76025390625,True
1599385609.89403,0.0,10,0.5,0.5,-0.5243463142395021,-0.05075,-0.00825,-0.37525,-0.13578998851682694,10,1,100,0.07765920054388573,-10,-1,-100,19106.255294165807,0.0027429630018439934,-0.004079296028110083,0.9999879176759515,61.829808694969664,3.789905941939741,334.8470607074411,-95.65022841833404,-71.41363525390625,4761.76025390625,True
1599385609.9249628,0.0,10,0.5,0.5,-1.127483295440674,-0.05075,-0.00825,-0.37525,-0.0410211752175779,10,1,100,-0.034283679597255264,-10,-1,-100,19106.255294165807,0.0027429630018439934,-0.004079296028110083,0.9999879176759515,61.829808694969664,3.789905941939741,334.8470607074411,-95.65022841833404,-71.41363525390625,4761.76025390625,True
1599385609.9576678,0.0,10,0.5,0.5,-0.7394930816650391,-0.05075,-0.00825,-0.37525,-0.09292473299360868,10,1,100,0.02906919758143557,-10,-1,-100,19104.338646929362,0.0021746122459025854,-0.004543684269126074,0.9999873129169403,61.721135373857415,3.7828544486476714,334.9355275749299,-95.83235634711686,-72.3153076171875,4761.76025390625,True
1599385609.9938583,0.0,10,0.5,0.5,0.2153627792358398,-0.05075,-0.00825,-0.37525,-0.19815425702327097,10,1,100,0.1650159552421202,-10,-1,-100,19098.566849064664,0.0004293088069965372,-0.005915521808337468,0.9999824109931551,61.243110877702435,3.7524573936437,334.35950407300095,-96.37876347615344,-75.33929443359375,4761.76025390625,True
1599385610.0247743,0.0,10,0.5,0.5,-0.911900154876709,-0.05075,-0.00825,-0.37525,-0.06165991703174816,10,1,100,-0.008739985736903898,-10,-1,-100,19098.566849064664,0.0004293088069965372,-0.005915521808337468,0.9999824109931551,61.243110877702435,3.7524573936437,334.35950407300095,-96.37876347615344,-75.33929443359375,4761.76025390625,True
1599385610.0578785,0.0,10,0.5,0.5,1.1141997802734376,-0.05075,-0.00825,-0.37525,-0.24232744711592807,10,1,100,0.24716382815697993,-10,-1,-100,19090.820117316907,-0.0018900494746607638,-0.00755168650065168,0.9999696994129269,60.187586097738944,3.6866965886961562,331.2476555509902,-97.10738642857079,-80.07781982421875,4761.76025390625,True
1599385610.0909202,0.0,10,0.5,0.5,-0.6531710960388184,-0.05075,-0.00825,-0.37525,-0.07941112251022432,10,1,100,0.016079598964692094,-10,-1,-100,19090.820117316907,-0.0018900494746607638,-0.00755168650065168,0.9999696994129269,60.187586097738944,3.6866965886961562,331.2476555509902,-97.10738642857079,-80.07781982421875,4761.76025390625,True
1599385610.1268742,0.0,10,0.5,0.5,-0.11296543426513678,-0.05075,-0.00825,-0.37525,-0.12515156070779512,10,1,100,0.08356845059681473,-10,-1,-100,19088.87432579859,-0.0024958426806487672,-0.007961143714941256,0.9999651948743334,59.868666100049744,3.6669957555973927,330.15279565506444,-97.28956042531092,-81.32064819335938,4761.76025390625,True
1599385610.1518095,0.0,10,0.5,0.5,0.528485031890869,-0.05075,-0.00825,-0.37525,-0.1633194022989657,10,1,100,0.1496274628988595,-10,-1,-100,19084.971812130883,-0.0036393021582404057,-0.00867411246026761,0.9999557566476768,59.13538404540393,3.6219252823639643,327.4148185768937,-97.65393363538543,-83.894287109375,4761.76025390625,True
1599385610.1737494,0.0,10,0.5,0.5,0.6950663604736327,-0.05075,-0.00825,-0.37525,-0.17019389659545867,10,1,100,0.16633352343337882,-10,-1,-100,19081.054722869187,-0.004822829953132225,-0.009378779216724833,0.9999443878594683,59.268442284109234,3.6301858286174804,329.46183271890675,-98.01832059301019,-86.52249145507812,4761.76025390625,True
1599385610.1966875,0.0,10,0.5,0.5,0.8795701370239257,-0.05075,-0.00825,-0.37525,-0.16906253588910283,10,1,100,0.17384056767539097,-10,-1,-100,19077.123059966834,-0.005959106101825796,-0.010003412588436912,0.9999322080976554,60.5193783105689,3.707205745213653,337.7549099951038,-98.38264766642834,-89.23831176757812,4761.76025390625,True
1599385610.2249138,0.0,10,0.5,0.5,-0.12483607711791991,-0.05075,-0.00825,-0.37525,-0.10719161037392763,10,1,100,0.06108315971640087,-10,-1,-100,19077.123059966834,-0.005959106101825796,-0.010003412588436912,0.9999322080976554,60.5193783105689,3.707205745213653,337.7549099951038,-98.38264766642834,-89.23831176757812,4761.76025390625,True
1599385610.2599442,0.0,10,0.5,0.5,0.46306405944824214,-0.05075,-0.00825,-0.37525,-0.13951995674242434,10,1,100,0.12256758754586541,-10,-1,-100,19075.151764134993,-0.006510144473817592,-0.010291921085822948,0.999925844440123,61.131095764201156,3.7449832652253625,341.84577377259717,-98.56478743842453,-90.5838394165039,4761.76025390625,True
1599385610.290802,0.0,10,0.5,0.5,1.0635903005599974,-0.05075,-0.00825,-0.37525,-0.17075242130149437,10,1,100,0.18722024098667894,-10,-1,-100,19071.198245232925,-0.007590944609890511,-0.010832907364150258,0.9999125090116481,62.2846986425765,3.816466462272354,349.6768733404662,-98.92902043576261,-93.14337921142578,4761.76025390625,True
1599385610.3247108,0.0,10,0.5,0.5,0.6444026405334472,-0.05075,-0.00825,-0.37525,-0.14607785897994738,10,1,100,0.14093988932312107,-10,-1,-100,19069.2160230109,-0.008145468579000014,-0.0110959285182921,0.9999052613682685,62.81710705921787,3.849582055184377,353.3622151330182,-99.11111441197154,-94.37950897216797,4761.76025390625,True
1599385610.3578072,0.0,10,0.5,0.5,1.2392270475387575,-0.05075,-0.00825,-0.37525,-0.1724618819670309,10,1,100,0.20279753189613461,-10,-1,-100,19065.24065358448,-0.009204128231230598,-0.011570183952203666,0.9998907014603222,63.832780410891445,3.9129704248101294,360.4913628612856,-99.47525875453653,-96.82780456542969,4761.76025390625,True
1599385610.3939462,0.0,10,0.5,0.5,1.29504594707489,-0.05075,-0.00825,-0.37525,-0.17087661170095536,10,1,100,0.20563877239653777,-10,-1,-100,19061.25072030956,-0.010185726393483367,-0.01198326052838481,0.9998763185739253,64.83279635871229,3.9755990873908438,367.57746469961194,-99.83934460774472,-99.08302307128906,4761.76025390625,True
1599385610.4248621,0.0,10,0.5,0.5,0.9074298830032349,-0.05075,-0.00825,-0.37525,-0.15138889162938662,10,1,100,0.1622250827548173,-10,-1,-100,19059.250292777433,-0.010675876928862222,-0.012177594893328196,0.9998688573180055,65.30141579607684,4.005050626470668,370.959078378463,-100.02136600636666,-100.12287139892578,4761.76025390625,True
1599385610.4578025,0.0,10,0.5,0.5,1.3478334960937501,-0.05075,-0.00825,-0.37525,-0.1705427927307105,10,1,100,0.2153306423340699,-10,-1,-100,19055.238517888007,-0.01159680974424692,-0.012524555734035684,0.9998543141415258,66.21879412291268,4.062835153647166,377.6406899396641,-100.38536723032466,-102.03623962402344,4761.76025390625,True
1599385610.490752,0.0,10,0.5,0.5,1.341443595123291,-0.05075,-0.00825,-0.37525,-0.16922278160990334,10,1,100,0.2174296034991985,-10,-1,-100,19051.212184343138,-0.012445868761928719,-0.012824474176059001,0.9998403038550049,67.06014071418798,4.116057308688223,383.92835254691005,-100.7493149038468,-103.6715316772461,4761.76025390625,True
1599385610.5268114,0.0,10,0.5,0.5,1.3195729051589966,-0.05075,-0.00825,-0.37525,-0.16807995418334726,10,1,100,0.22178028242194434,-10,-1,-100,19047.17129444948,-0.013250362187474591,-0.013083605514966658,0.9998266085520177,67.78512547246002,4.162207462669459,389.5852817802732,-101.11321483590478,-105.02745819091797,4761.76025390625,True
1599385610.5607772,0.0,10,0.5,0.5,1.0675759330749512,-0.05075,-0.00825,-0.37525,-0.15486748820842622,10,1,100,0.18184917609434492,-10,-1,-100,19045.145391398226,-0.0136120813749148,-0.013196265956995672,0.9998202687510566,68.10906516755955,4.1829339144834945,392.20409670040027,-101.2951485930501,-105.5997314453125,4761.76025390625,True
1599385610.5918374,0.0,10,0.5,0.5,1.2603018627166747,-0.05075,-0.00825,-0.37525,-0.1655373084067669,10,1,100,0.22057028971136866,-10,-1,-100,19041.082670108764,-0.014285969873403307,-0.013392780312126457,0.9998082538668539,68.68124550865133,4.219763353095772,397.0263520074889,-101.65898723485249,-106.52455139160156,4761.76025390625,True
1599385610.6253147,0.0,10,0.5,0.5,1.076277393913269,-0.05075,-0.00825,-0.37525,-0.1554837985109167,10,1,100,0.18794484481895826,-10,-1,-100,19039.045852075797,-0.014594931895371322,-0.013477215218440983,0.9998026568443023,68.93079229590047,4.2359428716794945,399.23570147914205,-101.84089339781819,-106.8763427734375,4761.76025390625,True
1599385610.6605592,0.0,10,0.5,0.5,1.160888083267212,-0.05075,-0.00825,-0.37525,-0.16291340581058927,10,1,100,0.22011420015812597,-10,-1,-100,19034.961302313255,-0.015161887884529697,-0.013619112192492766,0.9997922968991435,69.36038054307018,4.264045513705827,403.26768967343605,-102.20468283580453,-107.35824584960938,4761.76025390625,True
1599385610.6918044,0.0,10,0.5,0.5,1.0701098920822145,-0.05075,-0.00825,-0.37525,-0.16075868714431973,10,1,100,0.2164331268275966,-10,-1,-100,19030.862201933167,-0.01563745955411838,-0.013726227286779026,0.9997835068369378,69.70180192219226,4.286745722373924,406.80532227905354,-102.56844574740475,-107.54450988769531,4761.76025390625,True
1599385610.7250187,0.0,10,0.5,0.5,0.8920414487838746,-0.05075,-0.00825,-0.37525,-0.16092739691579622,10,1,100,0.23363065104402186,-10,-1,-100,19024.686270298203,-0.01622029008178206,-0.013823178331021254,0.9997728851746739,70.0526861678286,4.310911690089372,411.1961346256174,-103.11405139980167,-107.26982879638672,4761.76025390625,True
1599385610.7589278,0.0,10,0.5,0.5,1.00186964302063,-0.05075,-0.00825,-0.37525,-0.15141628427183712,10,1,100,0.17595105464648378,-10,-1,-100,19024.686270298203,-0.01622029008178206,-0.013823178331021254,0.9997728851746739,70.0526861678286,4.310911690089372,411.1961346256174,-103.11405139980167,-107.26982879638672,4761.76025390625,True
1599385610.7947662,0.0,10,0.5,0.5,0.7724830459594728,-0.05075,-0.00825,-0.37525,-0.15414779391530803,10,1,100,0.20783243802830612,-10,-1,-100,19020.550796413096,-0.01650508046420506,-0.013846514251927632,0.9997679012460549,70.17827909606845,4.320379580217773,413.4998401831282,-103.47777015081869,-106.71752166748047,4761.76025390625,True
1599385610.8258464,0.0,10,0.5,0.5,0.4078554796218873,-0.05075,-0.00825,-0.37525,-0.14892467710727317,10,1,100,0.21097303994402267,-10,-1,-100,19014.32030726748,-0.01678806967407798,-0.01381904406493503,0.9997635694191651,70.19656948072199,4.324138642491766,415.9609223122424,-104.02333361586903,-105.36601257324219,4761.76025390625,True
1599385610.8586643,0.0,10,0.5,0.5,0.3945806148529054,-0.05075,-0.00825,-0.37525,-0.14506285243070763,10,1,100,0.19297238729026098,-10,-1,-100,19010.14846242743,-0.01687774283991721,-0.013758059516164909,0.9997629006894482,70.09071768521801,4.319381285914344,416.90233129953884,-104.38704063822998,-104.14106750488281,4761.76025390625,True
1599385610.8922744,0.0,10,0.5,0.5,0.8535099794387818,-0.05075,-0.00825,-0.37525,-0.1512287527078396,10,1,100,0.1843678087715823,-10,-1,-100,19010.14846242743,-0.01687774283991721,-0.013758059516164909,0.9997629006894482,70.09071768521801,4.319381285914344,416.90233129953884,-104.38704063822998,-104.14106750488281,4761.76025390625,True
1599385610.9361558,0.0,10,0.5,0.5,0.561030641746521,-0.05075,-0.00825,-0.37525,-0.146571690726866,10,1,100,0.18650419206474714,-10,-1,-100,19008.057084500324,-0.016894195723068706,-0.013715211867647722,0.9997632115227567,70.00238501695581,4.314817621938139,417.16094540602046,-104.56889562990976,-103.45732116699219,4761.76025390625,True
1599385610.9620864,0.0,10,0.5,0.5,0.1896484998703004,-0.05075,-0.00825,-0.37525,-0.13841035339405375,10,1,100,0.18319230946279474,-10,-1,-100,19003.86341699725,-0.016876673751507167,-0.013601772364556059,0.999765057236763,69.76738414170998,4.302075001517113,417.32469756905357,-104.93261142831962,-101.98918151855469,4761.76025390625,True
1599385610.992007,0.0,10,0.5,0.5,0.030323470497131355,-0.05075,-0.00825,-0.37525,-0.13270976446435914,10,1,100,0.1760525441045767,-10,-1,-100,18999.65520052472,-0.016793763417870936,-0.013446708774069945,0.9997685509823812,69.45288231646998,4.284383357612366,417.00246734374133,-105.2963384402866,-100.33140563964844,4761.76025390625,True
1599385611.0250607,0.0,10,0.5,0.5,-0.5593380678176879,-0.05075,-0.00825,-0.37525,-0.11473740402132176,10,1,100,0.15719049923482667,-10,-1,-100,18993.3155950465,-0.01654543372890087,-0.013142513509071705,0.9997767365574108,68.81952417885402,4.24771442344161,415.52050423240956,-105.8419610292913,-97.50054931640625,4761.76025390625,True
1599385611.0629585,0.0,10,0.5,0.5,0.07415045642852786,-0.05075,-0.00825,-0.37525,-0.13179408303258314,10,1,100,0.16988966493621585,-10,-1,-100,18991.195118012372,-0.016434300996054543,-0.013021563726246323,0.9997801521479082,68.5942770725658,4.23455768310266,414.9325150845015,-106.02384475297396,-96.5134506225586,4761.76025390625,True
1599385611.091845,0.0,10,0.5,0.5,0.43568522930145265,-0.05075,-0.00825,-0.37525,-0.1438088998546438,10,1,100,0.1810243393122756,-10,-1,-100,18991.195118012372,-0.016434300996054543,-0.013021563726246323,0.9997801521479082,68.5942770725658,4.23455768310266,414.9325150845015,-106.02384475297396,-96.5134506225586,4761.76025390625,True
1599385611.125782,0.0,10,0.5,0.5,-1.2318593301773069,-0.05075,-0.00825,-0.37525,-0.07872992449498742,10,1,100,0.11713602904030762,-10,-1,-100,18982.676831412944,-0.015853303620023677,-0.01243066541807197,0.9997970550674748,67.68751792313832,4.1811646654329655,412.4990614531332,-106.75142778292374,-92.61985778808594,4761.76025390625,True
1599385611.1597347,0.0,10,0.5,0.5,0.21758080825805665,-0.05075,-0.00825,-0.37525,-0.13767817042903718,10,1,100,0.17517058895897608,-10,-1,-100,18982.676831412944,-0.015853303620023677,-0.01243066541807197,0.9997970550674748,67.68751792313832,4.1811646654329655,412.4990614531332,-106.75142778292374,-92.61985778808594,4761.76025390625,True
1599385611.195461,0.0,10,0.5,0.5,-1.0605538795471192,-0.05075,-0.00825,-0.37525,-0.07660137953354276,10,1,100,0.11310832529389066,-10,-1,-100,18976.249916187488,-0.015289951010390223,-0.011876684026882805,0.9998125633210584,66.91253756784742,4.134744535310389,410.04273746654076,-107.29716565352095,-89.64422607421875,4761.76025390625,True
1599385611.2253678,0.0,10,0.5,0.5,0.04409202690124511,-0.05075,-0.00825,-0.37525,-0.13181138110353102,10,1,100,0.1692848070742834,-10,-1,-100,18976.249916187488,-0.015289951010390223,-0.011876684026882805,0.9998125633210584,66.91253756784742,4.134744535310389,410.04273746654076,-107.29716565352095,-89.64422607421875,4761.76025390625,True
1599385611.260279,0.0,10,0.5,0.5,-0.8017191856384277,-0.05075,-0.00825,-0.37525,-0.08342620908224875,10,1,100,0.12030819189710795,-10,-1,-100,18971.947113801725,-0.014846152501351835,-0.011438529168043223,0.9998243604785685,66.34588125140611,4.100420873205866,408.0700763048489,-107.66101802977403,-87.68682861328125,4761.76025390625,True
1599385611.293059,0.0,10,0.5,0.5,-0.4812165058135986,-0.05075,-0.00825,-0.37525,-0.10273999234631923,10,1,100,0.13995942468674116,-10,-1,-100,18969.79025474016,-0.014623208739606071,-0.011217856128498429,0.9998301463098811,66.04345735355271,4.081986646409604,406.9568796183433,-107.84295279291968,-86.74551391601562,4761.76025390625,True
1599385611.3288426,0.0,10,0.5,0.5,-0.88120200881958,-0.05075,-0.00825,-0.37525,-0.0705706424022279,10,1,100,0.10804453843340667,-10,-1,-100,18965.46561984101,-0.014132445867544974,-0.010726962835089657,0.999842590732229,65.45871966977874,4.0461802880143765,404.8350289890376,-108.20683837604682,-85.00692749023438,4761.76025390625,True
1599385611.3591766,0.0,10,0.5,0.5,-1.5063746562957765,-0.05075,-0.00825,-0.37525,0.0007526165288567754,10,1,100,0.039388348920032026,-10,-1,-100,18956.77268195327,-0.013064570004231776,-0.009634775438016349,0.9998682353754735,65.13738770703934,4.0263272856261,405.79790987237243,-108.93464267846929,-82.03759765625,4761.76025390625,True
1599385611.3924584,0.0,10,0.5,0.5,-0.4048905712127686,-0.05075,-0.00825,-0.37525,-0.10811534937136848,10,1,100,0.14582784887888492,-10,-1,-100,18956.77268195327,-0.013064570004231776,-0.009634775438016349,0.9998682353754735,65.13738770703934,4.0263272856261,405.79790987237243,-108.93464267846929,-82.03759765625,4761.76025390625,True
1599385611.4254258,0.0,10,0.5,0.5,-0.6827061357498169,-0.05075,-0.00825,-0.37525,-0.0757203289127136,10,1,100,0.11459882633652291,-10,-1,-100,18954.590350484592,-0.01278373319111196,-0.009343354150472423,0.999874631090777,65.49284133200838,4.0481812967171935,408.7542817011739,-109.11657369089012,-81.41348266601562,4761.76025390625,True
1599385611.4623225,0.0,10,0.5,0.5,-1.1028375671386719,-0.05075,-0.00825,-0.37525,-0.0026135269457549654,10,1,100,0.04548751057979175,-10,-1,-100,18948.021526316414,-0.01190346100667361,-0.008417162243529024,0.9998937238506044,66.38513892170337,4.1027703107550515,416.5802121180737,-109.66230012379636,-79.90673828125,4761.76025390625,True
1599385611.4922614,0.0,10,0.5,0.5,-0.5479200603485108,-0.05075,-0.00825,-0.37525,-0.09483136732264054,10,1,100,0.13311974476229171,-10,-1,-100,18948.021526316414,-0.01190346100667361,-0.008417162243529024,0.9998937238506044,66.38513892170337,4.1027703107550515,416.5802121180737,-109.66230012379636,-79.90673828125,4761.76025390625,True
1599385611.5263069,0.0,10,0.5,0.5,-0.891155881500244,-0.05075,-0.00825,-0.37525,-0.020657214413670896,10,1,100,0.06421503287175305,-10,-1,-100,18943.624120860244,-0.011280645300953577,-0.007746500401787975,0.9999063650028032,66.85849720921011,4.131521936813446,421.0666263341575,-110.02606949042661,-79.12564086914062,4761.76025390625,True
1599385611.5597079,0.0,10,0.5,0.5,-0.8375765808105469,-0.05075,-0.00825,-0.37525,-0.015203247532090236,10,1,100,0.05849559672534608,-10,-1,-100,18939.212165958248,-0.010666099154158426,-0.007090981013668193,0.9999179727943176,67.24905145422387,4.155085872120165,425.05166794302085,-110.38980458839663,-78.583740234375,4761.76025390625,True
1599385611.5953014,0.0,10,0.5,0.5,-0.816350765991211,-0.05075,-0.00825,-0.37525,0.03927483943927143,10,1,100,0.010613095162784539,-10,-1,-100,18932.56695522985,-0.00967632887182703,-0.006004149600195298,0.9999351573212848,67.65226315316025,4.17908680728636,429.903098567571,-110.9353553372619,-78.17764282226562,4761.76025390625,True
1599385611.6262548,0.0,10,0.5,0.5,-0.6641375022888185,-0.05075,-0.00825,-0.37525,0.01079146569822436,10,1,100,0.03621411411000569,-10,-1,-100,18928.11863043811,-0.00901397408161825,-0.005280001148836593,0.9999454334408073,67.81688533673803,4.188648714994135,432.489038609414,-111.29902812312662,-78.19564819335938,4761.76025390625,True
1599385611.659448,0.0,10,0.5,0.5,-0.6779476570129395,-0.05075,-0.00825,-0.37525,-0.061029593939680014,10,1,100,0.10188866966508499,-10,-1,-100,18928.11863043811,-0.00901397408161825,-0.005280001148836593,0.9999454334408073,67.81688533673803,4.188648714994135,432.489038609414,-111.29902812312662,-78.19564819335938,4761.76025390625,True
1599385611.6925879,0.0,10,0.5,0.5,-0.6407823554992677,-0.05075,-0.00825,-0.37525,-0.02132333488066525,10,1,100,0.06518168008917224,-10,-1,-100,18925.889013121254,-0.008684927332551703,-0.004923986940742143,0.9999501619530023,67.86511503089095,4.19133369483507,433.5673507899417,-111.48085812576845,-78.29608154296875,4761.76025390625,True
1599385611.728607,0.0,10,0.5,0.5,-0.40852046585083013,-0.05075,-0.00825,-0.37525,0.06565282280873955,10,1,100,-0.014242421735750396,-10,-1,-100,18919.178342166007,-0.007667738128329801,-0.003813927853022849,0.9999633292007899,67.87891919068196,4.191379690874624,435.9694400636672,-112.02633031343015,-78.93701171875,4761.76025390625,True
1599385611.7605267,0.0,10,0.5,0.5,-0.5168114356994629,-0.05075,-0.00825,-0.37525,-0.0028591488999888393,10,1,100,0.048667683013070256,-10,-1,-100,18916.93417918752,-0.007319836923913625,-0.0034329110138891974,0.9999673170206004,67.84428468156065,4.189006126884251,436.5183360556131,-112.2081504036384,-79.25338745117188,4761.76025390625,True
1599385611.793073,0.0,10,0.5,0.5,-0.30580105667114255,-0.05075,-0.00825,-0.37525,0.04145032426444481,10,1,100,0.007212990346974868,-10,-1,-100,18912.434943889035,-0.006631669437722778,-0.0026890918069424658,0.9999743945450416,67.72022210162235,4.180942886970302,437.2606645175928,-112.57178805544,-80.03158569335938,4761.76025390625,True
1599385611.8256788,0.0,10,0.5,0.5,-0.405790739440918,-0.05075,-0.00825,-0.37525,0.006829496097695273,10,1,100,0.03861219101881071,-10,-1,-100,18910.1798717723,-0.006296302448719562,-0.0023328346661764207,0.9999774569748532,67.63143608466186,4.175298237797511,437.4570131904532,-112.7536064980729,-80.48211669921875,4761.76025390625,True
1599385611.8627741,0.0,10,0.5,0.5,-0.14724676971435557,-0.05075,-0.00825,-0.37525,0.052996885203726495,10,1,100,-0.004400410043705338,-10,-1,-100,18905.65881806775,-0.005605497138655541,-0.0015947922077682345,0.9999830173756166,67.41284585113662,4.161564817848638,437.57812606130153,-113.11724512094492,-81.48477172851562,4761.76025390625,True
1599385611.8932164,0.0,10,0.5,0.5,-0.2883440277099609,-0.05075,-0.00825,-0.37525,0.019631088338681407,10,1,100,0.02645173369910015,-10,-1,-100,18903.392836868297,-0.005263125570952207,-0.001232762406346675,0.9999853897963078,67.28302438813498,4.15347908898448,437.5018478881324,-113.29906594818817,-82.03219604492188,4761.76025390625,True
1599385611.9267557,0.0,10,0.5,0.5,0.008428728485107395,-0.05075,-0.00825,-0.37525,0.06333211396860615,10,1,100,-0.01541920756951505,-10,-1,-100,18898.8499646344,-0.00457614556476468,-0.0005116880071525973,0.9999893984773806,66.99084233217194,4.135403783907442,437.12883085701594,-113.66271227848438,-83.20437622070312,4761.76025390625,True
1599385611.9608011,0.0,10,0.5,0.5,0.10489016036987303,-0.05075,-0.00825,-0.37525,0.06796652527140949,10,1,100,-0.02114887337478747,-10,-1,-100,18894.29254632222,-0.0039041669457345078,0.00018097203887382858,0.9999923623356236,66.65734734202806,4.11492875060474,436.47293964554217,-114.02636681933232,-84.45361328125,4761.76025390625,True
1599385611.9970403,0.0,10,0.5,0.5,-0.08204683380126959,-0.05075,-0.00825,-0.37525,0.03779727012417468,10,1,100,0.00804323777837939,-10,-1,-100,18892.008382316213,-0.0035633053999503082,0.0005314325128432534,0.9999935101959967,66.48025927282971,4.104112342718602,436.0718137563111,-114.20819763513961,-85.10308837890625,4761.76025390625,True
1599385612.0269938,0.0,10,0.5,0.5,0.8272423652648925,-0.05075,-0.00825,-0.37525,0.14903400697454539,10,1,100,-0.10327787222287155,-10,-1,-100,18882.835358942975,-0.0022463763298457254,0.001855992884490028,0.9999957545328866,65.73380867599991,4.058917010950695,434.1774710365654,-114.9355487541529,-87.79629516601562,4761.76025390625,True
1599385612.0602362,0.0,10,0.5,0.5,-0.17554580535888673,-0.05075,-0.00825,-0.37525,0.017255967792391146,10,1,100,0.027771179687316128,-10,-1,-100,18882.835358942975,-0.0022463763298457254,0.001855992884490028,0.9999957545328866,65.73380867599991,4.058917010950695,434.1774710365654,-114.9355487541529,-87.79629516601562,4761.76025390625,True
1599385612.0934389,0.0,10,0.5,0.5,0.6794339408874511,-0.05075,-0.00825,-0.37525,0.11989887010836472,10,1,100,-0.07662532002090602,-10,-1,-100,18875.917406358523,-0.001302245752315055,0.002783955704873867,0.9999952768621629,66.37643114845169,4.099732198707847,440.69766174550915,-115.48102277641047,-89.7861328125,4761.76025390625,True
1599385612.1294062,0.0,10,0.5,0.5,-0.05856312103271484,-0.05075,-0.00825,-0.37525,0.02772427474185713,10,1,100,0.01718597861500116,-10,-1,-100,18875.917406358523,-0.001302245752315055,0.002783955704873867,0.9999952768621629,66.37643114845169,4.099732198707847,440.69766174550915,-115.48102277641047,-89.7861328125,4761.76025390625,True
1599385612.1601186,0.0,10,0.5,0.5,0.49280078659057613,-0.05075,-0.00825,-0.37525,0.09618730664424185,10,1,100,-0.05350575392512316,-10,-1,-100,18871.287257018965,-0.0006644385689370227,0.0034013714062484405,0.99999399457894,66.78812260702095,4.126126268364101,444.9584452285923,-115.84462913683339,-91.0615234375,4761.76025390625,True
1599385612.1936548,0.0,10,0.5,0.5,0.7649348335266113,-0.05075,-0.00825,-0.37525,0.12587636881178782,10,1,100,-0.08557779396310378,-10,-1,-100,18864.3147648311,0.0002018302673157554,0.0042273460580462665,0.9999910443648227,67.36451579060059,4.163473972986828,451.11070206735843,-116.38997658351816,-92.80329895019531,4761.76025390625,True
1599385612.226606,0.0,10,0.5,0.5,0.5834432384490966,-0.05075,-0.00825,-0.37525,0.10179506772170745,10,1,100,-0.06113561386024963,-10,-1,-100,18859.64825980086,0.0007618663653323602,0.004754018333165546,0.9999884093674933,67.71181561917692,4.186264268054272,454.9866606782,-116.75350236037839,-93.88961791992188,4761.76025390625,True
1599385612.262466,0.0,10,0.5,0.5,0.3938489902496338,-0.05075,-0.00825,-0.37525,0.0762061087001992,10,1,100,-0.03379635329501885,-10,-1,-100,18857.309554510633,0.0010169740929941897,0.0049947418824061686,0.9999870090742291,67.87675414354285,4.197169480486001,456.8722124280201,-116.93525397662877,-94.37850189208984,4761.76025390625,True
1599385612.293227,0.0,10,0.5,0.5,0.21961393337249757,-0.05075,-0.00825,-0.37525,0.05268439676509282,10,1,100,-0.008844892494611789,-10,-1,-100,18857.309554510633,0.0010169740929941897,0.0049947418824061686,0.9999870090742291,67.87675414354285,4.197169480486001,456.8722124280201,-116.93525397662877,-94.37850189208984,4761.76025390625,True
1599385612.3271322,0.0,10,0.5,0.5,0.5810999858856201,-0.05075,-0.00825,-0.37525,0.10487424680156665,10,1,100,-0.06450844621915341,-10,-1,-100,18852.62123965996,0.0015185326350002693,0.0054648189101527194,0.9999839147770907,68.1687446124832,4.216720668561761,460.3992687116653,-117.29873612845657,-95.20783996582031,4761.76025390625,True
1599385612.3598535,0.0,10,0.5,0.5,0.5677709186553955,-0.05075,-0.00825,-0.37525,0.10752596493277108,10,1,100,-0.06784864866682906,-10,-1,-100,18847.918386539794,0.0020002405699528925,0.005911783294390252,0.9999805247383284,68.41347591816375,4.233440992721002,463.62014535354376,-117.6621928012184,-95.88751983642578,4761.76025390625,True
1599385612.3968983,0.0,10,0.5,0.5,0.4479028841018677,-0.05075,-0.00825,-0.37525,0.08682074991301725,10,1,100,-0.045639728857678245,-10,-1,-100,18845.561508084647,0.0022323970426449983,0.006126198243144883,0.999978742823331,68.52314538155585,4.241044860130332,465.1488837459388,-117.84391239893239,-96.18917846679688,4761.76025390625,True
1599385612.4268262,0.0,10,0.5,0.5,0.5688163946151733,-0.05075,-0.00825,-0.37525,0.10935996807011447,10,1,100,-0.06988781144171534,-10,-1,-100,18840.836848726147,0.002659813883699531,0.006522140902205745,0.9999751932263901,68.72695689443168,4.255343027629667,468.1087141911491,-118.20733472836125,-96.72248077392578,4761.76025390625,True
1599385612.4595776,0.0,10,0.5,0.5,0.5955262454986572,-0.05075,-0.00825,-0.37525,0.12912910846694822,10,1,100,-0.09091988377690008,-10,-1,-100,18833.722604472656,0.0032359734334907724,0.007058409882052898,0.9999698532085228,68.97708963473741,4.2734531570837655,472.1869848260251,-118.75242945998676,-97.24151611328125,4761.76025390625,True
1599385612.4936378,0.0,10,0.5,0.5,0.47700430831909185,-0.05075,-0.00825,-0.37525,0.11087635309055147,10,1,100,-0.07108276955859777,-10,-1,-100,18828.961605724762,0.0035752917866020565,0.007376107129240176,0.999966404601804,69.10351479920233,4.283075814285835,474.63947999725553,-119.11580337131966,-97.40605926513672,4761.76025390625,True
1599385612.529504,0.0,10,0.5,0.5,0.42049373264312745,-0.05075,-0.00825,-0.37525,0.07950410194412283,10,1,100,-0.03757490728302326,-10,-1,-100,18828.961605724762,0.0035752917866020565,0.007376107129240176,0.999966404601804,69.10351479920233,4.283075814285835,474.63947999725553,-119.11580337131966,-97.40605926513672,4761.76025390625,True
1599385612.560455,0.0,10,0.5,0.5,0.4241870059967041,-0.05075,-0.00825,-0.37525,0.10986788587613563,10,1,100,-0.06931551331763107,-10,-1,-100,18824.186072734068,0.0038607759673536853,0.007649279018557388,0.9999632907959304,69.19812339607012,4.2907476949036685,476.8794616085548,-119.47916167242143,-97.40581512451172,4761.76025390625,True
1599385612.593506,0.0,10,0.5,0.5,0.305910927772522,-0.05075,-0.00825,-0.37525,0.12223745642278222,10,1,100,-0.08174792469755401,-10,-1,-100,18816.99552222027,0.004230511771852628,0.008007435685919467,0.9999589910310742,69.27955079790533,4.298510202184135,479.8305911195289,-120.02417498519017,-97.12114715576172,4761.76025390625,True
1599385612.6263015,0.0,10,0.5,0.5,0.4149952653884888,-0.05075,-0.00825,-0.37525,0.08672305906692566,10,1,100,-0.04509569801554559,-10,-1,-100,18816.99552222027,0.004230511771852628,0.008007435685919467,0.9999589910310742,69.27955079790533,4.298510202184135,479.8305911195289,-120.02417498519017,-97.12114715576172,4761.76025390625,True
