Timestamp,Input Throttle,horizon,dT,dt,Input Roll,Roll P,Roll I,Roll D,Input Pitch,Pitch P,Pitch I,Pitch D,Input Yaw,Yaw P,Yaw I,Yaw D,Altitude,Direction X,Direction Y,Direction Z,Drag X,Drag Y,Drag Z,Vertical Velocity,Roll,Mass,Has Fuel
1599387283.6065955,0.0,10,0.5,0.5,-8.424189720153807,-0.15025,-0.00825,-0.37525,0.0007780170038482748,10,1,100,0.5037143168594013,-10,-1,-100,19348.345351934317,-0.048895921212837985,-0.00016614912464958637,0.9988038652724649,61.16618577263804,3.692382150527393,234.7202165229917,-68.84745197747505,-33.923797607421875,4761.76025390625,True
1599387283.64849,0.0,10,0.5,0.5,-8.469755764007568,-0.15025,-0.00825,-0.37525,0.0013158209389014504,10,1,100,0.5119009856496821,-10,-1,-100,19344.19261020969,-0.04906003195283815,-0.00013893160557811116,0.9987958219590205,61.437062810416506,3.7107728923965073,237.70608250580514,-69.39480154267571,-33.927520751953125,4761.76025390625,True
1599387283.6933413,0.0,10,0.5,0.5,-8.517412669372558,-0.15025,-0.00825,-0.37525,-0.0014198241288038815,10,1,100,0.5003959148449492,-10,-1,-100,19344.19261020969,-0.04906003195283815,-0.00013893160557811116,0.9987958219590205,61.437062810416506,3.7107728923965073,237.70608250580514,-69.39480154267571,-33.927520751953125,4761.76025390625,True
1599387283.7362504,0.0,10,0.5,0.5,-8.26224125137329,-0.15025,-0.00825,-0.37525,0.050576191140347664,10,1,100,0.49985003115417853,-10,-1,-100,19338.60453778284,-0.04901046934478311,0.00033388574378288296,0.9987982090567213,61.8193464014465,3.736603466217291,241.7989747939225,-70.12455131124428,-34.501129150390625,4761.76025390625,True
1599387283.7771473,0.0,10,0.5,0.5,-8.523274371337891,-0.15025,-0.00825,-0.37525,0.003327844778626537,10,1,100,0.5097073388941609,-10,-1,-100,19338.60453778284,-0.04901046934478311,0.00033388574378288296,0.9987982090567213,61.8193464014465,3.736603466217291,241.7989747939225,-70.12455131124428,-34.501129150390625,4761.76025390625,True
1599387283.8180444,0.0,10,0.5,0.5,-8.194468990325927,-0.15025,-0.00825,-0.37525,0.04643699339080109,10,1,100,0.5013250815242732,-10,-1,-100,19335.788610125892,-0.04888971203292524,0.0007254835623083035,0.9988039195612612,62.029467150828076,3.750644912710727,243.9331338496419,-70.48940212355431,-35.213958740234375,4761.76025390625,True
1599387283.8605797,0.0,10,0.5,0.5,-7.978545602416991,-0.15025,-0.00825,-0.37525,0.06541281010489766,10,1,100,0.4918999921328382,-10,-1,-100,19332.958088640473,-0.04864980483492056,0.0012533294733120108,0.9988151108462243,62.2470686712809,3.7650945404443603,246.10632359425455,-70.85423528809544,-36.219879150390625,4761.76025390625,True
1599387283.9025013,0.0,10,0.5,0.5,-6.880640734100341,-0.15025,-0.00825,-0.37525,0.17792256251586558,10,1,100,0.43350375538028096,-10,-1,-100,19327.25326850568,-0.04785660540731586,0.0027548659329848057,0.9988504172460358,62.66889888453135,3.792943764997958,250.4284206792861,-71.5838454858393,-39.11187744140625,4761.76025390625,True
1599387283.9433932,0.0,10,0.5,0.5,-8.007845793914795,-0.15025,-0.00825,-0.37525,0.028044403141884566,10,1,100,0.5176093586814827,-10,-1,-100,19327.25326850568,-0.04785660540731586,0.0027548659329848057,0.9988504172460358,62.66889888453135,3.792943764997958,250.4284206792861,-71.5838454858393,-39.11187744140625,4761.76025390625,True
1599387283.9871593,0.0,10,0.5,0.5,-7.058518161773682,-0.15025,-0.00825,-0.37525,0.13184859800143983,10,1,100,0.4582366847640895,-10,-1,-100,19324.37897097133,-0.047273347821332905,0.0036960360081325946,0.9988751523106328,62.84942772211351,3.8048484805529132,252.48151301074768,-71.94862304853544,-40.998291015625,4761.76025390625,True
1599387284.0300453,0.0,10,0.5,0.5,-6.660882300567626,-0.15025,-0.00825,-0.37525,0.1491824687635506,10,1,100,0.44064909340891534,-10,-1,-100,19321.490083210054,-0.04654025068737288,0.004705865777915107,0.9989053307962855,62.98895035353607,3.8141067018537496,254.3771389601854,-72.31338399197048,-43.178955078125,4761.76025390625,True
1599387284.0699387,0.0,10,0.5,0.5,-6.171759201049805,-0.15025,-0.00825,-0.37525,0.17927132223034944,10,1,100,0.420139822334309,-10,-1,-100,19318.586605103803,-0.04568949234720868,0.0058929987684132315,0.9989383078321552,63.06808286882275,3.8195107224272205,256.03404286473443,-72.67813093144032,-45.652374267578125,4761.76025390625,True
1599387284.1108298,0.0,10,0.5,0.5,-5.635633888244629,-0.15025,-0.00825,-0.37525,0.1947405605601641,10,1,100,0.39299133204861636,-10,-1,-100,19315.66853752092,-0.04467233534410368,0.007107356444251667,0.998976410101499,63.06692010871308,3.8198262991136236,257.36723521658064,-73.0428679880351,-48.42041015625,4761.76025390625,True
1599387284.1507237,0.0,10,0.5,0.5,-5.053407822418213,-0.15025,-0.00825,-0.37525,0.21669307608059035,10,1,100,0.3660967104380203,-10,-1,-100,19312.735880543245,-0.04350713941446529,0.008404298756063366,0.9990177658992804,62.96167567550209,3.813592262150019,258.2741590661897,-73.40760042103571,-51.482208251953125,4761.76025390625,True
1599387284.18962,0.0,10,0.5,0.5,-2.5065024742126467,-0.15025,-0.00825,-0.37525,0.3853217918993614,10,1,100,0.17332353100094355,-10,-1,-100,19306.82679854508,-0.04070038996530271,0.011108988807869846,0.9991096379398705,62.33591478355928,3.7752253222038306,258.35635490019797,-74.13708084757171,-58.488555908203125,4761.76025390625,True
1599387284.2285132,0.0,10,0.5,0.5,-3.042791567230224,-0.15025,-0.00825,-0.37525,0.26564591776132923,10,1,100,0.2728636401044563,-10,-1,-100,19303.850372344023,-0.03906126425735001,0.01247003990547173,0.9991590042327465,61.76019306369573,3.739800244549305,257.28440014236656,-74.50184665128845,-62.4334716796875,4761.76025390625,True
1599387284.2679865,0.0,10,0.5,0.5,-4.500665112304687,-0.15025,-0.00825,-0.37525,0.1307152636354572,10,1,100,0.43579336612216896,-10,-1,-100,19303.850372344023,-0.03906126425735001,0.01247003990547173,0.9991590042327465,61.76019306369573,3.739800244549305,257.28440014236656,-74.50184665128845,-62.4334716796875,4761.76025390625,True
1599387284.309393,0.0,10,0.5,0.5,0.1328137626647945,-0.15025,-0.00825,-0.37525,0.406559452261839,10,1,100,0.0320458579715826,-10,-1,-100,19297.853743529995,-0.03539954922014247,0.014967517338045964,0.9992611497200049,59.939757299466955,3.6281347459359,252.25623397927387,-75.23148137064075,-71.2095947265625,4761.76025390625,True
1599387284.3492863,0.0,10,0.5,0.5,-3.133945793914795,-0.15025,-0.00825,-0.37525,0.15803297414492162,10,1,100,0.3969716560736191,-10,-1,-100,19297.853743529995,-0.03539954922014247,0.014967517338045964,0.9992611497200049,59.939757299466955,3.6281347459359,252.25623397927387,-75.23148137064075,-71.2095947265625,4761.76025390625,True
1599387284.390245,0.0,10,0.5,0.5,-0.5694194923400882,-0.15025,-0.00825,-0.37525,0.2944554831035911,10,1,100,0.16593915425881764,-10,-1,-100,19294.833537407103,-0.03331057834563261,0.016196619554574722,0.9993138020088005,58.638090511282634,3.548675921312068,248.03076502472354,-75.59637206135089,-76.03936767578125,4761.76025390625,True
1599387284.4285815,0.0,10,0.5,0.5,0.2518445747375486,-0.15025,-0.00825,-0.37525,0.281469203139801,10,1,100,0.14646558178027608,-10,-1,-100,19291.798734009382,-0.031247174863978457,0.01718456394852419,0.9993639501327426,57.05762933418739,3.4525794551178444,242.56615502262105,-75.96132400545517,-80.99603271484375,4761.76025390625,True
1599387284.4675066,0.0,10,0.5,0.5,1.1095231101989746,-0.15025,-0.00825,-0.37525,0.299429609208883,10,1,100,0.09458786292099286,-10,-1,-100,19288.74933049886,-0.028913640687229736,0.018234627363496625,0.9994155790996677,55.24887272011778,3.3430339523474712,236.05992045967437,-76.32634167766524,-86.10824584960938,4761.76025390625,True
1599387284.5034044,0.0,10,0.5,0.5,2.0214399223327635,-0.15025,-0.00825,-0.37525,0.2884600140837298,10,1,100,0.07279711688998217,-10,-1,-100,19285.685324260266,-0.026609399064139873,0.019078287213611007,0.9994638356831328,53.158585473656,3.2169277040761086,228.26827977069257,-76.69142780802758,-91.43060302734375,4761.76025390625,True
1599387284.5443068,0.0,10,0.5,0.5,1.4737140266418456,-0.15025,-0.00825,-0.37525,0.24847459815064826,10,1,100,0.17064257986256154,-10,-1,-100,19284.147844447172,-0.02542055901224523,0.019470864268169377,0.9994872088346881,52.472018569484675,3.1757774480099115,225.88265682276477,-76.87398834389559,-94.12138366699219,4761.76025390625,True
1599387284.6156306,0.0,10,0.5,0.5,3.2935688289642333,-0.15025,-0.00825,-0.37525,0.28638604104507076,10,1,100,0.02219160792198538,-10,-1,-100,19281.061932840734,-0.023006683384155974,0.020162341466342548,0.9995319767302375,54.194428288852365,3.2812574905839615,234.45937419928597,-77.23904603854704,-99.43897247314453,4761.76025390625,True
1599387284.709379,0.0,10,0.5,0.5,6.51443653125763,-0.15025,-0.00825,-0.37525,0.32915840160326276,10,1,100,-0.27872095525563345,-10,-1,-100,19274.84631322499,-0.018092767426624794,0.02117156642188493,0.9996121330506597,56.9230956462343,3.450190306548468,248.70370377576097,-77.96891530572827,-109.301025390625,4761.76025390625,True
1599387284.7841792,0.0,10,0.5,0.5,5.214270340538024,-0.15025,-0.00825,-0.37525,0.2645553468135764,10,1,100,-0.054705541112590156,-10,-1,-100,19271.71661159559,-0.01568113713637932,0.02149383267745684,0.9996459958880161,58.00184349494264,3.5177058754782413,254.6583548334691,-78.33373516439804,-113.79560852050781,4761.76025390625,True
1599387284.846013,0.0,10,0.5,0.5,4.693017764472961,-0.15025,-0.00825,-0.37525,0.246110271620199,10,1,100,0.051279733991277665,-10,-1,-100,19270.14628916327,-0.014473503125392204,0.021610916050971526,0.9996616857791025,58.5015924051683,3.549085666022147,257.47825502387593,-78.51611889812949,-115.93255615234375,4761.76025390625,True
1599387284.9008663,0.0,10,0.5,0.5,7.064414299201966,-0.15025,-0.00825,-0.37525,0.26080548595575126,10,1,100,-0.2115059039734981,-10,-1,-100,19265.413438406074,-0.011005717357628456,0.021844908885659965,0.9997007923079891,59.6343822800038,3.6209097926580944,264.376306486193,-79.06318236428257,-121.90094757080078,4761.76025390625,True
1599387284.9537246,0.0,10,0.5,0.5,4.8665957855224615,-0.15025,-0.00825,-0.37525,0.2380939416416688,10,1,100,0.13283328961662522,-10,-1,-100,19265.413438406074,-0.011005717357628456,0.021844908885659965,0.9997007923079891,59.6343822800038,3.6209097926580944,264.376306486193,-79.06318236428257,-121.90094757080078,4761.76025390625,True
1599387285.003592,0.0,10,0.5,0.5,8.544110051918029,-0.15025,-0.00825,-0.37525,0.24016373357513557,10,1,100,-0.351642914007288,-10,-1,-100,19259.051919238642,-0.006621665380127431,0.021858590367481404,0.9997391437643823,60.448524027624366,3.6738409854893797,270.5685382799004,-79.79244882363793,-128.8270721435547,4761.76025390625,True
1599387285.0634317,0.0,10,0.5,0.5,6.797890298652648,-0.15025,-0.00825,-0.37525,0.23077755071809625,10,1,100,-0.03606752481481887,-10,-1,-100,19257.45242427441,-0.005527417583679719,0.021781450028237847,0.9997474761606168,60.55600857985919,3.6811011857825906,271.69639286433033,-79.97474665598965,-130.3748321533203,4761.76025390625,True
1599387285.1083393,0.0,10,0.5,0.5,7.028215812492371,-0.15025,-0.00825,-0.37525,0.2287840018115485,10,1,100,-0.04609626918756562,-10,-1,-100,19255.849283282878,-0.004462736659069147,0.02168997489098896,0.9997547844200299,60.63171482459147,3.686371858412018,272.68363079710053,-80.15703904029468,-131.84886169433594,4761.76025390625,True
1599387285.1522298,0.0,10,0.5,0.5,7.9401413507461545,-0.15025,-0.00825,-0.37525,0.2301178286242692,10,1,100,-0.15038050999760305,-10,-1,-100,19252.63206450164,-0.002566939686063805,0.021616567112080726,0.9997630393482932,60.70179578186575,3.6917964437517967,274.29554947838585,-80.52161098739347,-134.57333374023438,4761.76025390625,True
1599387285.2020977,0.0,10,0.5,0.5,8.228726630973815,-0.15025,-0.00825,-0.37525,0.21202048998328005,10,1,100,-0.1751072308796472,-10,-1,-100,19249.400263106567,-0.0006394755383368944,0.021383360868297056,0.9997711452872663,60.694156298881296,3.6922796130882474,275.5578849953405,-80.88617027896775,-137.00448608398438,4761.76025390625,True
1599387285.2429514,0.0,10,0.5,0.5,8.46965654182434,-0.15025,-0.00825,-0.37525,0.2089998804417761,10,1,100,-0.18201872918795364,-10,-1,-100,19246.15387945308,0.0011552625734487022,0.021142785087750998,0.9997757988704865,60.62686591384486,3.6889436720996387,276.54820503466215,-81.25072103600164,-139.14002990722656,4761.76025390625,True
1599387285.2878313,0.0,10,0.5,0.5,9.471589199829102,-0.15025,-0.00825,-0.37525,0.17670053946906256,10,1,100,-0.36281490276881334,-10,-1,-100,19239.61736705771,0.004412946043988812,0.020630475625079126,0.9997774299226282,60.39676600402892,3.6759981250204956,278.08194407138217,-81.97980698866694,-142.52476501464844,4761.76025390625,True
1599387285.3327107,0.0,10,0.5,0.5,8.572842771148682,-0.15025,-0.00825,-0.37525,0.21277535372246043,10,1,100,-0.12168921392816455,-10,-1,-100,19237.97412552894,0.005164157406673587,0.020493477476819566,0.9997766494868673,60.33285835909908,3.6722981038868245,278.43319512010487,-82.16207605000056,-143.18637084960938,4761.76025390625,True
1599387285.3736334,0.0,10,0.5,0.5,8.925650025177003,-0.15025,-0.00825,-0.37525,0.20042297932619602,10,1,100,-0.20287742138232046,-10,-1,-100,19234.67670630419,0.006567299021850195,0.020257655246230428,0.9997732232799009,60.20992504967525,3.6651288132123185,279.1546610137746,-82.52661144400564,-144.2873992919922,4761.76025390625,True
1599387285.414527,0.0,10,0.5,0.5,8.761858468055724,-0.15025,-0.00825,-0.37525,0.2132053688863066,10,1,100,-0.13602367796731268,-10,-1,-100,19233.022528404137,0.007219145535165696,0.02016091789954988,0.9997706843707659,60.154531333335505,3.6618868544056316,279.5418547416429,-82.7088776055356,-144.72679138183594,4761.76025390625,True
1599387285.4593735,0.0,10,0.5,0.5,8.961878075027466,-0.15025,-0.00825,-0.37525,0.1927445951893128,10,1,100,-0.21170745353521359,-10,-1,-100,19229.703237178735,0.008483199540712711,0.019888498724400447,0.9997662141441077,60.06250164605892,3.656506300301691,280.40067642981273,-83.07340610335054,-145.38534545898438,4761.76025390625,True
1599387285.4992654,0.0,10,0.5,0.5,8.918663013458252,-0.15025,-0.00825,-0.37525,0.19824446737927343,10,1,100,-0.21035125711276845,-10,-1,-100,19226.369364935323,0.009606278791987005,0.019692634759303405,0.9997599309554306,59.99698902179913,3.6527060330818446,281.38045838403787,-83.4379285113073,-145.74737548828125,4761.76025390625,True
1599387285.5391586,0.0,10,0.5,0.5,8.830799020767211,-0.15025,-0.00825,-0.37525,0.19372659370680212,10,1,100,-0.2129142215626577,-10,-1,-100,19223.02091201383,0.010636801700530205,0.019475403953346297,0.9997537532264821,59.96320636315099,3.6508221722639296,282.5074355310959,-83.80244315146315,-145.81455993652344,4761.76025390625,True
1599387285.580052,0.0,10,0.5,0.5,8.696936593246459,-0.15025,-0.00825,-0.37525,0.19643691826046156,10,1,100,-0.21165088056081277,-10,-1,-100,19219.657879030565,0.011548428937043978,0.019304573962907322,0.9997469515898494,59.96206013470886,3.6509274668574823,283.7879046918529,-84.16694832997621,-145.58587646484375,4761.76025390625,True
1599387285.6219733,0.0,10,0.5,0.5,8.516576563644408,-0.15025,-0.00825,-0.37525,0.19500579592967845,10,1,100,-0.21047585657048912,-10,-1,-100,19216.280266080634,0.012353666780668914,0.019138365580545838,0.9997405212753845,59.9941660915106,3.6530765241309946,285.2268612704358,-84.53144212754185,-145.06207275390625,4761.76025390625,True
1599387285.6688123,0.0,10,0.5,0.5,7.703782139968872,-0.15025,-0.00825,-0.37525,0.18192718501579358,10,1,100,-0.27217325551031135,-10,-1,-100,19209.48130245146,0.013634774681309053,0.018870411493079855,0.9997289635143477,60.14485362414836,3.662770071510963,288.5249991660802,-85.2603902192241,-143.12867736816406,4761.76025390625,True
1599387285.7107036,0.0,10,0.5,0.5,7.691935189437865,-0.15025,-0.00825,-0.37525,0.19708709136137276,10,1,100,-0.19738961625033447,-10,-1,-100,19206.059953005635,0.014108221950338607,0.01876669999270211,0.9997243465299741,60.250569046159,3.6695704678913414,290.3258782911991,-85.62484224246508,-141.71926879882812,4761.76025390625,True
1599387285.7545815,0.0,10,0.5,0.5,7.324293035888672,-0.15025,-0.00825,-0.37525,0.20064373158635174,10,1,100,-0.1893256781243481,-10,-1,-100,19202.624025971512,0.014456506142941644,0.018706444244978856,0.9997205001268348,60.36422199355588,3.676952314939414,292.17012980262314,-85.98927862685093,-140.01449584960938,4761.76025390625,True
1599387285.798504,0.0,10,0.5,0.5,7.4554894866943355,-0.15025,-0.00825,-0.37525,0.2020980513959817,10,1,100,-0.17078993375885548,-10,-1,-100,19200.90059597476,0.014596173779497864,0.018666511957346935,0.9997192171016543,60.42065463174186,3.6806633633212424,293.0923434785795,-86.17149120701269,-139.05178833007812,4761.76025390625,True
1599387285.8423848,0.0,10,0.5,0.5,7.267761904525757,-0.15025,-0.00825,-0.37525,0.20234617583663184,10,1,100,-0.16973345621935285,-10,-1,-100,19199.173521916382,0.014706241039864724,0.01863391204831372,0.9997182121959434,60.4741890806506,3.684231266664728,294.0018000256223,-86.3537001992124,-138.01531982421875,4761.76025390625,True
1599387285.8872283,0.0,10,0.5,0.5,5.085530444335938,-0.15025,-0.00825,-0.37525,0.19320445309761186,10,1,100,-0.17720920375747767,-10,-1,-100,19192.228785004816,0.014867457076449642,0.018522557384157194,0.9997178970029647,60.61732639151779,3.6945668653484205,297.30431656136227,-87.08250477357333,-133.133056640625,4761.76025390625,True
1599387285.9325814,0.0,10,0.5,0.5,6.169445354461669,-0.15025,-0.00825,-0.37525,0.20085406343575654,10,1,100,-0.15882467390166255,-10,-1,-100,19190.483491049847,0.014841081149623306,0.018492109548307344,0.9997188525754448,60.62374744268048,3.6954709626638307,297.98796530570985,-87.26470003241809,-131.7285919189453,4761.76025390625,True
1599387285.9774978,0.0,10,0.5,0.5,5.908225931167602,-0.15025,-0.00825,-0.37525,0.2000685334800107,10,1,100,-0.15622494301943174,-10,-1,-100,19188.73455309868,0.014788710205981232,0.01845837990267433,0.9997202520014348,60.61334563120609,3.6953971026373713,298.5890873884157,-87.44689390762724,-130.2506103515625,4761.76025390625,True
1599387286.0206616,0.0,10,0.5,0.5,2.9572105781555176,-0.15025,-0.00825,-0.37525,0.18376642664241333,10,1,100,-0.11108042474426838,-10,-1,-100,19181.70236249303,0.014326921083345634,0.01828044018453041,0.9997302460358651,60.34661857545059,3.6818531388527576,299.87522968306575,-88.17567052458406,-123.60401153564453,4761.76025390625,True
1599387286.066541,0.0,10,0.5,0.5,5.433211745262146,-0.15025,-0.00825,-0.37525,0.20145798507896778,10,1,100,-0.1575371862224584,-10,-1,-100,19181.70236249303,0.014326921083345634,0.01828044018453041,0.9997302460358651,60.34661857545059,3.6818531388527576,299.87522968306575,-88.17567052458406,-123.60401153564453,4761.76025390625,True
1599387286.1164005,0.0,10,0.5,0.5,3.4377072929382324,-0.15025,-0.00825,-0.37525,0.18708642260675457,10,1,100,-0.11621883151840995,-10,-1,-100,19178.164403291652,0.013949505809397305,0.018150569548779395,0.99973794972119,60.035043401965275,3.6644726101336245,299.62218665817835,-88.54007218927975,-119.8403549194336,4761.76025390625,True
1599387286.1646338,0.0,10,0.5,0.5,0.41295735569000236,-0.15025,-0.00825,-0.37525,0.15832331588838228,10,1,100,-0.0432045288511364,-10,-1,-100,19171.044754227973,0.012942348507807167,0.017771676947878998,0.9997583023479039,58.92121856022363,3.6000653916702836,296.61066677283793,-89.26894655003863,-111.43341064453125,4761.76025390625,True
1599387286.204527,0.0,10,0.5,0.5,1.10285822429657,-0.15025,-0.00825,-0.37525,0.16717293459116372,10,1,100,-0.07632251553122262,-10,-1,-100,19167.463061328977,0.0123288834520374,0.017508584774399216,0.9997706977562524,58.12208380567845,3.553056632723757,293.84701508880164,-89.63343880328969,-106.79055786132812,4761.76025390625,True
1599387286.2464151,0.0,10,0.5,0.5,2.8176789823532107,-0.15025,-0.00825,-0.37525,0.19336236599208395,10,1,100,-0.13745625883910897,-10,-1,-100,19167.463061328977,0.0123288834520374,0.017508584774399216,0.9997706977562524,58.12208380567845,3.553056632723757,293.84701508880164,-89.63343880328969,-106.79055786132812,4761.76025390625,True
1599387286.2843087,0.0,10,0.5,0.5,0.24384462566375742,-0.15025,-0.00825,-0.37525,0.15868264522290065,10,1,100,-0.06531819957922361,-10,-1,-100,19163.866787605104,0.011675144086336133,0.017194367246663865,0.9997839990445687,57.21611244470012,3.4993706022812736,290.50824972983213,-89.9979759469231,-101.94332885742188,4761.76025390625,True
1599387286.326726,0.0,10,0.5,0.5,-3.441410143470764,-0.15025,-0.00825,-0.37525,0.09917673485357666,10,1,100,0.03626768018805132,-10,-1,-100,19156.630489015835,0.010160083116862962,0.016369060804275738,0.99981439605531,54.974858262764606,3.3648341125358385,281.5194180101353,-90.72720473918446,-91.52578735351562,4761.76025390625,True
1599387286.3675861,0.0,10,0.5,0.5,-1.0116626543045044,-0.15025,-0.00825,-0.37525,0.15471771230443793,10,1,100,-0.07174564331616737,-10,-1,-100,19154.812297890196,0.009768973698252602,0.01612565792127607,0.9998222493570987,54.271922539089125,3.3222002084372053,278.5106459493282,-90.90954722596064,-88.77581787109375,4761.76025390625,True
1599387286.407479,0.0,10,0.5,0.5,-1.4739290838241577,-0.15025,-0.00825,-0.37525,0.15010606341912286,10,1,100,-0.06595060548004031,-10,-1,-100,19152.9904603007,0.009365348525961456,0.0158646098119799,0.999830287800135,55.1151208522027,3.3740952334075196,283.43798152986443,-91.091870476679,-85.9998779296875,4761.76025390625,True
1599387286.4484057,0.0,10,0.5,0.5,-3.3196757452011108,-0.15025,-0.00825,-0.37525,0.11611956006159174,10,1,100,-0.0184543866740631,-10,-1,-100,19149.335847859387,0.008571563072624275,0.015320683109451914,0.9998458906129243,57.18421101257451,3.5010280132978715,295.32440805880947,-91.45644189250929,-80.57473754882812,4761.76025390625,True
1599387286.490286,0.0,10,0.5,0.5,-6.586226264953613,-0.15025,-0.00825,-0.37525,0.023915070309551922,10,1,100,0.08908086870668708,-10,-1,-100,19141.98288684094,0.0068775788461388565,0.013990672343112544,0.9998784726138487,60.51930657429538,3.7049300243004106,315.18479606261656,-92.18530411564647,-70.55221557617188,4761.76025390625,True
1599387286.8237703,0.0,10,0.5,0.5,-2.8690426263809203,-0.15025,-0.00825,-0.37525,0.15648717015934713,10,1,100,-0.07957261971813413,-10,-1,-100,19141.98288684094,0.0068775788461388565,0.013990672343112544,0.9998784726138487,60.51930657429538,3.7049300243004106,315.18479606261656,-92.18530411564647,-70.55221557617188,4761.76025390625,True
1599387286.8592033,0.0,10,0.5,0.5,-4.129446521759033,-0.15025,-0.00825,-0.37525,0.11668933622684918,10,1,100,-0.03314727885075647,-10,-1,-100,19140.13553736033,0.006461959317311113,0.013632655577549533,0.9998861904155317,61.191057169689465,3.7459041669211803,319.3494744509587,-92.3674675876667,-68.23110961914062,4761.76025390625,True
1599387286.8941386,0.0,10,0.5,0.5,-4.4746883041381835,-0.15025,-0.00825,-0.37525,0.1109127468056052,10,1,100,-0.02806870539977066,-10,-1,-100,19138.284545121598,0.006043845795359199,0.013258434088090331,0.9998938372915064,61.803885103092625,3.783266667052715,323.2205291044756,-92.5496126820713,-65.9844970703125,4761.76025390625,True
1599387286.9350326,0.0,10,0.5,0.5,-7.9965333656311035,-0.15025,-0.00825,-0.37525,-0.02955240966423084,10,1,100,0.11317533390072938,-10,-1,-100,19130.844152868027,0.004385419543268074,0.011645140539480101,0.9999225764014159,63.7332574961417,3.900951864767397,336.08521763488756,-93.27803600231294,-57.742401123046875,4761.76025390625,True
1599387286.9759254,0.0,10,0.5,0.5,-6.875117121124267,-0.15025,-0.00825,-0.37525,0.035017813437211956,10,1,100,0.03776453293681626,-10,-1,-100,19127.102107100654,0.003570533380956053,0.01077084247278839,0.9999356180493834,64.43357457639567,3.9438419186279488,341.1807482223886,-93.64217097639238,-54.06787109375,4761.76025390625,True
1599387287.0377269,0.0,10,0.5,0.5,-7.31107354888916,-0.15025,-0.00825,-0.37525,0.030639305200493044,10,1,100,0.044316678415564234,-10,-1,-100,19123.345497141476,0.0027775306478704884,0.009942060996165639,0.9999467189538893,64.99440952916598,3.9784000408256186,345.56554598222493,-94.00626683125205,-50.68951416015625,4761.76025390625,True
1599387287.0776544,0.0,10,0.5,0.5,-7.695856644439696,-0.15025,-0.00825,-0.37525,0.014256835196744908,10,1,100,0.052465073890118674,-10,-1,-100,19119.574324165238,0.001989254161177655,0.009045534471754619,0.999957109667211,65.4412953086657,4.0062027164473495,349.36707491067256,-94.3703311902423,-47.608978271484375,4761.76025390625,True
1599387287.1155171,0.0,10,0.5,0.5,-8.036902546691895,-0.15025,-0.00825,-0.37525,0.0066096565701484755,10,1,100,0.0590459762239852,-10,-1,-100,19115.78858973249,0.0012198852607281793,0.008167427028820562,0.9999659019265005,65.79820147416568,4.0287146553719415,352.7066095794972,-94.73437005972899,-44.824859619140625,4761.76025390625,True
1599387287.1554446,0.0,10,0.5,0.5,-7.026131412506103,-0.15025,-0.00825,-0.37525,0.09365068258523823,10,1,100,-0.017076367494439068,-10,-1,-100,19115.78858973249,0.0012198852607281793,0.008167427028820562,0.9999659019265005,65.79820147416568,4.0287146553719415,352.7066095794972,-94.73437005972899,-44.824859619140625,4761.76025390625,True
1599387287.1953037,0.0,10,0.5,0.5,-8.362880081939696,-0.15025,-0.00825,-0.37525,-0.0025713602045428635,10,1,100,0.06707724419948136,-10,-1,-100,19111.988294027862,0.00046153577061244463,0.007299184145350399,0.9999732540901004,66.0873039443114,4.047277912403229,355.69782142322833,-95.09838867692349,-42.33721923828125,4761.76025390625,True
1599387287.235201,0.0,10,0.5,0.5,-9.599606039428712,-0.15025,-0.00825,-0.37525,-0.11031737766557098,10,1,100,0.15417268603549614,-10,-1,-100,19104.34402261232,-0.00101381683429697,0.00553644635454796,0.9999841598431396,66.54115308612324,4.077304456975744,361.0470015778812,-95.82637661948553,-38.251708984375,4761.76025390625,True
1599387287.2780826,0.0,10,0.5,0.5,-8.093166234588622,-0.15025,-0.00825,-0.37525,0.06511097881581641,10,1,100,0.0074265651125982575,-10,-1,-100,19104.34402261232,-0.00101381683429697,0.00553644635454796,0.9999841598431396,66.54115308612324,4.077304456975744,361.0470015778812,-95.82637661948553,-38.251708984375,4761.76025390625,True
1599387287.3240075,0.0,10,0.5,0.5,-9.643032769775392,-0.15025,-0.00825,-0.37525,-0.11513546247437818,10,1,100,0.1691604594846558,-10,-1,-100,19096.641515005147,-0.002477328804814213,0.0039052025330216468,0.9999893060604043,66.9371146980828,4.10429207646996,366.1245123925908,-96.55430892138035,-35.349456787109375,4761.76025390625,True
1599387287.3668475,0.0,10,0.5,0.5,-8.579236540985107,-0.15025,-0.00825,-0.37525,0.04705359652274625,10,1,100,0.023661379892948836,-10,-1,-100,19096.641515005147,-0.002477328804814213,0.0039052025330216468,0.9999893060604043,66.9371146980828,4.10429207646996,366.1245123925908,-96.55430892138035,-35.349456787109375,4761.76025390625,True
1599387287.404781,0.0,10,0.5,0.5,-9.126434154510498,-0.15025,-0.00825,-0.37525,-0.04868123673485207,10,1,100,0.10197950955492988,-10,-1,-100,19092.768424153328,-0.003183072939606693,0.0030419221743220788,0.9999903073310993,67.14551683800156,4.1185507327823965,368.73550441197847,-96.91825409889589,-34.34332275390625,4761.76025390625,True
1599387287.4456704,0.0,10,0.5,0.5,-9.13955461654663,-0.15025,-0.00825,-0.37525,-0.041384149669907326,10,1,100,0.11288149956137186,-10,-1,-100,19088.880775800673,-0.003917627874639727,0.0023304852945478477,0.9999896104610927,67.37224437144998,4.133987160657866,371.45796634450505,-97.28218397944622,-33.630859375,4761.76025390625,True
1599387287.4835358,0.0,10,0.5,0.5,-9.168174286651611,-0.15025,-0.00825,-0.37525,-0.1335019751404874,10,1,100,0.19773604846666915,-10,-1,-100,19081.061810113606,-0.005350723570606542,0.0008532093320220168,0.9999853207878137,67.90192992397678,4.16961760938505,377.36007343445806,-98.00999118036023,-33.09442138671875,4761.76025390625,True
1599387287.523725,0.0,10,0.5,0.5,-8.978850440979004,-0.15025,-0.00825,-0.37525,0.013406388598122435,10,1,100,0.055160476643166076,-10,-1,-100,19081.061810113606,-0.005350723570606542,0.0008532093320220168,0.9999853207878137,67.90192992397678,4.16961760938505,377.36007343445806,-98.00999118036023,-33.09442138671875,4761.76025390625,True
1599387287.5696073,0.0,10,0.5,0.5,-8.650757025909424,-0.15025,-0.00825,-0.37525,-0.12371404971221453,10,1,100,0.21577679959598983,-10,-1,-100,19073.184623822686,-0.006804898680330999,-0.00038669081834759333,0.9999767716423024,68.54375602603076,4.212104564796174,383.9413387056214,-98.73771499398381,-33.7371826171875,4761.76025390625,True
1599387287.6084647,0.0,10,0.5,0.5,-8.499341905212404,-0.15025,-0.00825,-0.37525,-0.06761821978235705,10,1,100,0.15030309944326967,-10,-1,-100,19069.22419998143,-0.007524365338745723,-0.0009961342121874725,0.9999711954065879,68.90102244171396,4.235517524982726,387.4590842553235,-99.10154083222137,-34.501708984375,4761.76025390625,True
1599387287.6523647,0.0,10,0.5,0.5,-8.237013110351562,-0.15025,-0.00825,-0.37525,-0.05670617267584037,10,1,100,0.16005473915101812,-10,-1,-100,19065.249224091414,-0.008259817297275587,-0.001443432034384904,0.9999648453431639,69.27458823598406,4.259856194901075,391.0854994364055,-99.4653405067458,-35.55914306640625,4761.76025390625,True
1599387287.701234,0.0,10,0.5,0.5,-8.636036616516112,-0.15025,-0.00825,-0.37525,-0.012674378294990515,10,1,100,0.08723414334432959,-10,-1,-100,19065.249224091414,-0.008259817297275587,-0.001443432034384904,0.9999648453431639,69.27458823598406,4.259856194901075,391.0854994364055,-99.4653405067458,-35.55914306640625,4761.76025390625,True
1599387287.7391336,0.0,10,0.5,0.5,-7.062126834106445,-0.15025,-0.00825,-0.37525,-0.10234797058817013,10,1,100,0.2478217827165296,-10,-1,-100,19057.25562000263,-0.009713117654783788,-0.002252301165787507,0.9999502900068997,70.02948158640402,4.308659584156781,398.4345099955154,-100.19285886627355,-38.558441162109375,4761.76025390625,True
1599387287.7880044,0.0,10,0.5,0.5,-7.164965528869629,-0.15025,-0.00825,-0.37525,-0.05753158590466264,10,1,100,0.1825683356991642,-10,-1,-100,19053.236993884668,-0.010434508653406132,-0.002574617330213615,0.9999422445195346,70.38423786725515,4.331419431890298,402.0057070639077,-100.55657837883211,-40.49945068359375,4761.76025390625,True
1599387287.8408904,0.0,10,0.5,0.5,-7.321403330230712,-0.15025,-0.00825,-0.37525,-0.03753607385441783,10,1,100,0.14979777611759304,-10,-1,-100,19051.22222517943,-0.010785170674277077,-0.002679963897541274,0.999938247036803,70.54898113740948,4.341943372706189,403.72522460646616,-100.7384288508982,-41.5797119140625,4761.76025390625,True
1599387287.8847435,0.0,10,0.5,0.5,-5.785746373748779,-0.15025,-0.00825,-0.37525,-0.05720808633033962,10,1,100,0.2293046462752216,-10,-1,-100,19045.156098242034,-0.011819833060379405,-0.0029493682666458317,0.9999257936333339,70.96080169569586,4.368070554527383,408.4328541363642,-101.28394797462839,-45.26202392578125,4761.76025390625,True
1599387287.954557,0.0,10,0.5,0.5,-7.157938245391845,-0.15025,-0.00825,-0.37525,-0.030795634776003222,10,1,100,0.1266286281835628,-10,-1,-100,19045.156098242034,-0.011819833060379405,-0.0029493682666458317,0.9999257936333339,70.96080169569586,4.368070554527383,408.4328541363642,-101.28394797462839,-45.26202392578125,4761.76025390625,True
1599387288.0149114,0.0,10,0.5,0.5,-4.865531977081299,-0.15025,-0.00825,-0.37525,-0.0456564469250458,10,1,100,0.23568958303953408,-10,-1,-100,19039.05724177463,-0.012805415277715714,-0.0030810096701837934,0.9999132605976268,71.19063385253055,4.382352005982154,412.1171595590982,-101.8294318990947,-49.605255126953125,4761.76025390625,True
1599387288.0578022,0.0,10,0.5,0.5,-4.76725788269043,-0.15025,-0.00825,-0.37525,-0.03458606695008774,10,1,100,0.20675628498323032,-10,-1,-100,19034.973154911888,-0.01343159213686677,-0.00309646729271668,0.9999049975987588,71.19965653941594,4.38260533898228,413.7459597651753,-102.19307971219473,-52.867767333984375,4761.76025390625,True
1599387288.1056733,0.0,10,0.5,0.5,-4.107087058258056,-0.15025,-0.00825,-0.37525,-0.02842242749247995,10,1,100,0.20944734102164325,-10,-1,-100,19030.874522030703,-0.01401928370602918,-0.0030520231577007163,0.9998970671219186,71.0607957355162,4.373448422361374,414.5146048765463,-102.55673190903576,-56.4237060546875,4761.76025390625,True
1599387288.1545434,0.0,10,0.5,0.5,-2.331324004364014,-0.15025,-0.00825,-0.37525,-0.014540208949929176,10,1,100,0.23894320047249198,-10,-1,-100,19024.69929754245,-0.01481578847448701,-0.0028835484218943663,0.9998860822915667,70.50580648353879,4.337890089410875,413.6269191595045,-103.10224298490213,-62.307708740234375,4761.76025390625,True
1599387288.236324,0.0,10,0.5,0.5,-4.51722844543457,-0.15025,-0.00825,-0.37525,-0.031531694169315116,10,1,100,0.1599483207444301,-10,-1,-100,19024.69929754245,-0.01481578847448701,-0.0028835484218943663,0.9998860822915667,70.50580648353879,4.337890089410875,413.6269191595045,-103.10224298490213,-62.307708740234375,4761.76025390625,True
1599387288.3090513,0.0,10,0.5,0.5,0.16698377456665003,-0.15025,-0.00825,-0.37525,0.010328438049922981,10,1,100,0.2562438774901184,-10,-1,-100,19016.414745123126,-0.015685242652923075,-0.0025016925686399205,0.9998738493916175,68.94708593664141,4.2397030794392245,407.5571122447806,-103.82972291780578,-71.17953491210938,4761.76025390625,True
1599387288.3599212,0.0,10,0.5,0.5,-1.873418321990967,-0.15025,-0.00825,-0.37525,-0.014995195745176309,10,1,100,0.19149849619656728,-10,-1,-100,19014.334512394154,-0.015881631962470725,-0.002384539017088734,0.9998710355540281,68.38370248848263,4.204523151486297,404.99137786058844,-104.01162861272552,-73.58074951171875,4761.76025390625,True
1599387288.4123497,0.0,10,0.5,0.5,1.1771489494323726,-0.15025,-0.00825,-0.37525,0.016003741839970134,10,1,100,0.22107110420259385,-10,-1,-100,19008.07198191958,-0.016324057659106044,-0.0019964000633709827,0.9998647606193196,66.23709446941876,4.0714194117358815,394.5050133648713,-104.55746035362517,-81.04855346679688,4761.76025390625,True
1599387288.4815567,0.0,10,0.5,0.5,1.110884518432617,-0.15025,-0.00825,-0.37525,0.008654559728465037,10,1,100,0.20349702282008258,-10,-1,-100,19003.87876351981,-0.016561463109856386,-0.0017109786372177737,0.9998613856389114,64.47857110297934,3.963197086765682,385.47983403149345,-104.92145625270608,-86.193115234375,4761.76025390625,True
1599387288.5324156,0.0,10,0.5,0.5,1.9016943367004393,-0.15025,-0.00825,-0.37525,0.010973516256652886,10,1,100,0.19668377162850126,-10,-1,-100,18999.670983592398,-0.016711037026933707,-0.0014315489992126288,0.9998593360613017,64.39656203620451,3.958710150158514,386.43810666531493,-105.28549842752668,-91.30736541748047,4761.76025390625,True
1599387288.5832467,0.0,10,0.5,0.5,2.574345350074768,-0.15025,-0.00825,-0.37525,0.014273380224535103,10,1,100,0.19260303954347552,-10,-1,-100,18995.44864495052,-0.016805469201715988,-0.0011489031279248707,0.9998581180480123,66.2245886603232,4.072315243399367,398.8984653186844,-105.64943578775153,-96.1670913696289,4761.76025390625,True
1599387288.6266422,0.0,10,0.5,0.5,0.7891467014312743,-0.15025,-0.00825,-0.37525,-0.01379799625001481,10,1,100,0.18355982745764748,-10,-1,-100,18995.44864495052,-0.016805469201715988,-0.0011489031279248707,0.9998581180480123,66.2245886603232,4.072315243399367,398.8984653186844,-105.64943578775153,-96.1670913696289,4761.76025390625,True
1599387288.6735547,0.0,10,0.5,0.5,3.226263159751892,-0.15025,-0.00825,-0.37525,0.016204602734827645,10,1,100,0.18732215775785682,-10,-1,-100,18991.211752189323,-0.01683660504347712,-0.00087792274093975,0.9998578688905092,67.79180831400076,4.170448496081924,409.8642569252566,-106.01327292315456,-100.73682403564453,4761.76025390625,True
1599387288.7194312,0.0,10,0.5,0.5,3.794133657836914,-0.15025,-0.00825,-0.37525,0.017135550186373538,10,1,100,0.18138647400689187,-10,-1,-100,18986.960308647365,-0.016808388391580786,-0.0006250902308635513,0.9998585336645784,69.24378485324021,4.2619057615117715,420.2006381953647,-106.37701300417143,-105.01104736328125,4761.76025390625,True
1599387288.7632766,0.0,10,0.5,0.5,6.297332870101928,-0.15025,-0.00825,-0.37525,0.04159597531810075,10,1,100,0.16007572754620802,-10,-1,-100,18978.41378445155,-0.016587191376653272,-0.00017492813704315124,0.9998624077753804,71.69960629612494,4.417864486161895,438.326920270935,-107.10422798951055,-112.75961303710938,4761.76025390625,True
1599387288.8091536,0.0,10,0.5,0.5,3.431306422042846,-0.15025,-0.00825,-0.37525,-0.0031493720354541354,10,1,100,0.182372569329176,-10,-1,-100,18978.41378445155,-0.016587191376653272,-0.00017492813704315124,0.9998624077753804,71.69960629612494,4.417864486161895,438.326920270935,-107.10422798951055,-112.75961303710938,4761.76025390625,True
1599387288.85207,0.0,10,0.5,0.5,5.276987702560424,-0.15025,-0.00825,-0.37525,0.016989028532936143,10,1,100,0.162159587917112,-10,-1,-100,18974.1187101549,-0.016402617046794753,6.032991368036034e-06,0.9998654680093815,72.64430410903725,4.478435398193228,445.7337153967716,-107.46771968066761,-116.20657348632812,4761.76025390625,True
1599387288.895926,0.0,10,0.5,0.5,7.175743465805053,-0.15025,-0.00825,-0.37525,0.02720758357051916,10,1,100,0.12622912472176478,-10,-1,-100,18965.484950324753,-0.01590770800416174,0.00026126581571218215,0.999873430273166,74.00053796725076,4.566282186214343,457.3775822397091,-108.19452860244581,-122.21430206298828,4761.76025390625,True
1599387288.9408052,0.0,10,0.5,0.5,4.955305060005188,-0.15025,-0.00825,-0.37525,0.0019100677240128684,10,1,100,0.17567839401957172,-10,-1,-100,18965.484950324753,-0.01590770800416174,0.00026126581571218215,0.999873430273166,74.00053796725076,4.566282186214343,457.3775822397091,-108.19452860244581,-122.21430206298828,4761.76025390625,True
1599387288.9844823,0.0,10,0.5,0.5,6.330529783248901,-0.15025,-0.00825,-0.37525,0.0097050924748904,10,1,100,0.1426316566269403,-10,-1,-100,18961.146268884186,-0.01560787744159754,0.00033033672758113247,0.9998781350941797,74.46435967184335,4.596665699219689,461.9156464180193,-108.55786556711324,-124.77473449707031,4761.76025390625,True
1599387289.0263698,0.0,10,0.5,0.5,7.1244093656539915,-0.15025,-0.00825,-0.37525,0.006983501910008282,10,1,100,0.11651876296491179,-10,-1,-100,18954.610998883378,-0.015098917132871042,0.0003667850189387101,0.9998859375799644,74.96271284975133,4.6296060369310865,467.53128810318714,-109.1028087510505,-128.06126403808594,4761.76025390625,True
1599387289.0747526,0.0,10,0.5,0.5,7.2953898895263665,-0.15025,-0.00825,-0.37525,-0.0022465900782495064,10,1,100,0.10360077448918875,-10,-1,-100,18948.0430344746,-0.014520341095221148,0.00031463200378247023,0.9998945247880803,75.28739843328347,4.651306586726252,472.0928435497368,-109.64769445796063,-130.68341064453125,4761.76025390625,True
1599387289.1156428,0.0,10,0.5,0.5,6.339905338859558,-0.15025,-0.00825,-0.37525,0.003115064950545213,10,1,100,0.1612298654435287,-10,-1,-100,18948.0430344746,-0.014520341095221148,0.00031463200378247023,0.9998945247880803,75.28739843328347,4.651306586726252,472.0928435497368,-109.64769445796063,-130.68341064453125,4761.76025390625,True
1599387289.1655102,0.0,10,0.5,0.5,7.089322729110718,-0.15025,-0.00825,-0.37525,-0.005014723406084327,10,1,100,0.11586549092347638,-10,-1,-100,18943.646229261765,-0.014110043384991814,0.00023964069622699967,0.9999004196658837,75.4377196923293,4.661438676546029,474.7308555350629,-110.01092629894848,-132.0625,4761.76025390625,True
1599387289.214381,0.0,10,0.5,0.5,7.578583399581909,-0.15025,-0.00825,-0.37525,-0.026279657348078158,10,1,100,0.05768768955205569,-10,-1,-100,18934.80903364229,-0.013210609404140039,-2.2636920047999786e-05,0.9999127358358535,75.6472140131062,4.6756101804753145,479.4523149209006,-110.73733994735953,-133.93585205078125,4761.76025390625,True
1599387289.2632484,0.0,10,0.5,0.5,7.15286961555481,-0.15025,-0.00825,-0.37525,-0.018972809589902617,10,1,100,0.09516984156824274,-10,-1,-100,18930.368644353002,-0.012736758605306047,-0.0001947836745118536,0.9999188652283495,75.72611249231042,4.680935064546833,481.65720783810025,-111.1005243661327,-134.4302215576172,4761.76025390625,True
1599387289.3101237,0.0,10,0.5,0.5,7.090029403686523,-0.15025,-0.00825,-0.37525,-0.021938756088234704,10,1,100,0.08864856205078821,-10,-1,-100,18925.913728114567,-0.012250201185999511,-0.00037822582352067726,0.9999248919374538,75.79817458749821,4.685772962979701,483.8230119480777,-111.46369415335792,-134.629638671875,4761.76025390625,True
1599387289.362981,0.0,10,0.5,0.5,6.980514111328126,-0.15025,-0.00825,-0.37525,-0.02818147674875773,10,1,100,0.08034519002596396,-10,-1,-100,18921.444285382167,-0.011736165982641345,-0.0006013940933381002,0.9999309479824955,75.86831750715906,4.6904621877239006,485.9807482798418,-111.82684946232503,-134.5347137451172,4761.76025390625,True
1599387289.4098566,0.0,10,0.5,0.5,7.026299029731751,-0.15025,-0.00825,-0.37525,-0.005950915757920468,10,1,100,0.13133155615962858,-10,-1,-100,18921.444285382167,-0.011736165982641345,-0.0006013940933381002,0.9999309479824955,75.86831750715906,4.6904621877239006,485.9807482798418,-111.82684946232503,-134.5347137451172,4761.76025390625,True
1599387289.4607213,0.0,10,0.5,0.5,6.831751226425171,-0.15025,-0.00825,-0.37525,-0.03181842313503008,10,1,100,0.0730978778544674,-10,-1,-100,18916.96031699411,-0.011210561218068535,-0.0008357690150308691,0.9999368104072025,75.93694692183794,4.695061865820974,488.1328697828448,-112.1899901612995,-134.14515686035156,4761.76025390625,True
1599387289.5176551,0.0,10,0.5,0.5,6.3886060085296625,-0.15025,-0.00825,-0.37525,-0.0513246494967161,10,1,100,0.034650564055933086,-10,-1,-100,18910.20712960721,-0.010387215230491603,-0.0012251063600917937,0.9999453009410875,76.03309881688865,4.701622307934592,491.32470454318974,-112.73467377792704,-133.0089874267578,4761.76025390625,True
1599387289.568518,0.0,10,0.5,0.5,6.227751738357544,-0.15025,-0.00825,-0.37525,-0.04337662995669226,10,1,100,0.05362406382337032,-10,-1,-100,18905.68684942904,-0.009815488605036895,-0.001505347503984208,0.9999506938406196,76.08489419311059,4.705337630854388,493.377564784395,-113.09777831894868,-131.88380432128906,4761.76025390625,True
1599387289.6094089,0.0,10,0.5,0.5,5.474156858062743,-0.15025,-0.00825,-0.37525,-0.061990842944938535,10,1,100,0.013496371854417585,-10,-1,-100,18898.87919701857,-0.008935217066260484,-0.001927677771499763,0.9999582221044976,76.12492908393706,4.7088158991117925,496.21756422757636,-113.64241070866039,-129.64439392089844,4761.76025390625,True
1599387289.6562848,0.0,10,0.5,0.5,6.313638422012329,-0.15025,-0.00825,-0.37525,-0.019982047170911267,10,1,100,0.1009650133291626,-10,-1,-100,18898.87919701857,-0.008935217066260484,-0.001927677771499763,0.9999582221044976,76.12492908393706,4.7088158991117925,496.21756422757636,-113.64241070866039,-129.64439392089844,4761.76025390625,True
1599387289.7031598,0.0,10,0.5,0.5,5.334036756896972,-0.15025,-0.00825,-0.37525,-0.05210406042498397,10,1,100,0.03365888537671628,-10,-1,-100,18894.322608075687,-0.008328047563346182,-0.0022177257842933996,0.9999628619684474,76.11125131795215,4.7088397733364165,497.8496704688614,-114.00548550256062,-127.7840576171875,4761.76025390625,True
1599387289.75103,0.0,10,0.5,0.5,4.271026670074463,-0.15025,-0.00825,-0.37525,-0.06965400805776471,10,1,100,-0.00850045249820762,-10,-1,-100,18887.460494690342,-0.0073972472725982305,-0.002638955239072671,0.9999691578483978,75.99420441808675,4.7032735882336265,499.66432148912116,-114.55008563787477,-124.44242858886719,4761.76025390625,True
1599387289.7949142,0.0,10,0.5,0.5,4.854297208404541,-0.15025,-0.00825,-0.37525,-0.04400847766861672,10,1,100,0.04855553322711505,-10,-1,-100,18885.165862159804,-0.00707461007063276,-0.0027865279475483354,0.9999710921593414,75.92073688151065,4.699394325478708,500.04124964996635,-114.73161794475459,-123.18184661865234,4761.76025390625,True
1599387289.8358028,0.0,10,0.5,0.5,3.877063086128234,-0.15025,-0.00825,-0.37525,-0.05814717151273986,10,1,100,0.010297223661720326,-10,-1,-100,18880.565705132205,-0.006438205791992714,-0.0030470291700873064,0.9999746322379466,75.70704947974184,4.687670362799116,500.35022696673406,-115.09468576564063,-120.44003295898438,4761.76025390625,True
1599387289.877691,0.0,10,0.5,0.5,3.2991976449966436,-0.15025,-0.00825,-0.37525,-0.059259254643827135,10,1,100,0.003050177074690033,-10,-1,-100,18875.95102534443,-0.005798590533520259,-0.003291735005335574,0.9999777701671567,75.38786900274378,4.669627855864864,499.95186343208786,-115.45776365869722,-117.40463256835938,4761.76025390625,True
1599387289.9195797,0.0,10,0.5,0.5,2.6749932302474977,-0.15025,-0.00825,-0.37525,-0.06276221182428994,10,1,100,-0.006682787957340494,-10,-1,-100,18871.321821787278,-0.005134038412298769,-0.0035435941563727543,0.9999805421057132,74.94069936364298,4.643842619458035,498.68959486337474,-115.82086026230365,-114.076171875,4761.76025390625,True
1599387289.9603467,0.0,10,0.5,0.5,2.004071308326721,-0.15025,-0.00825,-0.37525,-0.061639112249722884,10,1,100,-0.012661266027125223,-10,-1,-100,18866.678093283786,-0.004481074431286435,-0.0037598853656001796,0.9999828914706385,74.34058446916357,4.60870983025183,496.3883466129295,-116.18398570897918,-110.45415496826172,4761.76025390625,True
1599387290.002235,0.0,10,0.5,0.5,-0.924164012908935,-0.15025,-0.00825,-0.37525,-0.08112988203585726,10,1,100,-0.09137240262739038,-10,-1,-100,18857.347056385945,-0.0031772842438175437,-0.004131398209312235,0.9999864181146013,72.58287122118139,4.503898753605862,487.9646879315346,-116.91036963107769,-102.33086395263672,4761.76025390625,True
1599387290.0461173,0.0,10,0.5,0.5,2.0997197649002075,-0.15025,-0.00825,-0.37525,-0.044241202735184545,10,1,100,0.03834279568337682,-10,-1,-100,18857.347056385945,-0.0031772842438175437,-0.004131398209312235,0.9999864181146013,72.58287122118139,4.503898753605862,487.9646879315346,-116.91036963107769,-102.33086395263672,4761.76025390625,True
1599387290.0890086,0.0,10,0.5,0.5,-0.28811717338562004,-0.15025,-0.00825,-0.37525,-0.06078509385269938,10,1,100,-0.03250796175574235,-10,-1,-100,18852.659743362106,-0.0025384209333004994,-0.004279793837255267,0.9999876198153034,71.52796277824905,4.440332295954424,482.5095257962559,-117.27364743775932,-97.8298110961914,4761.76025390625,True
1599387290.1309,0.0,10,0.5,0.5,-3.3900493162155145,-0.15025,-0.00825,-0.37525,-0.06957477102625337,10,1,100,-0.10332660002956809,-10,-1,-100,18843.241515336325,-0.0013196455722801887,-0.004492466822357828,0.9999890380786249,69.11084492210158,4.2929769703492076,469.3745681128945,-118.0004008561579,-88.7628173828125,4761.76025390625,True
1599387290.1732988,0.0,10,0.5,0.5,-0.019852448463439948,-0.15025,-0.00825,-0.37525,-0.04853494661980372,10,1,100,0.017850095873356384,-10,-1,-100,18843.241515336325,-0.0013196455722801887,-0.004492466822357828,0.9999890380786249,69.11084492210158,4.2929769703492076,469.3745681128945,-118.0004008561579,-88.7628173828125,4761.76025390625,True
1599387290.2122285,0.0,10,0.5,0.5,-4.81934566860199,-0.15025,-0.00825,-0.37525,-0.06114275025473205,10,1,100,-0.1017969237036825,-10,-1,-100,18833.765135107562,-0.00023747048676194245,-0.004605398208508736,0.9999893669010232,68.37970330728669,4.248239894398412,467.5506303147375,-118.72735650116633,-79.68563842773438,4761.76025390625,True
1599387290.246138,0.0,10,0.5,0.5,-1.4490186374664307,-0.15025,-0.00825,-0.37525,-0.05003149866573735,10,1,100,0.005736870889755033,-10,-1,-100,18833.765135107562,-0.00023747048676194245,-0.004605398208508736,0.9999893669010232,68.37970330728669,4.248239894398412,467.5506303147375,-118.72735650116633,-79.68563842773438,4761.76025390625,True
1599387290.2885358,0.0,10,0.5,0.5,-2.621651999282837,-0.15025,-0.00825,-0.37525,-0.0519017831180657,10,1,100,-0.02540996345712497,-10,-1,-100,18831.38695403759,4.0045520659484135e-05,-0.004620984095313156,0.999989322394168,69.23041742967426,4.300932906827426,474.1626273187859,-118.90905156600742,-77.51815795898438,4761.76025390625,True
1599387290.3304243,0.0,10,0.5,0.5,-4.080519980239868,-0.15025,-0.00825,-0.37525,-0.05255446474361141,10,1,100,-0.05228969811968474,-10,-1,-100,18826.619692257373,0.0005313861733802519,-0.004639878144376701,0.9999890945203052,70.79611517828236,4.397585286771806,486.5119457819701,-119.27236008345187,-73.25686645507812,4761.76025390625,True
1599387290.3703182,0.0,10,0.5,0.5,-5.621109786605835,-0.15025,-0.00825,-0.37525,-0.04978977632825543,10,1,100,-0.08159725715943109,-10,-1,-100,18819.44155832345,0.0012393414629552995,-0.00463092439976032,0.999988509219952,72.75450087969122,4.517816160627002,502.47409073381726,-119.81713624850421,-67.34637451171875,4761.76025390625,True
1599387290.4122078,0.0,10,0.5,0.5,-6.197668677711486,-0.15025,-0.00825,-0.37525,-0.04702758302950277,10,1,100,-0.07981038163783717,-10,-1,-100,18812.2307457485,0.0018614924797415418,-0.00459688193008935,0.9999877016855101,74.24483594009286,4.608749832557719,515.3198595164839,-120.36172384393294,-62.0963134765625,4761.76025390625,True
1599387290.7805884,0.0,10,0.5,0.5,-5.904664199066161,-0.15025,-0.00825,-0.37525,-0.047415362435115974,10,1,100,-0.058045915327041356,-10,-1,-100,18807.405387298553,0.0022246448224276555,-0.004569036330693336,0.9999870873478433,75.0209009491223,4.655912240628791,522.4250118365335,-120.72469648861414,-58.96807861328125,4761.76025390625,True
1599387290.8115053,0.0,10,0.5,0.5,-5.529880849266052,-0.15025,-0.00825,-0.37525,-0.04845309484873699,10,1,100,-0.04075899674126929,-10,-1,-100,18804.98726391315,0.00239271866584779,-0.004552758227619531,0.9999867735574841,75.3540572675974,4.676127469510617,525.6079420371873,-120.90616093039542,-57.515533447265625,4761.76025390625,True
1599387290.8464115,0.0,10,0.5,0.5,-7.073517180633545,-0.15025,-0.00825,-0.37525,-0.04444918851422654,10,1,100,-0.07288616453945596,-10,-1,-100,18797.711120818276,0.002833095376577656,-0.004501312654156556,0.9999858557774588,76.17118160025653,4.725684626729094,533.9240338674732,-121.45048004171929,-53.6041259765625,4761.76025390625,True
1599387290.880321,0.0,10,0.5,0.5,-5.6347674476623535,-0.15025,-0.00825,-0.37525,-0.049594630443703984,10,1,100,-0.029263767561355118,-10,-1,-100,18797.711120818276,0.002833095376577656,-0.004501312654156556,0.9999858557774588,76.17118160025653,4.725684626729094,533.9240338674732,-121.45048004171929,-53.6041259765625,4761.76025390625,True
1599387290.9321818,0.0,10,0.5,0.5,-6.838803427886964,-0.15025,-0.00825,-0.37525,-0.04515862907991608,10,1,100,-0.0568707769941199,-10,-1,-100,18792.842216463177,0.0030802929705583742,-0.0044609773273659396,0.9999853056302879,76.59208039627866,4.751256264153275,538.6284406953564,-121.81330680863122,-51.36810302734375,4761.76025390625,True
1599387290.9680865,0.0,10,0.5,0.5,-7.4927593734741205,-0.15025,-0.00825,-0.37525,-0.04351979877962722,10,1,100,-0.06411446631853715,-10,-1,-100,18785.511650542612,0.0033678536285288926,-0.004409541682900156,0.9999846066335639,77.08703252987992,4.781490503519652,544.7582309901085,-122.3574830843831,-48.5714111328125,4761.76025390625,True
1599387291.0000007,0.0,10,0.5,0.5,-7.253707877349853,-0.15025,-0.00825,-0.37525,-0.044482697091366236,10,1,100,-0.051929806589833316,-10,-1,-100,18780.606468450394,0.0035152252072272465,-0.004371713678515806,0.9999842655318409,77.35144927162393,4.797790067673739,548.399858091779,-122.72023100724347,-47.078094482421875,4761.76025390625,True
1599387291.0359051,0.0,10,0.5,0.5,-6.718453856658935,-0.15025,-0.00825,-0.37525,-0.048240570488121484,10,1,100,-0.0375401666886547,-10,-1,-100,18780.606468450394,0.0035152252072272465,-0.004371713678515806,0.9999842655318409,77.35144927162393,4.797790067673739,548.399858091779,-122.72023100724347,-47.078094482421875,4761.76025390625,True
1599387291.0728073,0.0,10,0.5,0.5,-7.3687974678039545,-0.15025,-0.00825,-0.37525,-0.044687557202743866,10,1,100,-0.04950530177448292,-10,-1,-100,18775.68677731231,0.0036212865816130967,-0.004339657343617701,0.9999840267012439,77.58025339070153,4.8120254966473555,551.8012607715851,-123.0829535950995,-45.881622314453125,4761.76025390625,True
1599387291.1087093,0.0,10,0.5,0.5,-7.72760792388916,-0.15025,-0.00825,-0.37525,-0.04002499082429738,10,1,100,-0.051051849890788946,-10,-1,-100,18765.80387119518,0.00372960013654969,-0.004268393042139131,0.9999839353227927,77.97713675956363,4.837059577682875,558.2041801941702,-123.80833019880336,-44.378143310546875,4761.76025390625,True
1599387291.1446142,0.0,10,0.5,0.5,-7.178044918060302,-0.15025,-0.00825,-0.37525,-0.047118572083359365,10,1,100,-0.04040730516281043,-10,-1,-100,18765.80387119518,0.00372960013654969,-0.004268393042139131,0.9999839353227927,77.97713675956363,4.837059577682875,558.2041801941702,-123.80833019880336,-44.378143310546875,4761.76025390625,True
1599387291.1755307,0.0,10,0.5,0.5,-7.373881526184082,-0.15025,-0.00825,-0.37525,-0.04220944203606035,10,1,100,-0.03865407861126764,-10,-1,-100,18758.353611862985,0.00371229357215919,-0.0042240378992441895,0.9999841880651213,78.25048288862452,4.854500768365956,562.8585933666137,-124.3523069269113,-44.02838134765625,4761.76025390625,True
1599387291.2104373,0.0,10,0.5,0.5,-7.181850399017334,-0.15025,-0.00825,-0.37525,-0.0432372437084252,10,1,100,-0.0343866338829633,-10,-1,-100,18753.368640449946,0.003656565766177504,-0.004193357530296082,0.9999845225199342,78.42885734400645,4.865914523232514,565.945791442163,-124.71493239784697,-44.16522216796875,4761.76025390625,True
1599387291.2473388,0.0,10,0.5,0.5,-7.013646680450439,-0.15025,-0.00825,-0.37525,-0.04299418827686339,10,1,100,-0.030247647668186897,-10,-1,-100,18748.36916500854,0.003567528367523822,-0.004163536650168932,0.9999849687389855,78.60464422204305,4.8771514235781215,569.023798652706,-125.07753758797416,-44.59783935546875,4761.76025390625,True
1599387291.279253,0.0,10,0.5,0.5,-7.011483925628662,-0.15025,-0.00825,-0.37525,-0.044247067351278,10,1,100,-0.032925022957978854,-10,-1,-100,18745.863988360623,0.0035102573868449963,-0.0041481236380061905,0.9999852354726851,78.69075097240639,4.882643065089745,570.5533992310224,-125.25883279417157,-44.925018310546875,4761.76025390625,True
1599387291.3141608,0.0,10,0.5,0.5,-6.67926372680664,-0.15025,-0.00825,-0.37525,-0.04223531396146174,10,1,100,-0.023386443333911967,-10,-1,-100,18740.842757535167,0.003371087621994286,-0.004116107554032059,0.9999858466132651,78.85670611081596,4.893186386304106,573.5740925378104,-125.62140871001756,-45.80096435546875,4761.76025390625,True
1599387291.3490674,0.0,10,0.5,0.5,-7.010248098754882,-0.15025,-0.00825,-0.37525,-0.04540757894598809,10,1,100,-0.037303743218329535,-10,-1,-100,18740.842757535167,0.003371087621994286,-0.004116107554032059,0.9999858466132651,78.85670611081596,4.893186386304106,573.5740925378104,-125.62140871001756,-45.80096435546875,4761.76025390625,True
1599387291.3859694,0.0,10,0.5,0.5,-6.395834232330322,-0.15025,-0.00825,-0.37525,-0.04163461560298211,10,1,100,-0.01827232389311913,-10,-1,-100,18735.80702418892,0.0031982057532062213,-0.004082040256481535,0.9999865541232565,79.00859831406025,4.902762474616218,576.5013043136066,-125.98396610924269,-46.97216796875,4761.76025390625,True
1599387291.4198773,0.0,10,0.5,0.5,-6.06488664855957,-0.15025,-0.00825,-0.37525,-0.04065749028087669,10,1,100,-0.013395537451961453,-10,-1,-100,18730.75678923668,0.0029969941952556573,-0.00404245036798195,0.9999873382302479,79.13759504786539,4.91079354483816,579.2695286598893,-126.3465067470219,-48.438446044921875,4761.76025390625,True
1599387291.4587736,0.0,10,0.5,0.5,-5.6875035797119144,-0.15025,-0.00825,-0.37525,-0.04007446073695988,10,1,100,-0.007281876865738619,-10,-1,-100,18725.692052903934,0.0027590634030498075,-0.0040014294798336614,0.9999881879958662,79.23204113046113,4.91652960746628,581.7917601335974,-126.70903323676943,-50.199615478515625,4761.76025390625,True
1599387291.4996643,0.0,10,0.5,0.5,-4.665100492858887,-0.15025,-0.00825,-0.37525,-0.03544188366996366,10,1,100,0.013171262978425715,-10,-1,-100,18718.067759503843,0.0023577073540370862,-0.003922266120510075,0.9999895284674297,79.2783450343314,4.9188876523035345,584.8834819218556,-127.25280432359541,-53.3936767578125,4761.76025390625,True
1599387291.5365653,0.0,10,0.5,0.5,-5.856234172821044,-0.15025,-0.00825,-0.37525,-0.04332360691015942,10,1,100,-0.026827152644595148,-10,-1,-100,18718.067759503843,0.0023577073540370862,-0.003922266120510075,0.9999895284674297,79.2783450343314,4.9188876523035345,584.8834819218556,-127.25280432359541,-53.3936767578125,4761.76025390625,True
1599387291.5731382,0.0,10,0.5,0.5,-3.069313941192627,-0.15025,-0.00825,-0.37525,-0.02805998680273229,10,1,100,0.04123035938766468,-10,-1,-100,18707.85128366307,0.0017402341412148352,-0.00378378027569595,0.9999913272583713,79.06589921714682,4.904369914147008,586.9837955073567,-127.97782635062458,-58.682342529296875,4761.76025390625,True
1599387291.6105576,0.0,10,0.5,0.5,-5.041909147644043,-0.15025,-0.00825,-0.37525,-0.04186761355868475,10,1,100,-0.02032532873206416,-10,-1,-100,18707.85128366307,0.0017402341412148352,-0.00378378027569595,0.9999913272583713,79.06589921714682,4.904369914147008,586.9837955073567,-127.97782635062458,-58.682342529296875,4761.76025390625,True
1599387291.6479695,0.0,10,0.5,0.5,-3.4089981269836427,-0.15025,-0.00825,-0.37525,-0.03291431446793103,10,1,100,0.018917690094826207,-10,-1,-100,18702.721294792485,0.0013851406011761128,-0.0037027318806658917,0.9999921855505346,78.79427133187227,4.886604460838856,586.7992158492054,-128.3403515695198,-61.767578125,4761.76025390625,True
1599387291.6808853,0.0,10,0.5,0.5,-2.7773026229858395,-0.15025,-0.00825,-0.37525,-0.029728556602668092,10,1,100,0.02131932572325311,-10,-1,-100,18697.576804121258,0.0010424271652330922,-0.003600494988006485,0.9999929748660471,78.38204188388838,4.860013929185944,585.5551381692395,-128.70289894477824,-65.14633178710938,4761.76025390625,True
1599387291.7184176,0.0,10,0.5,0.5,-3.083583013153076,-0.15025,-0.00825,-0.37525,-0.03423883420963812,10,1,100,0.008667210128475437,-10,-1,-100,18694.99912042904,0.0008480056929253808,-0.0035490236207122296,0.9999933426366819,78.11427139396112,4.8428793273818505,584.4660062737552,-128.88418456604322,-66.94583129882812,4761.76025390625,True
1599387291.7573109,0.0,10,0.5,0.5,-1.7346122833251953,-0.15025,-0.00825,-0.37525,-0.026422392501812175,10,1,100,0.03198233442854965,-10,-1,-100,18689.832874771324,0.00046159693530775837,-0.0034316884384947796,0.9999940052033963,77.44106321988222,4.800105943964374,581.238761402717,-129.24678715922914,-70.7646484375,4761.76025390625,True
1599387291.7952123,0.0,10,0.5,0.5,1.3274955398559567,-0.15025,-0.00825,-0.37525,-0.007989377609710788,10,1,100,0.08216432368305499,-10,-1,-100,18679.456863987492,-0.0003433958295511302,-0.003158038457294346,0.9999949544234743,75.44801281741114,4.675065757255682,569.8186255646988,-129.97216620521036,-79.28128051757812,4761.76025390625,True
1599387291.8341064,0.0,10,0.5,0.5,-1.842925309753418,-0.15025,-0.00825,-0.37525,-0.0352659345386854,10,1,100,0.0019990861996468158,-10,-1,-100,18679.456863987492,-0.0003433958295511302,-0.003158038457294346,0.9999949544234743,75.44801281741114,4.675065757255682,569.8186255646988,-129.97216620521036,-79.28128051757812,4761.76025390625,True
1599387291.8740027,0.0,10,0.5,0.5,0.6495442977905272,-0.15025,-0.00825,-0.37525,-0.018059829969369376,10,1,100,0.04741617074245126,-10,-1,-100,18674.24709345156,-0.0007534579988197152,-0.0030023860439574177,0.9999952089780667,74.07555814078763,4.589853584094406,561.1962182258771,-130.33497181671947,-83.97866821289062,4761.76025390625,True
1599387291.9109113,0.0,10,0.5,0.5,1.3760690605163572,-0.15025,-0.00825,-0.37525,-0.015872011467326703,10,1,100,0.050198939482598195,-10,-1,-100,18669.02280810068,-0.001148711354562622,-0.002841830845520325,0.9999953022188002,73.25070228086344,4.539184754103277,556.6737386441051,-130.69784821247882,-88.66751098632812,4761.76025390625,True
1599387291.9488401,0.0,10,0.5,0.5,2.1355282424926756,-0.15025,-0.00825,-0.37525,-0.011649409165023415,10,1,100,0.05843965768597874,-10,-1,-100,18663.7840100741,-0.0015797605537154517,-0.0026584664944429284,0.9999952184448138,74.99040078285877,4.648089712949429,571.6642706916845,-131.0606333857916,-93.40556335449219,4761.76025390625,True
