Timestamp,Input Throttle,horizon,dT,dt,Input Roll,Roll P,Roll I,Roll D,Input Pitch,Pitch P,Pitch I,Pitch D,Input Yaw,Yaw P,Yaw I,Yaw D,Altitude,Direction X,Direction Y,Direction Z,Drag X,Drag Y,Drag Z,Vertical Velocity,Roll,Mass,Has Fuel
1599385900.3711329,0.0,10,0.5,0.5,-2.845421974182129,-0.05075,-0.02275,-0.2505,-0.00017749108816118007,10,1,100,0.49808338448097783,-10,-1,-100,19351.09416501189,-0.04884368322883036,-0.00017549746162734555,0.9988064195875409,60.98669690672251,3.680691987664433,232.75471496302688,-68.48187433825882,-33.922027587890625,4761.76025390625,True
1599385900.3950672,0.0,10,0.5,0.5,-2.9728449806213377,-0.05075,-0.02275,-0.2505,0.00011422543697638967,10,1,100,0.5047128422566036,-10,-1,-100,19348.34394229611,-0.04894724360742506,-0.00015834519072359482,0.9988013527574119,61.16631190587337,3.6928772957321767,234.73129009349938,-68.8467910956989,-33.92431640625,4761.76025390625,True
1599385900.4190097,0.0,10,0.5,0.5,-3.1009905097961425,-0.05075,-0.02275,-0.2505,-0.0016168361724710424,10,1,100,0.49925152875787615,-10,-1,-100,19348.34394229611,-0.04894724360742506,-0.00015834519072359482,0.9988013527574119,61.16631190587337,3.6928772957321767,234.73129009349938,-68.8467910956989,-33.92431640625,4761.76025390625,True
1599385900.447896,0.0,10,0.5,0.5,-3.214836913299561,-0.05075,-0.02275,-0.2505,0.011025780907304727,10,1,100,0.50917432899292,-10,-1,-100,19345.579123250558,-0.04899295338810053,-4.3268358006793644e-05,0.9987991232706208,61.34703556279014,3.7051444585704627,236.72042916744178,-69.21169407551733,-33.969879150390625,4761.76025390625,True
1599385900.4802825,0.0,10,0.5,0.5,-3.353718905639649,-0.05075,-0.02275,-0.2505,-0.0004862292001760693,10,1,100,0.5095026462641834,-10,-1,-100,19345.579123250558,-0.04899295338810053,-4.3268358006793644e-05,0.9987991232706208,61.34703556279014,3.7051444585704627,236.72042916744178,-69.21169407551733,-33.969879150390625,4761.76025390625,True
1599385900.5164483,0.0,10,0.5,0.5,-3.3218102943420407,-0.05075,-0.02275,-0.2505,0.03917689237166402,10,1,100,0.5091843564709484,-10,-1,-100,19341.404527992592,-0.04894552079599103,0.00031734480933539515,0.9988013993213473,61.63755000784299,3.724728009453735,239.7953181101925,-69.75902132725284,-34.498931884765625,4761.76025390625,True
1599385900.5473955,0.0,10,0.5,0.5,-3.5806029342651366,-0.05075,-0.02275,-0.2505,0.0031473101183786788,10,1,100,0.5188221677614975,-10,-1,-100,19341.404527992592,-0.04894552079599103,0.00031734480933539515,0.9988013993213473,61.63755000784299,3.724728009453735,239.7953181101925,-69.75902132725284,-34.498931884765625,4761.76025390625,True
1599385900.5813956,0.0,10,0.5,0.5,-3.492173917388916,-0.05075,-0.02275,-0.2505,0.04619997846663503,10,1,100,0.5095896853091539,-10,-1,-100,19338.60322108993,-0.048817093209337005,0.0007084442081292389,0.9988074837111479,61.847111575139095,3.7387220526839178,241.9183904366849,-70.1238859915063,-35.21160888671875,4761.76025390625,True
1599385900.6144207,0.0,10,0.5,0.5,-3.492355539703369,-0.05075,-0.02275,-0.2505,0.06553906308799548,10,1,100,0.5006322133138688,-10,-1,-100,19335.787319915136,-0.04857453011859499,0.0012391549361286198,0.9988187921333889,62.06391492655277,3.753109728295226,244.07936247742649,-70.48873286939401,-36.217376708984375,4761.76025390625,True
1599385900.6504312,0.0,10,0.5,0.5,-3.246504479980469,-0.05075,-0.02275,-0.2505,0.13160675890599893,10,1,100,0.4680314354623477,-10,-1,-100,19331.536105923587,-0.04801348884643516,0.0023211081463497896,0.9988439904938939,62.383964959161496,3.7742387884887814,247.31853768183248,-71.03596864670541,-38.275970458984375,4761.76025390625,True
1599385900.681347,0.0,10,0.5,0.5,-3.8798543815612794,-0.05075,-0.02275,-0.2505,0.023643548698516925,10,1,100,0.5289369115629746,-10,-1,-100,19331.536105923587,-0.04801348884643516,0.0023211081463497896,0.9988439904938939,62.383964959161496,3.7742387884887814,247.31853768183248,-71.03596864670541,-38.275970458984375,4761.76025390625,True
1599385900.7144642,0.0,10,0.5,0.5,-3.345933391571045,-0.05075,-0.02275,-0.2505,0.12073474283610193,10,1,100,0.47021928756139997,-10,-1,-100,19328.68372280302,-0.047480446986768475,0.003201485724320583,0.9988670370189887,62.577618150405584,3.7869956871502786,249.41130224456492,-71.4007693714753,-40.01544189453125,4761.76025390625,True
1599385900.748128,0.0,10,0.5,0.5,-3.47260375289917,-0.05075,-0.02275,-0.2505,0.08528025728775851,10,1,100,0.4881890279432904,-10,-1,-100,19327.252059402294,-0.04716055820565291,0.003676461080295415,0.9988805561145218,62.66316061220823,3.7926384157694457,250.41584084512226,-71.58316311528648,-40.995391845703125,4761.76025390625,True
1599385900.7840948,0.0,10,0.5,0.5,-3.045336079406739,-0.05075,-0.02275,-0.2505,0.15562155594953211,10,1,100,0.4396620354708355,-10,-1,-100,19324.37778943521,-0.046430220005254416,0.004744237022405914,0.9989102696865915,62.800853666698984,3.801776186687024,252.29656665292165,-71.94793831268767,-43.1751708984375,4761.76025390625,True
1599385900.8151257,0.0,10,0.5,0.5,-2.8251916481018067,-0.05075,-0.02275,-0.2505,0.1751516498848127,10,1,100,0.41538064797198115,-10,-1,-100,19321.488928864594,-0.04554786605797788,0.005888136455208543,0.9989448041541882,62.8787517313182,3.8070984715209844,253.94215966740873,-72.31269962895097,-45.64898681640625,4761.76025390625,True
1599385900.8482592,0.0,10,0.5,0.5,-2.584671589660645,-0.05075,-0.02275,-0.2505,0.19996800808367798,10,1,100,0.3904944905176613,-10,-1,-100,19318.585478296736,-0.04452262020844187,0.00714825610064315,0.9989828020163782,62.875824356961566,3.8073031275995928,255.26352056404238,-72.67745093475037,-48.416259765625,4761.76025390625,True
1599385900.8811147,0.0,10,0.5,0.5,-2.796120066070557,-0.05075,-0.02275,-0.2505,0.1452040944668906,10,1,100,0.42951693906811683,-10,-1,-100,19317.12828169705,-0.043949348878038315,0.007789755735166263,0.9990033906042475,62.837109873063056,3.805059309144149,255.7727907409738,-72.85982452408157,-49.91033935546875,4761.76025390625,True
1599385900.9173152,0.0,10,0.5,0.5,-2.168748216247559,-0.05075,-0.02275,-0.2505,0.2285546332201001,10,1,100,0.34759870769541434,-10,-1,-100,19314.202946033212,-0.042688023903299566,0.009123876290738424,0.9990467894431483,62.66939290775205,3.794916264375992,256.4200613700878,-73.22457166544665,-53.118896484375,4761.76025390625,True
1599385900.9479423,0.0,10,0.5,0.5,-1.3157056777954104,-0.05075,-0.02275,-0.2505,0.32383334149405774,10,1,100,0.23238653192874803,-10,-1,-100,19309.78758619225,-0.04049955330048195,0.011195232841855814,0.9991168364831402,62.142485368209606,3.762572320933858,256.2441856242702,-73.77170688584691,-58.483367919921875,4761.76025390625,True
1599385900.98137,0.0,10,0.5,0.5,-2.6088506423950193,-0.05075,-0.02275,-0.2505,0.11769329417289151,10,1,100,0.4504260945286981,-10,-1,-100,19309.78758619225,-0.04049955330048195,0.011195232841855814,0.9991168364831402,62.142485368209606,3.762572320933858,256.2441856242702,-73.77170688584691,-58.483367919921875,4761.76025390625,True
1599385901.0146093,0.0,10,0.5,0.5,-1.37452809753418,-0.05075,-0.02275,-0.2505,0.2687280973182933,10,1,100,0.26817081634911855,-10,-1,-100,19306.825774253113,-0.03884951798570937,0.012560209120727188,0.9991661303802896,61.56729317882923,3.727192170162367,255.18175299519618,-74.13648678026703,-62.4281005859375,4761.76025390625,True
1599385901.0504477,0.0,10,0.5,0.5,-1.6801670768737793,-0.05075,-0.02275,-0.2505,0.20482777363827712,10,1,100,0.3365073237158539,-10,-1,-100,19305.339396263822,-0.037979057740032546,0.01321087633990613,0.9991912048849865,61.20180943888365,3.704731088644278,254.3182593879682,-74.31888760573172,-64.51132202148438,4761.76025390625,True
1599385901.081393,0.0,10,0.5,0.5,-0.8248052825927736,-0.05075,-0.02275,-0.2505,0.28849260028081636,10,1,100,0.21577393796522615,-10,-1,-100,19302.355695773032,-0.03609879163645403,0.01455388188080499,0.9992422437850531,60.29718367771271,3.649241903857709,251.84382885046878,-74.68371755084141,-68.89797973632812,4761.76025390625,True
1599385901.1154158,0.0,10,0.5,0.5,-0.4495921920776369,-0.05075,-0.02275,-0.2505,0.29115054972322896,10,1,100,0.1834270787225506,-10,-1,-100,19299.357400625595,-0.03410545260969397,0.01578907062127997,0.9992935121130351,59.137351017127806,3.578330156156606,248.26119789785176,-75.04859419846457,-73.5804443359375,4761.76025390625,True
1599385901.142308,0.0,10,0.5,0.5,-0.8148333419799805,-0.05075,-0.02275,-0.2505,0.23626852171897322,10,1,100,0.2649489978803544,-10,-1,-100,19297.852779509267,-0.033045638911706275,0.01640300119112865,0.9993192319278363,58.45346239999829,3.5366337266937147,246.01439117107233,-75.23105328213899,-76.03204345703125,4761.76025390625,True
1599385901.16728,0.0,10,0.5,0.5,0.18173365325927726,-0.05075,-0.02275,-0.2505,0.3015321582011155,10,1,100,0.12840103807931574,-10,-1,-100,19294.83258840686,-0.030852192485477357,0.017544866709250637,0.9993699614612168,56.86216553711669,3.439911538623031,240.5327001412806,-75.59601847666806,-81.1492919921875,4761.76025390625,True
1599385901.1951663,0.0,10,0.5,0.5,-0.23092584228515622,-0.05075,-0.02275,-0.2505,0.2464049482283603,10,1,100,0.2228730903004201,-10,-1,-100,19293.31701775547,-0.02972941477975471,0.018072318352692296,0.999394593344497,55.952265225794925,3.38477255600812,237.28238451402333,-75.77852634661794,-83.78744506835938,4761.76025390625,True
1599385901.2201285,0.0,10,0.5,0.5,0.8134144020080566,-0.05075,-0.02275,-0.2505,0.30446549650212784,10,1,100,0.07558417542336138,-10,-1,-100,19290.27492476476,-0.02738264485212294,0.019070295228657577,0.9994431022328356,53.92487405867082,3.262281593429494,229.8394112077226,-76.14359485522469,-89.1920166015625,4761.76025390625,True
1599385901.2481642,0.0,10,0.5,0.5,0.36732195014953617,-0.05075,-0.02275,-0.2505,0.254534819344816,10,1,100,0.17876751917360978,-10,-1,-100,19288.748401554185,-0.02620116202387011,0.019514589488161434,0.9994661974802886,52.80498793083052,3.194807350795884,225.6319146808871,-76.32615566301192,-91.9328842163086,4761.76025390625,True
1599385901.2851117,0.0,10,0.5,0.5,0.5816314661026001,-0.05075,-0.02275,-0.2505,0.2565735230724826,10,1,100,0.1636532339171366,-10,-1,-100,19287.218227037694,-0.025002682669741975,0.01992946397919254,0.9994887104539092,52.43749584005777,3.1729965573236893,224.62349876240992,-76.50871928052521,-94.67080688476562,4761.76025390625,True
1599385901.3160286,0.0,10,0.5,0.5,3.2331490785598755,-0.05075,-0.02275,-0.2505,0.3666114136858337,10,1,100,-0.2633718462473054,-10,-1,-100,19281.06102493941,-0.020045197865067598,0.02129902685739916,0.9995721792334349,55.64459932993442,3.3701151610405926,240.74579822859897,-77.23876060577885,-105.47592163085938,4761.76025390625,True
1599385901.3486295,0.0,10,0.5,0.5,0.6244016275405884,-0.05075,-0.02275,-0.2505,0.23052900763883896,10,1,100,0.23049620220806813,-10,-1,-100,19281.06102493941,-0.020045197865067598,0.02129902685739916,0.9995721792334349,55.64459932993442,3.3701151610405926,240.74579822859897,-77.23876060577885,-105.47592163085938,4761.76025390625,True
1599385901.3825896,0.0,10,0.5,0.5,1.5071959871292115,-0.05075,-0.02275,-0.2505,0.2599860380645707,10,1,100,0.09038141287384993,-10,-1,-100,19279.5126005247,-0.018787730561915583,0.02155946517898082,0.9995910216891352,56.36551405225484,3.41476080218392,244.46814938998176,-77.42121751933736,-108.09700012207031,4761.76025390625,True
1599385901.408523,0.0,10,0.5,0.5,2.476450834465027,-0.05075,-0.02275,-0.2505,0.28280158067877603,10,1,100,-0.05269034157652405,-10,-1,-100,19276.404805724975,-0.016359663483205385,0.021997272601185853,0.9996241700803484,57.585672644757544,3.4907877391090607,250.9921937337639,-77.78607082516828,-113.19793701171875,4761.76025390625,True
1599385901.4374428,0.0,10,0.5,0.5,2.7617037019729613,-0.05075,-0.02275,-0.2505,0.2720501518241173,10,1,100,-0.09445492423349611,-10,-1,-100,19273.282419284573,-0.013788784286702268,0.02229189526634816,0.9996564113900981,58.70838053983665,3.560988151743851,257.1405480988219,-78.15084756226432,-118.0872573852539,4761.76025390625,True
1599385901.4623773,0.0,10,0.5,0.5,3.0316753665924074,-0.05075,-0.02275,-0.2505,0.2654259874523265,10,1,100,-0.10611260775614056,-10,-1,-100,19270.145443548914,-0.01136314867115267,0.02249416083668378,0.9996823953539098,59.54263938216122,3.6136207604261794,262.066398399206,-78.51555954516333,-122.73147583007812,4761.76025390625,True
1599385901.4912994,0.0,10,0.5,0.5,1.9628981143951416,-0.05075,-0.02275,-0.2505,0.2456943598315079,10,1,100,0.13450204941738678,-10,-1,-100,19270.145443548914,-0.01136314867115267,0.02249416083668378,0.9996823953539098,59.54263938216122,3.6136207604261794,262.066398399206,-78.51555954516333,-122.73147583007812,4761.76025390625,True
1599385901.5192242,0.0,10,0.5,0.5,3.3641415439605717,-0.05075,-0.02275,-0.2505,0.2582063297195775,10,1,100,-0.12918677137534762,-10,-1,-100,19266.993881043512,-0.008982674178590177,0.022603886160680785,0.9997041441821858,60.11148927466898,3.6499536956583736,265.8533738854451,-78.8802211649897,-127.08880615234375,4761.76025390625,True
1599385901.5491443,0.0,10,0.5,0.5,3.5830137760162355,-0.05075,-0.02275,-0.2505,0.25066016145692105,10,1,100,-0.14694882254893527,-10,-1,-100,19263.827733117738,-0.0066738605116585074,0.022631822570170254,0.9997215913408208,60.45347066639743,3.6722460848997245,268.6560510013154,-79.24484608394519,-131.15243530273438,4761.76025390625,True
1599385901.5821745,0.0,10,0.5,0.5,2.6542991525650024,-0.05075,-0.02275,-0.2505,0.24817824381617498,10,1,100,0.08197981399301052,-10,-1,-100,19263.827733117738,-0.0066738605116585074,0.022631822570170254,0.9997215913408208,60.45347066639743,3.6722460848997245,268.6560510013154,-79.24484608394519,-131.15243530273438,4761.76025390625,True
1599385901.6151214,0.0,10,0.5,0.5,3.8727925989151,-0.05075,-0.02275,-0.2505,0.24049942763315124,10,1,100,-0.16795203941408396,-10,-1,-100,19260.647001114674,-0.004418415319010452,0.022559558460696422,0.9997357370466093,60.60656302755157,3.682768564878805,270.62980647479077,-79.60944662351825,-134.92172241210938,4761.76025390625,True
1599385901.651005,0.0,10,0.5,0.5,4.532039550971985,-0.05075,-0.02275,-0.2505,0.22610195351699452,10,1,100,-0.2940212130311657,-10,-1,-100,19255.848558843485,-0.0012361333678533467,0.022361831749570335,0.9997491787719062,60.561145001383586,3.681292121335408,272.3661402629952,-80.15632305323082,-140.0220184326172,4761.76025390625,True
1599385901.681983,0.0,10,0.5,0.5,3.333007768058777,-0.05075,-0.02275,-0.2505,0.2459809051188204,10,1,100,0.022326075634823424,-10,-1,-100,19255.848558843485,-0.0012361333678533467,0.022361831749570335,0.9997491787719062,60.561145001383586,3.681292121335408,272.3661402629952,-80.15632305323082,-140.0220184326172,4761.76025390625,True
1599385901.7159836,0.0,10,0.5,0.5,4.318594395256043,-0.05075,-0.02275,-0.2505,0.22942265890790542,10,1,100,-0.19625578329112173,-10,-1,-100,19252.63136834954,0.0007350184431151891,0.022210572814406936,0.9997530446080893,60.39649721439685,3.671817322849182,272.9155389389359,-80.52090201343526,-143.05258178710938,4761.76025390625,True
1599385901.750036,0.0,10,0.5,0.5,4.829935125541687,-0.05075,-0.02275,-0.2505,0.21369039332312806,10,1,100,-0.305637896184794,-10,-1,-100,19247.778239096748,0.0035058168594596776,0.021929850186021123,0.9997533650450828,60.029155616070405,3.649903039335135,273.17997865838004,-81.0677745527417,-147.04454040527344,4761.76025390625,True
1599385901.7857966,0.0,10,0.5,0.5,3.895827310562134,-0.05075,-0.02275,-0.2505,0.24172645165367662,10,1,100,-0.030287514664961296,-10,-1,-100,19247.778239096748,0.0035058168594596776,0.021929850186021123,0.9997533650450828,60.029155616070405,3.649903039335135,273.17997865838004,-81.0677745527417,-147.04454040527344,4761.76025390625,True
1599385901.8157241,0.0,10,0.5,0.5,4.64139532699585,-0.05075,-0.02275,-0.2505,0.22280066166026716,10,1,100,-0.21788242118569404,-10,-1,-100,19244.52459017583,0.005197707859165782,0.02175831055939982,0.9997497485644152,59.74125286183192,3.6324863573104427,273.1475259016295,-81.4323626550264,-149.33584594726562,4761.76025390625,True
1599385901.8497097,0.0,10,0.5,0.5,4.996257595062256,-0.05075,-0.02275,-0.2505,0.21293367786353073,10,1,100,-0.3066157848153287,-10,-1,-100,19239.616772423964,0.007527402204140448,0.021513334546389474,0.9997402235844831,59.302437347195884,3.6057459954790265,273.0452312007793,-81.97925669231802,-152.21820068359375,4761.76025390625,True
1599385901.8965838,0.0,10,0.5,0.5,4.798946887969971,-0.05075,-0.02275,-0.2505,0.21954685029865928,10,1,100,-0.23101671653258388,-10,-1,-100,19236.326664026594,0.008943032736653618,0.021351740239985137,0.9997320267722722,59.02968648491199,3.5890409992571013,273.05393420492476,-82.34385957676622,-153.77023315429688,4761.76025390625,True
1599385901.9534318,0.0,10,0.5,0.5,4.661795780181885,-0.05075,-0.02275,-0.2505,0.2314635095635662,10,1,100,-0.16285311955396034,-10,-1,-100,19234.67614057008,0.009596103345270548,0.02131433330232597,0.9997267696708257,58.904145152308026,3.581331717671552,273.10442146780696,-82.52616247301069,-154.43472290039062,4761.76025390625,True
1599385902.006289,0.0,10,0.5,0.5,5.015407607269288,-0.05075,-0.02275,-0.2505,0.2207809841405138,10,1,100,-0.2983658181151794,-10,-1,-100,19229.70269386063,0.011406946645608904,0.02118441084539702,0.9997105092502316,58.59568177375808,3.562312916048834,273.55902729234157,-83.07307379309009,-155.98526000976562,4761.76025390625,True
1599385902.0501735,0.0,10,0.5,0.5,4.874883696746826,-0.05075,-0.02275,-0.2505,0.2283464266602803,10,1,100,-0.2358773231170127,-10,-1,-100,19226.368832446286,0.012470703907783513,0.02113632640529158,0.9996988232713558,58.45652323544847,3.553663221136163,274.1637140682332,-83.43768022759006,-156.6490478515625,4761.76025390625,True
1599385902.0850797,0.0,10,0.5,0.5,4.857000601577759,-0.05075,-0.02275,-0.2505,0.23760723171708378,10,1,100,-0.23322948889713002,-10,-1,-100,19223.020387012744,0.013401223982965463,0.021177916510570553,0.9996859021952993,58.3772159864557,3.5486525692766024,275.0450159934829,-83.80228214146142,-157.01608276367188,4761.76025390625,True
1599385902.1209826,0.0,10,0.5,0.5,4.825278423309326,-0.05075,-0.02275,-0.2505,0.23945237442947492,10,1,100,-0.232143368778319,-10,-1,-100,19219.657357572578,0.0142239708162773,0.021233576008426812,0.9996733536031217,58.36311974121431,3.5476127340923016,276.2320977042765,-84.16687628090754,-157.087646484375,4761.76025390625,True
1599385902.1508245,0.0,10,0.5,0.5,4.8166105087280275,-0.05075,-0.02275,-0.2505,0.2392133163783389,10,1,100,-0.1911409097954374,-10,-1,-100,19217.970374156488,0.014586910171831717,0.021282890475836702,0.9996670748927526,58.38057805451225,3.5485866331245126,276.9418483305813,-84.34916951098974,-157.01239013671875,4761.76025390625,True
1599385902.1837366,0.0,10,0.5,0.5,4.858139081954956,-0.05075,-0.02275,-0.2505,0.23421717366633144,10,1,100,-0.1559550835712329,-10,-1,-100,19217.970374156488,0.014586910171831717,0.021282890475836702,0.9996670748927526,58.38057805451225,3.5485866331245126,276.9418483305813,-84.34916951098974,-157.01239013671875,4761.76025390625,True
1599385902.215647,0.0,10,0.5,0.5,4.768628630828857,-0.05075,-0.02275,-0.2505,0.2490706079264513,10,1,100,-0.22702120849000004,-10,-1,-100,19214.585469909827,0.015222892131718353,0.021418509841574323,0.9996546958781879,58.464033342046854,3.553496274009169,278.59410997158176,-84.71374593295323,-156.63998413085938,4761.76025390625,True
1599385902.2445743,0.0,10,0.5,0.5,4.54336872177124,-0.05075,-0.02275,-0.2505,0.263249829624858,10,1,100,-0.24590386524929728,-10,-1,-100,19209.480771344737,0.015963604261906586,0.021671011099246608,0.9996376996776911,58.704338229656166,3.5678979659358494,281.63226673395576,-85.26057972452415,-155.52740478515625,4761.76025390625,True
1599385902.2764919,0.0,10,0.5,0.5,4.829598287200929,-0.05075,-0.02275,-0.2505,0.2380154715129152,10,1,100,-0.17267627243625064,-10,-1,-100,19209.480771344737,0.015963604261906586,0.021671011099246608,0.9996376996776911,58.704338229656166,3.5678979659358494,281.63226673395576,-85.26057972452415,-155.52740478515625,4761.76025390625,True
1599385902.304413,0.0,10,0.5,0.5,4.498877205657959,-0.05075,-0.02275,-0.2505,0.26173179739411223,10,1,100,-0.2107677755289653,-10,-1,-100,19206.05941179744,0.016303508315908308,0.021886323815567252,0.9996275228536043,58.93159940471528,3.581613354942814,283.9898901369575,-85.62511070436109,-154.4163055419922,4761.76025390625,True
1599385902.337325,0.0,10,0.5,0.5,4.576422735214234,-0.05075,-0.02275,-0.2505,0.2539311934176363,10,1,100,-0.19030709057622047,-10,-1,-100,19204.343264435534,0.016420408133638886,0.02201062807560602,0.999622880114517,59.06269334047314,3.589548226951405,285.25682171836087,-85.80736782743278,-153.74993896484375,4761.76025390625,True
1599385902.36525,0.0,10,0.5,0.5,4.270170013809204,-0.05075,-0.02275,-0.2505,0.2692410415845724,10,1,100,-0.19646171867607443,-10,-1,-100,19200.900034553255,0.01657807416749442,0.022262061279676854,0.9996147098179762,59.355475770524954,3.6073189138347015,287.9477626681386,-86.17186383040375,-152.19610595703125,4761.76025390625,True
1599385902.3961678,0.0,10,0.5,0.5,4.3818841068267815,-0.05075,-0.02275,-0.2505,0.25926418888135283,10,1,100,-0.1841237914549198,-10,-1,-100,19199.17295236711,0.016605509977843762,0.02239891486346254,0.9996111972418651,59.51380529580213,3.6169554935790367,289.35609443671126,-86.35410229544125,-151.30850219726562,4761.76025390625,True
1599385902.423092,0.0,10,0.5,0.5,3.65585034980774,-0.05075,-0.02275,-0.2505,0.29372381989332924,10,1,100,-0.170034086537732,-10,-1,-100,19193.96983865241,0.01649945040982793,0.022835486586692138,0.9996030755697596,60.016014421870445,3.647658632427095,293.73510935067975,-86.90077780057916,-148.20346069335938,4761.76025390625,True
1599385902.457005,0.0,10,0.5,0.5,4.413451723861694,-0.05075,-0.02275,-0.2505,0.25022683862819595,10,1,100,-0.18086759129867014,-10,-1,-100,19193.96983865241,0.01649945040982793,0.022835486586692138,0.9996030755697596,60.016014421870445,3.647658632427095,293.73510935067975,-86.90077780057916,-148.20346069335938,4761.76025390625,True
1599385902.4859273,0.0,10,0.5,0.5,3.258382532119751,-0.05075,-0.02275,-0.2505,0.29990801743573287,10,1,100,-0.13745416712105668,-10,-1,-100,19188.733926801127,0.01610304424436054,0.023285722215750787,0.9995991532144048,60.515754287204444,3.6784982651965303,298.1349596263839,-87.44739331439469,-144.43572998046875,4761.76025390625,True
1599385902.5168846,0.0,10,0.5,0.5,4.173587173843384,-0.05075,-0.02275,-0.2505,0.2550847377038594,10,1,100,-0.17724639707504872,-10,-1,-100,19188.733926801127,0.01610304424436054,0.023285722215750787,0.9995991532144048,60.515754287204444,3.6784982651965303,298.1349596263839,-87.44739331439469,-144.43572998046875,4761.76025390625,True
1599385902.550419,0.0,10,0.5,0.5,3.278335942459107,-0.05075,-0.02275,-0.2505,0.2880221982860367,10,1,100,-0.1308623712813412,-10,-1,-100,19185.22509949433,0.01568057114431534,0.023583456209794056,0.9995988896961564,60.8154022176807,3.697236879210201,300.92071962179705,-87.81177248594079,-141.5561065673828,4761.76025390625,True
1599385902.587422,0.0,10,0.5,0.5,3.500995258331299,-0.05075,-0.02275,-0.2505,0.27307812069389237,10,1,100,-0.14449976933077863,-10,-1,-100,19183.465220138198,0.015420738338466949,0.02371652963980431,0.9995997834388225,60.94680374304164,3.7055642770445005,302.2272495432479,-87.99395370814106,-140.0062255859375,4761.76025390625,True
1599385902.6183429,0.0,10,0.5,0.5,2.853694814300537,-0.05075,-0.02275,-0.2505,0.2890848805381419,10,1,100,-0.10307749760267904,-10,-1,-100,19179.934531248873,0.014808454104643359,0.023981161921542666,0.999602727867388,61.157031582779545,3.719198962661252,304.5873864108613,-88.35830236583942,-136.68594360351562,4761.76025390625,True
1599385902.651255,0.0,10,0.5,0.5,2.5565051601409916,-0.05075,-0.02275,-0.2505,0.28684969218713674,10,1,100,-0.0836820303450095,-10,-1,-100,19176.38926905673,0.014076868784471522,0.024199512430744783,0.9996080358637275,61.27502701885199,3.727481757197675,306.4959928857608,-88.722637492467,-133.0723876953125,4761.76025390625,True
1599385902.6842606,0.0,10,0.5,0.5,2.837211556625366,-0.05075,-0.02275,-0.2505,0.27623354972692526,10,1,100,-0.11145604525238989,-10,-1,-100,19174.611172901932,0.013666412755608917,0.024299512612785568,0.9996113058830289,61.290405197150285,3.7290713452298445,307.2339142128458,-88.90480227202394,-131.15554809570312,4761.76025390625,True
1599385902.720889,0.0,10,0.5,0.5,1.404889289474487,-0.05075,-0.02275,-0.2505,0.2887764521093512,10,1,100,0.0005213156571498845,-10,-1,-100,19169.255024612066,0.012277941867839719,0.02450259602599642,0.9996243669156314,61.11663851388194,3.720859038293628,308.3421598195542,-89.45129945471123,-124.96592712402344,4761.76025390625,True
1599385902.751145,0.0,10,0.5,0.5,1.5421563232421875,-0.05075,-0.02275,-0.2505,0.2750347100784553,10,1,100,-0.02192499543628393,-10,-1,-100,19165.66604205966,0.011223687132635305,0.02456037994575947,0.9996353418042345,60.77668496435973,3.7020347298166167,307.94125274265855,-89.81564695173272,-120.4736328125,4761.76025390625,True
1599385902.78427,0.0,10,0.5,0.5,1.1630784149169924,-0.05075,-0.02275,-0.2505,0.266046099599466,10,1,100,-0.002635784017018819,-10,-1,-100,19162.06248465937,0.010094713417980876,0.024529628056317736,0.9996481351497774,60.219407393567735,3.670129296513021,306.4218100477097,-90.1800219866936,-115.68919372558594,4761.76025390625,True
1599385902.817174,0.0,10,0.5,0.5,2.28761044883728,-0.05075,-0.02275,-0.2505,0.269290702690602,10,1,100,-0.11489268178327706,-10,-1,-100,19162.06248465937,0.010094713417980876,0.024529628056317736,0.9996481351497774,60.219407393567735,3.670129296513021,306.4218100477097,-90.1800219866936,-115.68919372558594,4761.76025390625,True
1599385902.8542619,0.0,10,0.5,0.5,0.6928980854034423,-0.05075,-0.02275,-0.2505,0.2566130261606171,10,1,100,0.01733932825935236,-10,-1,-100,19158.44435119233,0.008898066354708226,0.024413245628008267,0.999662351923415,59.41018939360058,3.622913679423883,303.5930553138198,-90.54443848265859,-110.61263275146484,4761.76025390625,True
1599385902.888169,0.0,10,0.5,0.5,1.0899964166641234,-0.05075,-0.02275,-0.2505,0.25800300525919856,10,1,100,-0.03371336792285888,-10,-1,-100,19156.629817792098,0.008280870787834694,0.0243190545727938,0.9996699509156413,58.99717484996405,3.598767162689447,302.1233665903441,-90.72666462059976,-107.96488952636719,4761.76025390625,True
1599385902.91909,0.0,10,0.5,0.5,0.01564476490020761,-0.05075,-0.02275,-0.2505,0.23896153646988527,10,1,100,0.04755096334134709,-10,-1,-100,19152.98981654027,0.006987744261326412,0.024059653353275076,0.9996861029896627,57.959869952388175,3.5374362591866597,298.0723296747251,-91.0911583748268,-102.4505615234375,4761.76025390625,True
1599385902.9511023,0.0,10,0.5,0.5,-0.4235225450515747,-0.05075,-0.02275,-0.2505,0.22436974703224594,10,1,100,0.06107902174943283,-10,-1,-100,19149.335233566817,0.005696858700860958,0.02369086950090363,0.9997031001768643,56.75167009133363,3.465333840384923,293.09575780001046,-91.45571392318577,-96.69100189208984,4761.76025390625,True
1599385902.9871106,0.0,10,0.5,0.5,-0.8833898807525635,-0.05075,-0.02275,-0.2505,0.20946485664489878,10,1,100,0.08090639371936023,-10,-1,-100,19145.666066234582,0.004351360805623735,0.02322037635197247,0.999720900942464,55.29234486943963,3.3773972171514424,286.7658192298982,-91.82033560658519,-90.67723083496094,4761.76025390625,True
1599385903.0170326,0.0,10,0.5,0.5,-2.236117770385742,-0.05075,-0.02275,-0.2505,0.159297309884966,10,1,100,0.16421874236722905,-10,-1,-100,19140.134972234606,0.002379637284044586,0.02233747682428909,0.9997476553888589,58.59970393803848,3.5802729614079456,305.83914242556784,-92.36714728496058,-81.50634765625,4761.76025390625,True
1599385903.050953,0.0,10,0.5,0.5,-0.9526635047912597,-0.05075,-0.02275,-0.2505,0.21013792554567753,10,1,100,0.03958403626904527,-10,-1,-100,19138.283984904294,0.00173046484302118,0.021998811974027484,0.999756499235268,59.687430482512674,3.6468060119364583,312.16811438100933,-92.54936159173126,-78.51580810546875,4761.76025390625,True
1599385903.0838995,0.0,10,0.5,0.5,-0.30920736808776855,-0.05075,-0.02275,-0.2505,0.2437540321666413,10,1,100,-0.024278460130813483,-10,-1,-100,19138.283984904294,0.00173046484302118,0.021998811974027484,0.999756499235268,59.687430482512674,3.6468060119364583,312.16811438100933,-92.54936159173126,-78.51580810546875,4761.76025390625,True
1599385903.1202652,0.0,10,0.5,0.5,-2.1502621196746827,-0.05075,-0.02275,-0.2505,0.163527444806159,10,1,100,0.11507445355765292,-10,-1,-100,19134.571079455316,0.0004722503752074984,0.021271808059815583,0.9997736179563098,61.618130927600376,3.7647338016570244,323.61158972768146,-92.91371081879987,-72.72128295898438,4761.76025390625,True
1599385903.1502798,0.0,10,0.5,0.5,-2.4578193763732914,-0.05075,-0.02275,-0.2505,0.1447661472892826,10,1,100,0.12726758206270292,-10,-1,-100,19130.843603131827,-0.0007736798882665093,0.02044329981492089,0.9997907145558552,63.21848308993422,3.8623725402342552,333.39658639121586,-93.27796374177122,-67.20648193359375,4761.76025390625,True
1599385903.1841857,0.0,10,0.5,0.5,-1.9938330074310304,-0.05075,-0.02275,-0.2505,0.17755186705699944,10,1,100,0.07077446839685818,-10,-1,-100,19128.97440182732,-0.0013828896460022482,0.01999187734312441,0.9997991860651441,63.90112185455097,3.9040232455065493,337.69390323699645,-93.46005824983673,-64.52706909179688,4761.76025390625,True
1599385903.2172332,0.0,10,0.5,0.5,-4.505009810447692,-0.05075,-0.02275,-0.2505,0.015385581761887923,10,1,100,0.25962478401050726,-10,-1,-100,19121.461184969055,-0.0036441914258854473,0.018111273746340126,0.9998293362530112,65.95694567933391,4.029902147563988,351.4360700954341,-94.18826439321042,-54.31121826171875,4761.76025390625,True
1599385903.2542827,0.0,10,0.5,0.5,-2.068001279640198,-0.05075,-0.02275,-0.2505,0.20282516335767087,10,1,100,0.03468711224355934,-10,-1,-100,19121.461184969055,-0.0036441914258854473,0.018111273746340126,0.9998293362530112,65.95694567933391,4.029902147563988,351.4360700954341,-94.18826439321042,-54.31121826171875,4761.76025390625,True
1599385903.2842023,0.0,10,0.5,0.5,-4.260416387367249,-0.05075,-0.02275,-0.2505,0.03700914141012407,10,1,100,0.20650520836342248,-10,-1,-100,19115.78804730717,-0.0051965087218049195,0.016609262982823277,0.9998485528720196,66.84278659726976,4.085080530630165,358.34401224469525,-94.73429078862145,-47.39703369140625,4761.76025390625,True
1599385903.3171403,0.0,10,0.5,0.5,-2.6405569301605225,-0.05075,-0.02275,-0.2505,0.18650205711000087,10,1,100,0.052362815513741834,-10,-1,-100,19115.78804730717,-0.0051965087218049195,0.016609262982823277,0.9998485528720196,66.84278659726976,4.085080530630165,358.34401224469525,-94.73429078862145,-47.39703369140625,4761.76025390625,True
1599385903.350715,0.0,10,0.5,0.5,-4.0154982223510745,-0.05075,-0.02275,-0.2505,0.06568221938911725,10,1,100,0.15933917056516317,-10,-1,-100,19111.98775596358,-0.006160341159065633,0.015516910924787198,0.9998606281238183,67.17909665082446,4.106800618532666,361.6141186773969,-95.09827397488365,-43.159759521484375,4761.76025390625,True
1599385903.3872626,0.0,10,0.5,0.5,-3.646254174041748,-0.05075,-0.02275,-0.2505,0.12049618458604412,10,1,100,0.1140489044786877,-10,-1,-100,19110.08215056325,-0.006617059157204586,0.015028372888271463,0.99986517217895,67.28407283112448,4.1139350291342955,362.9144296536073,-95.28025968766805,-41.151611328125,4761.76025390625,True
1599385903.4201746,0.0,10,0.5,0.5,-4.370710533905029,-0.05075,-0.02275,-0.2505,0.05390196814214601,10,1,100,0.1648960592452004,-10,-1,-100,19106.260020907503,-0.0074869155406626356,0.013985182195663318,0.999874172471037,67.38888202980449,4.122020257300264,364.95379150674717,-95.64422545083299,-37.359100341796875,4761.76025390625,True
1599385903.4502735,0.0,10,0.5,0.5,-5.060550227355957,-0.05075,-0.02275,-0.2505,-0.00940455337236748,10,1,100,0.21167905649434815,-10,-1,-100,19100.49952934368,-0.008694614609358857,0.012468598306595212,0.9998844621920393,67.34200814034683,4.122170273941025,366.91314482624483,-96.19017386531918,-32.22637939453125,4761.76025390625,True
1599385903.6916466,0.0,10,0.5,0.5,-3.866929535675049,-0.05075,-0.02275,-0.2505,0.14137351455912106,10,1,100,0.0918258361231827,-10,-1,-100,19100.49952934368,-0.008694614609358857,0.012468598306595212,0.9998844621920393,67.34200814034683,4.122170273941025,366.91314482624483,-96.19017386531918,-32.22637939453125,4761.76025390625,True
1599385903.719571,0.0,10,0.5,0.5,-5.695750563812256,-0.05075,-0.02275,-0.2505,-0.06906591909397874,10,1,100,0.25318827309695546,-10,-1,-100,19092.767917075893,-0.010154345004828525,0.010562762274756419,0.9998926529036254,67.05155687739511,4.10902438156491,368.27642931574513,-96.91812951141192,-26.419769287109375,4761.76025390625,True
1599385903.7525682,0.0,10,0.5,0.5,-4.32788883895874,-0.05075,-0.02275,-0.2505,0.12057477258306375,10,1,100,0.10809237908587123,-10,-1,-100,19092.767917075893,-0.010154345004828525,0.010562762274756419,0.9998926529036254,67.05155687739511,4.10902438156491,368.27642931574513,-96.91812951141192,-26.419769287109375,4761.76025390625,True
1599385903.8569639,0.0,10,0.5,0.5,-4.77274931793213,-0.05075,-0.02275,-0.2505,0.06629588247546496,10,1,100,0.1444152743822651,-10,-1,-100,19090.825914556743,-0.010478634822451248,0.010076180102388779,0.9998943288202018,66.95993705492707,4.104632128421915,368.51005248206786,-97.1001247887921,-25.1536865234375,4761.76025390625,True
1599385903.8858597,0.0,10,0.5,0.5,-5.8250871200561525,-0.05075,-0.02275,-0.2505,-0.07856019544203026,10,1,100,0.24998877717942058,-10,-1,-100,19083.02150398947,-0.011726989733540078,0.008324263867935468,0.9998965868242807,66.59768308283124,4.0873832127648315,369.45321526791565,-97.8281311338414,-20.827850341796875,4761.76025390625,True
1599385903.9207647,0.0,10,0.5,0.5,-5.31985816116333,-0.05075,-0.02275,-0.2505,0.006902549853281481,10,1,100,0.18947269791320384,-10,-1,-100,19079.09745805175,-0.012305774858462739,0.007516078611221555,0.9998960328291351,66.45110033167802,4.0808607219577695,370.1082756825969,-98.19214653390601,-19.1085205078125,4761.76025390625,True
1599385903.9523401,0.0,10,0.5,0.5,-4.9535224052429205,-0.05075,-0.02275,-0.2505,0.08681175708751265,10,1,100,0.13230511203460354,-10,-1,-100,19079.09745805175,-0.012305774858462739,0.007516078611221555,0.9998960328291351,66.45110033167802,4.0808607219577695,370.1082756825969,-98.19214653390601,-19.1085205078125,4761.76025390625,True
1599385903.9863517,0.0,10,0.5,0.5,-5.233937445068359,-0.05075,-0.02275,-0.2505,0.04664172922143997,10,1,100,0.16592504837098157,-10,-1,-100,19077.12997503241,-0.01260582388543036,0.007158170023633227,0.9998949213822831,66.39334450468796,4.078540463448487,370.52078923157046,-98.37415602165396,-18.35931396484375,4761.76025390625,True
1599385904.0184686,0.0,10,0.5,0.5,-5.482646878051757,-0.05075,-0.02275,-0.2505,0.004021012454239567,10,1,100,0.198510650991435,-10,-1,-100,19073.184087759,-0.013169384147652114,0.00645249224872805,0.9998924605501092,66.31757652330816,4.076311600943757,371.56601352513496,-98.73817668643518,-17.082855224609375,4761.76025390625,True
1599385904.0545378,0.0,10,0.5,0.5,-5.504425405883789,-0.05075,-0.02275,-0.2505,-0.0015089152758279434,10,1,100,0.19953894754773147,-10,-1,-100,19069.223639898468,-0.013685893928722777,0.005767542828492672,0.9998897097965821,66.30280691333171,4.077794193810454,372.952704217336,-99.10219629414989,-16.102264404296875,4761.76025390625,True
1599385904.085454,0.0,10,0.5,0.5,-5.572090593719482,-0.05075,-0.02275,-0.2505,-0.0292072794011431,10,1,100,0.2340675862261422,-10,-1,-100,19063.25566701626,-0.014464807463754965,0.004899150095755919,0.9998833770362301,66.41149284617045,4.08801220858541,375.7747698114559,-99.64821420710807,-15.18402099609375,4761.76025390625,True
1599385904.1184351,0.0,10,0.5,0.5,-5.428610997772217,-0.05075,-0.02275,-0.2505,0.028424713626047114,10,1,100,0.1846420840585436,-10,-1,-100,19061.259062734083,-0.014718342300574788,0.004640510682797728,0.9998809109391609,66.48556929747728,4.0937399961674386,376.93235935981124,-99.83021481496374,-15.02545166015625,4761.76025390625,True
1599385904.1513097,0.0,10,0.5,0.5,-5.414811451721191,-0.05075,-0.02275,-0.2505,0.05369642976267042,10,1,100,0.1597450001061359,-10,-1,-100,19061.259062734083,-0.014718342300574788,0.004640510682797728,0.9998809109391609,66.48556929747728,4.0937399961674386,376.93235935981124,-99.83021481496374,-15.02545166015625,4761.76025390625,True
1599385904.1881547,0.0,10,0.5,0.5,-5.469683605194092,-0.05075,-0.02275,-0.2505,0.0022387697015684854,10,1,100,0.21516595770245844,-10,-1,-100,19057.254933991702,-0.015218020099363405,0.004178097638234945,0.9998754699283209,66.69344472184099,4.108875078732878,379.5933821909053,-100.19420396240965,-14.929351806640625,4761.76025390625,True
1599385904.2189686,0.0,10,0.5,0.5,-5.260263050842285,-0.05075,-0.02275,-0.2505,-0.036122649156854154,10,1,100,0.2689612139445633,-10,-1,-100,19049.20300115028,-0.01615701189566591,0.0034143438648868954,0.9998636373138968,67.349607315277,4.154035256799151,386.32575622566475,-100.92211793411055,-15.621826171875,4761.76025390625,True
1599385904.2531369,0.0,10,0.5,0.5,-5.445571584320069,-0.05075,-0.02275,-0.2505,0.03976173617764599,10,1,100,0.17550503653052552,-10,-1,-100,19049.20300115028,-0.01615701189566591,0.0034143438648868954,0.9998636373138968,67.349607315277,4.154035256799151,386.32575622566475,-100.92211793411055,-15.621826171875,4761.76025390625,True
1599385904.285177,0.0,10,0.5,0.5,-5.345959181976319,-0.05075,-0.02275,-0.2505,0.024412427334330848,10,1,100,0.20162354515179756,-10,-1,-100,19047.180919523,-0.016390951758552742,0.0032785335433534258,0.9998602841988746,67.56253125999498,4.168368725328049,388.2995745646683,-101.10407934783507,-15.97882080078125,4761.76025390625,True
1599385904.3210478,0.0,10,0.5,0.5,-4.790463060760499,-0.05075,-0.02275,-0.2505,-0.006213570470173846,10,1,100,0.2760906391342232,-10,-1,-100,19039.056203958462,-0.01727688414565365,0.0028805037665255635,0.9998465942194676,68.59120775903067,4.2367933309843595,397.269389898723,-101.8318380263373,-18.143280029296875,4761.76025390625,True
1599385904.3519652,0.0,10,0.5,0.5,-5.114761872863769,-0.05075,-0.02275,-0.2505,0.02729917141643944,10,1,100,0.21123759743426734,-10,-1,-100,19037.015928684385,-0.017488457700054676,0.0028272085922486346,0.9998430680556071,68.8877636167398,4.256377989916363,399.7551560121549,-102.01375316225544,-18.86822509765625,4761.76025390625,True
1599385904.385346,0.0,10,0.5,0.5,-5.292298896026612,-0.05075,-0.02275,-0.2505,0.032266160478484386,10,1,100,0.19051214934940514,-10,-1,-100,19037.015928684385,-0.017488457700054676,0.0028272085922486346,0.9998430680556071,68.8877636167398,4.256377989916363,399.7551560121549,-102.01375316225544,-18.86822509765625,4761.76025390625,True
1599385904.4193618,0.0,10,0.5,0.5,-4.782822856140137,-0.05075,-0.02275,-0.2505,0.02769533533797036,10,1,100,0.23598888194266693,-10,-1,-100,19032.92446419841,-0.017898425665655845,0.002788328667549638,0.9998359223302256,69.51919183749348,4.297968422717203,404.9700952378458,-102.37755052698004,-20.538543701171875,4761.76025390625,True
1599385904.4553902,0.0,10,0.5,0.5,-4.268114430999756,-0.05075,-0.02275,-0.2505,0.03617124331376305,10,1,100,0.25790806352109114,-10,-1,-100,19026.759986139834,-0.01846726763218631,0.0028319559189015804,0.9998254547929227,70.53427657626922,4.364656752922619,413.2439507441795,-102.92315789990373,-23.595611572265625,4761.76025390625,True
1599385904.4853067,0.0,10,0.5,0.5,-4.2898425827026365,-0.05075,-0.02275,-0.2505,0.045640372163025036,10,1,100,0.23934196795695217,-10,-1,-100,19022.632149416837,-0.018812205891784003,0.0029593441867274517,0.9998186551527581,71.23299224648069,4.410498977236161,418.92706701150524,-103.28683320954538,-26.000823974609375,4761.76025390625,True
1599385904.5195062,0.0,10,0.5,0.5,-4.867379317474365,-0.05075,-0.02275,-0.2505,0.032733428730830884,10,1,100,0.20525752835630376,-10,-1,-100,19022.632149416837,-0.018812205891784003,0.0029593441867274517,0.9998186551527581,71.23299224648069,4.410498977236161,418.92706701150524,-103.28683320954538,-26.000823974609375,4761.76025390625,True
1599385904.5518591,0.0,10,0.5,0.5,-3.5895238334655764,-0.05075,-0.02275,-0.2505,0.06912261186107949,10,1,100,0.2539903480972808,-10,-1,-100,19016.41312200937,-0.019251964084163412,0.003291262900140173,0.9998092465402709,72.26116015457416,4.4779365293100994,427.3923183111125,-103.83224981017706,-30.1590576171875,4761.76025390625,True
1599385904.5883312,0.0,10,0.5,0.5,-3.6523987754821774,-0.05075,-0.02275,-0.2505,0.06885512062553148,10,1,100,0.2375376016828964,-10,-1,-100,19012.24892526667,-0.0194993602442062,0.0035906873383419803,0.9998034216357259,72.89657755700158,4.519631656262413,432.77684192359567,-104.19579843441079,-33.29827880859375,4761.76025390625,True
1599385904.6193109,0.0,10,0.5,0.5,-3.364520600128174,-0.05075,-0.02275,-0.2505,0.07984914496832372,10,1,100,0.23256722341345532,-10,-1,-100,19008.070187946083,-0.019676042088751507,0.003962676736665866,0.9997985549903551,73.4602850316194,4.55665340559642,437.7622569837995,-104.55930100935521,-36.73077392578125,4761.76025390625,True
1599385904.6527948,0.0,10,0.5,0.5,-3.6269696891784666,-0.05075,-0.02275,-0.2505,0.06525516967787849,10,1,100,0.22307405699707059,-10,-1,-100,19005.97536687192,-0.019747373988798108,0.00416755446596234,0.9997963156114947,73.70497717628238,4.5727462739302895,440.042528101171,-104.74103677569421,-38.557098388671875,4761.76025390625,True
1599385904.6977067,0.0,10,0.5,0.5,-4.038022530364991,-0.05075,-0.02275,-0.2505,0.04489610181817478,10,1,100,0.21618791597672496,-10,-1,-100,19005.97536687192,-0.019747373988798108,0.00416755446596234,0.9997963156114947,73.70497717628238,4.5727462739302895,440.042528101171,-104.74103677569421,-38.557098388671875,4761.76025390625,True
1599385904.731627,0.0,10,0.5,0.5,-1.5716098602294926,-0.05075,-0.02275,-0.2505,0.1491665741825581,10,1,100,0.23012038239139146,-10,-1,-100,18997.55973949458,-0.01987197921412349,0.005114249354844267,0.9997894522826544,74.33757356150119,4.6146400275465815,447.1369025910852,-105.46790188116414,-46.595672607421875,4761.76025390625,True
1599385904.7624743,0.0,10,0.5,0.5,-2.1788777488708497,-0.05075,-0.02275,-0.2505,0.11439061923497637,10,1,100,0.21442990350442656,-10,-1,-100,18993.33012117783,-0.019840449136797732,0.0056566568990656435,0.9997871567542645,74.38274531581223,4.618053698098602,449.06982625484727,-105.83130835224024,-51.0548095703125,4761.76025390625,True
1599385904.789401,0.0,10,0.5,0.5,-2.521616703796387,-0.05075,-0.02275,-0.2505,0.08976487375753531,10,1,100,0.21121189549533304,-10,-1,-100,18991.209860818577,-0.01978076533599061,0.00592327668198878,0.9997867953299198,74.32119313967476,4.614350556156144,449.52877900406565,-106.013011418631,-53.394561767578125,4761.76025390625,True
1599385904.8194199,0.0,10,0.5,0.5,-3.03993201751709,-0.05075,-0.02275,-0.2505,0.06341202754153043,10,1,100,0.21731162534642579,-10,-1,-100,18991.209860818577,-0.01978076533599061,0.00592327668198878,0.9997867953299198,74.32119313967476,4.614350556156144,449.52877900406565,-106.013011418631,-53.394561767578125,4761.76025390625,True
1599385904.85541,0.0,10,0.5,0.5,-2.250669125366211,-0.05075,-0.02275,-0.2505,0.09379890665962912,10,1,100,0.20915789799001444,-10,-1,-100,18989.08596640709,-0.019705760033255772,0.006196826553521257,0.9997866184152382,74.1960956367426,4.606582390455318,449.60184892026666,-106.19471727910101,-55.807647705078125,4761.76025390625,True
1599385904.8862941,0.0,10,0.5,0.5,-0.4741249588012699,-0.05075,-0.02275,-0.2505,0.16221233804909607,10,1,100,0.18230739420307213,-10,-1,-100,18982.692477032775,-0.019392665583486925,0.007064505374485215,0.9997869859551989,73.38779033318646,4.555782381434052,447.17010316800145,-106.739875997355,-63.486358642578125,4761.76025390625,True
1599385904.9193232,0.0,10,0.5,0.5,-1.5065774971008303,-0.05075,-0.02275,-0.2505,0.10804145752871533,10,1,100,0.19758872262699884,-10,-1,-100,18980.55404456274,-0.01924682752255156,0.007357411532017765,0.9997876915254887,72.958506383984,4.528779678387821,445.37337765174107,-106.921617675484,-66.19256591796875,4761.76025390625,True
1599385904.953305,0.0,10,0.5,0.5,0.4617058052062988,-0.05075,-0.02275,-0.2505,0.17102513624543875,10,1,100,0.15123663460143458,-10,-1,-100,18974.116934689344,-0.018693094423943055,0.008192844459750591,0.9997917010660351,71.12663608579413,4.413935489704385,436.5920686817803,-107.4669455838415,-74.72817993164062,4761.76025390625,True
1599385904.9882092,0.0,10,0.5,0.5,-0.6962462677001955,-0.05075,-0.02275,-0.2505,0.11820380007708137,10,1,100,0.18233974855889024,-10,-1,-100,18971.963959404384,-0.018473349868152928,0.008468289367319835,0.99979349038681,70.32727497186094,4.364028320419558,432.4788791984217,-107.64876426295416,-77.695068359375,4761.76025390625,True
1599385905.0191214,0.0,10,0.5,0.5,-0.4356584129333497,-0.05075,-0.02275,-0.2505,0.12065085313241158,10,1,100,0.1779494618673154,-10,-1,-100,18969.807347238762,-0.01823482859671181,0.008737030006611824,0.9997955567678384,69.42830293592667,4.308042500441564,427.7349343699081,-107.83060812178215,-80.73159790039062,4761.76025390625,True
1599385905.0527658,0.0,10,0.5,0.5,-0.18339193801879883,-0.05075,-0.02275,-0.2505,0.12085520984532044,10,1,100,0.1744495832667971,-10,-1,-100,18967.647097532288,-0.017987549040298888,0.008979043398321304,0.9997978920057664,68.42470973774631,4.245702161155949,422.32581893855235,-108.01247931392294,-83.77548217773438,4761.76025390625,True
1599385905.0867345,0.0,10,0.5,0.5,0.968860898590088,-0.05075,-0.02275,-0.2505,0.14837144508658712,10,1,100,0.13876127146488987,-10,-1,-100,18963.315683477325,-0.01744002336370055,0.00944568971657464,0.999803292918588,66.18307506653466,4.1069938771367624,409.9891340255685,-108.37630811217176,-89.8507080078125,4761.76025390625,True
1599385905.122217,0.0,10,0.5,0.5,2.3411576717376708,-0.05075,-0.02275,-0.2505,0.1683620300012845,10,1,100,0.09140088635803743,-10,-1,-100,18956.79127268854,-0.016513905998342585,0.010048201657104459,0.9998131448186385,67.2621825832045,4.1761416818735,418.9612853506843,-108.9220778665282,-99.16483306884766,4761.76025390625,True
1599385905.1528413,0.0,10,0.5,0.5,0.11209671115875253,-0.05075,-0.02275,-0.2505,0.10852332844581417,10,1,100,0.18368593696006932,-10,-1,-100,18956.79127268854,-0.016513905998342585,0.010048201657104459,0.9998131448186385,67.2621825832045,4.1761416818735,418.9612853506843,-108.9220778665282,-99.16483306884766,4761.76025390625,True
1599385905.1867864,0.0,10,0.5,0.5,2.0995054428100586,-0.05075,-0.02275,-0.2505,0.1441535643309278,10,1,100,0.11022917424343925,-10,-1,-100,18952.423478540848,-0.015849087118498355,0.010368362960628114,0.9998206356577297,69.26926452763416,4.303153674345848,433.03250433607474,-109.28576120427589,-105.41638946533203,4761.76025390625,True
1599385905.2207649,0.0,10,0.5,0.5,2.462342875099182,-0.05075,-0.02275,-0.2505,0.14019964854088435,10,1,100,0.1026554188305634,-10,-1,-100,18948.0411409582,-0.015179360062990872,0.010619681696279127,0.9998283899693726,71.05160231650551,4.416720550123811,445.782564913318,-109.64931637151167,-111.444580078125,4761.76025390625,True
1599385905.2586665,0.0,10,0.5,0.5,3.6987163835525516,-0.05075,-0.02275,-0.2505,0.14318641073713054,10,1,100,0.049740558897337125,-10,-1,-100,18941.440375852864,-0.014093303381791555,0.010872073679271564,0.9998415758577461,73.31331542900472,4.561757437713296,462.45667139468117,-110.194435152114,-120.19920349121094,4761.76025390625,True
1599385905.2885857,0.0,10,0.5,0.5,3.3018151876449586,-0.05075,-0.02275,-0.2505,0.12728730859198,10,1,100,0.07988996815882099,-10,-1,-100,18937.021699076868,-0.01338474968684272,0.01095378849690218,0.9998504203096509,74.38709190045711,4.631206892008603,470.9075343028786,-110.55773083626991,-125.75361633300781,4761.76025390625,True
1599385905.3202891,0.0,10,0.5,0.5,2.8306063646316533,-0.05075,-0.02275,-0.2505,0.12167508449047723,10,1,100,0.11222960992775849,-10,-1,-100,18934.806911992142,-0.013039432475458756,0.01097454452651894,0.999854755738629,74.78530066964419,4.657140302225316,474.2711340538748,-110.73935285642536,-128.42279052734375,4761.76025390625,True
1599385905.3541982,0.0,10,0.5,0.5,3.8190100786209107,-0.05075,-0.02275,-0.2505,0.11873197542564104,10,1,100,0.07046829752887157,-10,-1,-100,18930.366441389662,-0.012350799368204084,0.010964379693618213,0.9998636107654387,75.33117558908859,4.693003322236103,479.43031888358325,-111.10256053229759,-133.54022216796875,4761.76025390625,True
1599385905.3901029,0.0,10,0.5,0.5,2.6572330728530886,-0.05075,-0.02275,-0.2505,0.11997119368441443,10,1,100,0.13874320533148793,-10,-1,-100,18930.366441389662,-0.012350799368204084,0.010964379693618213,0.9998636107654387,75.33117558908859,4.693003322236103,479.43031888358325,-111.10256053229759,-133.54022216796875,4761.76025390625,True
1599385905.4210627,0.0,10,0.5,0.5,4.222971507453919,-0.05075,-0.02275,-0.2505,0.11109523650985495,10,1,100,0.06347014737987064,-10,-1,-100,18925.911443249206,-0.011671623159254923,0.010881884322671948,0.9998726707968453,75.58040114220701,4.709808997309082,482.71977455946455,-111.46573798550814,-138.36187744140625,4761.76025390625,True
1599385905.4541137,0.0,10,0.5,0.5,5.136947416877747,-0.05075,-0.02275,-0.2505,0.09465668187238463,10,1,100,0.025655748811587803,-10,-1,-100,18919.20170862507,-0.01071566698250261,0.010656141493647343,0.9998858040444356,75.49601241068596,4.705433482139104,484.7355174473511,-112.01048838906351,-145.03884887695312,4761.76025390625,True
1599385905.488029,0.0,10,0.5,0.5,3.5687294582366946,-0.05075,-0.02275,-0.2505,0.11729175875849943,10,1,100,0.12067154258523514,-10,-1,-100,18919.20170862507,-0.01071566698250261,0.010656141493647343,0.9998858040444356,75.49601241068596,4.705433482139104,484.7355174473511,-112.01048838906351,-145.03884887695312,4761.76025390625,True
1599385905.5239866,0.0,10,0.5,0.5,4.902460004997254,-0.05075,-0.02275,-0.2505,0.09443372602292113,10,1,100,0.054659623146535226,-10,-1,-100,18914.710393632413,-0.01012082975034701,0.010447788523472501,0.9998942006633169,75.19917481340826,4.686956737401224,484.52883908196003,-112.37366663949712,-149.11973571777344,4761.76025390625,True
1599385905.554935,0.0,10,0.5,0.5,5.6564430896759035,-0.05075,-0.02275,-0.2505,0.0705657441510886,10,1,100,0.02193682232020526,-10,-1,-100,18907.946181152365,-0.009287796129391785,0.010041322873967036,0.9999064499631952,74.49958461064591,4.642825047581222,482.55149658783245,-112.91847678066726,-154.68594360351562,4761.76025390625,True
1599385905.5878913,0.0,10,0.5,0.5,5.366849074935914,-0.05075,-0.02275,-0.2505,0.07641426428329234,10,1,100,0.0489181618595195,-10,-1,-100,18903.418544654734,-0.008781133709729527,0.009725502792729658,0.9999141494579424,73.91881627686327,4.606070650459896,480.4671467842995,-113.28172144303599,-158.02658081054688,4761.76025390625,True
1599385905.6211264,0.0,10,0.5,0.5,5.085791570281982,-0.05075,-0.02275,-0.2505,0.08979352510113087,10,1,100,0.07254047120335974,-10,-1,-100,18901.149277406745,-0.00854010902195517,0.009561065608936522,0.9999178229046198,73.60707633183166,4.58634034334168,479.2771457608364,-113.46335642829163,-159.58580017089844,4761.76025390625,True
1599385905.6580365,0.0,10,0.5,0.5,4.772175338745118,-0.05075,-0.02275,-0.2505,0.10609797119164799,10,1,100,0.09615847591430675,-10,-1,-100,18901.149277406745,-0.00854010902195517,0.009561065608936522,0.9999178229046198,73.60707633183166,4.58634034334168,479.2771457608364,-113.46335642829163,-159.58580017089844,4761.76025390625,True
1599385905.689949,0.0,10,0.5,0.5,6.118598510360718,-0.05075,-0.02275,-0.2505,0.043788252973870845,10,1,100,0.022789407392049724,-10,-1,-100,18894.31967794511,-0.00787720778398329,0.008995898605972713,0.9999285091474284,72.63324111833657,4.524779901082747,475.41610286574735,-114.00831374252016,-163.81991577148438,4761.76025390625,True
1599385905.721927,0.0,10,0.5,0.5,5.5074694438934335,-0.05075,-0.02275,-0.2505,0.07739752245143858,10,1,100,0.06659452971257138,-10,-1,-100,18892.03587810602,-0.007676865581090162,0.00878943876315409,0.9999319034319681,72.3069696026219,4.504195317427402,474.1047501719075,-114.18998337324714,-165.0834197998047,4761.76025390625,True
1599385905.754859,0.0,10,0.5,0.5,5.621109567260742,-0.05075,-0.02275,-0.2505,0.07369609213166303,10,1,100,0.06548023165543165,-10,-1,-100,18889.74844486639,-0.0074888553541106965,0.008570075849439623,0.9999352333253488,71.98487841947771,4.4839005617276415,472.81403126627566,-114.37166119427256,-166.27308654785156,4761.76025390625,True
1599385905.79143,0.0,10,0.5,0.5,6.036497323226929,-0.05075,-0.02275,-0.2505,0.046485432241176294,10,1,100,0.04479176837365093,-10,-1,-100,18885.162676920765,-0.007133662543208762,0.00812538702748862,0.9999415427635624,71.36419447895727,4.444877404525618,470.36713511922426,-114.73503996518608,-168.43043518066406,4761.76025390625,True
1599385905.8243396,0.0,10,0.5,0.5,6.11024768600464,-0.05075,-0.02275,-0.2505,0.03702209473791693,10,1,100,0.04577494639180739,-10,-1,-100,18880.562373003107,-0.006822954337498692,0.007637394807018223,0.9999475573722206,70.7911303418956,4.408970176046394,468.2089174984559,-115.09844656889892,-170.29251098632812,4761.76025390625,True
1599385905.8542972,0.0,10,0.5,0.5,6.37583079071045,-0.05075,-0.02275,-0.2505,-0.00022990668354386234,10,1,100,0.03244210203559738,-10,-1,-100,18873.63465987437,-0.006422823486019451,0.006857855272474244,0.9999558576054891,70.05661690721264,4.363183011401801,465.75743377472344,-115.64359908043784,-172.5317840576172,4761.76025390625,True
1599385905.8881712,0.0,10,0.5,0.5,5.868155296325684,-0.05075,-0.02275,-0.2505,0.07736505344575417,10,1,100,0.07208538655708878,-10,-1,-100,18873.63465987437,-0.006422823486019451,0.006857855272474244,0.9999558576054891,70.05661690721264,4.363183011401801,465.75743377472344,-115.64359908043784,-172.5317840576172,4761.76025390625,True
1599385905.9241996,0.0,10,0.5,0.5,6.2472976932525635,-0.05075,-0.02275,-0.2505,0.01671903325918106,10,1,100,0.04676720090592226,-10,-1,-100,18868.99801196123,-0.006195262682502821,0.006309421877688573,0.9999609041936909,69.66971617868508,4.33923017259422,464.7827168659058,-116.00705487087303,-173.65557861328125,4761.76025390625,True
1599385905.9541202,0.0,10,0.5,0.5,6.137267847824096,-0.05075,-0.02275,-0.2505,0.040527415804724236,10,1,100,0.05716247700502925,-10,-1,-100,18866.67423615395,-0.006085242526595245,0.006030391433674756,0.999963301427882,69.51106853143109,4.329464875554887,464.5218278873471,-116.1887868062696,-174.10678100585938,4761.76025390625,True
1599385905.988051,0.0,10,0.5,0.5,6.262510797119141,-0.05075,-0.02275,-0.2505,0.003848530535142107,10,1,100,0.04801672926939742,-10,-1,-100,18862.01578061306,-0.0059043127386238506,0.0054464926859162325,0.999967736883799,69.26784133505217,4.314617566791682,464.4868348568597,-116.55225527515732,-174.78805541992188,4761.76025390625,True
1599385906.0210605,0.0,10,0.5,0.5,6.242820792770385,-0.05075,-0.02275,-0.2505,-0.003873999036782809,10,1,100,0.047138324233312885,-10,-1,-100,18857.34278611187,-0.005734241791306661,0.0048492113490482755,0.9999718014126056,69.12930154267859,4.3063585815105325,465.14637083520216,-116.91572465084877,-175.1743927001953,4761.76025390625,True
1599385906.0570061,0.0,10,0.5,0.5,6.199505564117432,-0.05075,-0.02275,-0.2505,-0.013195603404323034,10,1,100,0.04922903121419994,-10,-1,-100,18852.655253097182,-0.005600586417201531,0.004225256173333335,0.999975390018201,69.09996704519986,4.30493592903318,466.5380863770579,-117.27918862360569,-175.26611328125,4761.76025390625,True
1599385906.086889,0.0,10,0.5,0.5,6.074761199569703,-0.05075,-0.02275,-0.2505,-0.0576006665618865,10,1,100,0.042149874923192374,-10,-1,-100,18845.59669449448,-0.005416613091882153,0.0032584910599690125,0.9999800210697336,69.26631612205095,4.315890354662615,470.0528209647816,-117.8243601539736,-174.8513946533203,4761.76025390625,True
1599385906.120951,0.0,10,0.5,0.5,6.198163866806031,-0.05075,-0.02275,-0.2505,0.03854468629559868,10,1,100,0.060339983228907386,-10,-1,-100,18845.59669449448,-0.005416613091882153,0.0032584910599690125,0.9999800210697336,69.26631612205095,4.315890354662615,470.0528209647816,-117.8243601539736,-174.8513946533203,4761.76025390625,True
1599385906.1542387,0.0,10,0.5,0.5,5.88835413017273,-0.05075,-0.02275,-0.2505,-0.0730660439237461,10,1,100,0.04243435422452599,-10,-1,-100,18838.50542740838,-0.005255395600434437,0.0022482725088545322,0.9999836629104542,69.6828770402611,4.342303333701224,475.28820613363274,-118.36948263777016,-173.7744903564453,4761.76025390625,True
1599385906.1901944,0.0,10,0.5,0.5,6.166040159606934,-0.05075,-0.02275,-0.2505,0.027416898957885544,10,1,100,0.05839934749559115,-10,-1,-100,18838.50542740838,-0.005255395600434437,0.0022482725088545322,0.9999836629104542,69.6828770402611,4.342303333701224,475.28820613363274,-118.36948263777016,-173.7744903564453,4761.76025390625,True
1599385906.2212186,0.0,10,0.5,0.5,5.645168719482422,-0.05075,-0.02275,-0.2505,-0.08953157591790821,10,1,100,0.04464833944175485,-10,-1,-100,18831.381455720984,-0.005131447734386457,0.0011892950852233342,0.9999861268144422,70.33994502974589,4.383447473634697,482.20346049825895,-118.91453375712857,-172.03607177734375,4761.76025390625,True
1599385906.2531633,0.0,10,0.5,0.5,6.079514828109741,-0.05075,-0.02275,-0.2505,0.015799310426486503,10,1,100,0.05691398847138955,-10,-1,-100,18831.381455720984,-0.005131447734386457,0.0011892950852233342,0.9999861268144422,70.33994502974589,4.383447473634697,482.20346049825895,-118.91453375712857,-172.03607177734375,4761.76025390625,True
1599385906.2874875,0.0,10,0.5,0.5,5.616053705215454,-0.05075,-0.02275,-0.2505,-0.06484191915761645,10,1,100,0.047920511428129295,-10,-1,-100,18826.61397455074,-0.005050655956673288,0.0004608476588155485,0.9999871391642208,70.90260747680523,4.41844344647112,487.69718990684567,-119.27785076748061,-170.5098419189453,4761.76025390625,True
1599385906.3231194,0.0,10,0.5,0.5,5.134674528503418,-0.05075,-0.02275,-0.2505,-0.11583458988706882,10,1,100,0.039970774836919284,-10,-1,-100,18819.435507307993,-0.004905879086622972,-0.0006598837865730426,0.9999877483768367,71.9109641604492,4.480809910113882,497.12403961467135,-119.82273500585531,-167.66995239257812,4761.76025390625,True
1599385906.355013,0.0,10,0.5,0.5,5.829873170471192,-0.05075,-0.02275,-0.2505,-0.004372082995458639,10,1,100,0.05434861847675077,-10,-1,-100,18819.435507307993,-0.004905879086622972,-0.0006598837865730426,0.9999877483768367,71.9109641604492,4.480809910113882,497.12403961467135,-119.82273500585531,-167.66995239257812,4761.76025390625,True
1599385906.3880312,0.0,10,0.5,0.5,5.131977223587036,-0.05075,-0.02275,-0.2505,-0.08975349043680315,10,1,100,0.04380450169866221,-10,-1,-100,18814.63170212414,-0.004810776536553697,-0.0014310701313710642,0.9999874041543695,72.6767146563887,4.527940397175611,504.09659364019325,-120.18592177445461,-165.4099578857422,4761.76025390625,True
1599385906.4216182,0.0,10,0.5,0.5,4.90647420501709,-0.05075,-0.02275,-0.2505,-0.09809008006482263,10,1,100,0.03836060877968672,-10,-1,-100,18809.813371048775,-0.004675547746209714,-0.002202793690256075,0.9999866433874162,73.50097071269475,4.57848919229887,511.51183525458526,-120.54904694125757,-162.8565673828125,4761.76025390625,True
1599385906.4575171,0.0,10,0.5,0.5,5.101153204727173,-0.05075,-0.02275,-0.2505,-0.06568069413702214,10,1,100,0.046712714778449446,-10,-1,-100,18807.39875917777,-0.00462921441438182,-0.0026047649764895124,0.9999858926871533,73.9286829797896,4.604652170612808,515.3423350757472,-120.73058508282757,-161.47015380859375,4761.76025390625,True
1599385906.489438,0.0,10,0.5,0.5,4.5164455162048345,-0.05075,-0.02275,-0.2505,-0.11427072299322527,10,1,100,0.036773076307960624,-10,-1,-100,18802.558644666453,-0.004497448670877018,-0.003406590720815885,0.9999840839208961,74.80542208626171,4.658157211581786,523.1817851764177,-121.09361031831209,-158.4774169921875,4761.76025390625,True
