Timestamp,Input Throttle,horizon,dT,dt,Input Roll,Roll P,Roll I,Roll D,Input Pitch,Pitch P,Pitch I,Pitch D,Input Yaw,Yaw P,Yaw I,Yaw D,Altitude,Direction X,Direction Y,Direction Z,Drag X,Drag Y,Drag Z,Vertical Velocity,Roll,Mass,Has Fuel
1599385092.3395674,0.0,10,0.5,0.5,-0.055535049438476564,-0.001,-0.02275,-0.2505,-0.000166495155320861,10,1,100,0.49807310487075895,-10,-1,-100,19351.09416932694,-0.04884358794398518,-0.0001754546929579311,0.9988064242546745,60.98671699030487,3.6806929665872463,232.7547769177446,-68.48187338286138,-33.92218017578125,4761.76025390625,True
1599385092.373035,0.0,10,0.5,0.5,-0.18307154693603517,-0.001,-0.02275,-0.2505,0.00012917997958355977,10,1,100,0.5047070134286585,-10,-1,-100,19348.343946472858,-0.048947104082116166,-0.00015817039860830688,0.9988013596226726,61.16634814276372,3.692879214443883,234.73141219413543,-68.84678999117668,-33.92449951171875,4761.76025390625,True
1599385092.4064462,0.0,10,0.5,0.5,-0.3109172973632812,-0.001,-0.02275,-0.2505,-0.0006198826732516099,10,1,100,0.5052467015423919,-10,-1,-100,19346.963361461065,-0.04900161855046726,-0.00014912327295386977,0.9987986879955759,61.256582075278594,3.6990031847282294,235.7244472621587,-69.02924320881678,-33.92572021484375,4761.76025390625,True
1599385092.442422,0.0,10,0.5,0.5,-0.43879207000732423,-0.001,-0.02275,-0.2505,-0.0015395075659907084,10,1,100,0.5046954165623294,-10,-1,-100,19346.963361461065,-0.04900161855046726,-0.00014912327295386977,0.9987986879955759,61.256582075278594,3.6990031847282294,235.7244472621587,-69.02924320881678,-33.92572021484375,4761.76025390625,True
1599385092.4623687,0.0,10,0.5,0.5,-0.555508364868164,-0.001,-0.02275,-0.2505,0.03444920524293035,10,1,100,0.5067689551675458,-10,-1,-100,19342.799712916836,-0.0489759219754688,0.0001781824101026434,0.9987999435911485,61.52315982684064,3.7171485888636253,238.70004913462373,-69.57658241488681,-33.9688720703125,4761.76025390625,True
1599385092.480321,0.0,10,0.5,0.5,-0.6813549438476562,-0.001,-0.02275,-0.2505,0.017371701766103077,10,1,100,0.5113186284189781,-10,-1,-100,19341.404532362358,-0.0489493985532328,0.000320321015446405,0.9988012083371365,61.60875582000785,3.7230074782153304,239.6833257008275,-69.75902192171296,-34.018310546875,4761.76025390625,True
1599385092.506123,0.0,10,0.5,0.5,-0.801786895751953,-0.001,-0.02275,-0.2505,0.0227690999338353,10,1,100,0.5135097935564356,-10,-1,-100,19340.00570312643,-0.04890070658103765,0.000498313984542439,0.9988035205079365,61.69297400739091,3.7287864784084186,240.663209155286,-69.94145792190272,-34.0950927734375,4761.76025390625,True
1599385092.540123,0.0,10,0.5,0.5,-0.9213260589599609,-0.001,-0.02275,-0.2505,0.028788482238386714,10,1,100,0.5152817148476875,-10,-1,-100,19338.603225178318,-0.04882809433934341,0.000714394419230626,0.9988069417278808,61.77651644782401,3.734527331701036,241.64239887363934,-70.12389039338117,-34.20196533203125,4761.76025390625,True
1599385092.576025,0.0,10,0.5,0.5,-1.0389955612182618,-0.001,-0.02275,-0.2505,0.03470578744841045,10,1,100,0.5160565352103652,-10,-1,-100,19337.197098647826,-0.04872473785533722,0.0009639754122935294,0.9988117794020719,61.859386787568695,3.740229540781908,242.62088537828544,-70.30631929008281,-34.34527587890625,4761.76025390625,True
1599385092.6073053,0.0,10,0.5,0.5,-1.0937346008300781,-0.001,-0.02275,-0.2505,0.07799072783326433,10,1,100,0.5008892852266111,-10,-1,-100,19334.373900267878,-0.04844859810833807,0.0015834903409291193,0.9988244219579719,62.02509624072486,3.7516331690086666,244.5834754718848,-70.67116587309894,-34.7738037109375,4761.76025390625,True
1599385092.6402793,0.0,10,0.5,0.5,-1.0479812377929687,-0.001,-0.02275,-0.2505,0.14889733375473285,10,1,100,0.4651679627355571,-10,-1,-100,19330.111740288907,-0.04782877849923077,0.0027898517023012518,0.9988516529869442,62.280979311962234,3.7691559792565252,247.5707214987801,-71.21840611688253,-35.882110595703125,4761.76025390625,True
1599385092.6740012,0.0,10,0.5,0.5,-1.0462286491394042,-0.001,-0.02275,-0.2505,0.13521392286262865,10,1,100,0.46471514148446125,-10,-1,-100,19327.252059592633,-0.047262112124527585,0.0037594534714429167,0.998875447324202,62.45561842601284,3.7810360182871907,249.58810611926495,-71.58321177872054,-36.975250244140625,4761.76025390625,True
1599385092.7091298,0.0,10,0.5,0.5,-1.3131196731567383,-0.001,-0.02275,-0.2505,0.03864550833546729,10,1,100,0.5212132797590209,-10,-1,-100,19327.252059592633,-0.047262112124527585,0.0037594534714429167,0.998875447324202,62.45561842601284,3.7810360182871907,249.58810611926495,-71.58321177872054,-36.975250244140625,4761.76025390625,True
1599385092.731071,0.0,10,0.5,0.5,-0.7556112831115724,-0.001,-0.02275,-0.2505,0.22167726674102367,10,1,100,0.3999055023364264,-10,-1,-100,19322.935179276275,-0.04616089551743667,0.00541982529627125,0.998919314669001,62.705475564802555,3.7979877276339815,252.5802086031076,-72.13038695129323,-39.164398193359375,4761.76025390625,True
1599385092.7740924,0.0,10,0.5,0.5,-1.071713020324707,-0.001,-0.02275,-0.2505,0.12617415696150144,10,1,100,0.4630346794720153,-10,-1,-100,19321.48892387643,-0.04573627359679849,0.006055981458511147,0.9989351922752813,62.77986565230796,3.803048520199381,253.545402979931,-72.3127698389954,-40.04058837890625,4761.76025390625,True
1599385092.8081841,0.0,10,0.5,0.5,-1.03854953918457,-0.001,-0.02275,-0.2505,0.13572263281495361,10,1,100,0.4543356036090538,-10,-1,-100,19320.03902074357,-0.0452741162959902,0.006715766114625701,0.9989520273161824,62.8472288812309,3.8076512887964364,254.48382861946783,-72.49514843887839,-40.990234375,4761.76025390625,True
1599385092.8433254,0.0,10,0.5,0.5,-0.45018414001464857,-0.001,-0.02275,-0.2505,0.2924354248810356,10,1,100,0.3207839319927424,-10,-1,-100,19315.667426964385,-0.04364320835534096,0.00873441805251315,0.9990089991114877,62.9866654195434,3.817434203689234,257.05266329643194,-73.04226103616652,-44.21246337890625,4761.76025390625,True
1599385092.8744743,0.0,10,0.5,0.5,-0.607803611755371,-0.001,-0.02275,-0.2505,0.25367791227590275,10,1,100,0.3439435207813021,-10,-1,-100,19312.734794665244,-0.04237588603303374,0.010209727786847833,0.9990495712132778,63.006801309247706,3.8193168967054407,258.4720302011397,-73.406986789825,-46.703643798828125,4761.76025390625,True
1599385092.90734,0.0,10,0.5,0.5,-1.203402988433838,-0.001,-0.02275,-0.2505,0.10709647217919621,10,1,100,0.4700305321813935,-10,-1,-100,19312.734794665244,-0.04237588603303374,0.010209727786847833,0.9990495712132778,63.006801309247706,3.8193168967054407,258.4720302011397,-73.406986789825,-46.703643798828125,4761.76025390625,True
1599385092.9412894,0.0,10,0.5,0.5,-0.8404737213134766,-0.001,-0.02275,-0.2505,0.18639561525231108,10,1,100,0.3930454594231436,-10,-1,-100,19311.263007568545,-0.04168179341870629,0.010922223858081101,0.9990712352597256,62.9883345950452,3.8184509417190493,259.0648861173587,-73.58934623323404,-48.034912109375,4761.76025390625,True
1599385092.976337,0.0,10,0.5,0.5,-0.07320084838867191,-0.001,-0.02275,-0.2505,0.36689164391788864,10,1,100,0.20767576615762295,-10,-1,-100,19306.82576357748,-0.039371772743894445,0.013202330789328275,0.9991374089547105,62.79690477284112,3.807280075500741,260.2782982126212,-74.13641786489926,-52.291717529296875,4761.76025390625,True
1599385093.007353,0.0,10,0.5,0.5,-0.7143339889526366,-0.001,-0.02275,-0.2505,0.22722646823516657,10,1,100,0.3440925769027613,-10,-1,-100,19305.339388030814,-0.03851959496061706,0.013996005966903662,0.9991598233621306,62.68129928494627,3.800306671121148,260.4652159291411,-74.31877525557854,-53.83392333984375,4761.76025390625,True
1599385093.0403104,0.0,10,0.5,0.5,0.1892256538391115,-0.001,-0.02275,-0.2505,0.39898700927697656,10,1,100,0.12356862298737137,-10,-1,-100,19300.858378052246,-0.035748072410374,0.01626968236281096,0.9992283886853675,62.14072836050411,3.7673245101542414,260.2013585131811,-74.86585973217872,-58.8101806640625,4761.76025390625,True
1599385093.0740623,0.0,10,0.5,0.5,-0.1195736648559571,-0.001,-0.02275,-0.2505,0.3432232802900461,10,1,100,0.1745243721488277,-10,-1,-100,19297.85280119907,-0.03370220784772459,0.0178183449783988,0.9992730696703576,61.607962016471554,3.734661905904418,259.2821892477549,-75.23060203268145,-62.34130859375,4761.76025390625,True
1599385093.1101184,0.0,10,0.5,0.5,-0.9513937400817871,-0.001,-0.02275,-0.2505,0.18959687069947484,10,1,100,0.3778649596467973,-10,-1,-100,19297.85280119907,-0.03370220784772459,0.0178183449783988,0.9992730696703576,61.607962016471554,3.734661905904418,259.2821892477549,-75.23060203268145,-62.34130859375,4761.76025390625,True
1599385093.1411154,0.0,10,0.5,0.5,-0.4474791358947755,-0.001,-0.02275,-0.2505,0.26761171262842837,10,1,100,0.2610396557663083,-10,-1,-100,19296.344541505212,-0.03265109969040112,0.018516877756371206,0.9992952671393792,61.28415665904122,3.7148004260164313,258.57229552896297,-75.41298175517886,-64.14321899414062,4761.76025390625,True
1599385093.1750526,0.0,10,0.5,0.5,0.05902500457763671,-0.001,-0.02275,-0.2505,0.35075878753360273,10,1,100,0.12191865510819197,-10,-1,-100,19293.317078655236,-0.030442285920129264,0.01989706177035521,0.9993384682683158,60.539660481880915,3.669148943242388,256.72197059313385,-75.7777623719415,-67.74246215820312,4761.76025390625,True
1599385093.2086108,0.0,10,0.5,0.5,0.153755657196045,-0.001,-0.02275,-0.2505,0.3672359987302409,10,1,100,0.07798582357566824,-10,-1,-100,19290.27502349147,-0.02804688486270937,0.021291419481475705,0.9993798315485267,59.66276803189901,3.6154600466984257,254.2770131949118,-76.14257553204341,-71.4912109375,4761.76025390625,True
1599385093.2439992,0.0,10,0.5,0.5,0.7631467010498046,-0.001,-0.02275,-0.2505,0.42787709446595046,10,1,100,-0.09417559899160138,-10,-1,-100,19285.68457745621,-0.024317170060961856,0.02310022582400567,0.9994373691268035,58.018234523005944,3.515129131682318,249.12844953348377,-76.68987034012214,-77.42385864257812,4761.76025390625,True
1599385093.2742748,0.0,10,0.5,0.5,-0.6530930603027344,-0.001,-0.02275,-0.2505,0.24828551001666965,10,1,100,0.27699000958594283,-10,-1,-100,19285.68457745621,-0.024317170060961856,0.02310022582400567,0.9994373691268035,58.018234523005944,3.515129131682318,249.12844953348377,-76.68987034012214,-77.42385864257812,4761.76025390625,True
1599385093.3082752,0.0,10,0.5,0.5,0.41618248825073245,-0.001,-0.02275,-0.2505,0.3668833019952177,10,1,100,-0.008825117656164116,-10,-1,-100,19282.60603472544,-0.02173463674363156,0.024167316658387086,0.9994716336000515,56.733497291147685,3.437051084076096,244.8261770563309,-77.05479054007316,-81.40960693359375,4761.76025390625,True
1599385093.341283,0.0,10,0.5,0.5,-0.02487774963378908,-0.001,-0.02275,-0.2505,0.31302416467861804,10,1,100,0.10653311192597964,-10,-1,-100,19281.06128930999,-0.02045162412044193,0.024637802545065594,0.9994872234083768,56.04853364488846,3.3955253117856463,242.4705717921101,-77.2372685237503,-83.36239624023438,4761.76025390625,True
1599385093.3652127,0.0,10,0.5,0.5,0.9912149009704592,-0.001,-0.02275,-0.2505,0.4051173656191114,10,1,100,-0.20660392226269356,-10,-1,-100,19276.405153066036,-0.016454974125681757,0.025893053544615848,0.9995292810141474,53.90552583637119,3.266048511869377,234.9329808216201,-77.78477146908706,-89.0804443359375,4761.76025390625,True
1599385093.3841336,0.0,10,0.5,0.5,0.09950913314819337,-0.001,-0.02275,-0.2505,0.317161624998468,10,1,100,0.046405870094153395,-10,-1,-100,19274.845807225676,-0.015139284150311749,0.026225844655672226,0.9995413984160499,53.15267854334821,3.220713940891762,232.22188700292799,-77.96729493767249,-90.95639038085938,4761.76025390625,True
1599385093.4071136,0.0,10,0.5,0.5,0.16433917999267583,-0.001,-0.02275,-0.2505,0.31901008113783724,10,1,100,0.02738853948415626,-10,-1,-100,19273.2828105893,-0.013787192915973051,0.026537542994556587,0.9995527360391296,52.388082469053195,3.17474836087968,229.44328525625724,-78.14982916722668,-92.82380676269531,4761.76025390625,True
1599385093.4411185,0.0,10,0.5,0.5,0.23505539360046385,-0.001,-0.02275,-0.2505,0.3189633682298874,10,1,100,0.011663021372845,-10,-1,-100,19271.716162911034,-0.012433164370045725,0.0268125539143645,0.9995631562719469,51.74062110752491,3.1359630064610604,227.16260915428052,-78.33237142657022,-94.68923950195312,4761.76025390625,True
1599385093.475103,0.0,10,0.5,0.5,0.2952763500213623,-0.001,-0.02275,-0.2505,0.3169943418229104,10,1,100,0.004579737932347505,-10,-1,-100,19270.14586484828,-0.01115621578367123,0.027037122077619182,0.9995721749224254,52.302892962339904,3.1705872155031973,230.19226593497964,-78.51489874494263,-96.51039123535156,4761.76025390625,True
1599385093.5109763,0.0,10,0.5,0.5,0.8053596878051759,-0.001,-0.02275,-0.2505,0.3366558494629423,10,1,100,-0.1637580394582905,-10,-1,-100,19266.99431813741,-0.008482542792630849,0.027413524967935306,0.9995881877636428,53.30943106208546,3.232946953839876,235.76581379319077,-78.87990993544739,-100.09223937988281,4761.76025390625,True
1599385093.5419018,0.0,10,0.5,0.5,0.4174359844207764,-0.001,-0.02275,-0.2505,0.31445349529233085,10,1,100,-0.043075254516538264,-10,-1,-100,19265.413070121896,-0.007166832974855595,0.027548304279865807,0.9995947816172384,53.76355783644109,3.2612637129094515,238.3508356105457,-79.0623941948779,-101.85868835449219,4761.76025390625,True
1599385093.5752072,0.0,10,0.5,0.5,0.9056469833374023,-0.001,-0.02275,-0.2505,0.3202558588717772,10,1,100,-0.19974683714806468,-10,-1,-100,19262.23962628632,-0.004562037241215221,0.027719535979201355,0.9996053296883263,54.57705269015269,3.3123407614765616,243.12769693009125,-79.42732135822214,-105.3382797241211,4761.76025390625,True
1599385093.6088672,0.0,10,0.5,0.5,1.333522255897522,-0.001,-0.02275,-0.2505,0.3082614833478737,10,1,100,-0.35354581391932577,-10,-1,-100,19257.45209454163,-0.0008138278152759133,0.0277619620100571,0.999614231166023,55.6773168723963,3.382025109722338,249.81916798019594,-79.97461210699828,-110.25282287597656,4761.76025390625,True
1599385093.643936,0.0,10,0.5,0.5,0.9393158422470093,-0.001,-0.02275,-0.2505,0.2924318729249278,10,1,100,-0.24557138954357183,-10,-1,-100,19254.24216579122,0.0015930307058635528,0.027653357720306748,0.9996163034184481,56.3183183171241,3.4229973540728325,253.90174734426998,-80.33940936513805,-113.31949615478516,4761.76025390625,True
1599385093.675006,0.0,10,0.5,0.5,0.9461805286407471,-0.001,-0.02275,-0.2505,0.2857910168315524,10,1,100,-0.2520410575495916,-10,-1,-100,19251.017646709457,0.0038198584752938782,0.02749151371498007,0.9996147384642184,56.91418032379029,3.4612635328677523,257.8068294413498,-80.70415920131266,-116.13028717041016,4761.76025390625,True
1599385093.7090356,0.0,10,0.5,0.5,0.6307296365737916,-0.001,-0.02275,-0.2505,0.2887961479299481,10,1,100,-0.15212097230093968,-10,-1,-100,19249.399916186696,0.004917451279241906,0.027370249029059084,0.9996132692901808,57.162822485851514,3.4773975254553062,259.54499173831476,-80.88651824272416,-117.43093872070312,4761.76025390625,True
1599385093.742037,0.0,10,0.5,0.5,0.36514602069854735,-0.001,-0.02275,-0.2505,0.30103705695938543,10,1,100,-0.04436736544909224,-10,-1,-100,19249.399916186696,0.004917451279241906,0.027370249029059084,0.9996132692901808,57.162822485851514,3.4773975254553062,259.54499173831476,-80.88651824272416,-117.43093872070312,4761.76025390625,True
1599385093.7776952,0.0,10,0.5,0.5,1.5666599340438843,-0.001,-0.02275,-0.2505,0.23068055592113085,10,1,100,-0.4896660197247307,-10,-1,-100,19242.89252588153,0.008948616641570243,0.02672988746867995,0.9996026387400716,57.88820677011023,3.525433154406917,265.3164379812719,-81.6158671597866,-121.9857406616211,4761.76025390625,True
1599385093.8090816,0.0,10,0.5,0.5,0.9931819976806641,-0.001,-0.02275,-0.2505,0.24602906366418778,10,1,100,-0.29338534418846696,-10,-1,-100,19239.616952141863,0.010809504665164863,0.026287347635495513,0.9995959833668723,58.13331539829306,3.542178418957106,267.6837925757611,-81.98049809109783,-123.99528503417969,4761.76025390625,True
1599385093.8423324,0.0,10,0.5,0.5,0.786707472229004,-0.001,-0.02275,-0.2505,0.271298465619646,10,1,100,-0.1986880854155074,-10,-1,-100,19237.97369582078,0.011620368042815944,0.02611544214532485,0.9995913918837555,58.23612231501639,3.5493124729760486,268.78024544609485,-82.16280443362636,-124.92724609375,4761.76025390625,True
1599385093.8754747,0.0,10,0.5,0.5,1.0273454029083253,-0.001,-0.02275,-0.2505,0.24181110702592948,10,1,100,-0.2941887353029597,-10,-1,-100,19234.676245654817,0.013207428920716087,0.02569227760597465,0.9995826482551213,58.402514378759626,3.5611153333015735,270.79791441607637,-82.5274006645939,-126.58766174316406,4761.76025390625,True
1599385093.9104762,0.0,10,0.5,0.5,0.6676696971893311,-0.001,-0.02275,-0.2505,0.28394195829356034,10,1,100,-0.13752007370250258,-10,-1,-100,19234.676245654817,0.013207428920716087,0.02569227760597465,0.9995826482551213,58.402514378759626,3.5611153333015735,270.79791441607637,-82.5274006645939,-126.58766174316406,4761.76025390625,True
1599385093.9324136,0.0,10,0.5,0.5,0.900175848197937,-0.001,-0.02275,-0.2505,0.25605386802017505,10,1,100,-0.22373384690755055,-10,-1,-100,19233.02205174591,0.013975036435160222,0.025440592474737716,0.9995786485370575,58.467686885512904,3.565881843163803,271.72569658489635,-82.70969148944651,-127.3199234008789,4761.76025390625,True
1599385093.9503589,0.0,10,0.5,0.5,1.0763269424438475,-0.001,-0.02275,-0.2505,0.2289440559145821,10,1,100,-0.30114244746082225,-10,-1,-100,19229.702726639225,0.01536313157672969,0.024967445308594495,0.9995702080709079,58.570161959066745,3.573646997941143,273.4554605818335,-83.07426041497904,-128.5952911376953,4761.76025390625,True
1599385093.9753058,0.0,10,0.5,0.5,1.0536032293319701,-0.001,-0.02275,-0.2505,0.21733180605157987,10,1,100,-0.30437232071360987,-10,-1,-100,19226.368819425,0.016641880461481035,0.024434187351902194,0.9995629136293313,58.644058849397574,3.579585065857911,275.0558182599836,-83.4388140538178,-129.63705444335938,4761.76025390625,True
1599385094.0083258,0.0,10,0.5,0.5,0.823369416809082,-0.001,-0.02275,-0.2505,0.27035186908450215,10,1,100,-0.17777963443709416,-10,-1,-100,19226.368819425,0.016641880461481035,0.024434187351902194,0.9995629136293313,58.644058849397574,3.579585065857911,275.0558182599836,-83.4388140538178,-129.63705444335938,4761.76025390625,True
1599385094.030233,0.0,10,0.5,0.5,0.9602216964721679,-0.001,-0.02275,-0.2505,0.24190778618670422,10,1,100,-0.2424147859100539,-10,-1,-100,19224.696397705004,0.017218814175614997,0.024178273927083264,0.9995593646744013,58.673953521284915,3.5820953472849015,275.82413702344144,-83.6210857292379,-130.07078552246094,4761.76025390625,True
1599385094.048184,0.0,10,0.5,0.5,1.0458964992523192,-0.001,-0.02275,-0.2505,0.21179673492027007,10,1,100,-0.3009520270073754,-10,-1,-100,19221.34061804705,0.01826427305035209,0.02367479032491845,0.9995528603495732,58.72209750711723,3.5863555198912596,277.3079563082774,-83.98561961620486,-130.72911071777344,4761.76025390625,True
1599385094.0752144,0.0,10,0.5,0.5,0.9584141233444214,-0.001,-0.02275,-0.2505,0.23001123959976583,10,1,100,-0.2512733301123176,-10,-1,-100,19219.657260246924,0.01875459691342276,0.023385441726531092,0.9995505921212142,58.741617981324794,3.588186934237056,278.02923931005427,-84.16788210927201,-130.9578857421875,4761.76025390625,True
1599385094.1082811,0.0,10,0.5,0.5,0.9587525522232054,-0.001,-0.02275,-0.2505,0.22692567233337677,10,1,100,-0.25303704843382324,-10,-1,-100,19217.97025738249,0.019209156871638638,0.023096985030947197,0.9995486669366134,58.75926628499708,3.589892914985433,278.7421635986106,-84.35014179582936,-131.12411499023438,4761.76025390625,True
1599385094.1417162,0.0,10,0.5,0.5,0.962781817817688,-0.001,-0.02275,-0.2505,0.19642203663172433,10,1,100,-0.2950671374986046,-10,-1,-100,19214.585316047887,0.019997586017124883,0.022560189944141704,0.9995454638900485,58.79079851067398,3.5930486624822837,280.1515418804051,-84.71465313354932,-131.24964904785156,4761.76025390625,True
1599385094.17733,0.0,10,0.5,0.5,0.9309699007034302,-0.001,-0.02275,-0.2505,0.2189337640623899,10,1,100,-0.255370601631706,-10,-1,-100,19212.88737782056,0.02034728931687111,0.022279693830653518,0.9995446978801238,58.805262875326854,3.594537941680128,280.8506955671109,-84.89690498984771,-131.20602416992188,4761.76025390625,True
1599385094.208678,0.0,10,0.5,0.5,0.8770805799484253,-0.001,-0.02275,-0.2505,0.18473653346674926,10,1,100,-0.28712406036048327,-10,-1,-100,19209.48056655156,0.020947378431996424,0.021716915798226908,0.999544687797919,58.832326274571756,3.5973951553183916,282.2413656319524,-85.26140115471972,-130.90652465820312,4761.76025390625,True
1599385094.2417305,0.0,10,0.5,0.5,0.8135346458435059,-0.001,-0.02275,-0.2505,0.18148725404736976,10,1,100,-0.27849600112425743,-10,-1,-100,19206.05917558726,0.02140813859632935,0.021179145661914277,0.9995464648483688,58.85671402109212,3.600093094817855,283.6208460033584,-85.62588807098105,-130.32310485839844,4761.76025390625,True
1599385094.2757254,0.0,10,0.5,0.5,0.8638770736694337,-0.001,-0.02275,-0.2505,0.20421814030222657,10,1,100,-0.25326512781539084,-10,-1,-100,19204.34301294724,0.021592144436533588,0.020900352049080292,0.9995483753089973,58.86750969844506,3.6013634023010828,284.3044445984681,-85.80812823913426,-129.92654418945312,4761.76025390625,True
1599385094.2956707,0.0,10,0.5,0.5,0.7129305603027343,-0.001,-0.02275,-0.2505,0.17248553836289443,10,1,100,-0.26469500750437347,-10,-1,-100,19200.899753330625,0.021858830230278143,0.020361637688239852,0.9995536980330856,58.88396878973879,3.6036135629827073,285.647911675791,-86.17260262754662,-128.9287567138672,4761.76025390625,True
1599385094.3145947,0.0,10,0.5,0.5,0.6468131938934325,-0.001,-0.02275,-0.2505,0.16807806406108347,10,1,100,-0.2537357294789004,-10,-1,-100,19197.441914908704,0.02199689937911544,0.019835531729880864,0.9995612477976014,58.890540063631626,3.605301351762135,286.94458612294227,-86.53706981267842,-127.67845153808594,4761.76025390625,True
1599385094.3425863,0.0,10,0.5,0.5,0.9545720806121826,-0.001,-0.02275,-0.2505,0.22025438567726208,10,1,100,-0.24040662311552066,-10,-1,-100,19197.441914908704,0.02199689937911544,0.019835531729880864,0.9995612477976014,58.890540063631626,3.605301351762135,286.94458612294227,-86.53706981267842,-127.67845153808594,4761.76025390625,True
1599385094.3753042,0.0,10,0.5,0.5,0.7670388973236084,-0.001,-0.02275,-0.2505,0.19025931772364374,10,1,100,-0.24314061730992828,-10,-1,-100,19195.7075287723,0.02201836057512936,0.019566339529025277,0.9995660809346316,58.888626162036545,3.60584671543938,287.56791389121815,-86.71930117007817,-126.96038818359375,4761.76025390625,True
1599385094.4083416,0.0,10,0.5,0.5,0.5352567470550538,-0.001,-0.02275,-0.2505,0.15984007264713324,10,1,100,-0.23628369862727358,-10,-1,-100,19192.227822790504,0.021972568071061786,0.01904855266591329,0.9995770900204228,58.87003438009171,3.6060788996803836,288.7426321842551,-87.08376026912624,-125.3597412109375,4761.76025390625,True
1599385094.4449055,0.0,10,0.5,0.5,0.6996921512603759,-0.001,-0.02275,-0.2505,0.18145593058853665,10,1,100,-0.2330431191913283,-10,-1,-100,19190.482502924046,0.02189896651685592,0.01877802552833791,0.9995838239101064,58.85245540106033,3.605711881039906,289.2892966380403,-87.26598852430845,-124.47142028808594,4761.76025390625,True
1599385094.4758675,0.0,10,0.5,0.5,0.4108572292327881,-0.001,-0.02275,-0.2505,0.1491590258821821,10,1,100,-0.2148773810115889,-10,-1,-100,19186.980929514975,0.021665184410944113,0.018241921873589615,0.9995988455729616,58.791274881010985,3.60343438202804,290.2537173649774,-87.63044387235719,-122.49949645996094,4761.76025390625,True
1599385094.5087392,0.0,10,0.5,0.5,0.04854597244262693,-0.001,-0.02275,-0.2505,0.11320065108935207,10,1,100,-0.1767427577774638,-10,-1,-100,19181.701235319953,0.0211047787442649,0.017431331300208224,0.9996252983009474,58.62174639798758,3.595376723709649,291.31095382546175,-88.17712950447498,-119.17356872558594,4761.76025390625,True
1599385094.5306804,0.0,10,0.5,0.5,0.8549983951568603,-0.001,-0.02275,-0.2505,0.1938311499776893,10,1,100,-0.2327990644766118,-10,-1,-100,19181.701235319953,0.0211047787442649,0.017431331300208224,0.9996252983009474,58.62174639798758,3.595376723709649,291.31095382546175,-88.17712950447498,-119.17356872558594,4761.76025390625,True
1599385094.5506637,0.0,10,0.5,0.5,0.21409600715637211,-0.001,-0.02275,-0.2505,0.13176454471210583,10,1,100,-0.1764466339003657,-10,-1,-100,19178.16321605898,0.020592759702528177,0.016870496538122653,0.9996455994973372,58.4477273101297,3.586334271802647,291.70669605313464,-88.54159283555624,-116.72610473632812,4761.76025390625,True
1599385094.5766706,0.0,10,0.5,0.5,0.48026228065490717,-0.001,-0.02275,-0.2505,0.15657334138122186,10,1,100,-0.19643521076097617,-10,-1,-100,19176.388739316026,0.02030991071307671,0.01658984477459224,0.9996560831491907,58.339762030244835,3.5805426320152773,291.79741379554355,-88.72382773117707,-115.46609497070312,4761.76025390625,True
1599385094.6098166,0.0,10,0.5,0.5,0.11676895675659171,-0.001,-0.02275,-0.2505,0.11944606652132403,10,1,100,-0.15143804994433765,-10,-1,-100,19172.828851693776,0.019645118278439754,0.016000615029850656,0.9996789732941733,58.09075019216379,3.5669450693500377,291.80668129944127,-89.08830575186917,-112.8875732421875,4761.76025390625,True
1599385094.6427472,0.0,10,0.5,0.5,0.7290394016265869,-0.001,-0.02275,-0.2505,0.17798554932547947,10,1,100,-0.21768211529796566,-10,-1,-100,19172.828851693776,0.019645118278439754,0.016000615029850656,0.9996789732941733,58.09075019216379,3.5669450693500377,291.80668129944127,-89.08830575186917,-112.8875732421875,4761.76025390625,True
1599385094.67884,0.0,10,0.5,0.5,-0.6837248481750487,-0.001,-0.02275,-0.2505,0.04124675660994753,10,1,100,-0.04534442685486323,-10,-1,-100,19165.66533718747,0.01808055000268489,0.014761021383982212,0.9997275658694733,57.411402751547904,3.528578108257897,290.87847494656467,-89.81730630937528,-107.40401458740234,4761.76025390625,True
1599385094.6998172,0.0,10,0.5,0.5,0.6454158449172974,-0.001,-0.02275,-0.2505,0.16472558938228768,10,1,100,-0.20140747337310502,-10,-1,-100,19165.66533718747,0.01808055000268489,0.014761021383982212,0.9997275658694733,57.411402751547904,3.528578108257897,290.87847494656467,-89.81730630937528,-107.40401458740234,4761.76025390625,True
1599385094.719762,0.0,10,0.5,0.5,-0.12802849540710437,-0.001,-0.02275,-0.2505,0.08937384617340197,10,1,100,-0.09750988417880847,-10,-1,-100,19162.061708932742,0.017139564662798902,0.014079903292339551,0.9997539655567503,57.063530465912535,3.5088076838947804,290.3528061983795,-90.18183285541755,-104.4911117553711,4761.76025390625,True
1599385094.742723,0.0,10,0.5,0.5,0.1869076143264769,-0.001,-0.02275,-0.2505,0.12036617311917361,10,1,100,-0.14139314296633418,-10,-1,-100,19160.254426740226,0.016687388889929197,0.013746724474204147,0.9997662519900671,56.864613223448806,3.4973497609906565,289.95749909742386,-90.36410344022724,-103.02275848388672,4761.76025390625,True
1599385094.7758243,0.0,10,0.5,0.5,-0.21387191619873047,-0.001,-0.02275,-0.2505,0.07443822724502533,10,1,100,-0.0745783071798519,-10,-1,-100,19156.628925770638,0.01567343767609873,0.013030394401951872,0.9997922545074767,56.47146131870293,3.4746268711140984,289.1790172783097,-90.72865927837063,-100.14286804199219,4761.76025390625,True
1599385094.8117776,0.0,10,0.5,0.5,0.46424579544067385,-0.001,-0.02275,-0.2505,0.14563114078042716,10,1,100,-0.1754302944560819,-10,-1,-100,19156.628925770638,0.01567343767609873,0.013030394401951872,0.9997922545074767,56.47146131870293,3.4746268711140984,289.1790172783097,-90.72865927837063,-100.14286804199219,4761.76025390625,True
1599385094.8432798,0.0,10,0.5,0.5,0.05706726150512692,-0.001,-0.02275,-0.2505,0.10463887821046665,10,1,100,-0.11757180108896934,-10,-1,-100,19154.810706900083,0.015152388955550586,0.012661738321223373,0.9998050237379408,56.28777777082486,3.4640036568064914,288.8500653847406,-90.91094381614316,-98.69601440429688,4761.76025390625,True
1599385094.8763087,0.0,10,0.5,0.5,-1.0957362396240233,-0.001,-0.02275,-0.2505,-0.03364979477536431,10,1,100,0.07911702059657785,-10,-1,-100,19147.50137201592,0.012895573894953641,0.01107325281906891,0.9998555331876324,55.42422633887924,3.4131236297947165,286.83099158590505,-91.64013022049048,-92.83429718017578,4761.76025390625,True
1599385094.9092429,0.0,10,0.5,0.5,0.3211365850448608,-0.001,-0.02275,-0.2505,0.12464709624452965,10,1,100,-0.1458230517813043,-10,-1,-100,19147.50137201592,0.012895573894953641,0.01107325281906891,0.9998555331876324,55.42422633887924,3.4131236297947165,286.83099158590505,-91.64013022049048,-92.83429718017578,4761.76025390625,True
1599385094.9451823,0.0,10,0.5,0.5,-0.10333680992126465,-0.001,-0.02275,-0.2505,0.07804372249830793,10,1,100,-0.08019844471638893,-10,-1,-100,19145.664923161617,0.012305122507439398,0.01065406520520397,0.9998675286530112,55.167482751611864,3.3977526961204534,286.1033626595912,-91.82243991178147,-91.32792663574219,4761.76025390625,True
1599385094.976269,0.0,10,0.5,0.5,-0.5261736221313477,-0.001,-0.02275,-0.2505,0.02663339785341476,10,1,100,-0.008366761464349295,-10,-1,-100,19141.981086176937,0.011122005939926998,0.009810479468395581,0.9998900216906219,54.60543392198764,3.36382855723797,284.37921831542127,-92.18707646030948,-88.34130859375,4761.76025390625,True
1599385095.1379316,0.0,10,0.5,0.5,-0.5637436632156372,-0.001,-0.02275,-0.2505,0.007660313323366932,10,1,100,0.016161436483306243,-10,-1,-100,19138.282664478756,0.009829787755448637,0.008875601250038055,0.9999122956415394,55.55889769017876,3.42301633803905,290.55719359988143,-92.55168838820059,-85.38961791992188,4761.76025390625,True
1599385095.1598752,0.0,10,0.5,0.5,-0.9844955440521239,-0.001,-0.02275,-0.2505,-0.055518171071042705,10,1,100,0.09977636311778554,-10,-1,-100,19132.70768998156,0.007902408947652349,0.007456712484431074,0.9999409729437775,57.41207281895147,3.5374388028755264,302.12959051815307,-93.09849356099704,-80.975830078125,4761.76025390625,True
1599385095.1949036,0.0,10,0.5,0.5,-0.6353999601364135,-0.001,-0.02275,-0.2505,-0.02102652205823012,10,1,100,0.05126596934727412,-10,-1,-100,19128.972815989517,0.006599647389128687,0.006486395134730214,0.9999571847496749,58.57129083788434,3.6087647524965183,309.5099647021855,-93.46295529617224,-78.18035888671875,4761.76025390625,True
1599385095.2387443,0.0,10,0.5,0.5,-0.3233180458068848,-0.001,-0.02275,-0.2505,0.022893415254192362,10,1,100,-0.00743121778345307,-10,-1,-100,19127.09991263994,0.005958100165750878,0.006010160909969158,0.9999641888629068,59.11940820345322,3.6424184773348576,313.0526080104639,-93.64516428479119,-76.86160278320312,4761.76025390625,True
1599385095.2729604,0.0,10,0.5,0.5,-0.04593452033996582,-0.001,-0.02275,-0.2505,0.06981481438109968,10,1,100,-0.07061440637019914,-10,-1,-100,19127.09991263994,0.005958100165750878,0.006010160909969158,0.9999641888629068,59.11940820345322,3.6424184773348576,313.0526080104639,-93.64516428479119,-76.86160278320312,4761.76025390625,True
1599385095.321829,0.0,10,0.5,0.5,-0.7142562255859375,-0.001,-0.02275,-0.2505,-0.03746222304210825,10,1,100,0.0727158198043713,-10,-1,-100,19123.34317445208,0.004663930234627827,0.005041297145659979,0.9999764162608314,60.134661378398704,3.7046178984694653,319.7436572071987,-94.00954100955568,-74.41485595703125,4761.76025390625,True
1599385095.3557377,0.0,10,0.5,0.5,-0.7321545219421387,-0.001,-0.02275,-0.2505,-0.05105694230144305,10,1,100,0.08815810896994519,-10,-1,-100,19119.571862682584,0.0033565626309388563,0.0040438512222718305,0.9999861902819442,61.05973690714251,3.7611276869937122,325.9981900759883,-94.37386588862324,-72.12631225585938,4761.76025390625,True
1599385095.3786767,0.0,10,0.5,0.5,-1.2937102102279663,-0.001,-0.02275,-0.2505,-0.17117443273678215,10,1,100,0.24407074982752264,-10,-1,-100,19111.985526652425,0.0007593308118472836,0.0020514953803220646,0.999997607388849,62.76383448942491,3.864837404330421,337.8441335018307,-95.10236780671923,-67.80136108398438,4761.76025390625,True
1599385095.4109294,0.0,10,0.5,0.5,-0.26725987129211426,-0.001,-0.02275,-0.2505,0.027158975714319755,10,1,100,-0.014438807773324017,-10,-1,-100,19111.985526652425,0.0007593308118472836,0.0020514953803220646,0.999997607388849,62.76383448942491,3.864837404330421,337.8441335018307,-95.10236780671923,-67.80136108398438,4761.76025390625,True
1599385095.4459767,0.0,10,0.5,0.5,-0.7988001266479492,-0.001,-0.02275,-0.2505,-0.08159389178487242,10,1,100,0.12837006957014513,-10,-1,-100,19108.170506180148,-0.0005284355351882614,0.0010706534665338465,0.9999992872282659,63.53291340524078,3.911465698950227,343.375482460352,-95.4665489120635,-65.90069580078125,4761.76025390625,True
1599385095.4776075,0.0,10,0.5,0.5,-0.7959393432617188,-0.001,-0.02275,-0.2505,-0.08915325505422415,10,1,100,0.1406038819594479,-10,-1,-100,19104.340919615002,-0.0017997573801459498,0.00011820281155214315,0.9999983734494111,64.23420259188119,3.9538663968891843,348.5733011678013,-95.83068752971049,-64.22195434570312,4761.76025390625,True
1599385095.510843,0.0,10,0.5,0.5,-0.4235710433959961,-0.001,-0.02275,-0.2505,0.005216070600097585,10,1,100,0.014634651977238514,-10,-1,-100,19104.340919615002,-0.0017997573801459498,0.00011820281155214315,0.9999983734494111,64.23420259188119,3.9538663968891843,348.5733011678013,-95.83068752971049,-64.22195434570312,4761.76025390625,True
1599385095.5438347,0.0,10,0.5,0.5,-0.8348682701110839,-0.001,-0.02275,-0.2505,-0.09538027008635502,10,1,100,0.1528194935259761,-10,-1,-100,19100.496768682264,-0.0030471630612001113,-0.000789638004076627,0.9999950456222775,64.88085126051222,3.992863485389232,353.504864041372,-96.19478678228377,-62.738128662109375,4761.76025390625,True
1599385095.578894,0.0,10,0.5,0.5,-0.6634092864990234,-0.001,-0.02275,-0.2505,-0.05356498766644442,10,1,100,0.09690136420099135,-10,-1,-100,19098.569232105045,-0.0036640517678855522,-0.0012281943297955881,0.999992533103788,65.18356868885644,4.011081460565239,355.8690690846621,-96.37682246337161,-62.081634521484375,4761.76025390625,True
1599385095.6018338,0.0,10,0.5,0.5,-0.8227571182250976,-0.001,-0.02275,-0.2505,-0.1076717089028443,10,1,100,0.17221764205857593,-10,-1,-100,19094.70323759527,-0.004900805707274325,-0.0021121808596530384,0.9999857602963331,65.7488685959861,4.045026596415666,360.39804391902135,-96.74086799572915,-60.9278564453125,4761.76025390625,True
1599385095.6218095,0.0,10,0.5,0.5,-0.9062188697814941,-0.001,-0.02275,-0.2505,-0.15241101150342684,10,1,100,0.24778642459497616,-10,-1,-100,19088.87694462505,-0.00670224466989228,-0.0033151419633745413,0.9999720444843183,66.51601165295152,4.090923284094636,366.7941989152626,-97.28687609730768,-59.5909423828125,4761.76025390625,True
1599385095.6437201,0.0,10,0.5,0.5,-0.6906167808532714,-0.001,-0.02275,-0.2505,-0.0761681644512403,10,1,100,0.13455177973761265,-10,-1,-100,19086.927567290724,-0.007300177705473916,-0.003708029412547817,0.9999664783998232,66.75038274155365,4.104895228774449,368.8200667623627,-97.46886398622662,-59.250701904296875,4761.76025390625,True
1599385095.67682,0.0,10,0.5,0.5,-0.6346785545349121,-0.001,-0.02275,-0.2505,-0.0376546075973947,10,1,100,0.07582415021309034,-10,-1,-100,19086.927567290724,-0.007300177705473916,-0.003708029412547817,0.9999664783998232,66.75038274155365,4.104895228774449,368.8200667623627,-97.46886398622662,-59.250701904296875,4761.76025390625,True
1599385095.7130113,0.0,10,0.5,0.5,-0.8227931846618652,-0.001,-0.02275,-0.2505,-0.15328775082261542,10,1,100,0.2679426582342616,-10,-1,-100,19081.057597923675,-0.009039382770650636,-0.004754003873874487,0.9999478431429777,67.39372548365725,4.143085598083635,374.5980443259109,-98.01478716281791,-58.580078125,4761.76025390625,True
1599385095.7443655,0.0,10,0.5,0.5,-0.6757803466796874,-0.001,-0.02275,-0.2505,-0.04937085461536805,10,1,100,0.09500202307483946,-10,-1,-100,19081.057597923675,-0.009039382770650636,-0.004754003873874487,0.9999478431429777,67.39372548365725,4.143085598083635,374.5980443259109,-98.01478716281791,-58.580078125,4761.76025390625,True
1599385095.7775602,0.0,10,0.5,0.5,-0.738086668395996,-0.001,-0.02275,-0.2505,-0.1251690976897083,10,1,100,0.22328533102717557,-10,-1,-100,19077.12608855858,-0.010197857436366907,-0.005437783667877209,0.999933214876118,67.77201455637528,4.16538457053196,378.19273115616653,-98.37870521557457,-58.3985595703125,4761.76025390625,True
1599385095.8106012,0.0,10,0.5,0.5,-0.7088194343566895,-0.001,-0.02275,-0.2505,-0.0872983287448181,10,1,100,0.16840092236108217,-10,-1,-100,19075.154875291628,-0.010744432417275195,-0.005710071047944837,0.9999259733903596,67.94854932901914,4.175741179605966,379.92630246866145,-98.5606558943627,-58.386810302734375,4761.76025390625,True
1599385095.8305476,0.0,10,0.5,0.5,-0.6431286277770996,-0.001,-0.02275,-0.2505,-0.14923188183852318,10,1,100,0.29544568658287695,-10,-1,-100,19069.219402579707,-0.012388139642810747,-0.006515338899895002,0.9999020373792673,68.41469314711472,4.202827823279984,384.7955032968695,-99.10647775168108,-58.6890869140625,4761.76025390625,True
1599385095.8504548,0.0,10,0.5,0.5,-0.7280604888916016,-0.001,-0.02275,-0.2505,-0.06927766673308851,10,1,100,0.1320090616874829,-10,-1,-100,19069.219402579707,-0.012388139642810747,-0.006515338899895002,0.9999020373792673,68.41469314711472,4.202827823279984,384.7955032968695,-99.10647775168108,-58.6890869140625,4761.76025390625,True
1599385095.8773384,0.0,10,0.5,0.5,-0.6833571174621582,-0.001,-0.02275,-0.2505,-0.09455468228204833,10,1,100,0.19106220646455557,-10,-1,-100,19067.233634361415,-0.012917055424534203,-0.006740323455276365,0.9998938532258701,68.54883494694718,4.210521183578417,386.30645874020126,-99.288409380194,-58.89752197265625,4761.76025390625,True
1599385095.9099777,0.0,10,0.5,0.5,-0.6743975456237793,-0.001,-0.02275,-0.2505,-0.09722334210677669,10,1,100,0.19718405249946175,-10,-1,-100,19065.24422746885,-0.01344625359940262,-0.006964908010760931,0.9998853375865364,68.67157496812207,4.217497613643454,387.75637940460604,-99.47033708155782,-59.15911865234375,4761.76025390625,True
1599385095.9440413,0.0,10,0.5,0.5,-0.5714498146057129,-0.001,-0.02275,-0.2505,-0.11643752854756081,10,1,100,0.25730820256025655,-10,-1,-100,19061.25449844892,-0.014467795114445214,-0.007340432241529132,0.9998683918191603,68.88216545314305,4.229255984151997,390.46778166462815,-99.83418199480492,-59.832916259765625,4761.76025390625,True
1599385095.9800177,0.0,10,0.5,0.5,-0.6348285850524903,-0.001,-0.02275,-0.2505,-0.0975170072053014,10,1,100,0.2109723374894941,-10,-1,-100,19059.254176391056,-0.014968718066196122,-0.007506510981998791,0.9998597850560508,68.96907684500877,4.233980047545377,391.7231849092398,-100.01609995107714,-60.24676513671875,4761.76025390625,True
1599385096.0103416,0.0,10,0.5,0.5,-0.49015803070068353,-0.001,-0.02275,-0.2505,-0.1115534797415873,10,1,100,0.2686467599836104,-10,-1,-100,19055.242617149255,-0.01594144409922462,-0.0077816427858743075,0.9998426458176229,69.10285843645327,4.2409173927772015,394.0127693745319,-100.37992873538651,-61.225189208984375,4761.76025390625,True
1599385096.0440636,0.0,10,0.5,0.5,-0.27419777603149414,-0.001,-0.02275,-0.2505,-0.11406972447019148,10,1,100,0.32309815215708987,-10,-1,-100,19049.19799200585,-0.01731447854780164,-0.008051885160646633,0.9998176713671236,69.19501518883762,4.244541057430095,396.83942104664044,-100.92566057480381,-63.03448486328125,4761.76025390625,True
1599385096.0776315,0.0,10,0.5,0.5,-0.35833249435424797,-0.001,-0.02275,-0.2505,-0.09760086765299716,10,1,100,0.28108983551837646,-10,-1,-100,19045.150050687836,-0.018173275080904123,-0.008144845092749915,0.9998016771196421,69.17686290643151,4.242008511980319,398.27153498121174,-101.28947934608942,-64.46176147460938,4761.76025390625,True
1599385096.113626,0.0,10,0.5,0.5,-0.3132703689575196,-0.001,-0.02275,-0.2505,-0.08885203125283331,10,1,100,0.2815739901415788,-10,-1,-100,19041.087556793354,-0.018951150227895005,-0.008147358280637888,0.999787214590228,69.09194597849819,4.235349889015527,399.3190946445183,-101.65330067262421,-66.0076904296875,4761.76025390625,True
1599385096.144259,0.0,10,0.5,0.5,-0.6831880699157714,-0.001,-0.02275,-0.2505,-0.08884444118730528,10,1,100,0.20460714722355255,-10,-1,-100,19041.087556793354,-0.018951150227895005,-0.008147358280637888,0.999787214590228,69.09194597849819,4.235349889015527,399.3190946445183,-101.65330067262421,-66.0076904296875,4761.76025390625,True
1599385096.1777644,0.0,10,0.5,0.5,-0.03684420089721674,-0.001,-0.02275,-0.2505,-0.07638486782392023,10,1,100,0.32270957911874154,-10,-1,-100,19034.966528919642,-0.020018842326410283,-0.008032605777897349,0.9997673345315535,68.85076395313004,4.218382264515399,400.2258983160139,-102.19904468283723,-68.51144409179688,4761.76025390625,True
1599385096.2108154,0.0,10,0.5,0.5,-0.6416886306762695,-0.001,-0.02275,-0.2505,-0.08801184478577441,10,1,100,0.21670343953557372,-10,-1,-100,19034.966528919642,-0.020018842326410283,-0.008032605777897349,0.9997673345315535,68.85076395313004,4.218382264515399,400.2258983160139,-102.19904468283723,-68.51144409179688,4761.76025390625,True
1599385096.2473423,0.0,10,0.5,0.5,0.3082263313293456,-0.001,-0.02275,-0.2505,-0.0443904094132523,10,1,100,0.3447073728895645,-10,-1,-100,19026.75422038557,-0.021176058277899402,-0.007634872472399311,0.9997466095357069,68.29058025824571,4.1813003976177425,400.0200806218702,-102.9267431627816,-72.20147705078125,4761.76025390625,True
1599385096.2778592,0.0,10,0.5,0.5,-0.34028980331420894,-0.001,-0.02275,-0.2505,-0.06941668510257215,10,1,100,0.2584411411465558,-10,-1,-100,19024.692046719952,-0.02143680721369989,-0.007500199278702512,0.9997420718901763,68.10963118594756,4.169583918237811,399.72216979914003,-103.10867772129349,-73.18026733398438,4761.76025390625,True
1599385096.3108072,0.0,10,0.5,0.5,-0.29866873550415035,-0.001,-0.02275,-0.2505,-0.06644266584685149,10,1,100,0.25943206714186584,-10,-1,-100,19022.626234275755,-0.021676524653385647,-0.007350587321165078,0.999738014254227,67.90776120146221,4.156620424548247,399.2977574036161,-103.2906170517511,-74.19992065429688,4761.76025390625,True
1599385096.3443131,0.0,10,0.5,0.5,0.26219983062744134,-0.001,-0.02275,-0.2505,-0.02367042602706007,10,1,100,0.2968985637710977,-10,-1,-100,19016.406963016605,-0.02222895610737736,-0.006825879655642791,0.999729603881621,67.18356868810518,4.1107295577048,397.2994778531075,-103.83646901539075,-77.31939697265625,4761.76025390625,True
1599385096.3804913,0.0,10,0.5,0.5,-0.4826146644592285,-0.001,-0.02275,-0.2505,-0.07604561626626559,10,1,100,0.2422841695727415,-10,-1,-100,19016.406963016605,-0.02222895610737736,-0.006825879655642791,0.999729603881621,67.18356868810518,4.1107295577048,397.2994778531075,-103.83646901539075,-77.31939697265625,4761.76025390625,True
1599385096.410632,0.0,10,0.5,0.5,-0.17828496170043945,-0.001,-0.02275,-0.2505,-0.05413308419727954,10,1,100,0.25940120408008244,-10,-1,-100,19014.326594409882,-0.02238009780511721,-0.006627789369111103,0.999727564704661,66.90657537767076,4.093357445858275,396.41272897443383,-104.01843199906844,-78.40023803710938,4761.76025390625,True
1599385096.444649,0.0,10,0.5,0.5,0.13650704269409175,-0.001,-0.02275,-0.2505,-0.027631450241193067,10,1,100,0.2701071529870654,-10,-1,-100,19010.154938513762,-0.022611001772467634,-0.006208162486957545,0.9997250628634758,66.29154540521976,4.055065876391869,394.2590519466939,-104.38237899651219,-80.60235595703125,4761.76025390625,True
1599385096.4815164,0.0,10,0.5,0.5,-0.10040303878784179,-0.001,-0.02275,-0.2505,-0.04404414341354501,10,1,100,0.2579247015320497,-10,-1,-100,19008.06365116837,-0.022706837773609174,-0.0059776527100154015,0.999724295586739,65.96230952330926,4.0346942636132725,393.04314197719805,-104.56436357997234,-81.72171020507812,4761.76025390625,True
1599385096.513514,0.0,10,0.5,0.5,0.23759336547851562,-0.001,-0.02275,-0.2505,-0.01404710828977336,10,1,100,0.26223849377451786,-10,-1,-100,19003.87015689141,-0.022829763442718726,-0.005497370507643367,0.9997242523909536,65.23950302736459,3.9902457307734265,390.205632847412,-104.92835634077139,-84.03839111328125,4761.76025390625,True
1599385096.5443022,0.0,10,0.5,0.5,0.27955497207641605,-0.001,-0.02275,-0.2505,-0.007420971351747081,10,1,100,0.253758379804368,-10,-1,-100,18999.662101526512,-0.02286186672298395,-0.005002817474477873,0.9997261159273861,64.43753387890752,3.9412925726092025,386.86189293615575,-105.29238305557143,-86.37225341796875,4761.76025390625,True
1599385096.578336,0.0,10,0.5,0.5,0.32342784576416006,-0.001,-0.02275,-0.2505,0.0012210077638653283,10,1,100,0.24615559741078039,-10,-1,-100,18995.43948582362,-0.02281935075201374,-0.004477414714461329,0.999729578430453,65.22543008470173,3.9899400568193384,393.0642306994932,-105.65638533238415,-88.709716796875,4761.76025390625,True
1599385096.611009,0.0,10,0.5,0.5,0.0679042266845703,-0.001,-0.02275,-0.2505,-0.02229727356832557,10,1,100,0.24451284717939115,-10,-1,-100,18993.32271834882,-0.02276427187405173,-0.0042164488154279684,0.9997319688223595,65.70462812824572,4.019613232311778,396.6938617625988,-105.83836469952227,-89.87255859375,4761.76025390625,True
1599385096.648036,0.0,10,0.5,0.5,0.38785542755126956,-0.001,-0.02275,-0.2505,0.010229989483152208,10,1,100,0.231440070495599,-10,-1,-100,18989.078265838558,-0.02259414995636056,-0.0036864899253508192,0.9997379227476468,66.612267919317,4.076114376920022,403.6786997715134,-106.20228050229278,-92.1519546508789,4761.76025390625,True
1599385096.6780684,0.0,10,0.5,0.5,0.6797241521835327,-0.001,-0.02275,-0.2505,0.04523568201373951,10,1,100,0.20417483446540238,-10,-1,-100,18982.68429751054,-0.022190793680636825,-0.0028898065453624483,0.9997495774912605,67.82957208396698,4.1526418509500855,413.35570056100397,-106.7480505027676,-95.42041015625,4761.76025390625,True
1599385096.7120605,0.0,10,0.5,0.5,0.43301288585662845,-0.001,-0.02275,-0.2505,0.02332036338668267,10,1,100,0.2042690204004306,-10,-1,-100,18978.40346169367,-0.021824997086139813,-0.0023683573448101554,0.9997590011526164,68.55442973715839,4.198705663760213,419.3233202485893,-107.11183145204684,-97.53117370605469,4761.76025390625,True
1599385096.744944,0.0,10,0.5,0.5,-0.04975159130096435,-0.001,-0.02275,-0.2505,-0.028378804437463358,10,1,100,0.24080828394800807,-10,-1,-100,18978.40346169367,-0.021824997086139813,-0.0023683573448101554,0.9997590011526164,68.55442973715839,4.198705663760213,419.3233202485893,-107.11183145204684,-97.53117370605469,4761.76025390625,True
1599385096.7812073,0.0,10,0.5,0.5,0.7212047971725464,-0.001,-0.02275,-0.2505,0.05316104471529645,10,1,100,0.1676515919147155,-10,-1,-100,18971.954928057385,-0.02116044088649077,-0.001630958199807158,0.9997747624924526,69.49849759244378,4.259469474510745,427.4558635330651,-107.6574106624656,-100.42355346679688,4761.76025390625,True
1599385096.8113706,0.0,10,0.5,0.5,0.041756891441345215,-0.001,-0.02275,-0.2505,-0.020121149356288247,10,1,100,0.2339621557910222,-10,-1,-100,18971.954928057385,-0.02116044088649077,-0.001630958199807158,0.9997747624924526,69.49849759244378,4.259469474510745,427.4558635330651,-107.6574106624656,-100.42355346679688,4761.76025390625,True
1599385096.8448722,0.0,10,0.5,0.5,0.5289761236190795,-0.001,-0.02275,-0.2505,0.0330937039170558,10,1,100,0.1746867379404378,-10,-1,-100,18967.637721639476,-0.02062297926683738,-0.001151138346876947,0.9997866610465784,70.08082303476135,4.2973300038297335,432.62291178596575,-108.02107220404139,-102.19163513183594,4761.76025390625,True
1599385096.8788626,0.0,10,0.5,0.5,0.7339908601760864,-0.001,-0.02275,-0.2505,0.05741777170501604,10,1,100,0.1299258698526385,-10,-1,-100,18961.134640257573,-0.019729466979241474,-0.0004977617117414496,0.999805231215557,70.89469507061742,4.3507345536364115,440.05306812767867,-108.56648028402958,-104.60364532470703,4761.76025390625,True
1599385096.9137805,0.0,10,0.5,0.5,0.17125872344970702,-0.001,-0.02275,-0.2505,-0.0074693862322600555,10,1,100,0.218963858637855,-10,-1,-100,18961.134640257573,-0.019729466979241474,-0.0004977617117414496,0.999805231215557,70.89469507061742,4.3507345536364115,440.05306812767867,-108.56648028402958,-104.60364532470703,4761.76025390625,True
1599385096.9451337,0.0,10,0.5,0.5,0.5851989164352417,-0.001,-0.02275,-0.2505,0.037977276842131,10,1,100,0.1445308328328354,-10,-1,-100,18956.781074104365,-0.019055612093534725,-8.822809561309446e-05,0.9998184214463863,71.39806664749065,4.384067259932604,444.79305247426436,-108.93003147605901,-106.10575866699219,4761.76025390625,True
1599385096.978487,0.0,10,0.5,0.5,0.737394861793518,-0.001,-0.02275,-0.2505,0.058706557468053935,10,1,100,0.0919760609194126,-10,-1,-100,18950.22346145811,-0.017968617598025215,0.0004687702695394234,0.9998384414674454,72.03086142237836,4.4266955809605015,451.18009325794674,-109.47528417742804,-108.06021118164062,4761.76025390625,True
1599385097.0004241,0.0,10,0.5,0.5,0.28399579048156737,-0.001,-0.02275,-0.2505,0.003422246972291174,10,1,100,0.20021295723452998,-10,-1,-100,18950.22346145811,-0.017968617598025215,0.0004687702695394234,0.9998384414674454,72.03086142237836,4.4266955809605015,451.18009325794674,-109.47528417742804,-108.06021118164062,4761.76025390625,True
1599385097.022363,0.0,10,0.5,0.5,0.7356244724273682,-0.001,-0.02275,-0.2505,0.05796823202354504,10,1,100,0.07014075715222533,-10,-1,-100,18943.63313668105,-0.01678998139371573,0.0009615896092645478,0.9998585759347278,72.52792117793103,4.46107795646033,456.7556238161563,-110.02045913809523,-109.74161529541016,4761.76025390625,True
1599385097.045305,0.0,10,0.5,0.5,0.3422114965438843,-0.001,-0.02275,-0.2505,0.009019292746440075,10,1,100,0.18750087601393156,-10,-1,-100,18943.63313668105,-0.01678998139371573,0.0009615896092645478,0.9998585759347278,72.52792117793103,4.46107795646033,456.7556238161563,-110.02045913809523,-109.74161529541016,4761.76025390625,True
1599385097.078349,0.0,10,0.5,0.5,0.4876391082763672,-0.001,-0.02275,-0.2505,0.02574709352193265,10,1,100,0.14261240355181848,-10,-1,-100,18941.429093089304,-0.016386481658325996,0.001110633300901685,0.999865115759387,72.66458573019571,4.470764819825462,458.43863493289354,-110.20216868245232,-110.20940399169922,4761.76025390625,True
1599385097.1002865,0.0,10,0.5,0.5,0.6894314439773559,-0.001,-0.02275,-0.2505,0.0558888535397659,10,1,100,0.039422093256327784,-10,-1,-100,18934.79515905876,-0.015085909950038291,0.0015176512102787405,0.9998850494210739,72.98759350577247,4.49448342396993,462.95493106987607,-110.74725756242853,-111.38916778564453,4761.76025390625,True
1599385097.1473114,0.0,10,0.5,0.5,0.4995633209228515,-0.001,-0.02275,-0.2505,0.02875122185921999,10,1,100,0.11999051242567008,-10,-1,-100,18932.576580118155,-0.014641534508531173,0.0016380993767892045,0.9998914651589277,73.07084397415682,4.500886258742326,464.3102538812429,-110.92894189932979,-111.7101058959961,4761.76025390625,True
1599385097.1793318,0.0,10,0.5,0.5,0.5126202314376831,-0.001,-0.02275,-0.2505,0.029447821422662626,10,1,100,0.1142713353446325,-10,-1,-100,18930.35436749633,-0.014191001992568276,0.001751394762626681,0.9998977688138083,73.14286510609597,4.506596074633969,465.59608471274873,-111.1106207844443,-111.9955825805664,4761.76025390625,True
1599385097.2116354,0.0,10,0.5,0.5,0.5668989744186401,-0.001,-0.02275,-0.2505,0.041412505664411445,10,1,100,0.06217832762294452,-10,-1,-100,18925.899042072357,-0.013312889148756363,0.001961115736972678,0.9999094564047182,73.25371973855373,4.515964658683717,467.96097347784394,-111.47396375959339,-112.42887878417969,4761.76025390625,True
1599385097.2456157,0.0,10,0.5,0.5,0.5141796405792236,-0.001,-0.02275,-0.2505,0.03093589552380573,10,1,100,0.0977167206427344,-10,-1,-100,18923.6659295063,-0.012843514298044064,0.002054293914691974,0.9999154084306271,73.29164145852596,4.519566378181245,469.033467155182,-111.65562872000632,-112.58004760742188,4761.76025390625,True
1599385097.2815905,0.0,10,0.5,0.5,0.5461677726745605,-0.001,-0.02275,-0.2505,0.04864365420582718,10,1,100,-0.009814914857649182,-10,-1,-100,18916.944792527473,-0.011444896927207114,0.002298033226082161,0.9999318643675764,73.3439232815896,4.526565069086537,471.8614629493221,-112.20060099701058,-112.79924011230469,4761.76025390625,True
1599385097.3114362,0.0,10,0.5,0.5,0.5020413410186768,-0.001,-0.02275,-0.2505,0.024452649362462775,10,1,100,0.12939445015896395,-10,-1,-100,18916.944792527473,-0.011444896927207114,0.002298033226082161,0.9999318643675764,73.3439232815896,4.526565069086537,471.8614629493221,-112.20060099701058,-112.79924011230469,4761.76025390625,True
1599385097.3454323,0.0,10,0.5,0.5,0.4991282081604003,-0.001,-0.02275,-0.2505,0.03921386206260374,10,1,100,0.02482223532059888,-10,-1,-100,18912.445869249175,-0.010500171083831812,0.0024305631024865854,0.9999419176983306,73.33063028134433,4.528247358101375,473.43876792127674,-112.56390024014013,-112.74478912353516,4761.76025390625,True
1599385097.379459,0.0,10,0.5,0.5,0.46601811447143554,-0.001,-0.02275,-0.2505,0.03926633433190581,10,1,100,0.01818460232485082,-10,-1,-100,18907.93241435662,-0.00958670529926554,0.0025501863984904245,0.9999507946048335,73.28071424082582,4.527658950982078,474.77896763228216,-112.9271901066727,-112.53173828125,4761.76025390625,True
1599385097.4144673,0.0,10,0.5,0.5,0.4843676279067994,-0.001,-0.02275,-0.2505,0.03236203803751253,10,1,100,0.054824008859920025,-10,-1,-100,18905.670237604412,-0.009095915805519059,0.0025947243405546796,0.9999552648600114,73.24324503354936,4.526588578307253,475.36733302734376,-113.10883233936993,-112.36725616455078,4761.76025390625,True
1599385097.4453704,0.0,10,0.5,0.5,0.41965388164520256,-0.001,-0.02275,-0.2505,0.0371762243317453,10,1,100,-0.0011275517547789937,-10,-1,-100,18901.134985801997,-0.008147720774573,0.0026776295350700702,0.9999632217968082,73.14027505033204,4.522708703841602,476.35962889284815,-113.4721125737785,-111.92659759521484,4761.76025390625,True
1599385097.4794168,0.0,10,0.5,0.5,0.3847137117385865,-0.001,-0.02275,-0.2505,0.03657044788465397,10,1,100,-0.009348199808149743,-10,-1,-100,18896.585202559712,-0.007217299572478181,0.002746436309360694,0.9999701833927248,73.00209514591664,4.516640758325885,477.11808882416767,-113.83538933932894,-111.34390258789062,4761.76025390625,True
1599385097.513368,0.0,10,0.5,0.5,0.24449819488525393,-0.001,-0.02275,-0.2505,0.03745390682802054,10,1,100,-0.07194503159710208,-10,-1,-100,18889.7332824755,-0.0058091493133433725,0.0028160117882622556,0.9999791617138146,72.73114461310037,4.503571282021976,477.8275977864031,-114.3803033352011,-110.20932006835938,4761.76025390625,True
1599385097.548249,0.0,10,0.5,0.5,0.5246473688125611,-0.001,-0.02275,-0.2505,0.030602820640427925,10,1,100,0.0680318090484563,-10,-1,-100,18889.7332824755,-0.0058091493133433725,0.0028160117882622556,0.9999791617138146,72.73114461310037,4.503571282021976,477.8275977864031,-114.3803033352011,-110.20932006835938,4761.76025390625,True
1599385097.579166,0.0,10,0.5,0.5,0.2902081212997436,-0.001,-0.02275,-0.2505,0.03428828948917442,10,1,100,-0.03311454583948672,-10,-1,-100,18885.147171754274,-0.004896458577848812,0.0028487388722951423,0.9999839545613884,72.50786928728807,4.492191784032304,478.01061695591767,-114.74358196554027,-109.29723358154297,4761.76025390625,True
1599385097.612367,0.0,10,0.5,0.5,0.12191160964965819,-0.001,-0.02275,-0.2505,0.03456622395382397,10,1,100,-0.0892465055903516,-10,-1,-100,18878.24075954163,-0.003563673780318798,0.0028802952211331233,0.9999895020092094,72.12181024230851,4.471894973437767,477.9294108903426,-115.28850891990055,-107.74929809570312,4761.76025390625,True
1599385097.6464856,0.0,10,0.5,0.5,0.4981808307647705,-0.001,-0.02275,-0.2505,0.03146881526953097,10,1,100,0.04324385184796089,-10,-1,-100,18878.24075954163,-0.003563673780318798,0.0028802952211331233,0.9999895020092094,72.12181024230851,4.471894973437767,477.9294108903426,-115.28850891990055,-107.74929809570312,4761.76025390625,True
1599385097.6814902,0.0,10,0.5,0.5,0.19520649108886712,-0.001,-0.02275,-0.2505,0.03301208294668601,10,1,100,-0.05082053093622038,-10,-1,-100,18873.61832046695,-0.002715707776050685,0.002893795598202668,0.9999921254081509,71.82717124316463,4.45600004545191,477.614380281068,-115.65180234903757,-106.5903091430664,4761.76025390625,True
1599385097.7131467,0.0,10,0.5,0.5,0.0028781715393065843,-0.001,-0.02275,-0.2505,0.03234163472350041,10,1,100,-0.1016087036483627,-10,-1,-100,18866.65741375659,-0.0014901957141581802,0.002899552563968098,0.9999946859417117,71.33945074717819,4.429208355547583,476.8132260711186,-116.19676057879707,-104.72687530517578,4761.76025390625,True
1599385097.7458706,0.0,10,0.5,0.5,0.45191228466033934,-0.001,-0.02275,-0.2505,0.03180087476350519,10,1,100,0.02013285158237703,-10,-1,-100,18866.65741375659,-0.0014901957141581802,0.002899552563968098,0.9999946859417117,71.33945074717819,4.429208355547583,476.8132260711186,-116.19676057879707,-104.72687530517578,4761.76025390625,True
1599385097.779539,0.0,10,0.5,0.5,0.09787631587982176,-0.001,-0.02275,-0.2505,0.03169659819183813,10,1,100,-0.06532763709212797,-10,-1,-100,18861.99864342739,-0.0007201964717457356,0.0028983274785680216,0.999995540497491,70.98085740255576,4.409178049072585,476.0379238282739,-116.56008026323758,-103.38829040527344,4761.76025390625,True
1599385097.8154676,0.0,10,0.5,0.5,0.24181649322509768,-0.001,-0.02275,-0.2505,0.031722117976845876,10,1,100,-0.02912065210466363,-10,-1,-100,18859.663808433455,-0.00035610386425939563,0.002897245128119388,0.9999957395712771,70.80598789182356,4.3994046101894755,475.6743728015692,-116.74174478399863,-102.70458984375,4761.76025390625,True
1599385097.8463342,0.0,10,0.5,0.5,0.043095871734619096,-0.001,-0.02275,-0.2505,0.030346765073783637,10,1,100,-0.07409805118410742,-10,-1,-100,18854.983238370158,0.0003775374108065672,0.002883620866030284,0.9999957710891605,70.4761332677222,4.381020391495531,475.0703203007831,-117.10508199320876,-101.31161499023438,4761.76025390625,True
1599385097.8792439,0.0,10,0.5,0.5,0.0076568229675292865,-0.001,-0.02275,-0.2505,0.03000900430061347,10,1,100,-0.07611378430308924,-10,-1,-100,18850.288134496775,0.0010571846103807772,0.0028681031579406713,0.9999953281615743,70.15307548512413,4.362951528319882,474.4984746653404,-117.46843012631177,-99.86375427246094,4761.76025390625,True
1599385097.9135282,0.0,10,0.5,0.5,0.16004408073425294,-0.001,-0.02275,-0.2505,0.03020927198993889,10,1,100,-0.04583934732452734,-10,-1,-100,18847.935132329003,0.0013935814248033835,0.002855769410153365,0.9999949512431994,69.99831363708181,4.354293850460257,474.2533447505882,-117.65010791672682,-99.12114715576172,4761.76025390625,True
1599385097.9486907,0.0,10,0.5,0.5,-0.44862806892395013,-0.001,-0.02275,-0.2505,0.024580451875541344,10,1,100,-0.14858258676161318,-10,-1,-100,18838.486786536407,0.0026277079418859403,0.0027933794288177833,0.9999926460641293,69.32576550714916,4.316000954763065,472.8756276314636,-118.37684695987117,-96.05337524414062,4761.76025390625,True
1599385097.9790883,0.0,10,0.5,0.5,0.2932405704498291,-0.001,-0.02275,-0.2505,0.030810758429867982,10,1,100,-0.025789073225577972,-10,-1,-100,18838.486786536407,0.0026277079418859403,0.0027933794288177833,0.9999926460641293,69.32576550714916,4.316000954763065,472.8756276314636,-118.37684695987117,-96.05337524414062,4761.76025390625,True
1599385098.0131583,0.0,10,0.5,0.5,0.0706641262054443,-0.001,-0.02275,-0.2505,0.02849129287485211,10,1,100,-0.058599894249781154,-10,-1,-100,18836.11561557278,0.002920359604176692,0.0027723723926742893,0.9999918926926852,69.14941703080248,4.30582543670777,472.4662229187295,-118.5585392281172,-95.27417755126953,4761.76025390625,True
1599385098.0461428,0.0,10,0.5,0.5,-0.5484956729888916,-0.001,-0.02275,-0.2505,0.019325513183330433,10,1,100,-0.14643640830101756,-10,-1,-100,18826.594592368812,0.003979796636379318,0.002670060201898669,0.9999885159326836,68.41415888705001,4.262858716061952,470.58555999255674,-119.28534052439356,-92.1385726928711,4761.76025390625,True
