Timestamp,Input Throttle,horizon,dT,dt,Input Roll,Roll P,Roll I,Roll D,Input Pitch,Pitch P,Pitch I,Pitch D,Input Yaw,Yaw P,Yaw I,Yaw D,Altitude,Direction X,Direction Y,Direction Z,Drag X,Drag Y,Drag Z,Vertical Velocity,Roll,Mass,Has Fuel
1599386703.9166381,0.0,10,0.5,0.5,-5.635536926269532,-0.1005,-0.02275,-0.12575,-0.00017844540526903486,10,1,100,0.49814529590079837,-10,-1,-100,19349.722300418536,-0.048846216466060334,-0.00017521713349307637,0.9988062957530387,61.0765274524241,3.6862977551132623,233.73152190542464,-68.66499532040238,-33.922332763671875,4761.76025390625,True
1599386703.951844,0.0,10,0.5,0.5,-5.762567507171631,-0.1005,-0.02275,-0.12575,0.001115732569016115,10,1,100,0.5107874538856589,-10,-1,-100,19345.580505635007,-0.049004767989500785,-0.0001489859915176565,0.998798533497857,61.346648328772396,3.704631652616919,236.70824136682788,-69.21235510602918,-33.925933837890625,4761.76025390625,True
1599386703.9837263,0.0,10,0.5,0.5,-5.890588842773438,-0.1005,-0.02275,-0.12575,-0.0015222802276776382,10,1,100,0.49983277834056394,-10,-1,-100,19345.580505635007,-0.049004767989500785,-0.0001489859915176565,0.998798533497857,61.346648328772396,3.704631652616919,236.70824136682788,-69.21235510602918,-33.925933837890625,4761.76025390625,True
1599386704.0174901,0.0,10,0.5,0.5,-5.984041704559326,-0.1005,-0.02275,-0.12575,0.021724174681386235,10,1,100,0.5031356783132942,-10,-1,-100,19342.801064555533,-0.04899024456380788,6.248085855703114e-05,0.99879925512273,61.53079195831576,3.7171166401257154,238.71887274610756,-69.57724427781713,-34.07672119140625,4761.76025390625,True
1599386704.0494096,0.0,10,0.5,0.5,-5.962246610260011,-0.1005,-0.02275,-0.12575,0.04822227260654848,10,1,100,0.49969511455027016,-10,-1,-100,19338.6045370216,-0.04890122701118337,0.0004955584480731703,0.998803496398879,61.83154579807244,3.7373196261912045,241.8466319864191,-70.12454969699344,-34.819183349609375,4761.76025390625,True
1599386704.086411,0.0,10,0.5,0.5,-5.986776132202149,-0.1005,-0.02275,-0.12575,0.055546403870020106,10,1,100,0.4934772652959677,-10,-1,-100,19335.788609349518,-0.048719320400111815,0.0009553978514393359,0.9988120519070125,62.045894815479215,3.7515896606950028,243.99760022046388,-70.48939881202945,-35.67828369140625,4761.76025390625,True
1599386704.1173377,0.0,10,0.5,0.5,-6.0963027313232425,-0.1005,-0.02275,-0.12575,0.040605785066764974,10,1,100,0.5018438407240895,-10,-1,-100,19334.37517296127,-0.04858572023902959,0.0012367413218776768,0.9988182508643689,62.154971846786005,3.7588200044314304,245.08419052534407,-70.6718166113839,-36.2178955078125,4761.76025390625,True
1599386704.1502469,0.0,10,0.5,0.5,-5.992549772644043,-0.1005,-0.02275,-0.12575,0.08609191956355336,10,1,100,0.4816770621637635,-10,-1,-100,19331.537355400622,-0.0482367623600073,0.0019048941164998105,0.998834113421958,62.37105318974693,3.7730991069939983,247.25646086288774,-71.03663819146645,-37.517181396484375,4761.76025390625,True
1599386704.1831603,0.0,10,0.5,0.5,-5.914975299835205,-0.1005,-0.02275,-0.12575,0.10853618727722764,10,1,100,0.47034457261475315,-10,-1,-100,19328.684945389046,-0.0477726536901233,0.0027146128234474256,0.9988545461860912,62.575274726760696,3.786560965245207,249.3910941626294,-71.40144110291894,-39.10992431640625,4761.76025390625,True
1599386704.2186594,0.0,10,0.5,0.5,-6.231037644195557,-0.1005,-0.02275,-0.12575,0.027835777864810864,10,1,100,0.5215327049721654,-10,-1,-100,19328.684945389046,-0.0477726536901233,0.0027146128234474256,0.9988545461860912,62.575274726760696,3.786560965245207,249.3910941626294,-71.40144110291894,-39.10992431640625,4761.76025390625,True
1599386704.250587,0.0,10,0.5,0.5,-6.141690648651124,-0.1005,-0.02275,-0.12575,0.07684736275110939,10,1,100,0.49510562458121854,-10,-1,-100,19327.253268695204,-0.04748897781957821,0.0031577048562106418,0.9988667708386803,62.6689727460658,3.79273553530898,250.42821148236385,-71.58383566967464,-40.01654052734375,4761.76025390625,True
1599386704.2834997,0.0,10,0.5,0.5,-5.255379724121094,-0.1005,-0.02275,-0.12575,0.26391727360820705,10,1,100,0.36321625916651934,-10,-1,-100,19321.490083882003,-0.04603333028680949,0.005258121419251086,0.9989260656634433,62.940371658687695,3.810765095623871,254.18018865625902,-72.3133727777927,-44.376556396484375,4761.76025390625,True
1599386704.3174026,0.0,10,0.5,0.5,-5.779876553344726,-0.1005,-0.02275,-0.12575,0.05441632804523946,10,1,100,0.5084838686731225,-10,-1,-100,19321.490083882003,-0.04603333028680949,0.005258121419251086,0.9989260656634433,62.940371658687695,3.810765095623871,254.18018865625902,-72.3133727777927,-44.376556396484375,4761.76025390625,True
1599386704.354338,0.0,10,0.5,0.5,-5.467951629638671,-0.1005,-0.02275,-0.12575,0.11969468371397826,10,1,100,0.45828021058249857,-10,-1,-100,19320.0401689657,-0.04557963470207899,0.005846645464048013,0.998943598826902,62.97102055247607,3.812897639800259,254.97147837423395,-72.49574838273625,-45.650146484375,4761.76025390625,True
1599386704.3852577,0.0,10,0.5,0.5,-4.637582887268065,-0.1005,-0.02275,-0.12575,0.26853631471335004,10,1,100,0.3292237613409492,-10,-1,-100,19315.668539173203,-0.04399704427727512,0.007729514727852698,0.9990017591060265,62.931070700962856,3.8109606676215506,256.8119612968929,-73.04286277099773,-49.911773681640625,4761.76025390625,True
1599386704.416687,0.0,10,0.5,0.5,-4.7845886444091805,-0.1005,-0.02275,-0.12575,0.15722794439514998,10,1,100,0.4206680735148902,-10,-1,-100,19314.20403439051,-0.04339409598606552,0.00842274345907352,0.9990225271865368,62.86374667497265,3.806921027883306,257.20429802112307,-73.22523250133119,-51.4788818359375,4761.76025390625,True
1599386704.4505658,0.0,10,0.5,0.5,-4.574452586364746,-0.1005,-0.02275,-0.12575,0.16390583447868126,10,1,100,0.4095761825314583,-10,-1,-100,19312.73588218016,-0.042749966916402,0.009106870992208521,0.9990442959295538,62.76436063146499,3.8008767412922837,257.4639072390911,-73.40760285290631,-53.119781494140625,4761.76025390625,True
1599386704.486507,0.0,10,0.5,0.5,-3.5287013114929193,-0.1005,-0.02275,-0.12575,0.3267343689463843,10,1,100,0.2352110597650442,-10,-1,-100,19308.3095409245,-0.04058456278548834,0.011201909854155522,0.9991133121318773,62.240414093290916,3.768708940214855,257.29825480965286,-73.95472739694779,-58.48394775390625,4761.76025390625,True
1599386704.51747,0.0,10,0.5,0.5,-3.7177526275634767,-0.1005,-0.02275,-0.12575,0.19805089315192828,10,1,100,0.36251137467392736,-10,-1,-100,19306.8267986133,-0.039780245710715326,0.011928189025305326,0.9991372530127037,61.97866382254831,3.752604286064414,256.875231083482,-74.13711065622498,-60.4189453125,4761.76025390625,True
1599386704.5503824,0.0,10,0.5,0.5,-3.4581465454101568,-0.1005,-0.02275,-0.12575,0.20582409839619345,10,1,100,0.34934641948246004,-10,-1,-100,19305.3404086706,-0.03893663278461689,0.01265073234111496,0.9991615973398044,61.66765860523537,3.733474239218026,256.2423290920967,-74.31950020374276,-62.427581787109375,4761.76025390625,True
1599386704.5842955,0.0,10,0.5,0.5,-2.6986425910949707,-0.1005,-0.02275,-0.12575,0.28750011439804746,10,1,100,0.2361118840244102,-10,-1,-100,19302.356684465078,-0.0371483398211865,0.01404106630139724,0.9992111134818554,60.88339140360294,3.685300907340461,254.28015839921005,-74.6843034394767,-66.66644287109375,4761.76025390625,True
1599386704.6202922,0.0,10,0.5,0.5,-1.6076210884094237,-0.1005,-0.02275,-0.12575,0.3787413660762574,10,1,100,0.08530956490277697,-10,-1,-100,19297.85373490979,-0.034161089351506205,0.016124578224687415,0.9992862542592059,59.248534793164275,3.58526373672875,249.3479997100204,-75.23158886982606,-73.57662963867188,4761.76025390625,True
1599386704.652176,0.0,10,0.5,0.5,-1.8556176033020018,-0.1005,-0.02275,-0.12575,0.2443271590716054,10,1,100,0.2654655542814027,-10,-1,-100,19296.345453886082,-0.03309398177427099,0.01678685403963125,0.999311257767957,58.56797218784316,3.5437680491648105,247.10940536988906,-75.41404407112637,-76.027587890625,4761.76025390625,True
1599386704.6841142,0.0,10,0.5,0.5,-1.5205327331542968,-0.1005,-0.02275,-0.12575,0.2477301238696552,10,1,100,0.251894456986391,-10,-1,-100,19294.83352368453,-0.0320122734091139,0.01740937833990757,0.999335843396502,57.81431352547447,3.497908263021546,244.5475128127566,-75.59651458881949,-78.5526123046875,4761.76025390625,True
1599386704.7170744,0.0,10,0.5,0.5,-0.5703969161987305,-0.1005,-0.02275,-0.12575,0.3123886306309155,10,1,100,0.11671143374008675,-10,-1,-100,19291.798713220633,-0.02981229955790739,0.01855260255355581,0.9993833237219638,56.077426066114676,3.3925493519356795,238.40059722076322,-75.96150527748567,-83.82467651367188,4761.76025390625,True
1599386704.753945,0.0,10,0.5,0.5,-0.5348550933837891,-0.1005,-0.02275,-0.12575,0.2619214637772692,10,1,100,0.20569646100682126,-10,-1,-100,19290.275832692045,-0.028634173345343936,0.01912326569654315,0.9994070165983068,55.08934089482674,3.332791664612075,234.78985684162996,-76.14402696697879,-86.57098388671875,4761.76025390625,True
1599386704.7858596,0.0,10,0.5,0.5,1.8379522285461427,-0.1005,-0.02275,-0.12575,0.4134496339319087,10,1,100,-0.20612491111838388,-10,-1,-100,19284.147800299106,-0.02383273697154868,0.02100985144408521,0.9994951659666705,53.564507106202115,3.2420363238810532,230.5869640607312,-76.87422054213188,-98.23207092285156,4761.76025390625,True
1599386704.8177762,0.0,10,0.5,0.5,1.1618492980957031,-0.1005,-0.02275,-0.12575,0.2694788279955936,10,1,100,0.13467117745272117,-10,-1,-100,19282.606665514526,-0.022583138555058356,0.02140528299656433,0.9995157906270618,54.466387601584785,3.2973693250596217,235.0530466720559,-77.05673344729549,-101.27140045166016,4761.76025390625,True
1599386704.8516884,0.0,10,0.5,0.5,0.8769950647354126,-0.1005,-0.02275,-0.12575,0.2309560100619225,10,1,100,0.2578308766787104,-10,-1,-100,19282.606665514526,-0.022583138555058356,0.02140528299656433,0.9995157906270618,54.466387601584785,3.2973693250596217,235.0530466720559,-77.05673344729549,-101.27140045166016,4761.76025390625,True
1599386704.8875873,0.0,10,0.5,0.5,2.3574676929473877,-0.1005,-0.02275,-0.12575,0.3060028243468595,10,1,100,-0.01000956469254538,-10,-1,-100,19279.5134472152,-0.020163859185461173,0.022078911222817157,0.9995528702684837,56.18420831468346,3.4032145886171636,243.66984849073117,-77.42168751534514,-107.40414428710938,4761.76025390625,True
1599386704.9204984,0.0,10,0.5,0.5,4.311710391235351,-0.1005,-0.02275,-0.12575,0.3441243711392131,10,1,100,-0.32471982313353154,-10,-1,-100,19273.283228255925,-0.015120578112363094,0.023029288963994123,0.9996204379500057,58.97893150364682,3.57685395846021,258.3133987076484,-78.15131684872388,-118.99801635742188,4761.76025390625,True
1599386704.951417,0.0,10,0.5,0.5,3.590579696655274,-0.1005,-0.02275,-0.12575,0.26805502767582456,10,1,100,0.04579593865092564,-10,-1,-100,19271.716554456158,-0.013924127481867925,0.0231935581311582,0.9996340217975203,59.502220154557854,3.609631434657809,261.24082960099815,-78.33367396082109,-121.72837829589844,4761.76025390625,True
1599386704.984327,0.0,10,0.5,0.5,3.3567819110870363,-0.1005,-0.02275,-0.12575,0.2523350089500641,10,1,100,0.16341730551347863,-10,-1,-100,19271.716554456158,-0.013924127481867925,0.0231935581311582,0.9996340217975203,59.502220154557854,3.609631434657809,261.24082960099815,-78.33367396082109,-121.72837829589844,4761.76025390625,True
1599386705.0203493,0.0,10,0.5,0.5,4.646891069412232,-0.1005,-0.02275,-0.12575,0.282977706290081,10,1,100,-0.09608788517363895,-10,-1,-100,19268.57226710813,-0.011582416524978132,0.02346630383052969,0.9996575314636382,60.28321948992238,3.6589152849195012,265.9568633242944,-78.69834304461354,-126.97098541259766,4761.76025390625,True
1599386705.056226,0.0,10,0.5,0.5,5.752578199958801,-0.1005,-0.02275,-0.12575,0.27112818982300213,10,1,100,-0.25600921107320906,-10,-1,-100,19263.82848862873,-0.008018330744067806,0.023601025293447948,0.9996893007215676,60.88269678857777,3.6975238448199192,270.55056791503097,-79.24526830180503,-134.2849884033203,4761.76025390625,True
1599386705.090171,0.0,10,0.5,0.5,4.947639533424377,-0.1005,-0.02275,-0.12575,0.2581608858051657,10,1,100,0.0982199701364396,-10,-1,-100,19263.82848862873,-0.008018330744067806,0.023601025293447948,0.9996893007215676,60.88269678857777,3.6975238448199192,270.55056791503097,-79.24526830180503,-134.2849884033203,4761.76025390625,True
1599386705.1240814,0.0,10,0.5,0.5,7.02848156490326,-0.1005,-0.02275,-0.12575,0.2639168826416898,10,1,100,-0.37317135987565253,-10,-1,-100,19257.45240813354,-0.003751696691777219,0.023649281846873708,0.9997132770149951,60.83922642797278,3.696535508158434,272.95467032326803,-79.97443971972919,-143.00230407714844,4761.76025390625,True
1599386705.155959,0.0,10,0.5,0.5,6.48563368434906,-0.1005,-0.02275,-0.12575,0.2507676144233525,10,1,100,-0.06424045079675676,-10,-1,-100,19255.84927334101,-0.0026996567633937123,0.023571213156727888,0.999718515265012,60.71814819334778,3.689384123465977,273.05988074023315,-80.1567319425556,-144.99789428710938,4761.76025390625,True
1599386705.1908875,0.0,10,0.5,0.5,6.33416598892212,-0.1005,-0.02275,-0.12575,0.25879107645395083,10,1,100,0.03897519386242744,-10,-1,-100,19255.84927334101,-0.0026996567633937123,0.023571213156727888,0.999718515265012,60.71814819334778,3.689384123465977,273.05988074023315,-80.1567319425556,-144.99789428710938,4761.76025390625,True
1599386705.2238116,0.0,10,0.5,0.5,8.071877977180481,-0.1005,-0.02275,-0.12575,0.23423775255179236,10,1,100,-0.3807200125789973,-10,-1,-100,19249.400274602114,0.0010976783117177264,0.02334603209383539,0.9997268416361528,59.93244622069801,3.641859403672715,272.08905223165533,-80.88592961760429,-152.23870849609375,4761.76025390625,True
1599386705.2537308,0.0,10,0.5,0.5,7.6312076120376595,-0.1005,-0.02275,-0.12575,0.24554736314336334,10,1,100,-0.10158644806380976,-10,-1,-100,19247.778909718152,0.0019928945775926216,0.023242984750337384,0.999727858985183,59.68436468669723,3.626731026578363,271.6014725406559,-81.06823937688903,-153.8646240234375,4761.76025390625,True
1599386705.2876434,0.0,10,0.5,0.5,8.191296783638,-0.1005,-0.02275,-0.12575,0.24189215178404266,10,1,100,-0.19755717959466657,-10,-1,-100,19244.525241120835,0.0036636310398594466,0.02311588188408506,0.9997260793899122,59.15146682852882,3.5941689972720425,270.44330262426195,-81.43287373894374,-156.89324951171875,4761.76025390625,True
1599386705.3205478,0.0,10,0.5,0.5,7.890447210502625,-0.1005,-0.02275,-0.12575,0.2545946707845677,10,1,100,-0.03224230922015682,-10,-1,-100,19244.525241120835,0.0036636310398594466,0.02311588188408506,0.9997260793899122,59.15146682852882,3.5941689972720425,270.44330262426195,-81.43287373894374,-156.89324951171875,4761.76025390625,True
1599386705.3514707,0.0,10,0.5,0.5,8.588964996528626,-0.1005,-0.02275,-0.12575,0.2332921521339429,10,1,100,-0.20887647147546323,-10,-1,-100,19241.256986253895,0.005253407279887935,0.0229222932383949,0.9997234468515005,58.598208069220746,3.560317071735716,269.16992228086,-81.7975283571104,-159.6270294189453,4761.76025390625,True
1599386705.385345,0.0,10,0.5,0.5,8.603543453979492,-0.1005,-0.02275,-0.12575,0.24486994939701723,10,1,100,-0.13338598576982935,-10,-1,-100,19239.617388861836,0.00599707597004001,0.0228520508179701,0.9997208704699639,58.321647131876375,3.5433899949025034,268.525065842692,-81.97986316039089,-160.88253784179688,4761.76025390625,True
1599386705.4212854,0.0,10,0.5,0.5,9.024204272842407,-0.1005,-0.02275,-0.12575,0.23347711346031128,10,1,100,-0.2159732083297345,-10,-1,-100,19236.32725361467,0.007411190069164573,0.022685303722227934,0.9997151850686221,57.78342929802587,3.5104522012434,267.28728090577647,-82.34454667250871,-163.17218017578125,4761.76025390625,True
1599386705.455161,0.0,10,0.5,0.5,9.035810649871825,-0.1005,-0.02275,-0.12575,0.24429372054361556,10,1,100,-0.1489272602018414,-10,-1,-100,19234.67671566049,0.008073212884648573,0.022632880719193477,0.9997112462826804,57.526406044118794,3.494729449302864,266.7161311763905,-82.52689494325607,-164.20559692382812,4761.76025390625,True
1599386705.4880989,0.0,10,0.5,0.5,9.371541320419313,-0.1005,-0.02275,-0.12575,0.23772728754424166,10,1,100,-0.22078177351836806,-10,-1,-100,19231.364698438905,0.009317524738351155,0.022526452599283917,0.999702827177178,57.04807371510496,3.4654878216154263,265.72431113658666,-82.89160240366127,-166.0506591796875,4761.76025390625,True
1599386705.5246184,0.0,10,0.5,0.5,9.687906766128542,-0.1005,-0.02275,-0.12575,0.23924236964907708,10,1,100,-0.28023290360717873,-10,-1,-100,19226.36931889737,0.010978257441159286,0.02244442301900777,0.999687814139444,56.44799128060905,3.428858999936354,264.75029108931903,-83.43868492777067,-168.26275634765625,4761.76025390625,True
1599386705.5555074,0.0,10,0.5,0.5,9.712547561264039,-0.1005,-0.02275,-0.12575,0.24717753573851442,10,1,100,-0.22226984632623098,-10,-1,-100,19223.020829301444,0.011948643091881195,0.022443012901513175,0.9996767182945522,56.14292800350312,3.4102782114589343,264.52793369533595,-83.80341542295143,-169.36721801757812,4761.76025390625,True
1599386705.5884225,0.0,10,0.5,0.5,9.61262886543274,-0.1005,-0.02275,-0.12575,0.24722824556874165,10,1,100,-0.12631637773205637,-10,-1,-100,19223.020829301444,0.011948643091881195,0.022443012901513175,0.9996767182945522,56.14292800350312,3.4102782114589343,264.52793369533595,-83.80341542295143,-169.36721801757812,4761.76025390625,True
1599386705.6223648,0.0,10,0.5,0.5,9.83066208305359,-0.1005,-0.02275,-0.12575,0.25521770253762727,10,1,100,-0.22178194135094903,-10,-1,-100,19219.657750495127,0.012807461171585412,0.02251637157563834,0.9996644346726586,55.924343837506065,3.396998418580297,264.7024391598054,-84.16814826091124,-170.17501831054688,4761.76025390625,True
1599386705.6522954,0.0,10,0.5,0.5,9.907898065567018,-0.1005,-0.02275,-0.12575,0.2673844879429854,10,1,100,-0.2561698605722131,-10,-1,-100,19214.58577737445,0.01389250975502644,0.022694213428808514,0.9996459227394239,55.77401687684963,3.387932046412198,265.7938057254475,-84.71524234441812,-170.83181762695312,4761.76025390625,True
1599386705.6891916,0.0,10,0.5,0.5,9.85701579399109,-0.1005,-0.02275,-0.12575,0.24955813578044025,10,1,100,-0.14868789009962696,-10,-1,-100,19214.58577737445,0.01389250975502644,0.022694213428808514,0.9996459227394239,55.77401687684963,3.387932046412198,265.7938057254475,-84.71524234441812,-170.83181762695312,4761.76025390625,True
1599386705.7220688,0.0,10,0.5,0.5,9.897786571502685,-0.1005,-0.02275,-0.12575,0.2712490170614509,10,1,100,-0.21373742487741948,-10,-1,-100,19211.186225906597,0.014476015432574428,0.022891610603917326,0.9996331422782831,55.7943950392031,3.3892415889881713,267.0939899899868,-85.07996208715245,-170.89935302734375,4761.76025390625,True
1599386705.7519898,0.0,10,0.5,0.5,9.860273567962647,-0.1005,-0.02275,-0.12575,0.2821731873127791,10,1,100,-0.20703727202314678,-10,-1,-100,19207.772085835342,0.014937856532158724,0.02317033725649564,0.9996199257285966,55.91249939931143,3.3964951096175184,268.86550362681726,-85.44466904297755,-170.6703643798828,4761.76025390625,True
1599386705.7859344,0.0,10,0.5,0.5,9.703059460830689,-0.1005,-0.02275,-0.12575,0.30612059832190835,10,1,100,-0.21591829659266984,-10,-1,-100,19202.623524208204,0.015431606240173755,0.02364098791934595,0.9996014051706037,56.27125779289735,3.4183953186245706,272.41236392114365,-85.99169568213932,-169.7728271484375,4761.76025390625,True
1599386705.8228397,0.0,10,0.5,0.5,9.828590216445923,-0.1005,-0.02275,-0.12575,0.2591563427568927,10,1,100,-0.16727916512671934,-10,-1,-100,19202.623524208204,0.015431606240173755,0.02364098791934595,0.9996014051706037,56.27125779289735,3.4183953186245706,272.41236392114365,-85.99169568213932,-169.7728271484375,4761.76025390625,True
1599386705.8557138,0.0,10,0.5,0.5,9.735864300918578,-0.1005,-0.02275,-0.12575,0.2805230931895942,10,1,100,-0.1787921753903135,-10,-1,-100,19200.9000435957,0.015530711713932045,0.02383421789117045,0.9995952816271068,56.436503016764064,3.428460799186877,273.8215606933478,-86.17402670246823,-169.3255615234375,4761.76025390625,True
1599386705.8916154,0.0,10,0.5,0.5,9.22261074256897,-0.1005,-0.02275,-0.12575,0.3578818276331106,10,1,100,-0.1811656600964039,-10,-1,-100,19193.969657551963,0.015638246138065155,0.02471187927425,0.9995722926734516,57.30952353306224,3.481540451369354,280.5329123441983,-86.90328132224064,-166.79776000976562,4761.76025390625,True
1599386705.9260263,0.0,10,0.5,0.5,9.534636265945435,-0.1005,-0.02275,-0.12575,0.2703425759624294,10,1,100,-0.17078117798771128,-10,-1,-100,19193.969657551963,0.015638246138065155,0.02471187927425,0.9995722926734516,57.30952353306224,3.481540451369354,280.5329123441983,-86.90328132224064,-166.79776000976562,4761.76025390625,True
1599386705.9569066,0.0,10,0.5,0.5,9.142561119461059,-0.1005,-0.02275,-0.12575,0.32626273478922946,10,1,100,-0.1559880917574204,-10,-1,-100,19190.482588606188,0.015500409351384161,0.02521818174870024,0.9995617942974957,57.85559400833454,3.514696415203236,284.4560092864873,-87.26785987405536,-165.09066772460938,4761.76025390625,True
1599386705.9908502,0.0,10,0.5,0.5,9.127520531845093,-0.1005,-0.02275,-0.12575,0.30475752567780634,10,1,100,-0.1555150822702962,-10,-1,-100,19188.733585936832,0.015368354960718675,0.025480498633393828,0.9995571808832124,58.150992065416105,3.532625278691042,286.53668657431876,-87.45013535645472,-164.1265106201172,4761.76025390625,True
1599386706.0239642,0.0,10,0.5,0.5,8.194134801483155,-0.1005,-0.02275,-0.12575,0.4015772517902104,10,1,100,-0.07804667323199718,-10,-1,-100,19181.70112330548,0.014542705573214887,0.026596614870314776,0.9995404593072014,59.44311274213186,3.6110505896784484,295.4730316033695,-88.17913702460312,-159.5325927734375,4761.76025390625,True
1599386706.05488,0.0,10,0.5,0.5,8.746114234161377,-0.1005,-0.02275,-0.12575,0.29035586824226617,10,1,100,-0.16067663156419493,-10,-1,-100,19181.70112330548,0.014542705573214887,0.026596614870314776,0.9995404593072014,59.44311274213186,3.6110505896784484,295.4730316033695,-88.17913702460312,-159.5325927734375,4761.76025390625,True
1599386706.093741,0.0,10,0.5,0.5,8.100587534332275,-0.1005,-0.02275,-0.12575,0.35490772842311225,10,1,100,-0.09277227812005273,-10,-1,-100,19178.163024235633,0.013925332641776648,0.027180081777171197,0.9995335553473941,60.12329504223114,3.6523807261287398,300.1535755024932,-88.5435738165082,-156.79373168945312,4761.76025390625,True
1599386706.1266537,0.0,10,0.5,0.5,7.3592042644500735,-0.1005,-0.02275,-0.12575,0.3914320984312888,10,1,100,-0.02263189086807582,-10,-1,-100,19172.82854612544,0.012727365114442443,0.028038900743005298,0.9995258046805832,61.12538960109658,3.7134409893481632,307.1382566405652,-89.09014724634191,-152.13417053222656,4761.76025390625,True
1599386706.1576045,0.0,10,0.5,0.5,7.520419445037842,-0.1005,-0.02275,-0.12575,0.33527817108759234,10,1,100,-0.09020359297586611,-10,-1,-100,19171.043099515024,0.012255050327960105,0.028305156906253914,0.9995242027254625,61.442065121856956,3.732811726902716,309.3935534116417,-89.27231699317984,-150.43429565429688,4761.76025390625,True
1599386706.1914816,0.0,10,0.5,0.5,7.69018355178833,-0.1005,-0.02275,-0.12575,0.3091189716614216,10,1,100,-0.13711741603287847,-10,-1,-100,19171.043099515024,0.012255050327960105,0.028305156906253914,0.9995242027254625,61.442065121856956,3.732811726902716,309.3935534116417,-89.27231699317984,-150.43429565429688,4761.76025390625,True
1599386706.226418,0.0,10,0.5,0.5,6.393841130065919,-0.1005,-0.02275,-0.12575,0.3920250150790346,10,1,100,0.04050104739440166,-10,-1,-100,19165.66490193107,0.010643314898062988,0.029054783720036684,0.9995211550492378,62.28905804041478,3.7849869879708353,315.67858034963496,-89.81876787601084,-144.89456176757812,4761.76025390625,True
1599386706.2563436,0.0,10,0.5,0.5,6.122099870300293,-0.1005,-0.02275,-0.12575,0.3685695897607708,10,1,100,0.016382768215807447,-10,-1,-100,19162.06122328108,0.009401898800907376,0.029519083407449725,0.9995199988062877,62.728100983316814,3.812483890734911,319.2601894824555,-90.18302681006442,-140.83474731445312,4761.76025390625,True
1599386706.2932348,0.0,10,0.5,0.5,6.573555683898926,-0.1005,-0.02275,-0.12575,0.3226203414327867,10,1,100,-0.10713520676603798,-10,-1,-100,19162.06122328108,0.009401898800907376,0.029519083407449725,0.9995199988062877,62.728100983316814,3.812483890734911,319.2601894824555,-90.18302681006442,-140.83474731445312,4761.76025390625,True
1599386706.3271482,0.0,10,0.5,0.5,4.483055586242676,-0.1005,-0.02275,-0.12575,0.3938374108857439,10,1,100,0.2044362483913304,-10,-1,-100,19154.810157539323,0.006574975127249915,0.030162601400968655,0.9995233800060919,63.14621243869912,3.840573781067949,324.12180072185015,-90.9114842791785,-131.8388671875,4761.76025390625,True
1599386706.358035,0.0,10,0.5,0.5,5.540833123397828,-0.1005,-0.02275,-0.12575,0.3299538218106084,10,1,100,-0.07737678099106882,-10,-1,-100,19154.810157539323,0.006574975127249915,0.030162601400968655,0.9995233800060919,63.14621243869912,3.840573781067949,324.12180072185015,-90.9114842791785,-131.8388671875,4761.76025390625,True
1599386706.3919425,0.0,10,0.5,0.5,3.777897885131836,-0.1005,-0.02275,-0.12575,0.3574342732529361,10,1,100,0.18626238505575207,-10,-1,-100,19149.33361466357,0.004185498827229693,0.03040918188087104,0.999528770599878,62.90340815214376,3.8287646115453917,324.9216733450725,-91.4578247911485,-124.32535552978516,4761.76025390625,True
1599386706.4258883,0.0,10,0.5,0.5,4.642625511360169,-0.1005,-0.02275,-0.12575,0.3331574819637533,10,1,100,-0.05164952427167159,-10,-1,-100,19149.33361466357,0.004185498827229693,0.03040918188087104,0.999528770599878,62.90340815214376,3.8287646115453917,324.9216733450725,-91.4578247911485,-124.32535552978516,4761.76025390625,True
1599386706.4568067,0.0,10,0.5,0.5,2.720410069656372,-0.1005,-0.02275,-0.12575,0.33330139469802444,10,1,100,0.2328416328577663,-10,-1,-100,19143.824289197917,0.0016080699749753,0.030407554632906505,0.9995362898525507,62.03150748351431,3.779264741163152,322.4409191473261,-92.00422406849084,-116.15585327148438,4761.76025390625,True
1599386706.4926739,0.0,10,0.5,0.5,3.665874306869507,-0.1005,-0.02275,-0.12575,0.333700984883468,10,1,100,-0.023789322853726248,-10,-1,-100,19143.824289197917,0.0016080699749753,0.030407554632906505,0.9995362898525507,62.03150748351431,3.779264741163152,322.4409191473261,-92.00422406849084,-116.15585327148438,4761.76025390625,True
1599386706.5275812,0.0,10,0.5,0.5,2.273347832107544,-0.1005,-0.02275,-0.12575,0.3149228317201719,10,1,100,0.17291595824626102,-10,-1,-100,19140.133190481458,-0.00017048078015823414,0.03023493287894322,0.9995428053715906,61.10639248853117,3.7254067826285353,318.96426191154086,-92.36855246749818,-110.34571838378906,4761.76025390625,True
1599386706.5575318,0.0,10,0.5,0.5,1.5324994033813475,-0.1005,-0.02275,-0.12575,0.29526457873309453,10,1,100,0.18617550586354079,-10,-1,-100,19136.42751658638,-0.0018965905076111559,0.029897538279118903,0.9995511693501714,59.97164927936307,3.6585977466236708,314.3515230163287,-92.73294385638145,-104.24507141113281,4761.76025390625,True
1599386706.5924082,0.0,10,0.5,0.5,1.4923136486053468,-0.1005,-0.02275,-0.12575,0.30644824835502404,10,1,100,0.11647476540699964,-10,-1,-100,19134.569213039707,-0.0028207381598673704,0.029691719498969718,0.9995551236572338,59.27957897738404,3.6174483531974793,311.372662896462,-92.91516754967682,-101.08544921875,4761.76025390625,True
1599386706.6293411,0.0,10,0.5,0.5,-1.2245880313873292,-0.1005,-0.02275,-0.12575,0.1952295594672704,10,1,100,0.4095959629321863,-10,-1,-100,19127.09954785311,-0.006314499060364922,0.028493375585225862,0.9995740366022797,58.50422595971278,3.5730167081104085,309.8665991720097,-93.6442015440881,-87.72061157226562,4761.76025390625,True
1599386706.6642473,0.0,10,0.5,0.5,-1.2753342121124267,-0.1005,-0.02275,-0.12575,0.22700810748547515,10,1,100,0.24937306649926558,-10,-1,-100,19123.342847441207,-0.00801978591337135,0.027693800380008057,0.999584281816404,61.27817543530225,3.742960506816097,325.90441953213696,-94.00859615206956,-80.60220336914062,4761.76025390625,True
1599386706.6961634,0.0,10,0.5,0.5,-1.3067849895477295,-0.1005,-0.02275,-0.12575,0.2619372549298593,10,1,100,0.16406805671368485,-10,-1,-100,19121.459032503306,-0.008781278635289533,0.02728669589841442,0.9995890782578992,62.563199785122535,3.821543488324323,333.42552295629287,-94.19074255300623,-77.02197265625,4761.76025390625,True
1599386706.731037,0.0,10,0.5,0.5,-2.5632963573455814,-0.1005,-0.02275,-0.12575,0.20337476719388492,10,1,100,0.255626805871295,-10,-1,-100,19117.680476583657,-0.01029193678050021,0.02638682912255003,0.9995988251724606,64.79664228021528,3.957976711795689,346.7502367864996,-94.55493936347976,-70.02963256835938,4761.76025390625,True
1599386706.7669735,0.0,10,0.5,0.5,-1.807532361030579,-0.1005,-0.02275,-0.12575,0.2929592095044917,10,1,100,0.10600873491100034,-10,-1,-100,19117.680476583657,-0.01029193678050021,0.02638682912255003,0.9995988251724606,64.79664228021528,3.957976711795689,346.7502367864996,-94.55493936347976,-70.02963256835938,4761.76025390625,True
1599386706.8068318,0.0,10,0.5,0.5,-3.4494668815612797,-0.1005,-0.02275,-0.12575,0.1808921694207502,10,1,100,0.26590413115957534,-10,-1,-100,19113.88735580456,-0.011732369986752955,0.025371694533387217,0.9996092379580126,66.54587590992723,4.0648473443888005,357.5698769779407,-94.91902378097855,-63.31842041015625,4761.76025390625,True
1599386706.841739,0.0,10,0.5,0.5,-4.877846334838868,-0.1005,-0.02275,-0.12575,0.10757662021565476,10,1,100,0.33304007665667257,-10,-1,-100,19108.170374752954,-0.013640053824263854,0.0237869179687379,0.999623995042746,68.30762121097024,4.173086479485338,369.2808380893497,-95.46499134139604,-53.80633544921875,4761.76025390625,True
1599386706.882633,0.0,10,0.5,0.5,-4.507116216278077,-0.1005,-0.02275,-0.12575,0.20234649755585077,10,1,100,0.20865357500357773,-10,-1,-100,19106.257435554406,-0.014229663548973592,0.023213775100935002,0.9996292499326169,68.68350602302927,4.19650417563025,372.0651871215925,-95.64695073699363,-50.7850341796875,4761.76025390625,True
1599386706.9195678,0.0,10,0.5,0.5,-6.212823941421508,-0.1005,-0.02275,-0.12575,0.08385771702483796,10,1,100,0.3244387427509864,-10,-1,-100,19100.496784613817,-0.015805483748441783,0.02162194826881226,0.9996412746763403,69.25657621861491,4.233743971893763,377.44665908530453,-96.19278398262131,-42.1656494140625,4761.76025390625,True
1599386706.9564342,0.0,10,0.5,0.5,-6.485874084472656,-0.1005,-0.02275,-0.12575,0.11857960679749907,10,1,100,0.27029370143555154,-10,-1,-100,19096.638156898553,-0.016733175469417248,0.020498009773916054,0.9996498549162192,69.2336853148987,4.234504878544333,378.84180244497867,-96.55666347967333,-36.7923583984375,4761.76025390625,True
1599386706.9933667,0.0,10,0.5,0.5,-5.956449520874024,-0.1005,-0.02275,-0.12575,0.23005408531461422,10,1,100,0.17891577306896003,-10,-1,-100,19096.638156898553,-0.016733175469417248,0.020498009773916054,0.9996498549162192,69.2336853148987,4.234504878544333,378.84180244497867,-96.55666347967333,-36.7923583984375,4761.76025390625,True
1599386707.0293124,0.0,10,0.5,0.5,-8.302642755889893,-0.1005,-0.02275,-0.12575,0.009839062547940647,10,1,100,0.3534316658010177,-10,-1,-100,19088.877233153908,-0.018310212061154997,0.018503323535865666,0.9996611241577832,68.43142990541482,4.190876659857815,377.46499795630393,-97.28448154539807,-26.934539794921875,4761.76025390625,True
1599386707.0641859,0.0,10,0.5,0.5,-7.185116001129151,-0.1005,-0.02275,-0.12575,0.20838863866856513,10,1,100,0.19675704924202111,-10,-1,-100,19088.877233153908,-0.018310212061154997,0.018503323535865666,0.9996611241577832,68.43142990541482,4.190876659857815,377.46499795630393,-97.28448154539807,-26.934539794921875,4761.76025390625,True
1599386707.0980968,0.0,10,0.5,0.5,-8.795589073181153,-0.1005,-0.02275,-0.12575,0.055535641953991605,10,1,100,0.3021892785205782,-10,-1,-100,19083.01832585351,-0.019260024206027456,0.017121735722426406,0.99966789366941,67.34848183871958,4.129031261578334,373.7241133963409,-97.83044506018825,-20.320068359375,4761.76025390625,True
1599386707.1330419,0.0,10,0.5,0.5,-8.990836199188232,-0.1005,-0.02275,-0.12575,0.10137842729460318,10,1,100,0.26825590428355706,-10,-1,-100,19079.094187193783,-0.01980685176518811,0.016290922207305478,0.9996710931485353,66.54275256521566,4.0825299082611926,370.7276922370362,-98.19448003112164,-16.280609130859375,4761.76025390625,True
1599386707.1709435,0.0,10,0.5,0.5,-9.037042992401123,-0.1005,-0.02275,-0.12575,0.1422973002346336,10,1,100,0.24318009059621887,-10,-1,-100,19077.126656697714,-0.020067355862735916,0.015916805044755133,0.9996719244561417,66.1549272075363,4.060114676838809,369.30118231720564,-98.37651423736168,-14.3717041015625,4761.76025390625,True
1599386707.2078393,0.0,10,0.5,0.5,-9.323511876678467,-0.1005,-0.02275,-0.12575,0.14035763126099296,10,1,100,0.24551938371424875,-10,-1,-100,19075.155485369964,-0.0203178668107833,0.015567660533120479,0.9996723624437084,65.75053758019988,4.036609058600678,367.7741166077281,-98.55855978112236,-12.5367431640625,4761.76025390625,True
1599386707.2437491,0.0,10,0.5,0.5,-10.33166473312378,-0.1005,-0.02275,-0.12575,0.06937891414980175,10,1,100,0.29221450765221224,-10,-1,-100,19069.220124159823,-0.020964034423911024,0.014612467419201434,0.9996734392073223,64.66837931703593,3.973615623743472,363.8799091184271,-99.10475484362524,-7.475921630859375,4761.76025390625,True
1599386707.2746663,0.0,10,0.5,0.5,-10.473518205261232,-0.1005,-0.02275,-0.12575,0.10617468344566515,10,1,100,0.26927824607720063,-10,-1,-100,19065.245008733007,-0.021336825902549816,0.01408643640712991,0.9996731026539387,63.94898652438661,3.9312660777016815,361.2578074842914,-99.46892903327107,-4.47161865234375,4761.76025390625,True
1599386707.3095386,0.0,10,0.5,0.5,-10.7943818359375,-0.1005,-0.02275,-0.12575,0.11103107040001514,10,1,100,0.2707142554516325,-10,-1,-100,19061.255325290724,-0.021683753384576183,0.013659225833796872,0.9996715662600284,63.23609152708977,3.8889147146023766,358.6421377181854,-99.83313544546866,-1.762664794921875,4761.76025390625,True
1599386707.3464503,0.0,10,0.5,0.5,-10.814799784088136,-0.1005,-0.02275,-0.12575,0.1330548582943101,10,1,100,0.25379809542957005,-10,-1,-100,19059.25502016174,-0.021840858206294896,0.013477285915205991,0.9996706155915418,62.88916820732091,3.8681762085179354,357.3770094064326,-100.01524960194692,-0.519012451171875,4761.76025390625,True
1599386707.377392,0.0,10,0.5,0.5,-11.00559956970215,-0.1005,-0.02275,-0.12575,0.1330346768769708,10,1,100,0.254934880251068,-10,-1,-100,19057.25107266137,-0.02198937183101927,0.013318084998019114,0.9996694934519421,62.583805244124335,3.8498984093735302,356.3410685202399,-100.19736968510887,0.650787353515625,4761.76025390625,True
1599386707.4103138,0.0,10,0.5,0.5,-11.615090419006348,-0.1005,-0.02275,-0.12575,0.11193349927931917,10,1,100,0.2849017776409215,-10,-1,-100,19051.217378758593,-0.022393465866340223,0.012986241857450436,0.9996648889547501,64.21641019372998,3.951397005432245,367.7911184824159,-100.7436389287455,3.71746826171875,4761.76025390625,True
1599386707.4455945,0.0,10,0.5,0.5,-11.67829269332886,-0.1005,-0.02275,-0.12575,0.13345966394104206,10,1,100,0.27085253812276455,-10,-1,-100,19047.176709496183,-0.022629391672098584,0.012885274209929496,0.9996608826702612,65.12672848936168,4.007802767714904,374.46253781940123,-101.10774897477174,5.39306640625,4761.76025390625,True
1599386707.478511,0.0,10,0.5,0.5,-11.690620275115966,-0.1005,-0.02275,-0.12575,0.14231651853015312,10,1,100,0.26024590739061965,-10,-1,-100,19045.15091359953,-0.022744382700253894,0.012877853628004648,0.9996583686147582,65.53249681446374,4.032892557711963,377.52930333862406,-101.28978524308171,6.12030029296875,4761.76025390625,True
1599386707.5119739,0.0,10,0.5,0.5,-11.650132682800294,-0.1005,-0.02275,-0.12575,0.14271726986470784,10,1,100,0.24904055766859523,-10,-1,-100,19045.15091359953,-0.022744382700253894,0.012877853628004648,0.9996583686147582,65.53249681446374,4.032892557711963,377.52930333862406,-101.28978524308171,6.12030029296875,4761.76025390625,True
1599386707.5468502,0.0,10,0.5,0.5,-11.975794580078126,-0.1005,-0.02275,-0.12575,0.1484258515871288,10,1,100,0.27202730698830113,-10,-1,-100,19041.088400637032,-0.022950919487853477,0.012932512508587339,0.9996529424829785,66.25291229813817,4.077344516244244,383.1637271281216,-101.65382357854523,7.3536376953125,4761.76025390625,True
1599386707.8650186,0.0,10,0.5,0.5,-12.078297149658205,-0.1005,-0.02275,-0.12575,0.15931051934103926,10,1,100,0.2713563090175878,-10,-1,-100,19037.011327496613,-0.023130186538049276,0.01308354951417491,0.9996468452422711,66.85924039546234,4.11464977329574,388.16891289071134,-102.01782061963912,8.29217529296875,4761.76025390625,True
1599386707.8989458,0.0,10,0.5,0.5,-12.189677558135987,-0.1005,-0.02275,-0.12575,0.19001144953916813,10,1,100,0.27895057432070647,-10,-1,-100,19030.868420383194,-0.023360226129970046,0.013501345173696626,0.9996359404871643,67.56907991354751,4.158168505852725,394.5635341469478,-102.56375075787477,9.147552490234375,4761.76025390625,True
1599386707.9338431,0.0,10,0.5,0.5,-12.158861192321778,-0.1005,-0.02275,-0.12575,0.19326514219648866,10,1,100,0.26921976362441674,-10,-1,-100,19026.754952579853,-0.023479051661543186,0.01391127033490422,0.999627535980649,67.91735750695481,4.179440681870802,398.1220051634993,-102.92766842934535,9.349822998046875,4761.76025390625,True
1599386707.9687154,0.0,10,0.5,0.5,-12.137896115112305,-0.1005,-0.02275,-0.12575,0.20932554665595904,10,1,100,0.26638620628913906,-10,-1,-100,19022.626928766374,-0.023559683170582636,0.014429704117905303,0.9996182896325835,68.16951586752242,4.194794828517984,401.13166146371765,-103.29156352668636,9.257843017578125,4761.76025390625,True
1599386708.056486,0.0,10,0.5,0.5,-12.084334109497071,-0.1005,-0.02275,-0.12575,0.2258956942945161,10,1,100,0.2636683067193868,-10,-1,-100,19018.484349492122,-0.02360671379638049,0.015050779428072534,0.9996080217276887,68.32599353847519,4.204289663109303,403.58873494312456,-103.65544137040258,8.871673583984375,4761.76025390625,True
1599386708.08943,0.0,10,0.5,0.5,-11.99771456604004,-0.1005,-0.02275,-0.12575,0.24416941596819028,10,1,100,0.25916115916107774,-10,-1,-100,19014.327215732657,-0.023607024531152675,0.015779942912139733,0.9995967695998599,68.38543238357143,4.207873886072525,405.47882851562423,-104.01930744418924,8.1915283203125,4761.76025390625,True
1599386708.1262963,0.0,10,0.5,0.5,-11.873040231323243,-0.1005,-0.02275,-0.12575,0.26337481382258854,10,1,100,0.2539111541012754,-10,-1,-100,19010.15552754479,-0.0235584764634339,0.016614873604463818,0.9995843857132971,68.34455347919548,4.2053798648991805,406.77597484263663,-104.38316716928951,7.21746826171875,4761.76025390625,True
1599386708.1592052,0.0,10,0.5,0.5,-11.999678797912598,-0.1005,-0.02275,-0.12575,0.18025470452963355,10,1,100,0.25885886935228636,-10,-1,-100,19010.15552754479,-0.0235584764634339,0.016614873604463818,0.9995843857132971,68.34455347919548,4.2053798648991805,406.77597484263663,-104.38316716928951,7.21746826171875,4761.76025390625,True
1599386708.2130291,0.0,10,0.5,0.5,-11.715323162841798,-0.1005,-0.02275,-0.12575,0.2838362540984015,10,1,100,0.2465656122408453,-10,-1,-100,19005.969284927705,-0.023445979495363364,0.01755312676420129,0.9995709948704508,68.19805056460169,4.196518212309746,407.4417688601177,-104.74702616487608,5.949615478515625,4761.76025390625,True
1599386708.2509284,0.0,10,0.5,0.5,-11.706026239776612,-0.1005,-0.02275,-0.12575,0.24623422660007815,10,1,100,0.2487623069984501,-10,-1,-100,19003.87070569594,-0.02336304166146373,0.018059997320217694,0.9995639073021387,68.08295940527091,4.189574857572854,407.52233679781017,-104.92895727334911,5.20556640625,4761.76025390625,True
1599386708.287865,0.0,10,0.5,0.5,-11.408190830230716,-0.1005,-0.02275,-0.12575,0.3157600304641517,10,1,100,0.2375630940231524,-10,-1,-100,18999.662631310057,-0.023185457947076254,0.019148180147349973,0.9995477886208487,67.76418222259997,4.170387947909679,407.1445616648241,-105.29282611888391,3.497222900390625,4761.76025390625,True
1599386708.3247304,0.0,10,0.5,0.5,-11.159171519470215,-0.1005,-0.02275,-0.12575,0.3376010197898931,10,1,100,0.22284059346235424,-10,-1,-100,18995.440001733135,-0.02289012704579945,0.02033047841076499,0.9995312470010213,67.32130181122457,4.143805024005383,406.0054895260894,-105.65670905584007,1.49530029296875,4761.76025390625,True
1599386708.361657,0.0,10,0.5,0.5,-10.874181674957276,-0.1005,-0.02275,-0.12575,0.3603119783661214,10,1,100,0.21441060866433598,-10,-1,-100,18991.202816142235,-0.022545435545642346,0.021605549970710656,0.9995123328636423,66.7415895966372,4.109091275487347,404.0195364498628,-106.02061210087558,-0.800048828125,4761.76025390625,True
1599386708.3975685,0.0,10,0.5,0.5,-9.90187381286621,-0.1005,-0.02275,-0.12575,0.5395887786463949,10,1,100,0.1349399411680028,-10,-1,-100,18982.684773398098,-0.021510467764729133,0.02438750022808574,0.9994711349554661,65.90395099720305,4.060584422931062,401.93493563163804,-106.74848359098229,-6.271240234375,4761.76025390625,True
1599386708.433461,0.0,10,0.5,0.5,-10.203593450164796,-0.1005,-0.02275,-0.12575,0.34348392746729906,10,1,100,0.2016637284258447,-10,-1,-100,18980.546164586907,-0.021178030771157368,0.025124722000334783,0.9994599738644174,66.40055690263762,4.092233898585504,405.71627276647916,-106.93043296956682,-7.822418212890625,4761.76025390625,True
1599386708.4713736,0.0,10,0.5,0.5,-9.608895046234132,-0.1005,-0.02275,-0.12575,0.4349589428020321,10,1,100,0.147117269485808,-10,-1,-100,18976.25803147105,-0.020382146316660178,0.0266173565303567,0.9994378842343642,67.40532087560167,4.156640290320713,413.38381290759645,-107.29428153372426,-11.14520263671875,4761.76025390625,True
1599386708.5122638,0.0,10,0.5,0.5,-9.982744124603272,-0.1005,-0.02275,-0.12575,0.28677923116166193,10,1,100,0.22638322711407774,-10,-1,-100,18976.25803147105,-0.020382146316660178,0.0266173565303567,0.9994378842343642,67.40532087560167,4.156640290320713,413.38381290759645,-107.29428153372426,-11.14520263671875,4761.76025390625,True
1599386708.552129,0.0,10,0.5,0.5,-8.238225136566163,-0.1005,-0.02275,-0.12575,0.6293384029436373,10,1,100,0.00952769007774501,-10,-1,-100,18967.638112522778,-0.01841361991646331,0.029722437652987484,0.9993885707278909,69.37109697251007,4.284300235402505,428.5844236231684,-108.02176631322831,-18.671142578125,4761.76025390625,True
1599386708.587517,0.0,10,0.5,0.5,-8.174820604705811,-0.1005,-0.02275,-0.12575,0.49764439356671347,10,1,100,0.07614618798058054,-10,-1,-100,18963.306332595414,-0.01723435031226191,0.03133610443918114,0.9993603082611852,70.41825998451364,4.352787015122301,436.648577950725,-108.38539429652722,-22.873992919921875,4761.76025390625,True
1599386708.6254497,0.0,10,0.5,0.5,-8.137130249786377,-0.1005,-0.02275,-0.12575,0.41751528008659566,10,1,100,0.1162784081055056,-10,-1,-100,18961.134988863603,-0.01653277233610823,0.03206209777892432,0.9993491328484241,70.92782445704215,4.386300115376162,440.61074975449486,-108.56717788800432,-25.086700439453125,4761.76025390625,True
1599386708.659358,0.0,10,0.5,0.5,-7.829232669067384,-0.1005,-0.02275,-0.12575,0.4261211608874214,10,1,100,0.10539357273391282,-10,-1,-100,18958.960009898874,-0.01580223046288618,0.03278759782191771,0.9993374119592772,71.42472411132842,4.419100046865885,444.5051548668928,-108.74894125143842,-27.372802734375,4761.76025390625,True
1599386708.690311,0.0,10,0.5,0.5,-6.395286571502686,-0.1005,-0.02275,-0.12575,0.5966580987724132,10,1,100,-0.08214315709768877,-10,-1,-100,18952.413265631883,-0.013439934150109932,0.03498507964388929,0.9992974594045315,72.9316691733631,4.518726838602173,456.3541461258377,-109.2941060190879,-34.6708984375,4761.76025390625,True
1599386708.724143,0.0,10,0.5,0.5,-7.230744004058838,-0.1005,-0.02275,-0.12575,0.3783753766985674,10,1,100,0.1531414548903672,-10,-1,-100,18952.413265631883,-0.013439934150109932,0.03498507964388929,0.9992974594045315,72.9316691733631,4.518726838602173,456.3541461258377,-109.2941060190879,-34.6708984375,4761.76025390625,True
1599386708.7590547,0.0,10,0.5,0.5,-5.9696176155090335,-0.1005,-0.02275,-0.12575,0.5292758890559913,10,1,100,-0.04370066306436676,-10,-1,-100,18948.03060050879,-0.011658738079062834,0.03634473927470844,0.9992713013758863,73.72784385399102,4.572181620603165,462.9982916131254,-109.65745527073489,-39.90435791015625,4761.76025390625,True
1599386708.793348,0.0,10,0.5,0.5,-4.649848107147217,-0.1005,-0.02275,-0.12575,0.5877434697981733,10,1,100,-0.18955292420425202,-10,-1,-100,18941.429355893866,-0.008722495394735304,0.038101446728521476,0.9992358069201095,74.49852866024858,4.625524486431216,470.35401486836554,-110.20237166843516,-48.30816650390625,4761.76025390625,True
1599386708.8272643,0.0,10,0.5,0.5,-5.614521960449219,-0.1005,-0.02275,-0.12575,0.413370396889688,10,1,100,0.10282579069085884,-10,-1,-100,18941.429355893866,-0.008722495394735304,0.038101446728521476,0.9992358069201095,74.49852866024858,4.625524486431216,470.35401486836554,-110.20237166843516,-48.30816650390625,4761.76025390625,True
1599386708.8601696,0.0,10,0.5,0.5,-3.478453237915039,-0.1005,-0.02275,-0.12575,0.5717064329567317,10,1,100,-0.24826849785370086,-10,-1,-100,18934.795419450966,-0.005541328817895602,0.03953042515622354,0.9992030019780265,74.61879508145189,4.637320441334107,473.6314629621032,-110.74721655876459,-57.37567138671875,4761.76025390625,True
1599386708.8910944,0.0,10,0.5,0.5,-3.79621926727295,-0.1005,-0.02275,-0.12575,0.4710869954501722,10,1,100,-0.05152411712625627,-10,-1,-100,18932.57684296684,-0.004451436134198791,0.03990303514168773,0.99919364114411,74.48803860045682,4.630329968640284,473.63962113745947,-110.9288293875936,-60.546051025390625,4761.76025390625,True
1599386708.927035,0.0,10,0.5,0.5,-3.365870125579834,-0.1005,-0.02275,-0.12575,0.47838320435731285,10,1,100,-0.07038888206667893,-10,-1,-100,18930.354633872746,-0.0033018196348180893,0.04029884557536672,0.9991822161309677,74.26302145371135,4.617327415869695,473.0447678251863,-111.1104466325331,-63.7891845703125,4761.76025390625,True
1599386708.9609358,0.0,10,0.5,0.5,-2.162621537780762,-0.1005,-0.02275,-0.12575,0.4998364990225739,10,1,100,-0.2071429014485038,-10,-1,-100,18925.89931801462,-0.0010261613052530826,0.04084555524736255,0.9991649451464508,73.50512798105035,4.5717745296569,469.87356484523116,-111.47370882823469,-70.49853515625,4761.76025390625,True
1599386708.990866,0.0,10,0.5,0.5,-0.5008717781066894,-0.1005,-0.02275,-0.12575,0.49911470842980377,10,1,100,-0.36446870170576035,-10,-1,-100,18919.189095436246,0.0024587566230257507,0.04132801734608955,0.9991426071878379,71.53584538619812,4.451025346459821,459.70892302761035,-112.01872433625617,-81.11572265625,4761.76025390625,True
1599386709.0247712,0.0,10,0.5,0.5,-1.7137179634094237,-0.1005,-0.02275,-0.12575,0.4517225405095215,10,1,100,-0.017803007586468193,-10,-1,-100,18919.189095436246,0.0024587566230257507,0.04132801734608955,0.9991426071878379,71.53584538619812,4.451025346459821,459.70892302761035,-112.01872433625617,-81.11572265625,4761.76025390625,True
1599386709.0586734,0.0,10,0.5,0.5,1.811632875442505,-0.1005,-0.02275,-0.12575,0.4435878825538042,10,1,100,-0.5047284392489306,-10,-1,-100,18910.19124745333,0.0068708981010725595,0.04124829960312648,0.9991253017210281,67.22716168417324,4.1855523834194965,435.06775456755815,-112.74577660391128,-96.2303695678711,4761.76025390625,True
1599386709.0892868,0.0,10,0.5,0.5,0.9370762258529663,-0.1005,-0.02275,-0.12575,0.4371535315715934,10,1,100,-0.18826223578351797,-10,-1,-100,18907.932694930583,0.007986505929383013,0.04111164099154065,0.99912263946826,65.8590390312367,4.1013392611676185,426.96133004310104,-112.92762178799586,-100.14666748046875,4761.76025390625,True
1599386709.1232026,0.0,10,0.5,0.5,0.581653017616272,-0.1005,-0.02275,-0.12575,0.4512960829018595,10,1,100,-0.07866597735331722,-10,-1,-100,18907.932694930583,0.007986505929383013,0.04111164099154065,0.99912263946826,65.8590390312367,4.1013392611676185,426.96133004310104,-112.92762178799586,-100.14666748046875,4761.76025390625,True
1599386709.1560838,0.0,10,0.5,0.5,3.3857537153244017,-0.1005,-0.02275,-0.12575,0.3800315337471747,10,1,100,-0.40724747466369193,-10,-1,-100,18901.135212826426,0.010958420449182675,0.04046104491353168,0.9991210221318358,65.62856438371085,4.091023856308094,427.7007446714821,-113.47320875409069,-112.01923370361328,4761.76025390625,True
1599386709.1880064,0.0,10,0.5,0.5,3.772421326828003,-0.1005,-0.02275,-0.12575,0.37466768754444496,10,1,100,-0.3158325278922379,-10,-1,-100,18896.585377108422,0.012811224209401952,0.03981868660605779,0.999124789368788,67.63404514137946,4.219462946184786,442.3019138843786,-113.83676939780253,-119.68641662597656,4761.76025390625,True
1599386709.2209425,0.0,10,0.5,0.5,2.950030019760132,-0.1005,-0.02275,-0.12575,0.4389323444368173,10,1,100,-0.13238740717304,-10,-1,-100,18896.585377108422,0.012811224209401952,0.03981868660605779,0.999124789368788,67.63404514137946,4.219462946184786,442.3019138843786,-113.83676939780253,-119.68641662597656,4761.76025390625,True
1599386709.2508361,0.0,10,0.5,0.5,4.772625270080567,-0.1005,-0.02275,-0.12575,0.35974672499625826,10,1,100,-0.3141688440729653,-10,-1,-100,18892.021002647234,0.014448089399088909,0.039098894018903284,0.9991308869208352,69.15533958315406,4.317936184689395,453.81339669575965,-114.20020661417055,-127.14741516113281,4761.76025390625,True
1599386709.2827864,0.0,10,0.5,0.5,4.799619240951539,-0.1005,-0.02275,-0.12575,0.389468347491139,10,1,100,-0.23559842377908105,-10,-1,-100,18889.73336489394,0.015205735833374551,0.0387158245546767,0.9991345607708788,69.85102149982353,4.363089637084629,459.16680292427696,-114.38188518706566,-130.77647399902344,4761.76025390625,True
1599386709.3166652,0.0,10,0.5,0.5,6.073278739166261,-0.1005,-0.02275,-0.12575,0.33234869286043955,10,1,100,-0.31600722195331454,-10,-1,-100,18885.14719037828,0.01661073812327396,0.03785024611845771,0.9991453559156307,70.87446008216209,4.43017119160195,467.49235658645307,-114.74518000932743,-137.81683349609375,4761.76025390625,True
1599386709.345621,0.0,10,0.5,0.5,6.842589428710938,-0.1005,-0.02275,-0.12575,0.3256065635227684,10,1,100,-0.30802887162581594,-10,-1,-100,18880.546485631494,0.01780261703702321,0.03700522615630492,0.9991564842724855,71.42176344912967,4.467006755241982,472.7118685842501,-115.10842033519401,-144.55999755859375,4761.76025390625,True
1599386709.3784974,0.0,10,0.5,0.5,7.597427912139894,-0.1005,-0.02275,-0.12575,0.31055235030765205,10,1,100,-0.30216498644939577,-10,-1,-100,18875.931251930655,0.01881888631117871,0.03610409951711022,0.999170827994926,71.5503600264811,4.47709882941955,475.17594387169135,-115.47163823248226,-151.00621032714844,4761.76025390625,True
1599386709.4084542,0.0,10,0.5,0.5,7.615269565773011,-0.1005,-0.02275,-0.12575,0.35367057197105856,10,1,100,-0.2500935819187117,-10,-1,-100,18873.6181870593,0.01925852925721376,0.035681553860315116,0.9991776297360557,71.47567705454553,4.473251986584312,475.486212647163,-115.65324758979082,-154.11709594726562,4761.76025390625,True
1599386709.44236,0.0,10,0.5,0.5,9.357136763191223,-0.1005,-0.02275,-0.12575,0.2597272394726847,10,1,100,-0.32424862544156074,-10,-1,-100,18866.65719769057,0.020322094128064405,0.03444832759245364,0.99919984248214,70.78674834501687,4.432007768682072,473.30240786136113,-116.1981106990411,-163.00230407714844,4761.76025390625,True
1599386709.474273,0.0,10,0.5,0.5,8.382818414115906,-0.1005,-0.02275,-0.12575,0.3823835349189233,10,1,100,-0.21912569717636446,-10,-1,-100,18866.65719769057,0.020322094128064405,0.03444832759245364,0.99919984248214,70.78674834501687,4.432007768682072,473.30240786136113,-116.1981106990411,-163.00230407714844,4761.76025390625,True
1599386709.5041926,0.0,10,0.5,0.5,10.35703699684143,-0.1005,-0.02275,-0.12575,0.25917516391310436,10,1,100,-0.2963926255001798,-10,-1,-100,18859.663512774976,0.021016008318572834,0.03333371759905627,0.999223293696349,69.55327239796651,4.356193583221057,467.41920701088554,-116.74306996605011,-171.21548461914062,4761.76025390625,True
1599386709.53807,0.0,10,0.5,0.5,9.44145817337036,-0.1005,-0.02275,-0.12575,0.3699876663521416,10,1,100,-0.227821684860254,-10,-1,-100,18859.663512774976,0.021016008318572834,0.03333371759905627,0.999223293696349,69.55327239796651,4.356193583221057,467.41920701088554,-116.74306996605011,-171.21548461914062,4761.76025390625,True
1599386709.5710154,0.0,10,0.5,0.5,11.264703496170045,-0.1005,-0.02275,-0.12575,0.26726060959069053,10,1,100,-0.2692584797059757,-10,-1,-100,18852.637125251116,0.02138524755888924,0.03240573069123126,0.9992459856337739,67.95844315900518,4.257813521596993,459.0180318469532,-117.28815975359868,-178.75588989257812,4761.76025390625,True
1599386709.6059213,0.0,10,0.5,0.5,10.433906813049315,-0.1005,-0.02275,-0.12575,0.35938998404042416,10,1,100,-0.2330282714903152,-10,-1,-100,18852.637125251116,0.02138524755888924,0.03240573069123126,0.9992459856337739,67.95844315900518,4.257813521596993,459.0180318469532,-117.28815975359868,-178.75588989257812,4761.76025390625,True
1599386709.6398323,0.0,10,0.5,0.5,-69.854164270401,-0.1005,-0.02275,-0.12575,0.30376192010692177,10,1,100,-0.24208115960081122,-10,-1,-100,18847.934694635565,0.021461928803779645,0.03190575746807528,0.9992604306447893,66.77545901761923,4.184962997256576,452.5481461961735,-117.65163293957909,176.59095764160156,4761.76025390625,True
1599386709.6707473,0.0,10,0.5,0.5,-24.432279183959963,-0.1005,-0.02275,-0.12575,0.29283426923455025,10,1,100,-0.2247570644092422,-10,-1,-100,18840.85378374427,0.021369737078592563,0.03135729815604863,0.999279767727509,64.92716805003788,4.071587027983055,442.2424876743274,-118.19696353822482,170.17196655273438,4761.76025390625,True
1599386709.7056553,0.0,10,0.5,0.5,-25.051790953826906,-0.1005,-0.02275,-0.12575,0.32202230505313967,10,1,100,-0.2111215426810612,-10,-1,-100,18836.11499728833,0.021158724294492143,0.031129179041648178,0.9992913902353121,65.1572634008695,4.088125221905267,445.29647137748447,-118.56054674851279,166.17774963378906,4761.76025390625,True
1599386709.740528,0.0,10,0.5,0.5,-25.33214682235718,-0.1005,-0.02275,-0.12575,0.33127671174342976,10,1,100,-0.19930835277622025,-10,-1,-100,18831.36167025182,0.02085737472982656,0.031010451653446278,0.9993014168946368,66.4115652722634,4.1693116973126045,455.384332310383,-118.92404510340575,162.00753784179688,4761.76025390625,True
1599386709.770481,0.0,10,0.5,0.5,-26.081164756774903,-0.1005,-0.02275,-0.12575,0.34114713136324615,10,1,100,-0.20808535807849177,-10,-1,-100,18828.97955490311,0.020661758041539757,0.0309964952081764,0.9993059136417848,67.02192358469466,4.208997060466827,460.3344173060007,-119.10576259094691,159.82159423828125,4761.76025390625,True
1599386709.8043807,0.0,10,0.5,0.5,-27.090471533584598,-0.1005,-0.02275,-0.12575,0.3421975926518063,10,1,100,-0.22768099329851949,-10,-1,-100,18828.97955490311,0.020661758041539757,0.0309964952081764,0.9993059136417848,67.02192358469466,4.208997060466827,460.3344173060007,-119.10576259094691,159.82159423828125,4761.76025390625,True
1599386709.8382633,0.0,10,0.5,0.5,-26.787165284729003,-0.1005,-0.02275,-0.12575,0.3488524848899565,10,1,100,-0.17751077624058845,-10,-1,-100,18824.204423105228,0.020205356373819042,0.03106013225796347,0.9993132700799707,68.29022225950554,4.291617555776611,470.60407987783793,-119.46913205062305,155.2349395751953,4761.76025390625,True
1599386709.8681867,0.0,10,0.5,0.5,-26.427008685684207,-0.1005,-0.02275,-0.12575,0.38043293549601404,10,1,100,-0.13085402956608974,-10,-1,-100,18817.014478591853,0.01936703048061818,0.03140714602268051,0.9993190227895559,70.18020422014627,4.415266410702203,486.029651118886,-120.01401468514328,147.811279296875,4761.76025390625,True
1599386709.9011319,0.0,10,0.5,0.5,-28.08631985359192,-0.1005,-0.02275,-0.12575,0.34553890186667285,10,1,100,-0.2145217211023804,-10,-1,-100,18817.014478591853,0.01936703048061818,0.03140714602268051,0.9993190227895559,70.18020422014627,4.415266410702203,486.029651118886,-120.01401468514328,147.811279296875,4761.76025390625,True
1599386709.9320168,0.0,10,0.5,0.5,-27.627341561508178,-0.1005,-0.02275,-0.12575,0.3892940324273285,10,1,100,-0.14249979590784034,-10,-1,-100,18812.203023582348,0.01871412044892079,0.03180582774111242,0.999318853528505,71.46573913345031,4.499481932817695,496.56171122666257,-120.37715515604879,142.49893188476562,4761.76025390625,True
1599386709.9659252,0.0,10,0.5,0.5,-27.100199035263064,-0.1005,-0.02275,-0.12575,0.4446533540534453,10,1,100,-0.08495184802438724,-10,-1,-100,18804.95861091395,0.017599831009446287,0.032672077593515335,0.9993111533922566,73.11078218960462,4.607879695621127,510.4906286054431,-120.92170857141433,133.98611450195312,4761.76025390625,True
1599386709.9998684,0.0,10,0.5,0.5,-28.073759803009036,-0.1005,-0.02275,-0.12575,0.3581050008256982,10,1,100,-0.1959945821924042,-10,-1,-100,18804.95861091395,0.017599831009446287,0.032672077593515335,0.9993111533922566,73.11078218960462,4.607879695621127,510.4906286054431,-120.92170857141433,133.98611450195312,4761.76025390625,True
1599386710.0297868,0.0,10,0.5,0.5,-26.62540980606079,-0.1005,-0.02275,-0.12575,0.4423489457332363,10,1,100,-0.10526609149822205,-10,-1,-100,18800.110853780643,0.016778453735925673,0.03343673638409526,0.9992999890674531,73.95737588349775,4.664105828457623,518.0869702090457,-121.28465887992168,127.94842529296875,4761.76025390625,True
1599386710.0617008,0.0,10,0.5,0.5,-25.12581767463684,-0.1005,-0.02275,-0.12575,0.5255110242946948,10,1,100,-0.04200424901293237,-10,-1,-100,18792.811999830185,0.015460621528821179,0.03488580185577895,0.9992717098021047,74.74282349619487,4.717193538421212,526.1458594665345,-121.8290020363321,118.34904479980469,4761.76025390625,True
1599386710.1115704,0.0,10,0.5,0.5,-26.233616699981688,-0.1005,-0.02275,-0.12575,0.3809920121465589,10,1,100,-0.1732477944032813,-10,-1,-100,18792.811999830185,0.015460621528821179,0.03488580185577895,0.9992717098021047,74.74282349619487,4.717193538421212,526.1458594665345,-121.8290020363321,118.34904479980469,4761.76025390625,True
1599386710.147472,0.0,10,0.5,0.5,-23.014647681045535,-0.1005,-0.02275,-0.12575,0.662899961355727,10,1,100,0.03671709939646095,-10,-1,-100,18783.029391525663,0.013556578072925993,0.03744506566072811,0.9992067284844593,74.64042162733709,4.71405551352669,528.8398207759776,-122.5547637170033,104.53857421875,4761.76025390625,True
1599386710.1763606,0.0,10,0.5,0.5,-24.625545486068727,-0.1005,-0.02275,-0.12575,0.407618437906066,10,1,100,-0.1529767281961962,-10,-1,-100,18783.029391525663,0.013556578072925993,0.03744506566072811,0.9992067284844593,74.64042162733709,4.71405551352669,528.8398207759776,-122.5547637170033,104.53857421875,4761.76025390625,True
1599386710.2102976,0.0,10,0.5,0.5,-23.688159691619877,-0.1005,-0.02275,-0.12575,0.4888100750812119,10,1,100,-0.10316043123149315,-10,-1,-100,18780.57466719742,0.01310974698988405,0.03817736696831783,0.9991849794633763,74.37413558894556,4.697918545727931,527.8066698404904,-122.73622109690902,100.90519714355469,4761.76025390625,True
1599386710.241187,0.0,10,0.5,0.5,-22.34553042793274,-0.1005,-0.02275,-0.12575,0.5991583279995872,10,1,100,-0.04228578688384936,-10,-1,-100,18775.65432933101,0.012155819496222553,0.03984010661907041,0.9991321243744276,73.50913630320682,4.644657331369432,523.3593352511701,-123.09918064751253,93.42314147949219,4761.76025390625,True
1599386710.2740526,0.0,10,0.5,0.5,-22.291705602264408,-0.1005,-0.02275,-0.12575,0.529758682747615,10,1,100,-0.08885030290873161,-10,-1,-100,18773.18871572544,0.011718482112196844,0.04071311592601266,0.9991021566229257,72.90401086868859,4.607198401870727,519.8917330408306,-123.28068953929129,89.57359313964844,4761.76025390625,True
1599386710.3079515,0.0,10,0.5,0.5,-19.008981414413455,-0.1005,-0.02275,-0.12575,0.888513076407283,10,1,100,0.049186971672991825,-10,-1,-100,18763.289948011632,0.010072378029009373,0.044760066794516315,0.9989469873929202,69.23480394352917,4.379791681898898,496.92938070407416,-124.00699064120005,73.4569091796875,4761.76025390625,True
