Timestamp,Input Throttle,horizon,dT,dt,Input Roll,Roll P,Roll I,Roll D,Input Pitch,Pitch P,Pitch I,Pitch D,Input Yaw,Yaw P,Yaw I,Yaw D,Altitude,Direction X,Direction Y,Direction Z,Drag X,Drag Y,Drag Z,Vertical Velocity,Roll,Mass,Has Fuel
1599386870.7832618,0.0,10,0.5,0.5,-5.635505485534669,-0.1005,-0.03,-0.12575,-0.0001255431561075326,10,1,100,0.4980945207199562,-10,-1,-100,19351.094167380827,-0.04884414920650926,-0.00017424605860254109,0.9988063970192638,60.98682018030191,3.680699339011218,232.75518243957274,-68.48187412640144,-33.922607421875,4761.76025390625,True
1599386870.8161752,0.0,10,0.5,0.5,-5.803195388793946,-0.1005,-0.03,-0.12575,0.0011267853647056682,10,1,100,0.5107219376502352,-10,-1,-100,19346.963359815883,-0.04900229493982282,-0.00014800359899716533,0.9987986549778516,61.25663922015314,3.699006794538715,235.72468032880533,-69.02924403376915,-33.92620849609375,4761.76025390625,True
1599386870.8500848,0.0,10,0.5,0.5,-5.937747055053712,-0.1005,-0.03,-0.12575,0.021760534522803483,10,1,100,0.49814187151372125,-10,-1,-100,19344.19124297879,-0.048987152009830635,6.356726898951749e-05,0.9987994067364918,61.4406220841546,3.7114765366669817,237.7305961108719,-69.39414006047126,-34.0770263671875,4761.76025390625,True
1599386870.8850374,0.0,10,0.5,0.5,-6.124481323242188,-0.1005,-0.03,-0.12575,0.000609804451034156,10,1,100,0.5045548797139227,-10,-1,-100,19344.19124297879,-0.048987152009830635,6.356726898951749e-05,0.9987994067364918,61.4406220841546,3.7114765366669817,237.7305961108719,-69.39414006047126,-34.0770263671875,4761.76025390625,True
1599386870.916163,0.0,10,0.5,0.5,-6.252548782348634,-0.1005,-0.03,-0.12575,0.013260307672899185,10,1,100,0.5081519750942768,-10,-1,-100,19342.79971117573,-0.04897531910237037,0.00017851405530739092,0.9987999730934883,61.53741197022782,3.7180022552500307,238.7553398274342,-69.57658256231815,-34.25250244140625,4761.76025390625,True
1599386870.9500704,0.0,10,0.5,0.5,-6.313562980651856,-0.1005,-0.03,-0.12575,0.03640709398885926,10,1,100,0.5052339727987285,-10,-1,-100,19340.00570138241,-0.04889351160280845,0.0004932741784184516,0.9988038752446503,61.74118401332024,3.7316595768136054,240.8511964502168,-69.94145566503161,-34.819549560546875,4761.76025390625,True
1599386870.9830742,0.0,10,0.5,0.5,-6.233979499816895,-0.1005,-0.03,-0.12575,0.08777992436770123,10,1,100,0.4848201639740535,-10,-1,-100,19335.787322429358,-0.048589112421525284,0.0012459970445285078,0.9988180743486039,62.06431017717402,3.7531335294705634,244.08091555468707,-70.48873292734218,-36.2181396484375,4761.76025390625,True
1599386871.0159926,0.0,10,0.5,0.5,-6.27726887512207,-0.1005,-0.03,-0.12575,0.08748206968873197,10,1,100,0.48252209877673313,-10,-1,-100,19332.956827994552,-0.048247322470909015,0.0019264500647792671,0.9988335620435148,62.28096141735049,3.7674417777076656,246.2509835434321,-70.8535615290824,-37.51727294921875,4761.76025390625,True
1599386871.0499017,0.0,10,0.5,0.5,-6.237683555603027,-0.1005,-0.03,-0.12575,0.10748105782914097,10,1,100,0.4699640110928639,-10,-1,-100,19330.11174064828,-0.047778578698249134,0.0027251013844066035,0.9988542342304106,62.486118462219125,3.7809558637165543,248.38501335674232,-71.21837131689917,-39.110198974609375,4761.76025390625,True
1599386871.0778217,0.0,10,0.5,0.5,-6.59066340637207,-0.1005,-0.03,-0.12575,0.027888436004847993,10,1,100,0.521616246228677,-10,-1,-100,19330.11174064828,-0.047778578698249134,0.0027251013844066035,0.9988542342304106,62.486118462219125,3.7809558637165543,248.38501335674232,-71.21837131689917,-39.110198974609375,4761.76025390625,True
1599386871.1087475,0.0,10,0.5,0.5,-6.538231605529786,-0.1005,-0.03,-0.12575,0.07758207071093674,10,1,100,0.49571863983361797,-10,-1,-100,19328.683725273237,-0.047499710841295645,0.003174384335021586,0.9988662076344793,62.58011303909353,3.7871465935522335,249.42124904422366,-71.40076943545942,-40.0167236328125,4761.76025390625,True
1599386871.1396613,0.0,10,0.5,0.5,-6.1738910980224615,-0.1005,-0.03,-0.12575,0.14096159889497495,10,1,100,0.4509881627148149,-10,-1,-100,19325.81675054948,-0.046840776123317183,0.0041559567005322595,0.9988937229335604,62.741386930239635,3.797796597127152,251.3929999234874,-71.76555252513079,-42.05010986328125,4761.76025390625,True
1599386871.1715677,0.0,10,0.5,0.5,-6.150327423095702,-0.1005,-0.03,-0.12575,0.10372966882974455,10,1,100,0.4752437307807048,-10,-1,-100,19324.37779184454,-0.04646421474285986,0.004705910431949387,0.9989088702956521,62.80434361173093,3.8019857834468165,252.3105918971455,-71.94793815364223,-43.17669677734375,4761.76025390625,True
1599386871.2014995,0.0,10,0.5,0.5,-5.705044197082519,-0.1005,-0.03,-0.12575,0.1773086367536728,10,1,100,0.4174444663473731,-10,-1,-100,19321.488931093132,-0.04559873193602016,0.005870547766034341,0.9989425870963525,62.88331389666467,3.8073712869441074,253.96059189266506,-72.31269925808066,-45.650299072265625,4761.76025390625,True
1599386871.2334168,0.0,10,0.5,0.5,-5.0171867141723645,-0.1005,-0.03,-0.12575,0.26883084522828166,10,1,100,0.32968662141161564,-10,-1,-100,19317.12828370498,-0.04401721117590792,0.007756049982701612,0.9990006650693289,62.84403758741474,3.80547315062012,255.80100660482157,-72.85982409680012,-49.91192626953125,4761.76025390625,True
1599386871.2633674,0.0,10,0.5,0.5,-5.506108062744142,-0.1005,-0.03,-0.12575,0.08103837715429399,10,1,100,0.48734288663019343,-10,-1,-100,19317.12828370498,-0.04401721117590792,0.007756049982701612,0.9990006650693289,62.84403758741474,3.80547315062012,255.80100660482157,-72.85982409680012,-49.91192626953125,4761.76025390625,True
1599386871.296277,0.0,10,0.5,0.5,-5.106155334472656,-0.1005,-0.03,-0.12575,0.15388400915226563,10,1,100,0.4204603353453101,-10,-1,-100,19315.667439652723,-0.04341362098279707,0.008411680477406551,0.999021772107449,62.777059574151146,3.8014544887589388,256.1943881326895,-73.04219728800061,-51.47955322265625,4761.76025390625,True
1599386871.3291903,0.0,10,0.5,0.5,-4.498187286376954,-0.1005,-0.03,-0.12575,0.23485784997777853,10,1,100,0.3348326509167461,-10,-1,-100,19312.734809204238,-0.04209117412283547,0.009737319767885815,0.9990663229559384,62.54300923941698,3.787167707904438,256.56696471852626,-73.40694640922328,-54.83563232421875,4761.76025390625,True
1599386871.3621044,0.0,10,0.5,0.5,-4.042627555847168,-0.1005,-0.03,-0.12575,0.26201199301969447,10,1,100,0.3023754787815793,-10,-1,-100,19309.78758833441,-0.040599481001958024,0.011182201450790649,0.9991129268071179,62.152796807522115,3.7631862535154417,256.2867525917781,-73.77170607384082,-58.484832763671875,4761.76025390625,True
1599386871.3960145,0.0,10,0.5,0.5,-4.005521461486817,-0.1005,-0.03,-0.12575,0.19536295554177202,10,1,100,0.3623739596868399,-10,-1,-100,19308.308506256435,-0.03979536353456843,0.011882141639935399,0.9991371996633897,61.89066180233971,3.7470582052218675,255.86379507065038,-73.9540928487052,-60.420166015625,4761.76025390625,True
1599386871.4308853,0.0,10,0.5,0.5,-3.2592321014404297,-0.1005,-0.03,-0.12575,0.28001514001248595,10,1,100,0.25257445886760227,-10,-1,-100,19305.33939863846,-0.03807342784327908,0.013279691634113909,0.9991867012137249,61.21471993084358,3.7054995158472104,254.37197843604,-74.3188866428273,-64.51177978515625,4761.76025390625,True
1599386871.4608314,0.0,10,0.5,0.5,-2.7078412933349605,-0.1005,-0.03,-0.12575,0.29150517072033943,10,1,100,0.21852053630413434,-10,-1,-100,19302.355698350817,-0.03620701999425543,0.01464545981043932,0.9992369900129181,60.31269954011395,3.650168091105999,251.90871658124573,-74.68371625996807,-68.898193359375,4761.76025390625,True
1599386871.493751,0.0,10,0.5,0.5,-2.6577222824096687,-0.1005,-0.03,-0.12575,0.23192119535513414,10,1,100,0.294321698342782,-10,-1,-100,19300.858374992153,-0.035209054110157144,0.015335858828224275,0.9992622948669028,59.76807233895405,3.6168376299466196,250.2713042214735,-74.86614790286764,-71.20169067382812,4761.76025390625,True
1599386871.525664,0.0,10,0.5,0.5,-1.7708176193237306,-0.1005,-0.03,-0.12575,0.3071037472235566,10,1,100,0.16367764774140864,-10,-1,-100,19297.85278198321,-0.03312437117426686,0.016637308453745097,0.9993127518458496,58.474965197067625,3.5379255074435894,246.10498328644158,-75.2310512776116,-76.0303955078125,4761.76025390625,True
1599386871.5592752,0.0,10,0.5,0.5,-1.7155518569946289,-0.1005,-0.03,-0.12575,0.24518382503282654,10,1,100,0.25243166006845186,-10,-1,-100,19296.344511396717,-0.03204739985439586,0.017247748129132198,0.9993375202338028,57.72038659747208,3.492011928613023,243.5459602458122,-75.41352536409195,-78.55563354492188,4761.76025390625,True
1599386871.59519,0.0,10,0.5,0.5,0.5052071380615235,-0.1005,-0.03,-0.12575,0.42918325968945265,10,1,100,-0.1459159565067905,-10,-1,-100,19290.274927530554,-0.027457874695939574,0.019466786605320318,0.9994333941471263,53.9184328438589,3.261896955629767,229.8120684871282,-76.14359181072763,-89.39486694335938,4761.76025390625,True
1599386871.6271,0.0,10,0.5,0.5,-0.7393776397705079,-0.1005,-0.03,-0.12575,0.20845048573290254,10,1,100,0.311380625690841,-10,-1,-100,19290.274927530554,-0.027457874695939574,0.019466786605320318,0.9994333941471263,53.9184328438589,3.261896955629767,229.8120684871282,-76.14359181072763,-89.39486694335938,4761.76025390625,True
1599386871.663552,0.0,10,0.5,0.5,0.029237009048461993,-0.1005,-0.03,-0.12575,0.2637225305380317,10,1,100,0.17592392549325955,-10,-1,-100,19288.748404412298,-0.026240955372585976,0.01995920964343248,0.9994563733407994,52.76171712854103,3.1922058530325135,225.44713959012174,-76.3261535900186,-92.28931427001953,4761.76025390625,True
1599386871.6974678,0.0,10,0.5,0.5,1.1225859985351563,-0.1005,-0.03,-0.12575,0.30897366755888667,10,1,100,0.03366443544593967,-10,-1,-100,19285.684404733474,-0.023855806277061842,0.020808948296564447,0.9994988184973819,53.506582656022246,3.238326837180474,229.77650384180066,-76.69125413445674,-98.2339096069336,4761.76025390625,True
1599386871.7323682,0.0,10,0.5,0.5,3.26099684715271,-0.1005,-0.03,-0.12575,0.37425234440766353,10,1,100,-0.2894821928074685,-10,-1,-100,19279.512605541036,-0.018765013819486098,0.022166128909995322,0.9995781795264939,56.90560194456697,3.447716422037607,246.8101992299092,-77.42117362276873,-110.46240234375,4761.76025390625,True
1599386871.7638545,0.0,10,0.5,0.5,1.873390594482422,-0.1005,-0.03,-0.12575,0.239562681791582,10,1,100,0.21749401797859774,-10,-1,-100,19279.512605541036,-0.018765013819486098,0.022166128909995322,0.9995781795264939,56.90560194456697,3.447716422037607,246.8101992299092,-77.42117362276873,-110.46240234375,4761.76025390625,True
1599386871.7987573,0.0,10,0.5,0.5,2.69910998916626,-0.1005,-0.03,-0.12575,0.26830582740494563,10,1,100,0.07874196516480285,-10,-1,-100,19277.96053359518,-0.017521184624836865,0.022419351654411463,0.99959510841177,57.62024111540788,3.4920862660168286,250.52590807617975,-77.60359409025415,-113.50270080566406,4761.76025390625,True
1599386871.8336644,0.0,10,0.5,0.5,3.7831631050109866,-0.1005,-0.03,-0.12575,0.2915454647504957,10,1,100,-0.06618382621629487,-10,-1,-100,19274.845445916173,-0.015089910740208873,0.022853756405345708,0.9996249298672067,58.95912543954814,3.5753944913112523,257.6072108974512,-77.96836848147696,-119.3924560546875,4761.76025390625,True
1599386871.8641787,0.0,10,0.5,0.5,5.064636043548584,-0.1005,-0.03,-0.12575,0.2893532955145228,10,1,100,-0.2402289320532689,-10,-1,-100,19270.14546189981,-0.01131572364963816,0.023221906551706976,0.999666293047029,60.28408157044446,3.658644326952562,265.3266653772899,-78.51539759949485,-127.69096374511719,4761.76025390625,True
1599386871.8990853,0.0,10,0.5,0.5,5.344608352661133,-0.1005,-0.03,-0.12575,0.2678036893191785,10,1,100,-0.12616337291686253,-10,-1,-100,19266.99390692578,-0.008941430148109051,0.02335469699380685,0.9996872555730787,60.72992293030917,3.687204903088162,268.5846014183329,-78.88002492577934,-132.85572814941406,4761.76025390625,True
1599386871.9359856,0.0,10,0.5,0.5,4.858039512634278,-0.1005,-0.03,-0.12575,0.2551353399956584,10,1,100,0.10895538026541973,-10,-1,-100,19266.99390692578,-0.008941430148109051,0.02335469699380685,0.9996872555730787,60.72992293030917,3.687204903088162,268.5846014183329,-78.88002492577934,-132.85572814941406,4761.76025390625,True
1599386871.966904,0.0,10,0.5,0.5,6.615843704223633,-0.1005,-0.03,-0.12575,0.267135019644413,10,1,100,-0.263669384645564,-10,-1,-100,19262.2392290649,-0.005570765416689045,0.023460250526624177,0.9997092493409772,60.873149925213234,3.6974021278224427,271.1661489391477,-79.42692339863962,-140.0487518310547,4761.76025390625,True
1599386872.001806,0.0,10,0.5,0.5,6.864884918212891,-0.1005,-0.03,-0.12575,0.250583278630858,10,1,100,-0.16722857428486268,-10,-1,-100,19259.051214464707,-0.0034031567634765524,0.023402107489133697,0.9997203408399321,60.69282912113985,3.6869821897157635,271.65843755921713,-79.79151614821569,-144.47572326660156,4761.76025390625,True
1599386872.0356839,0.0,10,0.5,0.5,6.464752487182617,-0.1005,-0.03,-0.12575,0.2567418721644761,10,1,100,0.04724851117547568,-10,-1,-100,19259.051214464707,-0.0034031567634765524,0.023402107489133697,0.9997203408399321,60.69282912113985,3.6869821897157635,271.65843755921713,-79.79151614821569,-144.47572326660156,4761.76025390625,True
1599386872.0736148,0.0,10,0.5,0.5,8.405416805267334,-0.1005,-0.03,-0.12575,0.2513006841533082,10,1,100,-0.38166131055238484,-10,-1,-100,19252.631432074588,0.00047743011630982943,0.023350284726129836,0.9997272309303635,59.865064869226515,3.6369196389284837,270.51206000592043,-80.5207346731344,-152.44009399414062,4761.76025390625,True
1599386872.1055279,0.0,10,0.5,0.5,7.938655200958252,-0.1005,-0.03,-0.12575,0.2485311294107757,10,1,100,-0.09713820408447973,-10,-1,-100,19251.01737098396,0.0014011695446475884,0.023276918847725,0.9997280739145339,59.59216444808911,3.6202779271417587,269.9163869072971,-80.70305109745254,-154.24705505371094,4761.76025390625,True
1599386872.140438,0.0,10,0.5,0.5,7.8427838058471675,-0.1005,-0.03,-0.12575,0.2559787962450324,10,1,100,-0.006780879587117209,-10,-1,-100,19251.01737098396,0.0014011695446475884,0.023276918847725,0.9997280739145339,59.59216444808911,3.6202779271417587,269.9163869072971,-80.70305109745254,-154.24705505371094,4761.76025390625,True
1599386872.1763043,0.0,10,0.5,0.5,9.43238980102539,-0.1005,-0.03,-0.12575,0.23861202742773657,10,1,100,-0.37647294045333146,-10,-1,-100,19244.52466067951,0.0047448043214590955,0.02311825952466475,0.9997214776669056,58.359742991247835,3.5449588148433833,266.8345393832476,-81.43237674791972,-160.73268127441406,4761.76025390625,True
1599386872.2092564,0.0,10,0.5,0.5,8.740842979431152,-0.1005,-0.03,-0.12575,0.2545044100456932,10,1,100,-0.04409293427834752,-10,-1,-100,19244.52466067951,0.0047448043214590955,0.02311825952466475,0.9997214776669056,58.359742991247835,3.5449588148433833,266.8345393832476,-81.43237674791972,-160.73268127441406,4761.76025390625,True
1599386872.245125,0.0,10,0.5,0.5,9.764725650787353,-0.1005,-0.03,-0.12575,0.24174136785873862,10,1,100,-0.28988420508028495,-10,-1,-100,19239.616835524095,0.006964669939684802,0.023002326092989748,0.999711151466734,57.39434617191927,3.485964886545958,264.2677815729455,-81.97943498273342,-164.82000732421875,4761.76025390625,True
1599386872.2800632,0.0,10,0.5,0.5,9.879644897460938,-0.1005,-0.03,-0.12575,0.23968432892812172,10,1,100,-0.21876306226203007,-10,-1,-100,19236.32671581651,0.008321713657826042,0.022878552047462152,0.9997036165474288,56.779023322247276,3.4484207493341854,262.65419604643785,-82.34416806837467,-167.17584228515625,4761.76025390625,True
1599386872.314979,0.0,10,0.5,0.5,10.151929405212403,-0.1005,-0.03,-0.12575,0.25412743648020303,10,1,100,-0.2196169453637999,-10,-1,-100,19233.0220064749,0.009547458571783317,0.022897764024679936,0.9996922218550518,56.20872279921258,3.4136887907129583,261.2243469119177,-82.70892005059694,-169.23361206054688,4761.76025390625,True
1599386872.3498774,0.0,10,0.5,0.5,9.980719436645508,-0.1005,-0.03,-0.12575,0.25214999010823025,10,1,100,-0.09855427636691959,-10,-1,-100,19233.0220064749,0.009547458571783317,0.022897764024679936,0.9996922218550518,56.20872279921258,3.4136887907129583,261.2243469119177,-82.70892005059694,-169.23361206054688,4761.76025390625,True
1599386872.383796,0.0,10,0.5,0.5,10.262724960327148,-0.1005,-0.03,-0.12575,0.2520726505972929,10,1,100,-0.16339240066700786,-10,-1,-100,19231.364180247067,0.010125122778752065,0.022897519432275464,0.9996865436188305,55.94757731589007,3.397812498055619,260.61236510198347,-82.89130202158557,-170.15176391601562,4761.76025390625,True
1599386872.4186933,0.0,10,0.5,0.5,10.589410842895507,-0.1005,-0.03,-0.12575,0.25744788752958364,10,1,100,-0.2243559952345987,-10,-1,-100,19228.037584722275,0.01119218811793609,0.022946621582253003,0.999674040616787,55.481429910485815,3.369534134551229,259.634869259824,-83.25607567149702,-171.76553344726562,4761.76025390625,True
1599386872.4526095,0.0,10,0.5,0.5,10.742648143768312,-0.1005,-0.03,-0.12575,0.25952113717109826,10,1,100,-0.2245027383079402,-10,-1,-100,19224.696398123284,0.012153840856041376,0.023010474590922605,0.9996613437617494,55.099083645616865,3.346426912713666,259.0319896077471,-83.62085855887929,-173.08351135253906,4761.76025390625,True
1599386872.4845233,0.0,10,0.5,0.5,10.864439418792726,-0.1005,-0.03,-0.12575,0.26944977459639285,10,1,100,-0.22290677723864014,-10,-1,-100,19221.340619938448,0.013003786725224004,0.023159025342903834,0.9996472183105257,54.80728874724261,3.328891284364226,258.84094942649386,-83.98564663696759,-174.10458374023438,4761.76025390625,True
1599386872.518431,0.0,10,0.5,0.5,11.016393707275391,-0.1005,-0.03,-0.12575,0.2917289912403764,10,1,100,-0.25659420219976414,-10,-1,-100,19216.279593338957,0.014072166272145178,0.023496716990109183,0.9996248688518586,54.55715162897039,3.3140846493353915,259.42377490357757,-84.53282889655853,-175.08041381835938,4761.76025390625,True
1599386872.552343,0.0,10,0.5,0.5,10.936726272583009,-0.1005,-0.03,-0.12575,0.2579976722663859,10,1,100,-0.1506889837027153,-10,-1,-100,19216.279593338957,0.014072166272145178,0.023496716990109183,0.9996248688518586,54.55715162897039,3.3140846493353915,259.42377490357757,-84.53282889655853,-175.08041381835938,4761.76025390625,True
1599386872.5832584,0.0,10,0.5,0.5,11.043157169342042,-0.1005,-0.03,-0.12575,0.29110141398859807,10,1,100,-0.21443212058224875,-10,-1,-100,19212.887336316402,0.014643169914731222,0.023797316044433435,0.9996095564388777,54.52348093697865,3.3123451017477445,260.43975331389237,-84.89761058943165,-175.36058044433594,4761.76025390625,True
1599386872.6251454,0.0,10,0.5,0.5,11.008894954681397,-0.1005,-0.03,-0.12575,0.32554565154807,10,1,100,-0.22839777559316718,-10,-1,-100,19207.771593438927,0.015282244180840478,0.024382994626222097,0.9995858755433945,54.678634378874754,3.3222597289119187,262.9510228059939,-85.44476195783268,-175.22509765625,4761.76025390625,True
1599386872.6590266,0.0,10,0.5,0.5,11.050079681396484,-0.1005,-0.03,-0.12575,0.2671282376270798,10,1,100,-0.16518640203454302,-10,-1,-100,19207.771593438927,0.015282244180840478,0.024382994626222097,0.9995858755433945,54.678634378874754,3.3222597289119187,262.9510228059939,-85.44476195783268,-175.22509765625,4761.76025390625,True
1599386872.693934,0.0,10,0.5,0.5,10.963811908721924,-0.1005,-0.03,-0.12575,0.32057905717301843,10,1,100,-0.1957274749443909,-10,-1,-100,19204.342860273202,0.015554676856739953,0.024867560957911046,0.9995697356562406,54.91740664567668,3.337088823876135,265.28519286871136,-85.80950886008635,-174.7643585205078,4761.76025390625,True
1599386872.7258508,0.0,10,0.5,0.5,10.75640993118286,-0.1005,-0.03,-0.12575,0.36500209174895953,10,1,100,-0.18829308994329333,-10,-1,-100,19199.172406045487,0.0157292965000159,0.025710130849288436,0.9995456860010585,55.47174971036527,3.3712119370648552,269.76076630151033,-86.35658672394804,-173.51824951171875,4761.76025390625,True
1599386872.7603147,0.0,10,0.5,0.5,10.923207595825195,-0.1005,-0.03,-0.12575,0.2810263637529219,10,1,100,-0.17139154298782497,-10,-1,-100,19199.172406045487,0.0157292965000159,0.025710130849288436,0.9995456860010585,55.47174971036527,3.3712119370648552,269.76076630151033,-86.35658672394804,-173.51824951171875,4761.76025390625,True
1599386872.7931776,0.0,10,0.5,0.5,10.656849056243898,-0.1005,-0.03,-0.12575,0.3510102929373251,10,1,100,-0.16749418833100888,-10,-1,-100,19195.707201871905,0.015689741359152045,0.026343836106176615,0.9995298066167381,55.96296837022285,3.4013085428341143,273.359274631033,-86.72127040284082,-172.31773376464844,4761.76025390625,True
1599386872.8241274,0.0,10,0.5,0.5,10.272709152221681,-0.1005,-0.03,-0.12575,0.4029676031025331,10,1,100,-0.13592748034979263,-10,-1,-100,19190.48204642092,0.015363597612625565,0.02738924064892662,0.9995067730461222,56.86190325148904,3.456218878009627,279.59471137800807,-87.26823255872966,-169.96278381347656,4761.76025390625,True
1599386872.8590014,0.0,10,0.5,0.5,10.345403713226318,-0.1005,-0.03,-0.12575,0.33973280946664297,10,1,100,-0.15052630025910718,-10,-1,-100,19188.73303566745,0.015197674559606713,0.02776090100445851,0.9994990560592847,57.19969071355012,3.476816512595907,281.8742879554863,-87.45053428537003,-169.03012084960938,4761.76025390625,True
1599386872.8929098,0.0,10,0.5,0.5,9.71143907928467,-0.1005,-0.03,-0.12575,0.42849505971792073,10,1,100,-0.08186741349842469,-10,-1,-100,19183.46412933909,0.014421640533322042,0.028901827071758802,0.9994782142079146,58.30232287977349,3.5439738775885545,289.2000653220579,-87.99737573480914,-165.7899169921875,4761.76025390625,True
1599386872.9238267,0.0,10,0.5,0.5,10.091023223876954,-0.1005,-0.03,-0.12575,0.3149429639960566,10,1,100,-0.15950576355300944,-10,-1,-100,19183.46412933909,0.014421640533322042,0.028901827071758802,0.9994782142079146,58.30232287977349,3.5439738775885545,289.2000653220579,-87.99737573480914,-165.7899169921875,4761.76025390625,True
1599386872.957738,0.0,10,0.5,0.5,9.784580520629882,-0.1005,-0.03,-0.12575,0.3592833767755788,10,1,100,-0.12447909210665128,-10,-1,-100,19181.700536573306,0.014103417637792794,0.029300281268820526,0.9994711537250597,58.69375732862043,3.567797580333781,291.7767578240061,-88.17963369472132,-164.5623779296875,4761.76025390625,True
1599386872.990649,0.0,10,0.5,0.5,8.97389854812622,-0.1005,-0.03,-0.12575,0.4510217535625934,10,1,100,-0.023305489185056927,-10,-1,-100,19176.3878895354,0.0128954357303363,0.03049202733999259,0.9994518217533158,59.905823448716866,3.6415671929595885,299.7467698536945,-88.72633533542553,-160.43836975097656,4761.76025390625,True
1599386873.0235608,0.0,10,0.5,0.5,9.4481323928833,-0.1005,-0.03,-0.12575,0.33245804971676396,10,1,100,-0.14386499908565592,-10,-1,-100,19176.3878895354,0.0128954357303363,0.03049202733999259,0.9994518217533158,59.905823448716866,3.6415671929595885,299.7467698536945,-88.72633533542553,-160.43836975097656,4761.76025390625,True
1599386873.0574703,0.0,10,0.5,0.5,8.699901111602784,-0.1005,-0.03,-0.12575,0.4212368127923158,10,1,100,-0.03448642122137924,-10,-1,-100,19172.827903586556,0.011903502514412334,0.03129399385305935,0.9994393391179947,60.717286068198035,3.691007770357096,305.12105755269675,-89.09074116385682,-157.32122802734375,4761.76025390625,True
1599386873.0893848,0.0,10,0.5,0.5,7.861036323547363,-0.1005,-0.03,-0.12575,0.4638824330213651,10,1,100,0.06391968224126678,-10,-1,-100,19167.460597713944,0.010110622099353404,0.03240566553701706,0.9994236579958807,61.87418421444636,3.7617210125828295,312.94339162013523,-89.6372577742232,-152.09579467773438,4761.76025390625,True
1599386873.1262853,0.0,10,0.5,0.5,8.02652412033081,-0.1005,-0.03,-0.12575,0.39462799728347797,10,1,100,-0.04138235674432192,-10,-1,-100,19165.66420949879,0.00944312996226033,0.03278060352964535,0.9994179602792559,62.2291775522406,3.7835211880098583,315.4122517204879,-89.81940651295537,-150.2069854736328,4761.76025390625,True
1599386873.1631951,0.0,10,0.5,0.5,6.816834102630615,-0.1005,-0.03,-0.12575,0.4561676025148562,10,1,100,0.1382524843126842,-10,-1,-100,19160.25318906689,0.007208953656563746,0.0336750556001168,0.9994068348863274,63.143979450964274,3.8401968078108584,322.0991760921285,-90.36579114787935,-144.10366821289062,4761.76025390625,True
1599386873.201093,0.0,10,0.5,0.5,7.506748901367187,-0.1005,-0.03,-0.12575,0.36735097696283003,10,1,100,-0.08434968186136807,-10,-1,-100,19160.25318906689,0.007208953656563746,0.0336750556001168,0.9994068348863274,63.143979450964274,3.8401968078108584,322.0991760921285,-90.36579114787935,-144.10366821289062,4761.76025390625,True
1599386873.2419832,0.0,10,0.5,0.5,6.428534084320069,-0.1005,-0.03,-0.12575,0.42783935340212054,10,1,100,0.09941428571577765,-10,-1,-100,19156.627630749834,0.005545634606683369,0.034219573427205205,0.9993989527367283,63.581623426975014,3.867933146392929,325.7084669192923,-90.73000618583661,-139.66859436035156,4761.76025390625,True
1599386873.2793167,0.0,10,0.5,0.5,5.838775524139404,-0.1005,-0.03,-0.12575,0.4115969592800018,10,1,100,0.1275962020999304,-10,-1,-100,19152.98750422173,0.003785396235960401,0.034562097190397725,0.9993953833259079,63.83640798298411,3.8849485978450415,328.3969386832914,-91.09420066604034,-134.94326782226562,4761.76025390625,True
1599386873.313222,0.0,10,0.5,0.5,5.205031913757324,-0.1005,-0.03,-0.12575,0.41312561132507863,10,1,100,0.16366798496171353,-10,-1,-100,19149.33281031798,0.0018669235495572753,0.034882233566329225,0.9993896859473206,63.8652686955177,3.8886348528727366,329.9307521775473,-91.45838885246626,-129.92486572265625,4761.76025390625,True
1599386873.3521175,0.0,10,0.5,0.5,5.139949831008911,-0.1005,-0.03,-0.12575,0.38846972499284027,10,1,100,0.07997346497484907,-10,-1,-100,19147.50000040524,0.0008948408291515976,0.03494404771206705,0.9993888696545441,63.782908251168834,3.884734694471069,330.1977705715764,-91.64048577749679,-127.30725860595703,4761.76025390625,True
1599386873.3895311,0.0,10,0.5,0.5,2.8360803222656257,-0.1005,-0.03,-0.12575,0.3734249822664304,10,1,100,0.4313067324008281,-10,-1,-100,19140.13233909523,-0.0031718998979068424,0.03485942471034128,0.9993871920131365,62.672691424812434,3.8222796507883086,327.1785126641774,-92.36894858857106,-116.10884857177734,4761.76025390625,True
1599386873.4254346,0.0,10,0.5,0.5,3.436744997024536,-0.1005,-0.03,-0.12575,0.3701835541845065,10,1,100,0.14283520613915518,-10,-1,-100,19138.281317178975,-0.004231861833191812,0.034749056819509135,0.9993871093803337,62.180981619145,3.7936811848273213,325.2902045480788,-92.55109574857387,-113.12742614746094,4761.76025390625,True
1599386873.4618504,0.0,10,0.5,0.5,1.5570602207183837,-0.1005,-0.03,-0.12575,0.31102821851646956,10,1,100,0.3732162691424544,-10,-1,-100,19132.706390060368,-0.007275168379528502,0.03410780562816462,0.999391679733367,60.44876200291334,3.691909502434702,318.2125444049283,-93.09763711138069,-103.74834442138672,4761.76025390625,True
1599386873.4968,0.0,10,0.5,0.5,2.591437397003174,-0.1005,-0.03,-0.12575,0.37532355166003556,10,1,100,0.07062419355667368,-10,-1,-100,19132.706390060368,-0.007275168379528502,0.03410780562816462,0.999391679733367,60.44876200291334,3.691909502434702,318.2125444049283,-93.09763711138069,-103.74834442138672,4761.76025390625,True
1599386873.5297062,0.0,10,0.5,0.5,0.9551972599029543,-0.1005,-0.03,-0.12575,0.3076611124471331,10,1,100,0.3012756722234705,-10,-1,-100,19128.97155082936,-0.00935680155073412,0.033491485997048674,0.9993952024251715,58.9661659608455,3.603474128343693,311.70208215562366,-93.4620965902167,-97.13236999511719,4761.76025390625,True
1599386873.5655768,0.0,10,0.5,0.5,0.8731821899414063,-0.1005,-0.03,-0.12575,0.3283969129492305,10,1,100,0.19908298008633585,-10,-1,-100,19127.098663681303,-0.010305111091304095,0.03311986958205603,0.9993982584156644,58.07630372929371,3.5499085750243116,307.6363897543903,-93.64435898703411,-93.71553039550781,4761.76025390625,True
1599386873.6014817,0.0,10,0.5,0.5,-2.1033132133483887,-0.1005,-0.03,-0.12575,0.16177991256878999,10,1,100,0.5120755331948122,-10,-1,-100,19119.57067139703,-0.013996675643037615,0.03126784118862059,0.9994130353254089,62.95484365743004,3.8497958436027266,336.24851481042543,-94.37315393876058,-79.32879638671875,4761.76025390625,True
1599386873.6363869,0.0,10,0.5,0.5,-0.47520080566406253,-0.1005,-0.03,-0.12575,0.3466875786884758,10,1,100,0.14487330904643236,-10,-1,-100,19119.57067139703,-0.013996675643037615,0.03126784118862059,0.9994130353254089,62.95484365743004,3.8497958436027266,336.24851481042543,-94.37315393876058,-79.32879638671875,4761.76025390625,True
1599386873.6683023,0.0,10,0.5,0.5,-2.361821784973144,-0.1005,-0.03,-0.12575,0.22236120237105012,10,1,100,0.3348842772488152,-10,-1,-100,19115.784819034976,-0.015707882561351097,0.030140596182100153,0.9994222365383044,65.43629581726319,4.0016754126674146,350.9410103753798,-94.73734161245942,-71.72756958007812,4761.76025390625,True
1599386873.7032084,0.0,10,0.5,0.5,-2.443586326599121,-0.1005,-0.03,-0.12575,0.2750053484425729,10,1,100,0.24810592775915818,-10,-1,-100,19113.886431174702,-0.016458654031629282,0.029598721719899263,0.9994263496526472,66.51818465114088,4.067865414425303,357.47397969890505,-94.91938615443355,-67.9130859375,4761.76025390625,True
1599386873.7401106,0.0,10,0.5,0.5,-3.8344845352172854,-0.1005,-0.03,-0.12575,0.19486096773004608,10,1,100,0.3376562785358587,-10,-1,-100,19110.07873496751,-0.01793949174361511,0.028382382680504727,0.9994361485304392,68.25958359946543,4.174574434807771,368.3308474335312,-95.28339072013642,-60.43292236328125,4761.76025390625,True
1599386873.7839935,0.0,10,0.5,0.5,-5.495285621643067,-0.1005,-0.03,-0.12575,0.11009822597966099,10,1,100,0.4025414183385828,-10,-1,-100,19104.33989644528,-0.0198621476692218,0.026511937757896953,0.9994511555080056,69.8047801229477,4.270366862950285,378.965785189014,-95.82924632344452,-49.673126220703125,4761.76025390625,True
1599386873.8268788,0.0,10,0.5,0.5,-6.618068862915039,-0.1005,-0.03,-0.12575,0.0892738237076085,10,1,100,0.38839321515331093,-10,-1,-100,19098.56831016508,-0.021467187312783565,0.024629708824927238,0.9994661261453924,70.16729763171995,4.295415620883622,383.2447430546639,-96.37502442989707,-39.571624755859375,4761.76025390625,True
1599386874.267699,0.0,10,0.5,0.5,-5.54033521270752,-0.1005,-0.03,-0.12575,0.27654890732425624,10,1,100,0.22930845269045994,-10,-1,-100,19098.56831016508,-0.021467187312783565,0.024629708824927238,0.9994661261453924,70.16729763171995,4.295415620883622,383.2447430546639,-96.37502442989707,-39.571624755859375,4761.76025390625,True
1599386874.3185637,0.0,10,0.5,0.5,-8.545185737609863,-0.1005,-0.03,-0.12575,0.023144418621737217,10,1,100,0.4205455059883384,-10,-1,-100,19090.821920664748,-0.023192804143734046,0.022334648106543644,0.9994814942408423,69.13631312037053,4.238102849759632,380.6595811550645,-97.10279081953354,-27.1414794921875,4761.76025390625,True
1599386874.3724177,0.0,10,0.5,0.5,-7.85319709777832,-0.1005,-0.03,-0.12575,0.19401958714944642,10,1,100,0.28950830359329355,-10,-1,-100,19088.876225221087,-0.02355772123864953,0.021811782474529102,0.9994845070911934,68.65855546061631,4.210455150009925,378.7877501675471,-97.28476396977959,-24.2193603515625,4761.76025390625,True
1599386874.4312608,0.0,10,0.5,0.5,-9.577058868408201,-0.1005,-0.03,-0.12575,0.08786308342951585,10,1,100,0.36062359601948496,-10,-1,-100,19083.01729903661,-0.024523918883222307,0.020381671036250628,0.9994914531342323,66.96017902188589,4.111072142750381,371.6437022199539,-97.83078745888783,-15.8974609375,4761.76025390625,True
1599386874.4911003,0.0,10,0.5,0.5,-9.314904556274413,-0.1005,-0.03,-0.12575,0.18032602734312997,10,1,100,0.2942013918370492,-10,-1,-100,19081.057042235276,-0.0247888719373207,0.01993203846444157,0.9994939848096771,66.34523799648741,4.074784284927097,368.9677119493484,-98.01283063809726,-13.27191162109375,4761.76025390625,True
1599386874.5579226,0.0,10,0.5,0.5,-10.864762969970705,-0.1005,-0.03,-0.12575,0.10131519815314276,10,1,100,0.3512946684211926,-10,-1,-100,19075.15442350367,-0.025538957049725742,0.01881530659081907,0.9994967463232213,64.47255393008378,3.9633857679300526,360.70657940356233,-98.5590644792532,-5.83831787109375,4761.76025390625,True
1599386874.616522,0.0,10,0.5,0.5,-11.165141815185548,-0.1005,-0.03,-0.12575,0.14259065308844796,10,1,100,0.32179637533308153,-10,-1,-100,19071.20113370288,-0.02594374896521261,0.01818562292292983,0.9994979764904656,63.132283972299476,3.8826454481054005,354.61684113486115,-98.92330168778221,-1.25274658203125,4761.76025390625,True
1599386874.6803515,0.0,10,0.5,0.5,-11.282193908691408,-0.1005,-0.03,-0.12575,0.17637906253511199,10,1,100,0.30493701407590024,-10,-1,-100,19069.219024950056,-0.026149851881559404,0.017930726127815617,0.9994972107550385,62.82817336435409,3.8645166911281237,353.6101617925691,-99.10543462508586,0.92938232421875,4761.76025390625,True
1599386874.7391925,0.0,10,0.5,0.5,-12.572570671081543,-0.1005,-0.03,-0.12575,0.1335383037423801,10,1,100,0.3444610472924301,-10,-1,-100,19063.250847804244,-0.026689063598263174,0.01731904183100758,0.9994937441896791,65.66208292137068,4.039704956806092,371.7606219306301,-99.65168224557891,7.031890869140625,4761.76025390625,True
1599386874.853678,0.0,10,0.5,0.5,-12.81216756439209,-0.1005,-0.03,-0.12575,0.1648607469675443,10,1,100,0.325174656074515,-10,-1,-100,19059.25385869667,-0.02699771895153188,0.01705607185952621,0.9994899767302006,67.25153060349177,4.13748582563768,382.2624385180539,-100.01572830552496,10.73077392578125,4761.76025390625,True
1599386874.9095273,0.0,10,0.5,0.5,-13.97127872467041,-0.1005,-0.03,-0.12575,0.17560793619228793,10,1,100,0.36089642512870984,-10,-1,-100,19051.216205898207,-0.027598030326233616,0.016921595093827544,0.9994758668129976,69.80549561340347,4.293731708118349,399.89811542760253,-100.74356701503892,17.242767333984375,4761.76025390625,True
1599386874.96039,0.0,10,0.5,0.5,-13.322838729858399,-0.1005,-0.03,-0.12575,0.18828480138904452,10,1,100,0.3014783719598814,-10,-1,-100,19051.216205898207,-0.027598030326233616,0.016921595093827544,0.9994758668129976,69.80549561340347,4.293731708118349,399.89811542760253,-100.74356701503892,17.242767333984375,4761.76025390625,True
1599386875.0057821,0.0,10,0.5,0.5,-14.385730659484866,-0.1005,-0.03,-0.12575,0.21426335872961993,10,1,100,0.3482758734786767,-10,-1,-100,19045.149763464928,-0.028019457407147664,0.01716268475420797,0.9994600303457045,71.2655021338327,4.382552886600502,410.64896435981944,-101.28925499238903,21.35211181640625,4761.76025390625,True
1599386875.0596378,0.0,10,0.5,0.5,-14.282251937866212,-0.1005,-0.03,-0.12575,0.20632918528136887,10,1,100,0.32219727466154024,-10,-1,-100,19043.120341072674,-0.028161438640396923,0.017313954775679097,0.9994534308029209,71.68015540022037,4.407724522349304,413.8383673055364,-101.47111966515925,22.574462890625,4761.76025390625,True
1599386875.1070251,0.0,10,0.5,0.5,-14.973524932861329,-0.1005,-0.03,-0.12575,0.26096507734846397,10,1,100,0.35319976599163605,-10,-1,-100,19037.010252551874,-0.028569046482936053,0.017950951737863322,0.9994306243630724,72.74432130912314,4.472280020392998,422.4178509082854,-102.01663208137695,25.799072265625,4761.76025390625,True
1599386875.1578894,0.0,10,0.5,0.5,-15.26487078857422,-0.1005,-0.03,-0.12575,0.3029148918377713,10,1,100,0.3584893437780865,-10,-1,-100,19030.867437891546,-0.028984249615534252,0.018913202823139574,0.9994009225697139,73.58749355610037,4.523507704492479,429.7781025080875,-102.56203859786326,28.3609619140625,4761.76025390625,True
1599386875.198304,0.0,10,0.5,0.5,-15.205235397338868,-0.1005,-0.03,-0.12575,0.2507181184320158,10,1,100,0.331815894672691,-10,-1,-100,19028.812561272644,-0.029116089023696466,0.019313371418581735,0.9993894371286962,73.82978227505042,4.5382745863841825,432.01737538220533,-102.7438204471426,29.06781005859375,4761.76025390625,True
1599386875.2566643,0.0,10,0.5,0.5,-15.587243545532226,-0.1005,-0.03,-0.12575,0.36784283428641606,10,1,100,0.3623776433979494,-10,-1,-100,19022.62611961679,-0.02951089316492948,0.020740905969027654,0.9993492492638357,74.46556167731808,4.577220616873917,438.23244016530026,-103.28911238844773,30.7470703125,4761.76025390625,True
1599386875.297555,0.0,10,0.5,0.5,-15.558879852294922,-0.1005,-0.03,-0.12575,0.2853597904046055,10,1,100,0.33789143275329914,-10,-1,-100,19020.556702281465,-0.029644148613568698,0.021286264088833655,0.9993338378210344,74.65236472767089,4.5887408797750044,440.16581616226125,-103.4708601048901,31.15966796875,4761.76025390625,True
1599386875.3434315,0.0,10,0.5,0.5,-15.716214431762696,-0.1005,-0.03,-0.12575,0.36449914297023495,10,1,100,0.35368900683099735,-10,-1,-100,19016.406963489833,-0.029906217799387694,0.02249788629174681,0.999299486264923,74.99663624147381,4.610099160600106,443.8721219472689,-103.83433346062621,31.76446533203125,4761.76025390625,True
1599386875.3952932,0.0,10,0.5,0.5,-15.773702987670898,-0.1005,-0.03,-0.12575,0.39724125777387087,10,1,100,0.3532297512844743,-10,-1,-100,19012.242686531623,-0.030137643373483975,0.02389206950676253,0.9992601720605984,75.30958413607962,4.629683937780255,447.40871917644415,-104.19777924264554,32.0758056640625,4761.76025390625,True
1599386875.4401748,0.0,10,0.5,0.5,-15.783041915893554,-0.1005,-0.03,-0.12575,0.4290534389992276,10,1,100,0.35472774598722456,-10,-1,-100,19008.063872574363,-0.03035933965355355,0.02544237364572285,0.9992151900962433,75.5975299750554,4.6478699023270185,450.8113464191893,-104.56119963658199,32.09344482421875,4761.76025390625,True
1599386875.5059974,0.0,10,0.5,0.5,-15.802487068176271,-0.1005,-0.03,-0.12575,0.3677010632190174,10,1,100,0.34356136212365723,-10,-1,-100,19005.969014287926,-0.030456858864559535,0.0262862460117286,0.9991903787660863,75.73365898526062,4.656527241800903,452.4710906754262,-104.74290082455346,31.992279052734375,4761.76025390625,True
1599386875.5568612,0.0,10,0.5,0.5,-15.751610900878907,-0.1005,-0.03,-0.12575,0.4846195583425329,10,1,100,0.35225033446114135,-10,-1,-100,19001.768396623316,-0.030622287530853547,0.028108003971713494,0.9991357343319794,75.99124162950599,4.673022205799563,455.7127122469051,-105.10628639989979,31.570098876953125,4761.76025390625,True
1599386875.6057327,0.0,10,0.5,0.5,-15.44175992202759,-0.1005,-0.03,-0.12575,0.7638124943584679,10,1,100,0.35792779251800605,-10,-1,-100,18993.323557227035,-0.030822053347191913,0.03229245239984823,0.9990031023702911,76.44741215354765,4.702652874770489,461.87853388037496,-105.83299555379234,29.846664428710938,4761.76025390625,True
1599386875.6585903,0.0,10,0.5,0.5,-15.670624580383302,-0.1005,-0.03,-0.12575,0.34680180161119284,10,1,100,0.33817651157059503,-10,-1,-100,18993.323557227035,-0.030822053347191913,0.03229245239984823,0.9990031023702911,76.44741215354765,4.702652874770489,461.87853388037496,-105.83299555379234,29.846664428710938,4761.76025390625,True
1599386875.7004797,0.0,10,0.5,0.5,-15.208972717285157,-0.1005,-0.03,-0.12575,0.7533946747609996,10,1,100,0.3262522601657278,-10,-1,-100,18986.951777783106,-0.030711980331027976,0.03597658829250401,0.9988806031548406,76.73145700452935,4.721473017771082,466.1812037824571,-106.37797979383123,27.786514282226562,4761.76025390625,True
1599386875.7443595,0.0,10,0.5,0.5,-15.07085824584961,-0.1005,-0.03,-0.12575,0.6866421313960691,10,1,100,0.30988883226329583,-10,-1,-100,18982.68575943343,-0.030461704706941078,0.03870381305807906,0.998786313182711,76.8750055410191,4.731257543543861,468.78322802278075,-106.74128412875268,26.048019409179688,4761.76025390625,True
1599386875.7922328,0.0,10,0.5,0.5,-14.561392639160157,-0.1005,-0.03,-0.12575,0.9042570684176243,10,1,100,0.2692561333037758,-10,-1,-100,18976.259484482696,-0.02986392886582825,0.043145095993262286,0.9986223742959243,76.99746054265138,4.74029558179537,472.1327451095496,-107.28622043239587,22.892288208007812,4761.76025390625,True
1599386875.8381083,0.0,10,0.5,0.5,-14.3749242477417,-0.1005,-0.03,-0.12575,0.8161426752257828,10,1,100,0.2592771144028782,-10,-1,-100,18971.957136994926,-0.029229578129124557,0.046361714330862634,0.9984969820719023,77.00271453013795,4.741676491186033,473.9030643341784,-107.64950341503376,20.423782348632812,4761.76025390625,True
1599386875.8819938,0.0,10,0.5,0.5,-14.02687495803833,-0.1005,-0.03,-0.12575,0.8735055651827514,10,1,100,0.21927461788160071,-10,-1,-100,18967.640258186148,-0.028289851708900735,0.04978569924825438,0.9983591880884609,76.93053856414625,4.738353626716775,475.1977748991124,-108.0127853244519,17.663818359375,4761.76025390625,True
1599386875.9278686,0.0,10,0.5,0.5,-14.330704467773439,-0.1005,-0.03,-0.12575,0.5336964364177261,10,1,100,0.3130624807375247,-10,-1,-100,18967.640258186148,-0.028289851708900735,0.04978569924825438,0.9983591880884609,76.93053856414625,4.738353626716775,475.1977748991124,-108.0127853244519,17.663818359375,4761.76025390625,True
1599386875.972748,0.0,10,0.5,0.5,-13.596927764892577,-0.1005,-0.03,-0.12575,0.9303056497886911,10,1,100,0.18792495542768356,-10,-1,-100,18963.308847986395,-0.02715411919512459,0.053369107255624486,0.9982055861401871,76.7610319065972,4.729128340173915,475.88840055054834,-108.37607182102043,14.6119384765625,4761.76025390625,True
1599386876.0146368,0.0,10,0.5,0.5,-13.172064819335937,-0.1005,-0.03,-0.12575,0.9855266143524566,10,1,100,0.14149046505093787,-10,-1,-100,18958.962906021276,-0.025702505851602622,0.05710413888450073,0.998037323207508,76.48104048409076,4.713230820230119,475.8866043535262,-108.739369110919,11.268310546875,4761.76025390625,True
1599386876.0555272,0.0,10,0.5,0.5,-11.820584327697755,-0.1005,-0.03,-0.12575,1.4789687650522114,10,1,100,-0.11353354184318912,-10,-1,-100,18950.22742409061,-0.02206892982361718,0.06495909979446528,0.9976438631547497,75.54267966439383,4.6587577365848425,473.48178128466066,-109.46602268049838,3.705718994140625,4761.76025390625,True
1599386876.0960507,0.0,10,0.5,0.5,-12.224065620422362,-0.1005,-0.03,-0.12575,0.9173843527733652,10,1,100,0.12509826682091785,-10,-1,-100,18948.03446994978,-0.020943016352870998,0.06696496355790298,0.9975355049930464,75.21715613873197,4.639720357355323,472.2980156165513,-109.6477035076712,1.63238525390625,4761.76025390625,True
1599386876.1389308,0.0,10,0.5,0.5,-11.914530029296875,-0.1005,-0.03,-0.12575,0.9426059611160451,10,1,100,0.10430233153705051,-10,-1,-100,18945.83788199874,-0.019739385637788695,0.06898624295399974,0.9974223052136614,74.84838567717904,4.618110959091227,470.8354482808113,-109.8293932215949,-0.51397705078125,4761.76025390625,True
1599386876.1797872,0.0,10,0.5,0.5,-9.99113052368164,-0.1005,-0.03,-0.12575,1.6214687615497432,10,1,100,-0.40195815752340713,-10,-1,-100,18937.015187980956,-0.014052782900521749,0.07696524090470179,0.9969347375757514,72.88457146166166,4.502668776748696,461.80984868842216,-110.55626009890594,-9.8328857421875,4761.76025390625,True
1599386876.220677,0.0,10,0.5,0.5,-11.055340576171876,-0.1005,-0.03,-0.12575,0.8273951092642008,10,1,100,0.1650612240226455,-10,-1,-100,18937.015187980956,-0.014052782900521749,0.07696524090470179,0.9969347375757514,72.88457146166166,4.502668776748696,461.80984868842216,-110.55626009890594,-9.8328857421875,4761.76025390625,True
1599386876.2605712,0.0,10,0.5,0.5,-9.803488906860352,-0.1005,-0.03,-0.12575,1.2619120134528674,10,1,100,-0.21011614075340235,-10,-1,-100,18932.582032335806,-0.010656453353435229,0.08088464899286109,0.9966665006707246,71.58712697839954,4.426275152774037,455.22535576744406,-110.91977125222675,-14.9320068359375,4761.76025390625,True
1599386876.299112,0.0,10,0.5,0.5,-9.117764282226563,-0.1005,-0.03,-0.12575,1.2692202168875641,10,1,100,-0.27868451311822323,-10,-1,-100,18928.134334253846,-0.006962416857108829,0.08448280098181042,0.9964006127506021,70.06216601693393,4.336410651099921,447.1296634346285,-111.28334287808812,-20.328125,4761.76025390625,True
1599386876.3360147,0.0,10,0.5,0.5,-7.727063674926759,-0.1005,-0.03,-0.12575,1.5017501592833085,10,1,100,-0.5921056434600187,-10,-1,-100,18921.435515214573,-0.0007743074344792267,0.0898362139919679,0.9959562516012369,68.12943650751946,4.224714576289193,437.1286470036807,-111.82880436443341,-28.97027587890625,4761.76025390625,True
1599386876.3749104,0.0,10,0.5,0.5,-8.673911865234375,-0.1005,-0.03,-0.12575,0.9704139097419325,10,1,100,0.023953744375499353,-10,-1,-100,18921.435515214573,-0.0007743074344792267,0.0898362139919679,0.9959562516012369,68.12943650751946,4.224714576289193,437.1286470036807,-111.82880436443341,-28.97027587890625,4761.76025390625,True
1599386876.4118116,0.0,10,0.5,0.5,-5.700747695922852,-0.1005,-0.03,-0.12575,1.6222805007329306,10,1,100,-0.9788182630812156,-10,-1,-100,18912.452856776537,0.008317820077163049,0.09572912199485302,0.9953726684369318,70.63451033869315,4.393406467798377,456.4153787635154,-112.55582754406319,-41.533447265625,4761.76025390625,True
1599386876.4507074,0.0,10,0.5,0.5,-7.122161224365234,-0.1005,-0.03,-0.12575,1.0368521987554533,10,1,100,-0.0730075445098645,-10,-1,-100,18912.452856776537,0.008317820077163049,0.09572912199485302,0.9953726684369318,70.63451033869315,4.393406467798377,456.4153787635154,-112.55582754406319,-41.533447265625,4761.76025390625,True
1599386876.4886055,0.0,10,0.5,0.5,-5.465021568298339,-0.1005,-0.03,-0.12575,1.324344304331103,10,1,100,-0.62716955964358,-10,-1,-100,18907.939722798183,0.013328032260287025,0.09831471384354039,0.9950661187066574,71.82320700275024,4.47464220556491,465.72334387473444,-112.91917720382416,-48.257965087890625,4761.76025390625,True
1599386876.5245092,0.0,10,0.5,0.5,-4.570884017944336,-0.1005,-0.03,-0.12575,1.2745084151408341,10,1,100,-0.656872451183109,-10,-1,-100,18903.412057568785,0.018121641396565306,0.10018369857672134,0.9948039166853854,72.78059140849409,4.541647490954832,473.57518140648665,-113.28242967516641,-55.285919189453125,4761.76025390625,True
1599386876.5634053,0.0,10,0.5,0.5,-3.6337536773681647,-0.1005,-0.03,-0.12575,1.2779223104109712,10,1,100,-0.7580741567820772,-10,-1,-100,18898.869865081273,0.023365064274050405,0.10188544969513916,0.9945217086177098,73.6678290809055,4.604145607775186,481.0079587063657,-113.64559453221476,-62.607818603515625,4761.76025390625,True
1599386876.6023068,0.0,10,0.5,0.5,-2.6712707595825194,-0.1005,-0.03,-0.12575,1.2303031432132918,10,1,100,-0.7850023353145852,-10,-1,-100,18894.31314799073,0.028342597742810047,0.10297693991118514,0.9942798635191792,74.2090921216883,4.644612117502292,486.2108106563972,-114.0086946268969,-70.23162841796875,4761.76025390625,True
1599386876.6412034,0.0,10,0.5,0.5,-1.6563615417480468,-0.1005,-0.03,-0.12575,1.1991292482462041,10,1,100,-0.8370290260839892,-10,-1,-100,18889.741908094496,0.033302056829910366,0.10366215769970208,0.9940548928866754,74.36853500363358,4.660564999576753,488.92629811091626,-114.3717599059063,-78.15386962890625,4761.76025390625,True
1599386876.6791012,0.0,10,0.5,0.5,-0.6027903747558594,-0.1005,-0.03,-0.12575,1.1590357040027226,10,1,100,-0.8696045144156994,-10,-1,-100,18885.15614562109,0.03806683452103225,0.10389988937004324,0.9938590086619135,74.10038934332019,4.649027642043939,488.82858052978514,-114.73482293983378,-86.37542724609375,4761.76025390625,True
1599386876.7115295,0.0,10,0.5,0.5,0.48922103118896487,-0.1005,-0.03,-0.12575,1.1178907603500672,10,1,100,-0.8938475345750365,-10,-1,-100,18880.55585989158,0.042577906013156905,0.10372431222952176,0.9936943136458252,73.36343890283527,4.607448690372939,485.6176318421453,-115.09791782645375,-94.89578247070312,4761.76025390625,True
1599386876.7484312,0.0,10,0.5,0.5,0.6047368850708009,-0.1005,-0.03,-0.12575,1.111601945198718,10,1,100,-0.6809478903167643,-10,-1,-100,18878.250270099263,0.044704017682333536,0.10349490005654674,0.993624857008591,72.80735788717595,4.574698111080153,482.7568822796892,-115.2794875199037,-99.267822265625,4761.76025390625,True
1599386876.7873275,0.0,10,0.5,0.5,3.3097617740631105,-0.1005,-0.03,-0.12575,1.0078145588617824,10,1,100,-1.1101092009920177,-10,-1,-100,18871.311707779183,0.050496969001253854,0.10233040485435678,0.9934679382667715,70.34891085729598,4.42642512506481,468.83779191330177,-115.82433095469543,-112.72159576416016,4761.76025390625,True
1599386876.8242278,0.0,10,0.5,0.5,2.845807147979736,-0.1005,-0.03,-0.12575,1.067891911617851,10,1,100,-0.7234796401323516,-10,-1,-100,18868.991587906494,0.0522101295116171,0.10181192943845789,0.9934326516681432,69.27598470901648,4.361038526652261,462.47034098188385,-116.00600017942129,-117.20465850830078,4761.76025390625,True
1599386876.8611305,0.0,10,0.5,0.5,4.512637529373169,-0.1005,-0.03,-0.12575,0.9844299915931103,10,1,100,-0.9033423498756943,-10,-1,-100,18864.340444936417,0.05536276160103729,0.10057631359883071,0.9933878244526536,66.81578079031391,4.210548221623229,447.5574684796092,-116.3694325518664,-126.0601806640625,4761.76025390625,True
1599386876.9000247,0.0,10,0.5,0.5,6.534639122009278,-0.1005,-0.03,-0.12575,0.8889576345016252,10,1,100,-1.0001147582391852,-10,-1,-100,18857.336464887485,0.059070326549868525,0.09858303995310587,0.9933740890293526,63.36888752513406,4.000360888560381,426.6151898798741,-116.91480476703782,-138.88748168945312,4761.76025390625,True
1599386876.9379592,0.0,10,0.5,0.5,6.107155731201172,-0.1005,-0.03,-0.12575,1.0089712037959067,10,1,100,-0.7453750994905922,-10,-1,-100,18854.99453312927,0.06008779898277034,0.09786346059478004,0.9933842154442662,64.32962287637869,4.063546188885944,433.8076791121927,-117.0965773191822,-143.01895141601562,4761.76025390625,True
1599386876.9718332,0.0,10,0.5,0.5,7.647404708862306,-0.1005,-0.03,-0.12575,0.9338910304181582,10,1,100,-0.825048808977938,-10,-1,-100,18850.299766326207,0.0617036960673763,0.09653040686477736,0.993415589993506,66.12380839751728,4.182099332247115,447.39378597980834,-117.46002115763866,-151.05673217773438,4761.76025390625,True
1599386877.0097308,0.0,10,0.5,0.5,7.762866367340088,-0.1005,-0.03,-0.12575,0.9992506200830855,10,1,100,-0.7377083212267439,-10,-1,-100,18847.946932260646,0.06234836071171217,0.09591857840995281,0.9934346018900166,66.86933281000591,4.231822074792712,453.18883216497557,-117.64169937506077,-154.96275329589844,4761.76025390625,True
1599386877.0456357,0.0,10,0.5,0.5,9.218736476898194,-0.1005,-0.03,-0.12575,0.93000187632106,10,1,100,-0.7795394586058175,-10,-1,-100,18843.230365153984,0.06328829681557108,0.09473987630708458,0.9934882723633444,68.0928149387568,4.314227808971227,463.00849244006486,-118.00498710422264,-162.550048828125,4761.76025390625,True
1599386877.0805414,0.0,10,0.5,0.5,10.141314056396485,-0.1005,-0.03,-0.12575,0.9409999011839794,10,1,100,-0.7436664076426368,-10,-1,-100,18838.49926911015,0.06379373693550977,0.09377663826965178,0.9935473321601975,69.12570627983293,4.384295364458452,471.58239018319654,-118.36819860799483,-169.834716796875,4761.76025390625,True
1599386877.1194382,0.0,10,0.5,0.5,-68.90938173675538,-0.1005,-0.03,-0.12575,0.9048613504394245,10,1,100,-0.6748786763365482,-10,-1,-100,18828.993497242685,0.063608597822742,0.09258147838699862,0.9936712817339054,70.16208933861175,4.458172776938442,481.80499826196814,-119.09449833470755,176.50546264648438,4761.76025390625,True
1599386877.1523502,0.0,10,0.5,0.5,-25.4547733001709,-0.1005,-0.03,-0.12575,1.010438374548446,10,1,100,-0.6662084893270731,-10,-1,-100,18826.6079758337,0.06334428367455752,0.09246468182345917,0.993699041129176,70.23947584209068,4.464941933402279,483.1271628053076,-119.27606444690727,173.28048706054688,4761.76025390625,True
1599386877.190249,0.0,10,0.5,0.5,-25.290648757934573,-0.1005,-0.03,-0.12575,1.0219698666244672,10,1,100,-0.6112652139901309,-10,-1,-100,18821.82603900961,0.06259283438707824,0.09247230371459704,0.9937459484843734,70.21641666160575,4.467085246815495,484.55229086124035,-119.63920150155181,166.9703369140625,4761.76025390625,True
1599386877.2281468,0.0,10,0.5,0.5,-26.936675125122072,-0.1005,-0.03,-0.12575,1.020273714938294,10,1,100,-0.6874484132256048,-10,-1,-100,18821.82603900961,0.06259283438707824,0.09247230371459704,0.9937459484843734,70.21641666160575,4.467085246815495,484.55229086124035,-119.63920150155181,166.9703369140625,4761.76025390625,True
1599386877.263054,0.0,10,0.5,0.5,-26.349719429016115,-0.1005,-0.03,-0.12575,1.0597631893563726,10,1,100,-0.5716945266623061,-10,-1,-100,18817.029576141038,0.06153395353397004,0.09283866621829251,0.993777920169938,69.95842872352225,4.45428324304591,484.3537943033553,-120.00235719489575,160.49057006835938,4761.76025390625,True
1599386877.2989573,0.0,10,0.5,0.5,-26.536311508178713,-0.1005,-0.03,-0.12575,1.1024456759836538,10,1,100,-0.535196588631679,-10,-1,-100,18812.21858613286,0.06023729547906224,0.09356496780347714,0.9937892457826771,69.41985343069541,4.423770065208875,482.19857143911105,-120.3655467183175,153.74417114257812,4761.76025390625,True
1599386877.3328671,0.0,10,0.5,0.5,-26.685072349548342,-0.1005,-0.03,-0.12575,1.1565590155652223,10,1,100,-0.5018452305495663,-10,-1,-100,18807.39306706516,0.058755185358857494,0.09472108914328771,0.9937684556600475,68.5506887399936,4.372496216781791,477.718494109742,-120.72878555040131,146.717041015625,4761.76025390625,True
1599386877.368771,0.0,10,0.5,0.5,-26.807895603179933,-0.1005,-0.03,-0.12575,1.20946238381532,10,1,100,-0.46626355606005576,-10,-1,-100,18802.5530165378,0.05708702321850174,0.09625469308877228,0.9937183231874295,67.30652090949484,4.297724168073111,470.5792245675744,-121.09208884956232,139.4058380126953,4761.76025390625,True
1599386877.4046748,0.0,10,0.5,0.5,-26.00896240615845,-0.1005,-0.03,-0.12575,1.398062082590454,10,1,100,-0.3349201342577093,-10,-1,-100,18795.26568933972,0.054381264108605366,0.09936311565109691,0.9935641143691014,67.24900498295021,4.302179303396339,472.47167905280423,-121.637112318511,127.9078369140625,4761.76025390625,True
1599386877.4405787,0.0,10,0.5,0.5,-28.326209701538087,-0.1005,-0.03,-0.12575,1.0876821502923921,10,1,100,-0.60460534197665,-10,-1,-100,18795.26568933972,0.054381264108605366,0.09936311565109691,0.9935641143691014,67.24900498295021,4.302179303396339,472.47167905280423,-121.637112318511,127.9078369140625,4761.76025390625,True
1599386877.4954345,0.0,10,0.5,0.5,-25.526493694305422,-0.1005,-0.03,-0.12575,1.7073275595703858,10,1,100,-0.1875528148253146,-10,-1,-100,18785.498408736894,0.050598434291617686,0.104991177119641,0.9931851041846476,72.59349654324447,4.6575006933964875,513.3161236371275,-122.36324927615709,111.58543395996094,4761.76025390625,True
1599386877.5323334,0.0,10,0.5,0.5,-27.38427577972412,-0.1005,-0.03,-0.12575,1.1457623825892416,10,1,100,-0.5645347801709703,-10,-1,-100,18785.498408736894,0.050598434291617686,0.104991177119641,0.9931851041846476,72.59349654324447,4.6575006933964875,513.3161236371275,-122.36324927615709,111.58543395996094,4761.76025390625,True
1599386877.5652452,0.0,10,0.5,0.5,-24.26143434906006,-0.1005,-0.03,-0.12575,1.7354850956046508,10,1,100,-0.27191447238941746,-10,-1,-100,18778.134845442255,0.047949836811224424,0.11034090496951182,0.9927364694823526,76.18582908206022,4.898527820030734,541.3087495038735,-122.90741244069169,98.60087585449219,4761.76025390625,True
1599386877.6027248,0.0,10,0.5,0.5,-25.689134147644044,-0.1005,-0.03,-0.12575,1.2022991707430597,10,1,100,-0.5353099206711582,-10,-1,-100,18778.134845442255,0.047949836811224424,0.11034090496951182,0.9927364694823526,76.18582908206022,4.898527820030734,541.3087495038735,-122.90741244069169,98.60087585449219,4761.76025390625,True
1599386877.6416214,0.0,10,0.5,0.5,-23.44544200897217,-0.1005,-0.03,-0.12575,1.6521318443100224,10,1,100,-0.3577785804283937,-10,-1,-100,18773.207670168602,0.04634922735226825,0.11441404872807065,0.9923513362602473,78.09311454955028,5.0279340805616,556.6333143363606,-123.27002574314525,89.59056091308594,4761.76025390625,True
1599386877.6795194,0.0,10,0.5,0.5,-21.187655998229978,-0.1005,-0.03,-0.12575,1.9948795827701544,10,1,100,-0.2937247545748768,-10,-1,-100,18765.789716222673,0.04432562463289585,0.1212131812377528,0.9916363263289255,79.80666633970408,5.148091576121367,571.5772971552249,-123.81381819093411,75.54356384277344,4761.76025390625,True
1599386877.7174196,0.0,10,0.5,0.5,-21.627939685821534,-0.1005,-0.03,-0.12575,1.5842061716194002,10,1,100,-0.439242455353667,-10,-1,-100,18763.309814871754,0.043823339141315545,0.12363568140569857,0.9913595378215988,80.00983556486783,5.164502462874509,573.9493621347507,-123.99507424578442,70.71914672851562,4761.76025390625,True
1599386877.7533221,0.0,10,0.5,0.5,-19.77544263458252,-0.1005,-0.03,-0.12575,1.905101434878739,10,1,100,-0.3966724537827966,-10,-1,-100,18758.339135532267,0.042993290358523305,0.12872889795867742,0.9907474187776076,79.77286540948435,5.156239956839515,574.0855762269085,-124.35761300899864,60.85760498046875,4761.76025390625,True
1599386877.784984,0.0,10,0.5,0.5,-18.48434828948975,-0.1005,-0.03,-0.12575,1.987740173904957,10,1,100,-0.42921713315141474,-10,-1,-100,18753.35395268025,0.04254737376193596,0.13408083408446936,0.9900565897549367,78.5980289466571,5.088345926548463,567.448409034284,-124.720226210581,50.711578369140625,4761.76025390625,True
1599386877.8204017,0.0,10,0.5,0.5,-18.35656270980835,-0.1005,-0.03,-0.12575,1.7560065823617732,10,1,100,-0.4679115942435516,-10,-1,-100,18750.855921114562,0.042504520948009314,0.13680799998622092,0.9896852716084799,77.6320987401822,5.030376977796959,561.3741170750565,-124.90157342321159,45.53120422363281,4761.76025390625,True
1599386877.8553083,0.0,10,0.5,0.5,-13.910654651641845,-0.1005,-0.03,-0.12575,2.71911101651057,10,1,100,-0.5698876242954586,-10,-1,-100,18740.827518509817,0.04340341570233024,0.14800869576704312,0.9880331823793721,77.97741498268608,5.075504761280858,567.4741922054975,-125.6270427094639,24.09381103515625,4761.76025390625,True
1599386877.8901339,0.0,10,0.5,0.5,-16.34393197631836,-0.1005,-0.03,-0.12575,1.603343190293091,10,1,100,-0.47927864700443695,-10,-1,-100,18740.827518509817,0.04340341570233024,0.14800869576704312,0.9880331823793721,77.97741498268608,5.075504761280858,567.4741922054975,-125.6270427094639,24.09381103515625,4761.76025390625,True
1599386877.9210155,0.0,10,0.5,0.5,-13.558605278015136,-0.1005,-0.03,-0.12575,2.2231082722617956,10,1,100,-0.6060501129997143,-10,-1,-100,18735.79156554956,0.044562424501004845,0.15360381694980643,0.987127174046507,82.44227970556628,5.379725680589446,601.8570931938154,-125.98938234373453,12.943084716796875,4761.76025390625,True
1599386877.9549253,0.0,10,0.5,0.5,-13.417777656555176,-0.1005,-0.03,-0.12575,1.969303383060205,10,1,100,-0.5731558060627822,-10,-1,-100,18733.26815675269,0.045320109175200754,0.15634364365777653,0.9866624310229704,84.37742830270825,5.512894474432679,616.9488374626229,-126.17044390857762,7.25885009765625,4761.76025390625,True
1599386877.9915516,0.0,10,0.5,0.5,-11.23727405548096,-0.1005,-0.03,-0.12575,2.290710029852937,10,1,100,-0.7002910259280422,-10,-1,-100,18728.21047996718,0.047167078812004874,0.1617144531461485,0.9857097454727656,87.9890775373313,5.762609574833259,645.3669216765512,-126.53238251823146,-4.326873779296875,4761.76025390625,True
1599386878.0224679,0.0,10,0.5,0.5,-9.72505184173584,-0.1005,-0.03,-0.12575,2.3167831624496196,10,1,100,-0.7639270777570253,-10,-1,-100,18723.138330685557,0.04942390817894507,0.1667910353369855,0.9847527749803682,90.41035579891098,5.934344890385594,665.1989540923439,-126.89416270532283,-16.20477294921875,4761.76025390625,True
1599386878.057375,0.0,10,0.5,0.5,-9.5749881439209,-0.1005,-0.03,-0.12575,2.0806502334634587,10,1,100,-0.6780615336123982,-10,-1,-100,18720.596830139868,0.050690340580715865,0.16921801265232747,0.9842742268117192,91.09040255086174,5.985425336418757,671.2521989883611,-127.07502886595329,-22.25323486328125,4761.76025390625,True
1599386878.092281,0.0,10,0.5,0.5,-5.851437919616698,-0.1005,-0.03,-0.12575,2.572894724552542,10,1,100,-1.012820485338377,-10,-1,-100,18712.950622437056,0.05487866323307149,0.1758578671023149,0.9828847047848367,90.67903474078146,5.978796047589924,671.3831826267274,-127.61769273840873,-40.839874267578125,4761.76025390625,True
1599386878.1241956,0.0,10,0.5,0.5,-6.448569801330567,-0.1005,-0.03,-0.12575,2.132711126525597,10,1,100,-0.7585054036866246,-10,-1,-100,18710.394649444846,0.056363469108492895,0.17784958483010976,0.982442204165626,89.65010268729854,5.918658768895033,664.8143235706284,-127.79864015547324,-47.1826171875,4761.76025390625,True
