Timestamp,Input Throttle,horizon,dT,dt,Input Roll,Roll P,Roll I,Roll D,Input Pitch,Pitch P,Pitch I,Pitch D,Input Yaw,Yaw P,Yaw I,Yaw D,Altitude,Direction X,Direction Y,Direction Z,Drag X,Drag Y,Drag Z,Vertical Velocity,Roll,Mass,Has Fuel
1599384581.967127,0.0,10,0.5,0.5,-0.055805076599121095,-0.001,-0.001,-0.12575,-0.00014919976936507537,10,1,100,0.4980683148286248,-10,-1,-100,19351.094167919946,-0.04884374589454826,-0.00017512334190924753,0.9988064165887222,60.98677698150067,3.680696504579189,232.7550151106271,-68.48187410728376,-33.922454833984375,4761.76025390625,True
1599384581.9975967,0.0,10,0.5,0.5,-0.061538311767578124,-0.001,-0.001,-0.12575,-0.0008597635412545206,10,1,100,0.49894318467627985,-10,-1,-100,19349.72088117618,-0.048894849086742284,-0.00016685986725443954,0.9988039176387772,61.076451733229874,3.686779282993678,233.7417604005028,-68.66433411560091,-33.923614501953125,4761.76025390625,True
1599384582.0309277,0.0,10,0.5,0.5,-0.06714092254638672,-0.001,-0.001,-0.12575,-0.0007254304756484562,10,1,100,0.504489747203123,-10,-1,-100,19348.343945306726,-0.04894727996708384,-0.00015797471709250947,0.9988013510342348,61.166402856755894,3.692882452057424,234.7316341675567,-68.84679079035784,-33.9248046875,4761.76025390625,True
1599384582.0663416,0.0,10,0.5,0.5,-0.07242233123779296,-0.001,-0.001,-0.12575,0.011046323808531957,10,1,100,0.5092154896951561,-10,-1,-100,19345.57912618213,-0.0489934081718973,-4.273774643721245e-05,0.9987991009853717,61.34709763096044,3.7051478233455386,236.72066285105433,-69.21169383024326,-33.928558349609375,4761.76025390625,True
1599384582.098042,0.0,10,0.5,0.5,-0.0745018798828125,-0.001,-0.001,-0.12575,0.039229211284050464,10,1,100,0.5049100962715335,-10,-1,-100,19341.404530835338,-0.04895166350135669,0.00031827005643271424,0.9988010979892951,61.606385401154405,3.7228652979694963,239.6741174166361,-69.75902274255374,-33.960113525390625,4761.76025390625,True
1599384582.1310241,0.0,10,0.5,0.5,-0.07852320404052734,-0.001,-0.001,-0.12575,0.046266799604680844,10,1,100,0.5001647039458135,-10,-1,-100,19338.603223690647,-0.04882607235835745,0.0007101477073598031,0.998807043601661,61.76483527862701,3.7338296500384787,241.59673788217324,-70.12389166550527,-34.00390625,4761.76025390625,True
1599384582.1638849,0.0,10,0.5,0.5,-0.08962974853515626,-0.001,-0.001,-0.12575,0.007150049282707942,10,1,100,0.5176064254815731,-10,-1,-100,19338.603223690647,-0.04882607235835745,0.0007101477073598031,0.998807043601661,61.76483527862701,3.7338296500384787,241.59673788217324,-70.12389166550527,-34.00390625,4761.76025390625,True
1599384582.200035,0.0,10,0.5,0.5,-0.08215130157470704,-0.001,-0.001,-0.12575,0.10150401569519489,10,1,100,0.4802430281595986,-10,-1,-100,19334.373898587073,-0.04844201777146827,0.0015672654495575392,0.9988247667099767,61.977915821447915,3.748830422164343,244.39755616853824,-70.67117035819622,-34.107086181640625,4761.76025390625,True
1599384582.2309165,0.0,10,0.5,0.5,-0.10071546936035156,-0.001,-0.001,-0.12575,0.015948968020377034,10,1,100,0.5234926886256639,-10,-1,-100,19334.373898587073,-0.04844201777146827,0.0015672654495575392,0.9988247667099767,61.977915821447915,3.748830422164343,244.39755616853824,-70.67117035819622,-34.107086181640625,4761.76025390625,True
1599384582.2639437,0.0,10,0.5,0.5,-0.09406221466064453,-0.001,-0.001,-0.12575,0.10109420192128728,10,1,100,0.48690793135584665,-10,-1,-100,19331.536106428597,-0.04806539087104132,0.00233988824370258,0.9988414504431725,62.10275214150071,3.757820041596402,246.20488001269408,-71.03600643038713,-34.20367431640625,4761.76025390625,True
1599384582.298211,0.0,10,0.5,0.5,-0.0877514129638672,-0.001,-0.001,-0.12575,0.1779350929059445,10,1,100,0.44217028677407666,-10,-1,-100,19327.25205638539,-0.04727260111002706,0.0037386989852915896,0.9988750288770811,62.26388297935488,3.7697748889333202,248.8226402857522,-71.58323646063859,-34.393310546875,4761.76025390625,True
1599384582.333638,0.0,10,0.5,0.5,-0.09144468383789062,-0.001,-0.001,-0.12575,0.15913134263859588,10,1,100,0.4466857278721663,-10,-1,-100,19324.37778265495,-0.0465943609234372,0.004835843909462792,0.9989021874757407,62.35306251280472,3.776677005531128,250.50104155252225,-71.94804050739083,-34.55194091796875,4761.76025390625,True
1599384582.3641129,0.0,10,0.5,0.5,-0.10004249572753907,-0.001,-0.001,-0.12575,0.11396507726736116,10,1,100,0.47125865321301297,-10,-1,-100,19322.93517385039,-0.04620326051887531,0.005418098060992008,0.9989173654165927,62.391967318899106,3.779795242868219,251.31900032386682,-72.13043790857726,-34.6409912109375,4761.76025390625,True
1599384582.398656,0.0,10,0.5,0.5,-0.08624289550781249,-0.001,-0.001,-0.12575,0.19540138310148697,10,1,100,0.4143071161591059,-10,-1,-100,19320.039012456196,-0.045332468013736436,0.00668268091289418,0.9989496028927586,62.45750214824003,3.785311580672854,252.90816173117204,-72.49522325625371,-34.837646484375,4761.76025390625,True
1599384582.431641,0.0,10,0.5,0.5,-0.08259008178710939,-0.001,-0.001,-0.12575,0.22334868199117228,10,1,100,0.3920830012781387,-10,-1,-100,19317.128260125173,-0.04434212918301791,0.008080254023930266,0.9989837261309242,62.506675639182575,3.7898676390856165,254.43411535705644,-72.85999667110342,-35.06085205078125,4761.76025390625,True
1599384582.46697,0.0,10,0.5,0.5,-0.09511050872802734,-0.001,-0.001,-0.12575,0.16302906810248097,10,1,100,0.42973545580138506,-10,-1,-100,19315.66741243808,-0.04378830668195634,0.00879535855864088,0.999002115045685,62.52528393951279,3.7917951136807115,255.17369922327595,-73.04237884943592,-35.182647705078125,4761.76025390625,True
1599384582.4977634,0.0,10,0.5,0.5,-0.11030843811035157,-0.001,-0.001,-0.12575,0.09232713571654771,10,1,100,0.4846139293399019,-10,-1,-100,19315.66741243808,-0.04378830668195634,0.00879535855864088,0.999002115045685,62.52528393951279,3.7917951136807115,255.17369922327595,-73.04237884943592,-35.182647705078125,4761.76025390625,True
1599384582.5310977,0.0,10,0.5,0.5,-0.040622731018066405,-0.001,-0.001,-0.12575,0.43739643436066805,10,1,100,0.20497495464584992,-10,-1,-100,19309.787546603824,-0.04125071397171623,0.011925001990995355,0.9990776611076531,62.55752168134798,3.79702516600546,257.9634228041332,-73.77187850543389,-35.73150634765625,4761.76025390625,True
1599384582.5648036,0.0,10,0.5,0.5,-0.0899685516357422,-0.001,-0.001,-0.12575,0.22019265374735328,10,1,100,0.37961419813449393,-10,-1,-100,19308.308461511973,-0.04053797854303085,0.01278613643615889,0.9990961850646216,62.55498069313895,3.797709041848963,258.61780056927773,-73.95424628399654,-35.88543701171875,4761.76025390625,True
1599384582.6001725,0.0,10,0.5,0.5,-0.10914749755859375,-0.001,-0.001,-0.12575,0.13520109632965985,10,1,100,0.450097337080188,-10,-1,-100,19308.308461511973,-0.04053797854303085,0.01278613643615889,0.9990961850646216,62.55498069313895,3.797709041848963,258.61780056927773,-73.95424628399654,-35.88543701171875,4761.76025390625,True
1599384582.6312785,0.0,10,0.5,0.5,-0.02280572204589844,-0.001,-0.001,-0.12575,0.5223093965945187,10,1,100,0.09418115189004811,-10,-1,-100,19302.35564884264,-0.0373092199616005,0.01629580621293719,0.9991708906917411,62.502848866652464,3.797974019795622,261.0607708880297,-74.6836900447244,-36.5653076171875,4761.76025390625,True
1599384582.6647062,0.0,10,0.5,0.5,-0.08459512939453125,-0.001,-0.001,-0.12575,0.27743810535407165,10,1,100,0.3185386700779349,-10,-1,-100,19300.858327931724,-0.03642265630850681,0.017248896901251906,0.9991876028369859,62.47871811420187,3.797384899075868,261.6246577729319,-74.86604426155301,-36.7506103515625,4761.76025390625,True
1599384582.6978633,0.0,10,0.5,0.5,-0.10767708129882814,-0.001,-0.001,-0.12575,0.1833703418217791,10,1,100,0.4061778649258108,-10,-1,-100,19300.858327931724,-0.03642265630850681,0.017248896901251906,0.9991876028369859,62.47871811420187,3.797384899075868,261.6246577729319,-74.86604426155301,-36.7506103515625,4761.76025390625,True
1599384582.733854,0.0,10,0.5,0.5,-0.005812371826171878,-0.001,-0.001,-0.12575,0.5978162722407976,10,1,100,-0.027929729842498252,-10,-1,-100,19294.832574201864,-0.03248511508716797,0.021005831906115473,0.9992514560027949,62.338157648743106,3.792421716119203,263.6899266617778,-75.59543564440963,-37.5526123046875,4761.76025390625,True
1599384582.765128,0.0,10,0.5,0.5,-0.05096657257080079,-0.001,-0.001,-0.12575,0.4437537527935546,10,1,100,0.12533231338002815,-10,-1,-100,19291.797816111706,-0.03031050287245251,0.02300763796011358,0.9992756986993707,62.2404531765062,3.7883101540819215,264.60211964585454,-75.96011648366358,-37.989898681640625,4761.76025390625,True
1599384582.7983656,0.0,10,0.5,0.5,-0.07682572174072266,-0.001,-0.001,-0.12575,0.340783283024974,10,1,100,0.21434440571401475,-10,-1,-100,19290.274966903264,-0.02915553954057521,0.02387779611681914,0.999289650385063,62.18485749240111,3.7858526369540284,265.0280611147886,-76.14245344162032,-38.2174072265625,4761.76025390625,True
1599384582.834275,0.0,10,0.5,0.5,-0.046862341308593757,-0.001,-0.001,-0.12575,0.45665515246426136,10,1,100,0.06348778404006439,-10,-1,-100,19287.218328308198,-0.026747451557415737,0.025708518310946647,0.9993115860038047,62.05908199192202,3.780065541854413,265.8142009429282,-76.5071205576294,-38.6771240234375,4761.76025390625,True
1599384582.8657854,0.0,10,0.5,0.5,-0.04397600555419923,-0.001,-0.001,-0.12575,0.4817952820415782,10,1,100,0.02292022139614497,-10,-1,-100,19284.147103470867,-0.02420497632607562,0.027585982247445164,0.9993263394429759,61.91423358656397,3.7731314616989082,266.51322350996037,-76.87177904250572,-39.153228759765625,4761.76025390625,True
1599384582.898974,0.0,10,0.5,0.5,-0.07225359954833985,-0.001,-0.001,-0.12575,0.3950775009327751,10,1,100,0.1294147992594405,-10,-1,-100,19282.606021424406,-0.022877263857837875,0.028490186924857924,0.9993322470766994,61.83473421985548,3.7692374711928185,266.8300071940216,-77.05410518117955,-39.3997802734375,4761.76025390625,True
1599384582.931941,0.0,10,0.5,0.5,-0.038649090576171885,-0.001,-0.001,-0.12575,0.4915235893837053,10,1,100,-0.04275412318645094,-10,-1,-100,19279.51291760779,-0.02012113569600927,0.030174697389797344,0.9993420973499201,61.66187015288314,3.7606097933909597,267.39858219559085,-77.4187513560697,-39.90673828125,4761.76025390625,True
1599384582.9683466,0.0,10,0.5,0.5,-0.10199692993164063,-0.001,-0.001,-0.12575,0.32481139898512706,10,1,100,0.23081700871170752,-10,-1,-100,19279.51291760779,-0.02012113569600927,0.030174697389797344,0.9993420973499201,61.66187015288314,3.7606097933909597,267.39858219559085,-77.4187513560697,-39.90673828125,4761.76025390625,True
1599384582.9986258,0.0,10,0.5,0.5,-0.0009915374755859324,-0.001,-0.001,-0.12575,0.5972605183696781,10,1,100,-0.25287047918296973,-10,-1,-100,19274.84591381089,-0.015739602246299104,0.03263889039222339,0.9993432682292371,61.36815883659158,3.7455726715596187,268.0877756332214,-77.96570649371235,-40.70098876953125,4761.76025390625,True
1599384583.0315957,0.0,10,0.5,0.5,-0.10047349853515625,-0.001,-0.001,-0.12575,0.3523802174761707,10,1,100,0.18321456038182599,-10,-1,-100,19274.84591381089,-0.015739602246299104,0.03263889039222339,0.9993432682292371,61.36815883659158,3.7455726715596187,268.0877756332214,-77.96570649371235,-40.70098876953125,4761.76025390625,True
1599384583.0646813,0.0,10,0.5,0.5,0.006847511291503905,-0.001,-0.001,-0.12575,0.6054767769922684,10,1,100,-0.33264643134954996,-10,-1,-100,19270.146093391697,-0.011068759643343149,0.034925777302832486,0.9993286109382393,61.0331626108078,3.7280029807800092,268.57700855686534,-78.51264630123583,-41.544586181640625,4761.76025390625,True
1599384583.1011176,0.0,10,0.5,0.5,-0.09883566589355469,-0.001,-0.001,-0.12575,0.37818008047103047,10,1,100,0.13229619340166315,-10,-1,-100,19270.146093391697,-0.011068759643343149,0.034925777302832486,0.9993286109382393,61.0331626108078,3.7280029807800092,268.57700855686534,-78.51264630123583,-41.544586181640625,4761.76025390625,True
1599384583.132242,0.0,10,0.5,0.5,0.05010524444580078,-0.001,-0.001,-0.12575,0.6536753834850803,10,1,100,-0.5941667551779484,-10,-1,-100,19263.82861957187,-0.0044820435137367795,0.03741944538537592,0.9992895958594745,60.52549024614932,3.700796032600882,268.9255133667888,-79.24187802009779,-42.71685791015625,4761.76025390625,True
1599384583.1652467,0.0,10,0.5,0.5,-0.05884613189697266,-0.001,-0.001,-0.12575,0.4733067770816045,10,1,100,-0.1290390503429673,-10,-1,-100,19262.240135821165,-0.00274498389080067,0.038034391175594214,0.9992726605643434,60.38874792960354,3.693378151681472,268.96220432905125,-79.42418263954718,-43.016754150390625,4761.76025390625,True
1599384583.2011802,0.0,10,0.5,0.5,-0.01788786926269531,-0.001,-0.001,-0.12575,0.5135088994837393,10,1,100,-0.3390920908238462,-10,-1,-100,19259.052229989902,0.0007219138910886778,0.038947701304116934,0.9992409896533765,60.10182872644084,3.677694751673749,268.9667954027731,-79.78878834295713,-43.634002685546875,4761.76025390625,True
1599384583.2326753,0.0,10,0.5,0.5,-0.015484179687500002,-0.001,-0.001,-0.12575,0.5142547636581392,10,1,100,-0.38940061001959553,-10,-1,-100,19255.84974032466,0.004308328512570203,0.03977443498703516,0.9991993958299266,59.79989513649496,3.661053613633956,268.891725159713,-80.15338975563931,-44.261810302734375,4761.76025390625,True
1599384583.266659,0.0,10,0.5,0.5,-0.053267813110351565,-0.001,-0.001,-0.12575,0.47025060822384346,10,1,100,-0.2336616522212738,-10,-1,-100,19254.243026389508,0.006128182559050111,0.040115714878410695,0.9991762481155749,59.64327134052291,3.652369376344793,268.8238909548474,-80.33568903114332,-44.582733154296875,4761.76025390625,True
1599384583.2996244,0.0,10,0.5,0.5,-0.010521977233886731,-0.001,-0.001,-0.12575,0.48727395370136745,10,1,100,-0.4532926188679078,-10,-1,-100,19251.018660767353,0.009755377463314828,0.040571689722649025,0.999129005986513,59.31821779840379,3.6342390805875944,268.6247768919623,-80.70028532705454,-45.23468017578125,4761.76025390625,True
1599384583.3348093,0.0,10,0.5,0.5,-0.007662347412109374,-0.001,-0.001,-0.12575,0.4794924396254977,10,1,100,-0.5029603874208555,-10,-1,-100,19247.77971134032,0.013477192078437438,0.04090601946005519,0.9990721009344694,58.98093321366274,3.615301725966248,268.3561909398451,-81.06487884751927,-45.89984130859375,4761.76025390625,True
1599384583.3660874,0.0,10,0.5,0.5,-0.090786474609375,-0.001,-0.001,-0.12575,0.4468861787916644,10,1,100,-0.13370060534106823,-10,-1,-100,19247.77971134032,0.013477192078437438,0.04090601946005519,0.9990721009344694,58.98093321366274,3.615301725966248,268.3561909398451,-81.06487884751927,-45.89984130859375,4761.76025390625,True
1599384583.4001026,0.0,10,0.5,0.5,-0.004263186645507816,-0.001,-0.001,-0.12575,0.45271159465507266,10,1,100,-0.5423722519924455,-10,-1,-100,19244.526178091066,0.017165828144063835,0.04095146221420633,0.9990136696195138,58.630625512108665,3.5955011377669384,268.0137106979144,-81.42947029702917,-46.578369140625,4761.76025390625,True
1599384583.4324894,0.0,10,0.5,0.5,-0.04572711639404296,-0.001,-0.001,-0.12575,0.4423871414529472,10,1,100,-0.3796015233148435,-10,-1,-100,19242.89394267602,0.01901373195412108,0.040893437248041335,0.9989825848267914,58.451934762373675,3.58535755491365,267.8206671573811,-81.61176549679288,-46.920440673828125,4761.76025390625,True
1599384583.4691775,0.0,10,0.5,0.5,0.04410730590820311,-0.001,-0.001,-0.12575,0.39697449629335096,10,1,100,-0.8121133105029483,-10,-1,-100,19237.97536102729,0.024598222127158197,0.040422419904672095,0.9988798503509986,57.90308090501189,3.5540267116109674,267.1597180336507,-82.15864916882002,-47.964324951171875,4761.76025390625,True
1599384583.4995322,0.0,10,0.5,0.5,-0.08663639526367187,-0.001,-0.001,-0.12575,0.44437652808220457,10,1,100,-0.2565723197633261,-10,-1,-100,19237.97536102729,0.024598222127158197,0.040422419904672095,0.9988798503509986,57.90308090501189,3.5540267116109674,267.1597180336507,-82.15864916882002,-47.964324951171875,4761.76025390625,True
1599384583.5331542,0.0,10,0.5,0.5,0.09463415679931642,-0.001,-0.001,-0.12575,0.272355082553755,10,1,100,-1.0522990764820395,-10,-1,-100,19231.366209703847,0.03180724427367563,0.03885641764647794,0.9987384432469781,57.14027558542652,3.510051263921607,266.0794891895233,-82.88782706464974,-49.39056396484375,4761.76025390625,True
1599384583.566119,0.0,10,0.5,0.5,-0.03855801696777344,-0.001,-0.001,-0.12575,0.37535250537917375,10,1,100,-0.538277552753357,-10,-1,-100,19229.70480718848,0.03365971843626474,0.03836920242258491,0.9986965643578865,56.948720981890816,3.4989473050149917,265.7952875148652,-83.07012198811819,-49.75018310546875,4761.76025390625,True
1599384583.6024718,0.0,10,0.5,0.5,-0.08323128662109375,-0.001,-0.001,-0.12575,0.42393350451203154,10,1,100,-0.35596527548681556,-10,-1,-100,19229.70480718848,0.03365971843626474,0.03836920242258491,0.9986965643578865,56.948720981890816,3.4989473050149917,265.7952875148652,-83.07012198811819,-49.75018310546875,4761.76025390625,True
1599384583.6328464,0.0,10,0.5,0.5,0.010135403442382812,-0.001,-0.001,-0.12575,0.2844954964047115,10,1,100,-0.7396364859017445,-10,-1,-100,19226.371064342675,0.037122609861966624,0.03710317190566002,0.9986216833574039,56.5578285144444,3.47618732530401,265.17815125302224,-83.43471285192453,-50.48272705078125,4761.76025390625,True
1599384583.6657786,0.0,10,0.5,0.5,0.05979045715332029,-0.001,-0.001,-0.12575,0.15874790302856817,10,1,100,-0.9659651024427843,-10,-1,-100,19221.34310568741,0.04230334655170629,0.03481222833032427,0.9984981400229065,55.96760551358499,3.4416182933163526,264.2029018156457,-83.98160267848851,-51.59710693359375,4761.76025390625,True
1599384583.6994433,0.0,10,0.5,0.5,-0.07977308654785156,-0.001,-0.001,-0.12575,0.3872328814491706,10,1,100,-0.4507740489161446,-10,-1,-100,19221.34310568741,0.04230334655170629,0.03481222833032427,0.9984981400229065,55.96760551358499,3.4416182933163526,264.2029018156457,-83.98160267848851,-51.59710693359375,4761.76025390625,True
1599384583.7357154,0.0,10,0.5,0.5,0.018303781127929686,-0.001,-0.001,-0.12575,0.18430860033220187,10,1,100,-0.8155509161292269,-10,-1,-100,19217.97290340974,0.04559329429503134,0.03297300194846976,0.9984157614229822,55.564132431444385,3.417825938944225,263.48443595664276,-84.3461993497847,-52.36639404296875,4761.76025390625,True
1599384583.7667909,0.0,10,0.5,0.5,0.019617057800292964,-0.001,-0.001,-0.12575,0.136663163946252,10,1,100,-0.822564977339934,-10,-1,-100,19214.588117259555,0.04862207692165057,0.03087509077988043,0.9983399332918418,55.15845365464461,3.3937897531833046,262.7383093564802,-84.71079975030445,-53.135406494140625,4761.76025390625,True
1599384583.800786,0.0,10,0.5,0.5,0.02216799774169921,-0.001,-0.001,-0.12575,0.0948933403465741,10,1,100,-0.868326560718752,-10,-1,-100,19211.188746920787,0.05176461339023228,0.028597280727045926,0.9982497785301925,54.76286465097888,3.3702653346790985,262.0232450291147,-85.07540409001015,-53.91357421875,4761.76025390625,True
1599384583.8328426,0.0,10,0.5,0.5,0.07509129943847656,-0.001,-0.001,-0.12575,-0.10625646554898538,10,1,100,-1.0060634153178303,-10,-1,-100,19206.062345669372,0.05584892122960448,0.02470865984285277,0.9981334480550482,54.16512092994131,3.33450473463314,260.89823099034163,-85.6223196414506,-55.09844970703125,4761.76025390625,True
1599384583.868459,0.0,10,0.5,0.5,-0.07319338073730469,-0.001,-0.001,-0.12575,0.28103424686414824,10,1,100,-0.600757701290855,-10,-1,-100,19206.062345669372,0.05584892122960448,0.02470865984285277,0.9981334480550482,54.16512092994131,3.33450473463314,260.89823099034163,-85.6223196414506,-55.09844970703125,4761.76025390625,True
1599384583.9001305,0.0,10,0.5,0.5,0.07707686309814452,-0.001,-0.001,-0.12575,-0.19763580302247513,10,1,100,-0.9986581090347653,-10,-1,-100,19200.90312918299,0.05944434159368009,0.020369975532795855,0.9980237644211121,53.589794047839064,3.299878702266172,259.8440307103094,-86.16924744477949,-56.279510498046875,4761.76025390625,True
1599384583.9334202,0.0,10,0.5,0.5,0.02991359558105469,-0.001,-0.001,-0.12575,-0.114712940802912,10,1,100,-0.8923188870799619,-10,-1,-100,19197.445420396863,0.06172274479492569,0.01719592420463995,0.9979451903615392,53.226567966791244,3.277913491898858,259.22003809438,-86.5338731991769,-57.074005126953125,4761.76025390625,True
1599384583.9668014,0.0,10,0.5,0.5,-0.018798449707031255,-0.001,-0.001,-0.12575,0.022969397393930835,10,1,100,-0.7659232703036973,-10,-1,-100,19195.71109641972,0.06261945752867505,0.015581329051940374,0.9979158410025315,53.045402348482604,3.2669193290712584,258.9045144272689,-86.71618843886617,-57.472137451171875,4761.76025390625,True
1599384584.0025191,0.0,10,0.5,0.5,0.031736848449707034,-0.001,-0.001,-0.12575,-0.18908772220749082,10,1,100,-0.8640508673254012,-10,-1,-100,19192.231509779347,0.06430354103440204,0.01220528859206758,0.9978557438531991,52.69956895620113,3.2458705269757573,258.3429697829375,-87.08082372380046,-58.26031494140625,4761.76025390625,True
1599384584.0384586,0.0,10,0.5,0.5,0.033326730346679684,-0.001,-0.001,-0.12575,-0.24543923741722995,10,1,100,-0.8643100400800947,-10,-1,-100,19188.737337501487,0.06581688197875771,0.008644426162765829,0.9977942733564424,52.37844965695165,3.2262456127851475,257.8886962280604,-87.44546514730372,-59.049560546875,4761.76025390625,True
1599384584.0669358,0.0,10,0.5,0.5,0.03467555236816407,-0.001,-0.001,-0.12575,-0.2921140128836819,10,1,100,-0.8381382713239431,-10,-1,-100,19185.228579136194,0.0669333453618187,0.005006751270221544,0.9977448870930852,52.07354333713878,3.20752510446803,257.5012916423753,-87.8101131894413,-59.83734130859375,4761.76025390625,True
1599384584.1007087,0.0,10,0.5,0.5,-0.06364078369140624,-0.001,-0.001,-0.12575,0.06885685130292174,10,1,100,-0.7286259381245221,-10,-1,-100,19185.228579136194,0.0669333453618187,0.005006751270221544,0.9977448870930852,52.07354333713878,3.20752510446803,257.5012916423753,-87.8101131894413,-59.83734130859375,4761.76025390625,True
1599384584.135627,0.0,10,0.5,0.5,0.08531700744628908,-0.001,-0.001,-0.12575,-0.5562977148493741,10,1,100,-0.8551173605822997,-10,-1,-100,19179.938092809287,0.06806662077648926,-0.0006529553861541824,0.9976805645021521,51.66297952696831,3.1821609101437884,257.12955891883223,-88.35709725155161,-61.00726318359375,4761.76025390625,True
1599384584.166986,0.0,10,0.5,0.5,0.03865160522460938,-0.001,-0.001,-0.12575,-0.43202476137409285,10,1,100,-0.7960137358151003,-10,-1,-100,19176.39286879485,0.06854474546704589,-0.004641798009344832,0.9976372444832331,51.4212078675397,3.167114767970574,257.0274380595954,-88.72176101889298,-61.794189453125,4761.76025390625,True
1599384584.200427,0.0,10,0.5,0.5,-0.010053454589843754,-0.001,-0.001,-0.12575,-0.24605684145999268,10,1,100,-0.7521665046672559,-10,-1,-100,19174.614786730963,0.06856925142599203,-0.00655071888770615,0.9976248522570663,51.304549210928755,3.1598229823220363,256.99390500666897,-88.90409527990386,-62.18536376953125,4761.76025390625,True
1599384584.2342725,0.0,10,0.5,0.5,0.039258447265624996,-0.001,-0.001,-0.12575,-0.4899731018042952,10,1,100,-0.7378306648217832,-10,-1,-100,19171.04768246808,0.06844963981716932,-0.010475104435955045,0.997599578486256,51.09604659896809,3.1467118211084864,257.0446844622392,-89.26876838630645,-62.9569091796875,4761.76025390625,True
1599384584.2696152,0.0,10,0.5,0.5,-0.008400099182128903,-0.001,-0.001,-0.12575,-0.3231114433319091,10,1,100,-0.7355673875041636,-10,-1,-100,19169.25866016769,0.06831214010787624,-0.012497762511915303,0.9975857143354037,51.00611551523371,3.14101193082664,257.1391881673305,-89.45110707130144,-63.341094970703125,4761.76025390625,True
1599384584.30059,0.0,10,0.5,0.5,-0.056084753417968744,-0.001,-0.001,-0.12575,-0.1238150044075389,10,1,100,-0.749976297964767,-10,-1,-100,19169.25866016769,0.06831214010787624,-0.012497762511915303,0.9975857143354037,51.00611551523371,3.14101193082664,257.1391881673305,-89.45110707130144,-63.341094970703125,4761.76025390625,True
1599384584.3340554,0.0,10,0.5,0.5,0.13832118072509764,-0.001,-0.001,-0.12575,-1.0059529494417796,10,1,100,-0.5921421554316106,-10,-1,-100,19162.066102855257,0.06687210910068464,-0.020491671928986713,0.9975511076661592,50.7151381206454,3.122288407277873,257.8494575977321,-90.18047523148223,-64.8702392578125,4761.76025390625,True
1599384584.367014,0.0,10,0.5,0.5,-0.05330772094726563,-0.001,-0.001,-0.12575,-0.20983170378674398,10,1,100,-0.7364021129573993,-10,-1,-100,19162.066102855257,0.06687210910068464,-0.020491671928986713,0.9975511076661592,50.7151381206454,3.122288407277873,257.8494575977321,-90.18047523148223,-64.8702392578125,4761.76025390625,True
1599384584.403122,0.0,10,0.5,0.5,0.09355826721191407,-0.001,-0.001,-0.12575,-0.8673022147529139,10,1,100,-0.527885235412016,-10,-1,-100,19156.633392580086,0.06497554182561577,-0.02644218921223212,0.9975364602830977,50.56338113756162,3.112191868739067,258.708246062247,-90.72751423714467,-66.02435302734375,4761.76025390625,True
1599384584.425058,0.0,10,0.5,0.5,0.046782521057128906,-0.001,-0.001,-0.12575,-0.726041311789614,10,1,100,-0.5401957350347004,-10,-1,-100,19152.99335086858,0.06336508321170138,-0.03053897040598662,0.9975230511201817,50.49864504049947,3.1076436081651004,259.46380149745966,-91.09221264125887,-66.79544067382812,4761.76025390625,True
1599384584.466615,0.0,10,0.5,0.5,-0.04948594055175781,-0.001,-0.001,-0.12575,-0.3199177645817845,10,1,100,-0.7008847702111273,-10,-1,-100,19152.99335086858,0.06336508321170138,-0.03053897040598662,0.9975230511201817,50.49864504049947,3.1076436081651004,259.46380149745966,-91.09221264125887,-66.79544067382812,4761.76025390625,True
1599384584.500017,0.0,10,0.5,0.5,0.0936131332397461,-0.001,-0.001,-0.12575,-0.9390662627028618,10,1,100,-0.3665439727830492,-10,-1,-100,19147.50593560387,0.06032989554195957,-0.03614042401161475,0.9975240214932958,50.4569514447814,3.1041559821324323,260.8804783193562,-91.63926760974644,-67.91986083984375,4761.76025390625,True
1599384584.5363002,0.0,10,0.5,0.5,-0.047170135498046876,-0.001,-0.001,-0.12575,-0.382070764740276,10,1,100,-0.6692412547647217,-10,-1,-100,19147.50593560387,0.06032989554195957,-0.03614042401161475,0.9975240214932958,50.4569514447814,3.1041559821324323,260.8804783193562,-91.63926760974644,-67.91986083984375,4761.76025390625,True
1599384584.567616,0.0,10,0.5,0.5,0.04630741271972656,-0.001,-0.001,-0.12575,-0.7967048563482465,10,1,100,-0.4058610976812649,-10,-1,-100,19143.82942339743,0.057943020801095445,-0.039882925112483654,0.9975229113283142,50.481878859263226,3.1050322668097063,262.09865296037157,-92.00397423866725,-68.65283203125,4761.76025390625,True
1599384584.6006305,0.0,10,0.5,0.5,0.08988447418212892,-0.001,-0.001,-0.12575,-0.98793662485968,10,1,100,-0.19255325279548496,-10,-1,-100,19138.287302512676,0.05384352391863558,-0.0449969350809443,0.9975350373622697,51.029692769050264,3.1376817201830542,266.5969745426964,-92.5510253142897,-69.71932983398438,4761.76025390625,True
1599384584.6338303,0.0,10,0.5,0.5,-0.043589801025390625,-0.001,-0.001,-0.12575,-0.47978554527051814,10,1,100,-0.6010560794225472,-10,-1,-100,19138.287302512676,0.05384352391863558,-0.0449969350809443,0.9975350373622697,51.029692769050264,3.1376817201830542,266.5969745426964,-92.5510253142897,-69.71932983398438,4761.76025390625,True
1599384584.6697733,0.0,10,0.5,0.5,0.04656366271972656,-0.001,-0.001,-0.12575,-0.8428006786539928,10,1,100,-0.26065369824129525,-10,-1,-100,19134.57432129339,0.0507621101044326,-0.048267527954822226,0.9975437102818483,52.0240697042244,3.1980821860827686,272.91792206214694,-92.9156853624654,-70.42556762695312,4761.76025390625,True
1599384584.701089,0.0,10,0.5,0.5,0.08789511260986328,-0.001,-0.001,-0.12575,-1.008035108950805,10,1,100,-0.011357168125688655,-10,-1,-100,19128.97750286979,0.04570913818046642,-0.05271767461011333,0.9975627907407638,53.507321438778725,3.2880656076713355,282.43903292771483,-93.46260266115137,-71.44793701171875,4761.76025390625,True
1599384584.7343073,0.0,10,0.5,0.5,-0.04001006774902344,-0.001,-0.001,-0.12575,-0.5662430436898076,10,1,100,-0.5145380634302845,-10,-1,-100,19128.97750286979,0.04570913818046642,-0.05271767461011333,0.9975627907407638,53.507321438778725,3.2880656076713355,282.43903292771483,-93.46260266115137,-71.44793701171875,4761.76025390625,True
1599384584.7677226,0.0,10,0.5,0.5,0.044593905639648435,-0.001,-0.001,-0.12575,-0.8608837569314117,10,1,100,-0.11299481675538176,-10,-1,-100,19125.22806139209,0.04207625994128108,-0.0553723397437662,0.9975788151021726,54.485553963939154,3.3473278503034885,288.7858629099013,-93.82716628106333,-72.11114501953125,4761.76025390625,True
1599384584.8031273,0.0,10,0.5,0.5,0.08258981628417968,-0.001,-0.001,-0.12575,-0.9867216949494491,10,1,100,0.165354306910161,-10,-1,-100,19119.576559751877,0.036262550257126214,-0.05890707714785299,0.9976046229397428,55.917486624286646,3.4339285085383877,298.2001867323123,-94.37394159574998,-73.064697265625,4761.76025390625,True
1599384584.8344336,0.0,10,0.5,0.5,-0.03669245300292969,-0.001,-0.001,-0.12575,-0.6360847652149569,10,1,100,-0.41330640820986797,-10,-1,-100,19119.576559751877,0.036262550257126214,-0.05890707714785299,0.9976046229397428,55.917486624286646,3.4339285085383877,298.2001867323123,-94.37394159574998,-73.064697265625,4761.76025390625,True
1599384584.8674705,0.0,10,0.5,0.5,0.11691381225585938,-0.001,-0.001,-0.12575,-1.0351102327395258,10,1,100,0.489651862423601,-10,-1,-100,19111.990197709412,0.028075718110717254,-0.06251388444067976,0.9976491208359304,57.76570113437307,3.545431187060261,310.57651013055585,-95.10284918556655,-74.27252197265625,4761.76025390625,True
1599384584.9006436,0.0,10,0.5,0.5,0.002733152770996089,-0.001,-0.001,-0.12575,-0.7679194967693089,10,1,100,-0.08119842391833143,-10,-1,-100,19110.084496497293,0.025852013469300533,-0.06333981759767571,0.9976571259236693,58.20871790208255,3.5721007292711473,313.5944728426342,-95.28505439914701,-74.56497192382812,4761.76025390625,True
1599384584.9367695,0.0,10,0.5,0.5,-0.033451214599609376,-0.001,-0.001,-0.12575,-0.6876718703182336,10,1,100,-0.3003597873268241,-10,-1,-100,19110.084496497293,0.025852013469300533,-0.06333981759767571,0.9976571259236693,58.20871790208255,3.5721007292711473,313.5944728426342,-95.28505439914701,-74.56497192382812,4761.76025390625,True
1599384584.9678187,0.0,10,0.5,0.5,0.11135227355957031,-0.001,-0.001,-0.12575,-0.9416997952662258,10,1,100,0.6769382786645832,-10,-1,-100,19102.425254065427,0.01699293242433259,-0.0656324870221877,0.9976991615185935,59.94967725959222,3.676733666503592,325.59955703028214,-96.01379141853677,-75.70358276367188,4761.76025390625,True
1599384585.0007849,0.0,10,0.5,0.5,-0.0312296142578125,-0.001,-0.001,-0.12575,-0.714496408009151,10,1,100,-0.20528476668278087,-10,-1,-100,19102.425254065427,0.01699293242433259,-0.0656324870221877,0.9976991615185935,59.94967725959222,3.676733666503592,325.59955703028214,-96.01379141853677,-75.70358276367188,4761.76025390625,True
1599384585.0346725,0.0,10,0.5,0.5,0.004861526489257813,-0.001,-0.001,-0.12575,-0.764737139070965,10,1,100,0.05539677631212345,-10,-1,-100,19100.501334750792,0.014653799467724458,-0.06607343461450658,0.9977071551309042,60.3717217579232,3.7020507390405655,328.5542365925687,-96.19595527901066,-75.98416137695312,4761.76025390625,True
1599384585.0710483,0.0,10,0.5,0.5,0.11007705841064454,-0.001,-0.001,-0.12575,-0.8272904913528136,10,1,100,0.8569902537820718,-10,-1,-100,19092.769228192978,0.005268333656274575,-0.06703082130099111,0.9977369962350804,62.02881759882982,3.801306569436873,340.30104465786354,-96.9245319732184,-77.08905029296875,4761.76025390625,True
1599384585.100716,0.0,10,0.5,0.5,-0.028298611450195313,-0.001,-0.001,-0.12575,-0.7329831373734488,10,1,100,-0.07751224691049735,-10,-1,-100,19092.769228192978,0.005268333656274575,-0.06703082130099111,0.9977369962350804,62.02881759882982,3.801306569436873,340.30104465786354,-96.9245319732184,-77.08905029296875,4761.76025390625,True
1599384585.1345925,0.0,10,0.5,0.5,0.07505203857421876,-0.001,-0.001,-0.12575,-0.7269606827745703,10,1,100,0.6993887121971752,-10,-1,-100,19086.931901664822,-0.0017609405844451705,-0.0669654730941311,0.9977537394074437,63.22803779150555,3.872987300601506,348.9728346937446,-97.47088450318932,-77.9005126953125,4761.76025390625,True
1599384585.1678238,0.0,10,0.5,0.5,0.040659963989257815,-0.001,-0.001,-0.12575,-0.6998637009878854,10,1,100,0.5453302545962436,-10,-1,-100,19083.022140112356,-0.006716091651598677,-0.06665240362079189,0.9977536525638472,63.98880588054649,3.918375429697364,354.5869424903059,-97.83508320900978,-78.430419921875,4761.76025390625,True
1599384585.2030163,0.0,10,0.5,0.5,-0.025439297485351564,-0.001,-0.001,-0.12575,-0.7319451809691008,10,1,100,0.05411301207176544,-10,-1,-100,19083.022140112356,-0.006716091651598677,-0.06665240362079189,0.9977536525638472,63.98880588054649,3.918375429697364,354.5869424903059,-97.83508320900978,-78.430419921875,4761.76025390625,True
1599384585.2341375,0.0,10,0.5,0.5,0.007971411132812502,-0.001,-0.001,-0.12575,-0.698021744246514,10,1,100,0.30815894564542934,-10,-1,-100,19081.06179654482,-0.008993971220666244,-0.06634024645133191,0.9977565234978214,64.36253954707207,3.9406577573042805,357.37070739563285,-98.01717205027887,-78.69073486328125,4761.76025390625,True
1599384585.268029,0.0,10,0.5,0.5,0.10293318176269532,-0.001,-0.001,-0.12575,-0.5224915044468263,10,1,100,1.1167297864091563,-10,-1,-100,19073.184007145814,-0.01838373666795249,-0.06445801009104962,0.9977510727437108,65.75481657323125,4.023500257819946,368.0210411726588,-98.74546147683967,-79.6949462890625,4761.76025390625,True
1599384585.3014429,0.0,10,0.5,0.5,0.00866455535888672,-0.001,-0.001,-0.12575,-0.6394482396873369,10,1,100,0.4331531216969968,-10,-1,-100,19071.20545665128,-0.02066533944070467,-0.0638091126361673,0.9977481349971973,66.08415648138637,4.0430710782332095,370.5996846894883,-98.92751800021708,-79.94345092773438,4761.76025390625,True
1599384585.3369875,0.0,10,0.5,0.5,-0.022160916137695316,-0.001,-0.001,-0.12575,-0.704155647736967,10,1,100,0.20875867160828265,-10,-1,-100,19071.20545665128,-0.02066533944070467,-0.0638091126361673,0.9977481349971973,66.08415648138637,4.0430710782332095,370.5996846894883,-98.92751800021708,-79.94345092773438,4761.76025390625,True
1599384585.368418,0.0,10,0.5,0.5,0.04028810272216797,-0.001,-0.001,-0.12575,-0.5399889115663646,10,1,100,0.6960822688275728,-10,-1,-100,19067.237432837137,-0.025061319168275455,-0.0623183453749673,0.9977416269311771,66.72296412061365,4.081013814583922,375.6692726930577,-99.29161278687883,-80.43280029296875,4761.76025390625,True
1599384585.401386,0.0,10,0.5,0.5,0.03949714202880859,-0.001,-0.001,-0.12575,-0.49565034522641943,10,1,100,0.7514833345473924,-10,-1,-100,19063.254845879157,-0.029525205773850892,-0.06056343825191283,0.9977275841486585,67.32148827887916,4.116524128081633,380.54259000922383,-99.65568452875758,-80.90853881835938,4761.76025390625,True
1599384585.4349718,0.0,10,0.5,0.5,0.01002890167236328,-0.001,-0.001,-0.12575,-0.5624459260349887,10,1,100,0.5530019589474618,-10,-1,-100,19061.25809178094,-0.031747277873983626,-0.05958118013198583,0.9977184940260814,67.60705039915928,4.133456776071945,382.9127856123795,-99.83771204746503,-81.14501953125,4761.76025390625,True
1599384585.4703813,0.0,10,0.5,0.5,0.09903779296875,-0.001,-0.001,-0.12575,-0.16451136354521778,10,1,100,1.240781769999405,-10,-1,-100,19053.23467082833,-0.03998623660045809,-0.05507740367411701,0.9976811015986272,68.67445587729456,4.196746571361277,392.03776923617846,-100.56576962315168,-82.07867431640625,4761.76025390625,True
1599384585.5013423,0.0,10,0.5,0.5,-0.017951480102539063,-0.001,-0.001,-0.12575,-0.6137002023900984,10,1,100,0.4207084269535602,-10,-1,-100,19053.23467082833,-0.03998623660045809,-0.05507740367411701,0.9976811015986272,68.67445587729456,4.196746571361277,392.03776923617846,-100.56576962315168,-82.07867431640625,4761.76025390625,True
1599384585.5352008,0.0,10,0.5,0.5,0.011164955139160156,-0.001,-0.001,-0.12575,-0.47141357827943,10,1,100,0.644633138918802,-10,-1,-100,19051.219715317595,-0.04199167021382496,-0.05379441163669882,0.9976687130051313,68.91690342306703,4.211117741925258,394.196284304004,-100.74777173856044,-82.30551147460938,4761.76025390625,True
1599384585.5683913,0.0,10,0.5,0.5,0.09488162689208984,-0.001,-0.001,-0.12575,0.020947698907759382,10,1,100,1.2668030216460489,-10,-1,-100,19043.123494510655,-0.049438812815713246,-0.04816373271187519,0.997615185649573,69.78737999429231,4.26273164592184,402.3198415410365,-101.47573462443493,-83.18798828125,4761.76025390625,True
1599384585.603658,0.0,10,0.5,0.5,0.011958808898925782,-0.001,-0.001,-0.12575,-0.37217172426847556,10,1,100,0.7146139631005775,-10,-1,-100,19041.09034018626,-0.05115227388374827,-0.046635270730673535,0.9976014216110554,69.98145031443764,4.2742508748628385,404.2288268757054,-101.65771473687535,-83.40573120117188,4761.76025390625,True
1599384585.6346443,0.0,10,0.5,0.5,-0.015051284790039064,-0.001,-0.001,-0.12575,-0.5232356484526035,10,1,100,0.5465447100186549,-10,-1,-100,19041.09034018626,-0.05115227388374827,-0.046635270730673535,0.9976014216110554,69.98145031443764,4.2742508748628385,404.2288268757054,-101.65771473687535,-83.40573120117188,4761.76025390625,True
1599384585.6686215,0.0,10,0.5,0.5,0.039753965759277345,-0.001,-0.001,-0.12575,-0.1789279905821633,10,1,100,0.902922785180554,-10,-1,-100,19037.013112854213,-0.05436435917209004,-0.04352081369721998,0.9975722807029773,70.34257933687859,4.295713053529262,407.90554774210807,-102.02166335636669,-83.83538818359375,4761.76025390625,True
1599384585.7016294,0.0,10,0.5,0.5,0.06516234741210938,-0.001,-0.001,-0.12575,0.0780443745689981,10,1,100,1.0882420903826697,-10,-1,-100,19030.869976783404,-0.058938522190845985,-0.03837182061901433,0.9975238613608908,70.81125862860813,4.323641575285182,413.03085264652685,-102.56755842568029,-84.45904541015625,4761.76025390625,True
1599384585.737658,0.0,10,0.5,0.5,0.039630233764648436,-0.001,-0.001,-0.12575,-0.04130392992999499,10,1,100,0.9304276842111003,-10,-1,-100,19026.7563567654,-0.06163137833086206,-0.03479767197495999,0.9974922030924159,71.07556133337916,4.339458652214759,416.18703998382637,-102.93147150080273,-84.8731689453125,4761.76025390625,True
1599384585.7735252,0.0,10,0.5,0.5,-0.012049337768554689,-0.001,-0.001,-0.12575,-0.3961422177077334,10,1,100,0.6643526874651939,-10,-1,-100,19026.7563567654,-0.06163137833086206,-0.03479767197495999,0.9974922030924159,71.07556133337916,4.339458652214759,416.18703998382637,-102.93147150080273,-84.8731689453125,4761.76025390625,True
1599384585.8019004,0.0,10,0.5,0.5,0.08831007232666016,-0.001,-0.001,-0.12575,0.4099124495579872,10,1,100,1.1576396911284008,-10,-1,-100,19018.485448839376,-0.0660886382728395,-0.02749243273450528,0.9974349392484607,71.48894595801345,4.364411797141789,421.8637923489476,-103.65926194142078,-85.66201782226562,4761.76025390625,True
1599384585.8348277,0.0,10,0.5,0.5,0.013410350036621093,-0.001,-0.001,-0.12575,-0.11165046220637592,10,1,100,0.8164550579093051,-10,-1,-100,19016.408624708652,-0.06701528482567051,-0.02561786441462213,0.9974230178928941,71.56629390841161,4.369137265989816,423.13678280143336,-103.84120267978217,-85.85089111328125,4761.76025390625,True
1599384585.8716142,0.0,10,0.5,0.5,0.03727402954101563,-0.001,-0.001,-0.12575,0.11613530957941898,10,1,100,0.9078570519635059,-10,-1,-100,19012.244060098543,-0.06866404613944124,-0.021869713052366124,0.9974001024758158,71.68962896562456,4.376762179485296,425.503767643762,-104.20507689010192,-86.22357177734375,4761.76025390625,True
1599384585.9017453,0.0,10,0.5,0.5,-0.009198757934570312,-0.001,-0.001,-0.12575,-0.25548735678774825,10,1,100,0.7456481581789944,-10,-1,-100,19012.244060098543,-0.06866404613944124,-0.021869713052366124,0.9974001024758158,71.68962896562456,4.376762179485296,425.503767643762,-104.20507689010192,-86.22357177734375,4761.76025390625,True
1599384585.9349136,0.0,10,0.5,0.5,0.014123881530761719,-0.001,-0.001,-0.12575,-0.04135073224807387,10,1,100,0.8260299419837073,-10,-1,-100,19010.156319751637,-0.06937731214373524,-0.01994692011987773,0.9973910511617005,71.73745510534802,4.379773941944195,426.60795795745753,-104.38701047498458,-86.40518188476562,4761.76025390625,True
1599384585.97082,0.0,10,0.5,0.5,0.03704430236816406,-0.001,-0.001,-0.12575,0.189440671652437,10,1,100,0.8865986013141735,-10,-1,-100,19005.969923324068,-0.07055979174313404,-0.016125085009984358,0.9973772091954909,71.80549594115779,4.384199798975134,428.6564927716723,-104.75087104040391,-86.76382446289062,4761.76025390625,True
1599384586.0038574,0.0,10,0.5,0.5,0.05970571136474609,-0.001,-0.001,-0.12575,0.4582329644866312,10,1,100,0.9110700388739698,-10,-1,-100,18999.66303958639,-0.07183959761325892,-0.010234859689516517,0.9973636848521711,71.83545243473489,4.386653471839197,431.3062436152923,-105.29664730815388,-87.2957763671875,4761.76025390625,True
1599384586.0354636,0.0,10,0.5,0.5,-0.006841201782226562,-0.001,-0.001,-0.12575,-0.12746097215938243,10,1,100,0.7848369757055983,-10,-1,-100,18999.66303958639,-0.07183959761325892,-0.010234859689516517,0.9973636848521711,71.83545243473489,4.386653471839197,431.3062436152923,-105.29664730815388,-87.2957763671875,4761.76025390625,True
1599384586.0685015,0.0,10,0.5,0.5,0.0379798095703125,-0.001,-0.001,-0.12575,0.30183650731423,10,1,100,0.8364397592282269,-10,-1,-100,18995.440258153016,-0.07229698557671699,-0.006357734386055948,0.9973628853581813,71.80799137616239,4.385535249676733,432.7905149568359,-105.66048990219645,-87.64715576171875,4761.76025390625,True
1599384586.1027055,0.0,10,0.5,0.5,0.05816958465576172,-0.001,-0.001,-0.12575,0.5489357069158797,10,1,100,0.8072441091369755,-10,-1,-100,18989.0787983801,-0.07243768180880762,-0.000612573147975801,0.9973727522888843,71.70596402037971,4.380348263700325,434.64918910516394,-106.20624335144282,-88.15286254882812,4761.76025390625,True
1599384586.1396446,0.0,10,0.5,0.5,0.03686223907470703,-0.001,-0.001,-0.12575,0.39623750991869183,10,1,100,0.7648344500422986,-10,-1,-100,18984.8196335698,-0.07217022120668573,0.003191057915007185,0.997387224863223,71.61738212783771,4.375762571978521,435.7612956160254,-106.5700721828076,-88.48388671875,4761.76025390625,True
1599384586.168901,0.0,10,0.5,0.5,0.016146730041503906,-0.001,-0.001,-0.12575,0.2147157515616293,10,1,100,0.7651400810621347,-10,-1,-100,18982.684593705693,-0.07192432495681539,0.004970812450246138,0.9973977052826475,71.6216781873051,4.376476007713226,436.6125617501246,-106.75198292249895,-88.64663696289062,4761.76025390625,True
1599384586.2029088,0.0,10,0.5,0.5,0.035740032958984376,-0.001,-0.001,-0.12575,0.42968500067192583,10,1,100,0.712912713141826,-10,-1,-100,18978.403600073303,-0.07122152589390214,0.00851522913158891,0.997424175124195,71.81461779248204,4.389243626876075,439.44443844534993,-107.11578922258046,-88.96047973632812,4761.76025390625,True
1599384586.235801,0.0,10,0.5,0.5,-0.0034520050048828126,-0.001,-0.001,-0.12575,0.07828182675604403,10,1,100,0.783448367408597,-10,-1,-100,18978.403600073303,-0.07122152589390214,0.00851522913158891,0.997424175124195,71.81461779248204,4.389243626876075,439.44443844534993,-107.11578922258046,-88.96047973632812,4761.76025390625,True
1599384586.2717645,0.0,10,0.5,0.5,0.035038543701171876,-0.001,-0.001,-0.12575,0.46710462945616527,10,1,100,0.677216519319737,-10,-1,-100,18974.108054877375,-0.07025345683877209,0.012022359208695509,0.9974567232122205,72.14310395029946,4.410399528712735,443.1189728933919,-107.47956706022632,-89.26199340820312,4761.76025390625,True
1599384586.3016858,0.0,10,0.5,0.5,0.03477862396240235,-0.001,-0.001,-0.12575,0.47942298609595313,10,1,100,0.6394602471957719,-10,-1,-100,18969.797959608375,-0.06902935872871323,0.01529358135794633,0.9974973954867001,72.45689358316834,4.4307612496161815,446.7191099851722,-107.84331458653816,-89.55682373046875,4761.76025390625,True
1599384586.3356256,0.0,10,0.5,0.5,0.05308413848876953,-0.001,-0.001,-0.12575,0.6852577831579898,10,1,100,0.503357437649326,-10,-1,-100,18963.305537467706,-0.06668063529915969,0.020110082679312927,0.9975716903815643,72.85461958716778,4.457035464981454,451.6957773249513,-108.38888127317999,-89.99154663085938,4761.76025390625,True
1599384586.3691556,0.0,10,0.5,0.5,-0.001312689208984375,-0.001,-0.001,-0.12575,0.20664214525821303,10,1,100,0.7377138843732702,-10,-1,-100,18963.305537467706,-0.06668063529915969,0.020110082679312927,0.9975716903815643,72.85461958716778,4.457035464981454,451.6957773249513,-108.38888127317999,-89.99154663085938,4761.76025390625,True
1599384586.4051542,0.0,10,0.5,0.5,0.05239376411437989,-0.001,-0.001,-0.12575,0.6893428666909598,10,1,100,0.4270657665234915,-10,-1,-100,18956.780383836012,-0.06386125146626542,0.02447068474472987,0.9976587222839716,73.16613043946805,4.478264110527249,456.16395048343514,-108.9343850236504,-90.41313934326172,4761.76025390625,True
1599384586.4360085,0.0,10,0.5,0.5,-0.00034492111206054686,-0.001,-0.001,-0.12575,0.256365502062344,10,1,100,0.7081605764018726,-10,-1,-100,18956.780383836012,-0.06386125146626542,0.02447068474472987,0.9976587222839716,73.16613043946805,4.478264110527249,456.16395048343514,-108.9343850236504,-90.41313934326172,4761.76025390625,True
1599384586.4689224,0.0,10,0.5,0.5,0.06689212341308594,-0.001,-0.001,-0.12575,0.8306000807797604,10,1,100,0.2170720269517037,-10,-1,-100,18948.029269841732,-0.05940460686248438,0.029668196134985742,0.9977930100083933,73.43597419366237,4.497995638797125,461.2426309889833,-109.6616330246851,-90.94182586669922,4761.76025390625,True
1599384586.5022922,0.0,10,0.5,0.5,0.016740126419067382,-0.001,-0.001,-0.12575,0.4508446701861381,10,1,100,0.5205292920112483,-10,-1,-100,18945.832401011023,-0.05812341928171948,0.030916814449621806,0.9978305561142577,73.47778315063412,4.501412143880669,462.354922234001,-109.84343014235036,-91.0687255859375,4761.76025390625,True
1599384586.5392642,0.0,10,0.5,0.5,0.033104808044433595,-0.001,-0.001,-0.12575,0.570524860759589,10,1,100,0.36517495017963997,-10,-1,-100,18941.427756286343,-0.05555893737862321,0.03311633646632289,0.9979060640843944,73.53018648730713,4.506393107380337,464.3853083480496,-110.20700781179863,-91.32182312011719,4761.76025390625,True
1599384586.602524,0.0,10,0.5,0.5,0.0015139274597167967,-0.001,-0.001,-0.12575,0.3530327698229536,10,1,100,0.6200568816377385,-10,-1,-100,18941.427756286343,-0.05555893737862321,0.03311633646632289,0.9979060640843944,73.53018648730713,4.506393107380337,464.3853083480496,-110.20700781179863,-91.32182312011719,4761.76025390625,True
1599384586.6353989,0.0,10,0.5,0.5,0.07833850173950195,-0.001,-0.001,-0.12575,0.8770972146297664,10,1,100,-0.1674391290587226,-10,-1,-100,18930.35252280603,-0.04841412145276018,0.037858194048807796,0.9981096282409664,73.48928448472174,4.508620841347481,468.3756412550728,-111.11586316122843,-91.92607116699219,4761.76025390625,True
1599384586.6723902,0.0,10,0.5,0.5,0.032236848449707034,-0.001,-0.001,-0.12575,0.5837651188165386,10,1,100,0.19364364604909656,-10,-1,-100,18925.896982618026,-0.04522125887148852,0.03947883113018281,0.9981966037002292,73.40464189390495,4.505428402794041,469.5331412798115,-111.47937411429109,-92.15972900390625,4761.76025390625,True
1599384586.7027266,0.0,10,0.5,0.5,0.003114665985107422,-0.001,-0.001,-0.12575,0.424119935656261,10,1,100,0.5105490941905402,-10,-1,-100,18925.896982618026,-0.04522125887148852,0.03947883113018281,0.9981966037002292,73.40464189390495,4.505428402794041,469.5331412798115,-111.47937411429109,-92.15972900390625,4761.76025390625,True
1599384586.7355974,0.0,10,0.5,0.5,0.017959682846069337,-0.001,-0.001,-0.12575,0.49420755433695973,10,1,100,0.34862058082093494,-10,-1,-100,18923.663760076044,-0.04376869000124454,0.04009838334687019,0.9982366560232812,73.34639988747632,4.5028732036873915,470.00822359685867,-111.66112385971299,-92.27513885498047,4761.76025390625,True
1599384586.7700348,0.0,10,0.5,0.5,0.05832864799499512,-0.001,-0.001,-0.12575,0.6804820903213338,10,1,100,-0.22294359348790765,-10,-1,-100,18914.694521295256,-0.037272963939395,0.04233684632492797,0.9984078913963131,73.03950256262642,4.488208991223141,471.4165164903054,-112.38808797837376,-92.70632934570312,4761.76025390625,True
1599384586.8057983,0.0,10,0.5,0.5,0.004335762786865234,-0.001,-0.001,-0.12575,0.45842240867357514,10,1,100,0.42397018394435926,-10,-1,-100,18914.694521295256,-0.037272963939395,0.04233684632492797,0.9984078913963131,73.03950256262642,4.488208991223141,471.4165164903054,-112.38808797837376,-92.70632934570312,4761.76025390625,True
1599384586.8360963,0.0,10,0.5,0.5,0.04465506858825684,-0.001,-0.001,-0.12575,0.5799204954178259,10,1,100,-0.11914231899358241,-10,-1,-100,18907.929427742958,-0.03235974871952905,0.04342513242116643,0.9985324754543604,72.7108554749743,4.4712263790419975,471.81344628416474,-112.93328166315482,-93.02262115478516,4761.76025390625,True
1599384586.8696039,0.0,10,0.5,0.5,0.005089453125,-0.001,-0.001,-0.12575,0.4724675794225977,10,1,100,0.36947471717871716,-10,-1,-100,18907.929427742958,-0.03235974871952905,0.04342513242116643,0.9985324754543604,72.7108554749743,4.4712263790419975,471.81344628416474,-112.93328166315482,-93.02262115478516,4761.76025390625,True
1599384586.9027345,0.0,10,0.5,0.5,0.031289132308959966,-0.001,-0.001,-0.12575,0.5322793103892717,10,1,100,-0.022955931504576144,-10,-1,-100,18903.40119257185,-0.028815618886555646,0.04395750423179843,0.9986177436486376,72.45119360822908,4.45742467310852,471.8002875222608,-113.29673323524551,-93.227783203125,4761.76025390625,True
1599384586.938825,0.0,10,0.5,0.5,0.04356963691711426,-0.001,-0.001,-0.12575,0.5215864538065381,10,1,100,-0.23457639485222737,-10,-1,-100,18896.581581623992,-0.02369417238841215,0.04433441521092496,0.9987357237141031,71.99999248036588,4.432924095958187,471.3524878397434,-113.8418990882865,-93.5267105102539,4761.76025390625,True
1599384586.9698374,0.0,10,0.5,0.5,0.030690911102294924,-0.001,-0.001,-0.12575,0.48652630393223373,10,1,100,-0.10017131472064061,-10,-1,-100,18892.017002423294,-0.02028914426855995,0.04434813466696031,0.9988100888439256,71.66410471472499,4.414416774319437,470.8049833564988,-114.20533764104279,-93.71993255615234,4761.76025390625,True
1599384587.0019798,0.0,10,0.5,0.5,0.01846994285583496,-0.001,-0.001,-0.12575,0.47919848980947005,10,1,100,0.05512230458075956,-10,-1,-100,18889.729261213448,-0.018630992496147226,0.044288090461678094,0.9988450586361562,71.4869103868265,4.404586106850708,470.4642005632645,-114.38705593968093,-93.81379699707031,4761.76025390625,True
1599384587.0374365,0.0,10,0.5,0.5,0.029812296295166015,-0.001,-0.001,-0.12575,0.4573681295608356,10,1,100,-0.14846073028646634,-10,-1,-100,18885.142875724123,-0.015296999900956643,0.04403067494613259,0.9989130600096376,71.12198486705108,4.384256353938137,469.7001146309521,-114.7504915030579,-93.99510192871094,4761.76025390625,True
1599384587.072511,0.0,10,0.5,0.5,0.02958145065307617,-0.001,-0.001,-0.12575,0.43508932588092664,10,1,100,-0.1870721937603242,-10,-1,-100,18880.541952809668,-0.01194228810917607,0.04358998822235027,0.9989781252267202,70.74101842988898,4.362906968844883,468.81204029260965,-115.11392686499069,-94.17170715332031,4761.76025390625,True
1599384587.1035328,0.0,10,0.5,0.5,0.018544544982910156,-0.001,-0.001,-0.12575,0.44886492174983716,10,1,100,-0.03088871267260021,-10,-1,-100,18878.23603976867,-0.010341333037347647,0.04331142243146965,0.9990080968230304,70.5416020038902,4.351667795283904,468.30179903639174,-115.29564486239514,-94.25834655761719,4761.76025390625,True
1599384587.1363976,0.0,10,0.5,0.5,0.02925250587463379,-0.001,-0.001,-0.12575,0.401818110400342,10,1,100,-0.22255962845521335,-10,-1,-100,18873.613310705987,-0.007167939765754459,0.042629596540122265,0.9990652321737259,70.13017615274372,4.3283812610084,467.18300835452357,-115.65908268501978,-94.42755889892578,4761.76025390625,True
1599384587.1705155,0.0,10,0.5,0.5,0.008146176910400392,-0.001,-0.001,-0.12575,0.4700299745565996,10,1,100,0.09176919628674138,-10,-1,-100,18873.613310705987,-0.007167939765754459,0.042629596540122265,0.9990652321737259,70.13017615274372,4.3283812610084,467.18300835452357,-115.65908268501978,-94.42755889892578,4761.76025390625,True
1599384587.20573,0.0,10,0.5,0.5,0.0395070972442627,-0.001,-0.001,-0.12575,0.3239903336550297,10,1,100,-0.426925475162225,-10,-1,-100,18866.651959093637,-0.0024754353061763774,0.0413026866554544,0.9991436134485803,69.4837807303855,4.291558517359898,465.2718841747108,-116.20424611280875,-94.67387390136719,4761.76025390625,True
1599384587.2366052,0.0,10,0.5,0.5,0.02888670768737793,-0.001,-0.001,-0.12575,0.33706108912396066,10,1,100,-0.2972688625570007,-10,-1,-100,18861.992885533138,0.0005846138030167909,0.04021715948798817,0.99919079174571,69.03448808166218,4.265811150769272,463.8486600128849,-116.56769526263217,-94.8331527709961,4761.76025390625,True
1599384587.2706158,0.0,10,0.5,0.5,0.02840292510986328,-0.001,-0.001,-0.12575,0.3170526511983964,10,1,100,-0.30404870362221326,-10,-1,-100,18857.319273888133,0.0034013840640674474,0.039051822031644486,0.9992313975163398,68.57030770430393,4.239087904211033,462.30367426758426,-116.93115116497196,-94.98609161376953,4761.76025390625,True
1599384587.3037896,0.0,10,0.5,0.5,0.018697920608520508,-0.001,-0.001,-0.12575,0.3621851800249618,10,1,100,-0.18048839401014727,-10,-1,-100,18854.977016165503,0.004814176435410644,0.038407522418100165,0.9992505621349191,68.33874073883518,4.225736837817686,461.52645192280715,-117.1128819558998,-95.06010437011719,4761.76025390625,True
1599384587.3401203,0.0,10,0.5,0.5,0.02769137954711914,-0.001,-0.001,-0.12575,0.27516694393844576,10,1,100,-0.34045535281891814,-10,-1,-100,18850.28159669449,0.007529957016071494,0.03703612117977233,0.9992855575236206,67.87582731490556,4.199004315550066,459.9570750599173,-117.4763496436673,-95.20343017578125,4761.76025390625,True
1599384587.3704102,0.0,10,0.5,0.5,0.027439870452880856,-0.001,-0.001,-0.12575,0.24635352338321206,10,1,100,-0.3600370254819689,-10,-1,-100,18845.571638179244,0.010153080977688893,0.0355340452937739,0.999316889966201,67.41119839378858,4.172106060258064,458.35420845424,-117.8398263425285,-95.34254455566406,4761.76025390625,True
1599384587.405668,0.0,10,0.5,0.5,0.018641093444824217,-0.001,-0.001,-0.12575,0.3112455765397433,10,1,100,-0.23533267414711162,-10,-1,-100,18843.21120682347,0.011380926766225421,0.0347661737257914,0.9993306698337692,67.17598071195589,4.158455036546319,457.52481027072724,-118.02156829121866,-95.41007995605469,4761.76025390625,True
1599384587.4391356,0.0,10,0.5,0.5,0.026879087448120117,-0.001,-0.001,-0.12575,0.20925826003853418,10,1,100,-0.37597313254745707,-10,-1,-100,18838.479439160903,0.013754496909556858,0.03314897289079318,0.9993557721907902,66.70588674307909,4.131129041385988,455.8517959094855,-118.3850599640425,-95.54109954833984,4761.76025390625,True
1599384587.4740422,0.0,10,0.5,0.5,0.01864692916870117,-0.001,-0.001,-0.12575,0.27514454073555117,10,1,100,-0.2692933260669188,-10,-1,-100,18836.108102967497,0.014920566226446995,0.0322869950921683,0.9993672631477382,66.47248636362364,4.117545752112328,455.0183157603201,-118.56680977870818,-95.6051254272461,4761.76025390625,True
1599384587.5065053,0.0,10,0.5,0.5,0.03410965270996094,-0.001,-0.001,-0.12575,0.0675518790368358,10,1,100,-0.5097965143777192,-10,-1,-100,18828.97228359885,0.01814694140281603,0.029625575261110045,0.9993963246921469,65.77080129113047,4.076617550536222,452.47501517127637,-119.1120763455426,-95.78971099853516,4761.76025390625,True
1599384587.5394166,0.0,10,0.5,0.5,0.01856252784729004,-0.001,-0.001,-0.12575,0.22869290698292769,10,1,100,-0.30258870787471265,-10,-1,-100,18826.586406612187,0.01917328888478912,0.02868284296082066,0.9994046625431688,65.53942918718558,4.063102729208456,451.6337563787717,-119.2938377520129,-95.84910583496094,4761.76025390625,True
1599384587.5713308,0.0,10,0.5,0.5,0.011211150360107423,-0.001,-0.001,-0.12575,0.3217041526424029,10,1,100,-0.20211883209650017,-10,-1,-100,18826.586406612187,0.01917328888478912,0.02868284296082066,0.9994046625431688,65.53942918718558,4.063102729208456,451.6337563787717,-119.2938377520129,-95.84910583496094,4761.76025390625,True
1599384587.6062207,0.0,10,0.5,0.5,0.03282520065307617,-0.001,-0.001,-0.12575,0.0048631516512581685,10,1,100,-0.5126831655189673,-10,-1,-100,18819.406964145834,0.021979702211282665,0.02581295596683495,0.9994251267578566,64.8511272259373,4.022838269010908,449.1181019842038,-119.83914020320682,-96.01882934570312,4761.76025390625,True
1599384587.637258,0.0,10,0.5,0.5,0.018490306854248045,-0.001,-0.001,-0.12575,0.18009825028998383,10,1,100,-0.3306470975988416,-10,-1,-100,18817.006545691285,0.022859224328687276,0.02480904947453164,0.9994308214815374,64.62666510797443,4.009699243647869,448.30344463966134,-120.02091392467332,-96.07330322265625,4761.76025390625,True
1599384587.670182,0.0,10,0.5,0.5,0.031386664962768554,-0.001,-0.001,-0.12575,-0.050542957849166736,10,1,100,-0.5024138511619598,-10,-1,-100,18809.783477294142,0.0252039012424532,0.021812031201121414,0.999444344952255,64.00051593606595,3.9731430768471836,446.15778805933456,-120.56625299634045,-96.2282943725586,4761.76025390625,True
1599384587.7032392,0.0,10,0.5,0.5,0.018227627182006836,-0.001,-0.001,-0.12575,0.1318213782857608,10,1,100,-0.35034210309382463,-10,-1,-100,18807.368516441085,0.0259368880505061,0.020759166817410232,0.9994480150719708,63.96282865191054,3.9715551837303193,446.62722396442473,-120.74803309807098,-96.27743530273438,4761.76025390625,True
1599384587.740097,0.0,10,0.5,0.5,0.023920018005371094,-0.001,-0.001,-0.12575,0.009755539700169624,10,1,100,-0.42163256484634326,-10,-1,-100,18802.52768846706,0.027236985885510892,0.018705759643691387,0.9994539715044536,64.10904274414979,3.982123043687708,449.11588835017045,-121.11157806075936,-96.370361328125,4761.76025390625,True
1599384587.7706337,0.0,10,0.5,0.5,0.01233059844970703,-0.001,-0.001,-0.12575,0.21349021566384413,10,1,100,-0.29320838725779275,-10,-1,-100,18802.52768846706,0.027236985885510892,0.018705759643691387,0.9994539715044536,64.10904274414979,3.982123043687708,449.11588835017045,-121.11157806075936,-96.370361328125,4761.76025390625,True
1599384587.8042855,0.0,10,0.5,0.5,0.028819116592407226,-0.001,-0.001,-0.12575,-0.1335698672934903,10,1,100,-0.47897299793443443,-10,-1,-100,18795.239182128338,0.028913498265320404,0.015563798174303894,0.9994607435034409,64.40314062779662,4.002586330019846,453.3881089797099,-121.65685280033958,-96.49979400634766,4761.76025390625,True
1599384587.8372808,0.0,10,0.5,0.5,0.01263242416381836,-0.001,-0.001,-0.12575,0.17895395995347257,10,1,100,-0.3127210531573706,-10,-1,-100,18795.239182128338,0.028913498265320404,0.015563798174303894,0.9994607435034409,64.40314062779662,4.002586330019846,453.3881089797099,-121.65685280033958,-96.49979400634766,4761.76025390625,True
1599384587.8761766,0.0,10,0.5,0.5,0.03191146507263184,-0.001,-0.001,-0.12575,-0.27685674118793474,10,1,100,-0.4960683785985851,-10,-1,-100,18785.47028556897,0.030570504354001896,0.011432847961279106,0.999467225201025,64.8879142788822,4.0355649624949725,459.7731918086382,-122.38380041574374,-96.65133666992188,4761.76025390625,True
1599384587.9041498,0.0,10,0.5,0.5,0.0217148250579834,-0.001,-0.001,-0.12575,-0.10335725047999021,10,1,100,-0.40134619370239605,-10,-1,-100,18780.564030462992,0.031205401648774975,0.009270388587692014,0.9994700009521907,65.1673973501364,4.054332139770903,463.24668870321915,-122.74723515275542,-96.7206039428711,4761.76025390625,True
1599384587.937147,0.0,10,0.5,0.5,0.013091615295410156,-0.001,-0.001,-0.12575,0.11094744144140613,10,1,100,-0.33905967550148663,-10,-1,-100,18780.564030462992,0.031205401648774975,0.009270388587692014,0.9994700009521907,65.1673973501364,4.054332139770903,463.24668870321915,-122.74723515275542,-96.7206039428711,4761.76025390625,True
1599384587.9698622,0.0,10,0.5,0.5,0.016997983932495117,-0.001,-0.001,-0.12575,0.00418471660702617,10,1,100,-0.36470448804432987,-10,-1,-100,18778.105451522395,0.03143014930876674,0.008314857059542326,0.9994713647056168,65.31822689217361,4.0643980334522665,465.0673748515944,-122.92894226052515,-96.75086975097656,4761.76025390625,True
