Timestamp,Input Throttle,horizon,dT,dt,Input Roll,Roll P,Roll I,Roll D,Input Pitch,Pitch P,Pitch I,Pitch D,Input Yaw,Yaw P,Yaw I,Yaw D,Altitude,Direction X,Direction Y,Direction Z,Drag X,Drag Y,Drag Z,Vertical Velocity,Roll,Mass,Has Fuel
1599386190.4732802,0.0,10,0.5,0.5,-5.635514686584473,-0.1005,-0.001,-0.12575,-0.0001792104892456884,10,1,100,0.49814784593198064,-10,-1,-100,19349.722301086294,-0.04884644747926274,-0.00017518005988844591,0.9988062844619082,61.076570552907796,3.6863002944145515,233.73169023841058,-68.66499561549037,-33.922515869140625,4761.76025390625,True
1599386190.503466,0.0,10,0.5,0.5,-5.641132528686524,-0.1005,-0.001,-0.12575,-0.0008328853497990917,10,1,100,0.49897800367697975,-10,-1,-100,19348.345351943164,-0.04889761915323025,-0.00016666703029686217,0.998803782062947,61.16632966244736,3.6923908913577437,234.7207748061905,-68.84745227874663,-33.923675537109375,4761.76025390625,True
1599386190.537468,0.0,10,0.5,0.5,-5.646333621215821,-0.1005,-0.001,-0.12575,0.0002481269552729083,10,1,100,0.5105788587878742,-10,-1,-100,19345.580506502767,-0.04900514879497864,-0.0001489490124126798,0.9987985148195674,61.3466709000097,3.704632938874586,236.70833201059258,-69.21235545360378,-33.926116943359375,4761.76025390625,True
1599386190.5716488,0.0,10,0.5,0.5,-5.642208724975586,-0.1005,-0.001,-0.12575,0.010133918424018862,10,1,100,0.5038115047407933,-10,-1,-100,19344.192610404803,-0.048996831479053725,-4.283548369990289e-05,0.9987989330541629,61.4372715756779,3.7107855589429084,237.70689551003525,-69.39480181665455,-33.970489501953125,4761.76025390625,True
1599386190.6076741,0.0,10,0.5,0.5,-5.461326210021973,-0.1005,-0.001,-0.12575,0.05874528732200458,10,1,100,0.4991418034109937,-10,-1,-100,19338.60453790496,-0.04890227587841558,0.0004955918373694917,0.9988034450294223,61.83178015938457,3.7373336669893544,241.84754980828777,-70.1245499863698,-34.81939697265625,4761.76025390625,True
1599386190.6375065,0.0,10,0.5,0.5,-5.484690728759766,-0.1005,-0.001,-0.12575,0.02829215623430896,10,1,100,0.5051561753381877,-10,-1,-100,19337.198398188455,-0.04882653573546592,0.0007077740358740997,0.9988070226344964,61.938102074953434,3.7444226233344162,242.9184886598612,-70.30697672125847,-35.21234130859375,4761.76025390625,True
1599386190.669587,0.0,10,0.5,0.5,-5.539582244873047,-0.1005,-0.001,-0.12575,0.007144713787435567,10,1,100,0.5176128432066999,-10,-1,-100,19337.198398188455,-0.04882653573546592,0.0007077740358740997,0.9988070226344964,61.938102074953434,3.7444226233344162,242.9184886598612,-70.30697672125847,-35.21234130859375,4761.76025390625,True
1599386190.704558,0.0,10,0.5,0.5,-5.023549513244629,-0.1005,-0.001,-0.12575,0.14019347114217512,10,1,100,0.45916180049116995,-10,-1,-100,19331.537355967215,-0.04825077486011068,0.0019166647627027556,0.9988334140994615,62.371856923228535,3.773147620861574,247.2596495325113,-71.03663850989601,-37.517364501953125,4761.76025390625,True
1599386190.7395742,0.0,10,0.5,0.5,-5.318654443359375,-0.1005,-0.001,-0.12575,0.019496064935579812,10,1,100,0.5215629655127051,-10,-1,-100,19331.537355967215,-0.04825077486011068,0.0019166647627027556,0.9988334140994615,62.371856923228535,3.773147620861574,247.2596495325113,-71.03663850989601,-37.517364501953125,4761.76025390625,True
1599386190.7705576,0.0,10,0.5,0.5,-5.152054066467286,-0.1005,-0.001,-0.12575,0.0633918695533265,10,1,100,0.5031252477938544,-10,-1,-100,19330.112974949647,-0.048039294903702845,0.00231397510944345,0.998842766237183,62.47650352086785,3.780046447503107,248.3359152729448,-71.219042325607,-38.27691650390625,4761.76025390625,True
1599386190.8043134,0.0,10,0.5,0.5,-4.859136294555665,-0.1005,-0.001,-0.12575,0.11916876182125656,10,1,100,0.4709672046647516,-10,-1,-100,19327.253269201843,-0.04751102246497324,0.0031801253769984973,0.9988656514000867,62.67110438066643,3.7928651037422783,250.4367337647161,-71.58383594302882,-40.0166015625,4761.76025390625,True
1599386190.837339,0.0,10,0.5,0.5,-4.362486450195313,-0.1005,-0.001,-0.12575,0.2067220238631385,10,1,100,0.41182964720876203,-10,-1,-100,19322.936352180433,-0.04649437465745032,0.004760423179304842,0.9989072086517178,62.896692220984065,3.807793467848049,253.33721249715384,-72.13099410538439,-43.17596435546875,4761.76025390625,True
1599386190.8732276,0.0,10,0.5,0.5,-4.758851092529297,-0.1005,-0.001,-0.12575,0.04918495265346416,10,1,100,0.5132541035114759,-10,-1,-100,19322.936352180433,-0.04649437465745032,0.004760423179304842,0.9989072086517178,62.896692220984065,3.807793467848049,253.33721249715384,-72.13099410538439,-43.17596435546875,4761.76025390625,True
1599386190.904146,0.0,10,0.5,0.5,-3.893497549438477,-0.1005,-0.001,-0.12575,0.24473533287403876,10,1,100,0.3648854250813744,-10,-1,-100,19318.58660709299,-0.04514785101184715,0.006533690842953959,0.9989589493232346,62.98890769735101,3.8142090800322457,255.71178010714107,-72.67812126687451,-46.99664306640625,4761.76025390625,True
1599386190.940056,0.0,10,0.5,0.5,-3.7133248321533205,-0.1005,-0.001,-0.12575,0.21214782133367752,10,1,100,0.3802304065511035,-10,-1,-100,19315.668539726175,-0.04406673751144836,0.007843523590152914,0.9989977986876586,62.939951366681974,3.8115106096841243,256.8482279973721,-73.04286229632798,-49.9107666015625,4761.76025390625,True
1599386190.971972,0.0,10,0.5,0.5,-4.078266729736328,-0.1005,-0.001,-0.12575,0.08189933978906037,10,1,100,0.4878582027542861,-10,-1,-100,19315.668539726175,-0.04406673751144836,0.007843523590152914,0.9989977986876586,62.939951366681974,3.8115106096841243,256.8482279973721,-73.04286229632798,-49.9107666015625,4761.76025390625,True
1599386191.0068772,0.0,10,0.5,0.5,-3.350881550598145,-0.1005,-0.001,-0.12575,0.23084456596968564,10,1,100,0.35090889886578247,-10,-1,-100,19312.735882729292,-0.04282607092902925,0.009191084055836527,0.9990402652659502,62.774941965198785,3.8015338591968857,257.50734624794876,-73.40760209667043,-53.119232177734375,4761.76025390625,True
1599386191.0378008,0.0,10,0.5,0.5,-2.96003137512207,-0.1005,-0.001,-0.12575,0.24763292959014715,10,1,100,0.3208496378673825,-10,-1,-100,19309.788636062993,-0.04143038117666864,0.010561048412080404,0.9990855758001882,62.467935269618806,3.7827109229859652,257.57494384988064,-73.77234807479444,-56.622100830078125,4761.76025390625,True
1599386191.0706756,0.0,10,0.5,0.5,-2.977501860046387,-0.1005,-0.001,-0.12575,0.19245857792352894,10,1,100,0.3757072922763369,-10,-1,-100,19308.309541376657,-0.04066647861795262,0.011297027008378875,0.9991089103283924,62.25243153666769,3.7694584043814645,257.34797984899143,-73.95472617304341,-58.48333740234375,4761.76025390625,True
1599386191.1046157,0.0,10,0.5,0.5,-2.317118801879883,-0.1005,-0.001,-0.12575,0.27631835118231796,10,1,100,0.27062539973007854,-10,-1,-100,19305.3404089103,-0.039023626628919485,0.01271993243259768,0.9991573248911488,61.68041443193592,3.734270258282396,256.29538801108043,-74.31949870531845,-62.4273681640625,4761.76025390625,True
1599386191.1397302,0.0,10,0.5,0.5,-1.851595686340332,-0.1005,-0.001,-0.12575,0.28730630332246365,10,1,100,0.2376323480478689,-10,-1,-100,19302.35668474203,-0.037238384049300896,0.014103913331049595,0.9992068766687641,60.896691652164655,3.6861311773508096,254.33577333021688,-74.68430170474743,-66.66635131835938,4761.76025390625,True
1599386191.1716504,0.0,10,0.5,0.5,-1.8775119033813477,-0.1005,-0.001,-0.12575,0.22756229457074864,10,1,100,0.309592691510854,-10,-1,-100,19300.859350504703,-0.03627895995241629,0.014809019715577517,0.9992319700649267,60.41637119971751,3.6566860710547817,252.97367468668725,-74.86671796927098,-68.89605712890625,4761.76025390625,True
1599386191.2045271,0.0,10,0.5,0.5,-1.0962423004150392,-0.1005,-0.001,-0.12575,0.30570639956227286,10,1,100,0.18295860791634275,-10,-1,-100,19297.85373550211,-0.0342648240268484,0.016151291386401964,0.9992822712431961,59.26180096363479,3.586092040308748,249.40391351992196,-75.23158681708188,-73.57708740234375,4761.76025390625,True
1599386191.2381947,0.0,10,0.5,0.5,-0.5559151931762696,-0.1005,-0.001,-0.12575,0.31048293574596286,10,1,100,0.14923441493878192,-10,-1,-100,19294.833524012007,-0.03213832556801849,0.017404606081360373,0.9993318806666966,57.827166913820925,3.4987110815600926,244.60197471065737,-75.59651225877722,-78.55355834960938,4761.76025390625,True
1599386191.2743435,0.0,10,0.5,0.5,-0.5905893356323242,-0.1005,-0.001,-0.12575,0.2537423061109145,10,1,100,0.23672530985787715,-10,-1,-100,19293.31794381363,-0.031012343764204735,0.018018276520787208,0.9993565811288138,56.99725856666347,3.4483147408707073,241.7011785299914,-75.77899897901429,-81.15228271484375,4761.76025390625,True
1599386191.3050427,0.0,10,0.5,0.5,0.3118920776367188,-0.1005,-0.001,-0.12575,0.31683649573954364,10,1,100,0.09427469051609583,-10,-1,-100,19290.275833184365,-0.02870558594285535,0.01914049250513493,0.9994046382133406,55.099361302099766,3.3334213713362617,234.83268099587218,-76.14402452509663,-86.57171630859375,4761.76025390625,True
1599386191.3383226,0.0,10,0.5,0.5,1.5663000205993654,-0.1005,-0.001,-0.12575,0.3665795834744735,10,1,100,-0.07290173742624617,-10,-1,-100,19285.68528530735,-0.025102712352669705,0.020602628771300417,0.9994725536603049,52.58575327212729,3.1822214764119545,225.81013983430768,-76.69168208753123,-95.11198425292969,4761.76025390625,True
1599386191.3712058,0.0,10,0.5,0.5,1.1608696266174316,-0.1005,-0.001,-0.12575,0.26864454771548985,10,1,100,0.14824926578145894,-10,-1,-100,19284.1478008274,-0.023853948534913127,0.021031150920264224,0.9994942120043832,53.528069729818185,3.239842995277241,230.43025086934838,-76.87421916710541,-98.04815673828125,4761.76025390625,True
1599386191.4076867,0.0,10,0.5,0.5,1.4610245098114014,-0.1005,-0.001,-0.12575,0.26906741121824806,10,1,100,0.1366382673526435,-10,-1,-100,19282.60666604608,-0.022629132744546785,0.02141504244888532,0.9995145413190055,54.41217588120938,3.2940921651047734,234.8192566370203,-77.05673340980297,-100.9884262084961,4761.76025390625,True
1599386191.4387114,0.0,10,0.5,0.5,3.0190115413665772,-0.1005,-0.001,-0.12575,0.3381378826648863,10,1,100,-0.14666775441641533,-10,-1,-100,19277.961364570423,-0.018956552142561763,0.022382749928564385,0.9995697382556666,56.77906180624115,3.4402523129690357,246.857733978617,-77.60413856266896,-109.48997497558594,4761.76025390625,True
1599386191.4717135,0.0,10,0.5,0.5,1.9546480445861818,-0.1005,-0.001,-0.12575,0.24233341644657644,10,1,100,0.21858359833345117,-10,-1,-100,19277.961364570423,-0.018956552142561763,0.022382749928564385,0.9995697382556666,56.77906180624115,3.4402523129690357,246.857733978617,-77.60413856266896,-109.48997497558594,4761.76025390625,True
1599386191.5046265,0.0,10,0.5,0.5,3.1623904613494878,-0.1005,-0.001,-0.12575,0.29551163254729473,10,1,100,-0.05700839562377136,-10,-1,-100,19274.84625366307,-0.01646779022650223,0.022858662041664084,0.9996030679498341,58.056545082184634,3.5198206031900803,253.65383457457602,-77.96896657376502,-114.80913543701172,4761.76025390625,True
1599386191.5416052,0.0,10,0.5,0.5,3.635173099136353,-0.1005,-0.001,-0.12575,0.290323554409893,10,1,100,-0.06628047487482677,-10,-1,-100,19271.716552131693,-0.014138997918462072,0.023236827213845533,0.9996300008497622,59.15905227152908,3.5888220329997487,259.7352465900361,-78.33371715691266,-119.83488464355469,4761.76025390625,True
1599386191.5715258,0.0,10,0.5,0.5,3.551451663208008,-0.1005,-0.001,-0.12575,0.2665778124753189,10,1,100,0.02798563052883485,-10,-1,-100,19270.146230460145,-0.01289717480219375,0.02335830195658032,0.9996439629247139,59.592878476179216,3.6161645578197192,262.276452146747,-78.5160678771231,-122.23771667480469,4761.76025390625,True
1599386191.605488,0.0,10,0.5,0.5,4.2908939849853525,-0.1005,-0.001,-0.12575,0.27495660909632696,10,1,100,-0.10839588177073536,-10,-1,-100,19266.994647555868,-0.01054590472174084,0.023539491968461817,0.9996672827553509,60.24404647992072,3.6575625237674525,266.42872665116346,-78.88073010419093,-126.82215881347656,4761.76025390625,True
1599386191.6386335,0.0,10,0.5,0.5,4.689436810302735,-0.1005,-0.001,-0.12575,0.26879963225968995,10,1,100,-0.12286005780146478,-10,-1,-100,19263.82847936405,-0.00829549981108835,0.023643218357614047,0.9996860421695295,60.64295242928512,3.6833759505132386,269.48735405856104,-79.24535244717963,-131.1115264892578,4761.76025390625,True
1599386191.6745431,0.0,10,0.5,0.5,4.614777388000489,-0.1005,-0.001,-0.12575,0.2592369540758047,10,1,100,-0.023609422768294808,-10,-1,-100,19262.23992615752,-0.007170510289098329,0.023646488249851227,0.9996946670737238,60.76176368651477,3.6912693890776143,270.6637777433009,-79.42765296424359,-133.14588928222656,4761.76025390625,True
1599386191.7054548,0.0,10,0.5,0.5,5.643338938140869,-0.1005,-0.001,-0.12575,0.25212588121393353,10,1,100,-0.2635691827252698,-10,-1,-100,19257.45239143935,-0.00398264218046542,0.02358204761725115,0.99971397188968,60.85078442513738,3.69822953710109,273.0087614355858,-79.97452894399598,-138.805908203125,4761.76025390625,True
1599386191.738521,0.0,10,0.5,0.5,5.705965452575684,-0.1005,-0.001,-0.12575,0.2445806751977186,10,1,100,-0.1687399135640994,-10,-1,-100,19254.24247293058,-0.00196472935258655,0.023452553445015505,0.9997230204288985,60.736251610932435,3.6919337151187532,273.7919670263032,-80.33910339876795,-142.21054077148438,4761.76025390625,True
1599386191.7731767,0.0,10,0.5,0.5,5.281955118560791,-0.1005,-0.001,-0.12575,0.2577338435208963,10,1,100,0.030984928884591607,-10,-1,-100,19254.24247293058,-0.00196472935258655,0.023452553445015505,0.9997230204288985,60.736251610932435,3.6919337151187532,273.7919670263032,-80.33910339876795,-142.21054077148438,4761.76025390625,True
1599386191.807112,0.0,10,0.5,0.5,6.315234995269775,-0.1005,-0.001,-0.12575,0.23303736395852387,10,1,100,-0.27867642400543896,-10,-1,-100,19249.400251888903,0.0008349267438773864,0.023227067445797164,0.9997298666315819,60.38708742279523,3.6712531889181346,274.1536874967351,-80.88596734158716,-146.7630615234375,4761.76025390625,True
1599386191.8389482,0.0,10,0.5,0.5,6.349737900543213,-0.1005,-0.001,-0.12575,0.23095057305226796,10,1,100,-0.19371272544261314,-10,-1,-100,19246.153875444084,0.0025896791365585133,0.02300234178598068,0.9997320570204452,60.08261837907395,3.652873293646511,274.0564287201141,-81.25055100125732,-149.42938232421875,4761.76025390625,True
1599386191.8718622,0.0,10,0.5,0.5,6.294515347290039,-0.1005,-0.001,-0.12575,0.23881035688339797,10,1,100,-0.1126525439448715,-10,-1,-100,19244.525218291907,0.003430672871413649,0.022869367693935678,0.9997325754945314,59.91783535034536,3.6428679201820593,273.94588085829935,-81.43284596459323,-150.65194702148438,4761.76025390625,True
1599386191.9057715,0.0,10,0.5,0.5,6.403510555267334,-0.1005,-0.001,-0.12575,0.24448908979067485,10,1,100,-0.11639410186063105,-10,-1,-100,19242.892915380304,0.004213254365252609,0.022800441054433566,0.9997311580496913,59.74779477617046,3.6325147598793763,273.80793938051477,-81.61514323612968,-151.79957580566406,4761.76025390625,True
1599386191.9418058,0.0,10,0.5,0.5,6.731496198272705,-0.1005,-0.001,-0.12575,0.2291293161640479,10,1,100,-0.20670990789582697,-10,-1,-100,19239.617371528293,0.005730189933455766,0.02259865331364608,0.9997281959571492,59.4072334764857,3.611713579137746,273.51960597315485,-81.97974459150741,-153.8740234375,4761.76025390625,True
1599386191.9757094,0.0,10,0.5,0.5,6.68299093170166,-0.1005,-0.001,-0.12575,0.23605182042893003,10,1,100,-0.13620212613614618,-10,-1,-100,19237.974130302668,0.00645344598432045,0.022478997077751674,0.999726486457824,59.241596987893146,3.6015710225287068,273.3917367578196,-82.16204851797073,-154.8006591796875,4761.76025390625,True
1599386192.0056036,0.0,10,0.5,0.5,6.937917450714112,-0.1005,-0.001,-0.12575,0.22361297841834357,10,1,100,-0.2145714809934425,-10,-1,-100,19234.676709885243,0.0078099920330861215,0.0222581966825513,0.9997217496408108,58.92846881111387,3.5823575866854074,273.21012038505125,-82.52666201634729,-156.4319610595703,4761.76025390625,True
1599386192.0395455,0.0,10,0.5,0.5,7.037137854003907,-0.1005,-0.001,-0.12575,0.2268084728158536,10,1,100,-0.21637937179942895,-10,-1,-100,19231.364704502514,0.009046032446270986,0.022087781082862235,0.999715109030476,58.651641056248515,3.565325966916265,273.18497372291654,-82.89128139205675,-157.7668914794922,4761.76025390625,True
1599386192.0756106,0.0,10,0.5,0.5,6.997158177947998,-0.1005,-0.001,-0.12575,0.23285270440129055,10,1,100,-0.1581529556056454,-10,-1,-100,19229.703232522705,0.009628530243198525,0.02198916379440741,0.9997118425231236,58.531337175045,3.5579065599477477,273.2527812054022,-83.07359246584366,-158.32376098632812,4761.76025390625,True
1599386192.106492,0.0,10,0.5,0.5,7.130454203796387,-0.1005,-0.001,-0.12575,0.22530151666233253,10,1,100,-0.2193566756724526,-10,-1,-100,19226.369349988294,0.010703931823198367,0.021832194906958504,0.9997043468491417,58.33196458327014,3.5455721287158357,273.5745824797621,-83.4382154888043,-159.21530151367188,4761.76025390625,True
1599386192.139485,0.0,10,0.5,0.5,7.197087812042236,-0.1005,-0.001,-0.12575,0.22158856239769706,10,1,100,-0.26732245989407477,-10,-1,-100,19221.34117940883,0.012106105242325893,0.0216572148419065,0.9996921562466884,58.15140149156403,3.534278511868984,274.60202148761005,-83.98514657519405,-159.99781799316406,4761.76025390625,True
1599386192.1723976,0.0,10,0.5,0.5,7.134374044799805,-0.1005,-0.001,-0.12575,0.23097277176535744,10,1,100,-0.21574395160284285,-10,-1,-100,19217.970834861393,0.012901666294795673,0.021584880188477856,0.9996837699763194,58.116931070495326,3.5319788525739937,275.68875771873996,-84.34975991287327,-160.1497039794922,4761.76025390625,True
1599386192.208298,0.0,10,0.5,0.5,7.116346414184571,-0.1005,-0.001,-0.12575,0.23806449094847165,10,1,100,-0.13721904507168853,-10,-1,-100,19217.970834861393,0.012901666294795673,0.021584880188477856,0.9996837699763194,58.116931070495326,3.5319788525739937,275.68875771873996,-84.34975991287327,-160.1497039794922,4761.76025390625,True
1599386192.2393615,0.0,10,0.5,0.5,7.0846270652771,-0.1005,-0.001,-0.12575,0.23749278815333652,10,1,100,-0.2125208854238112,-10,-1,-100,19214.585906102322,0.013577618485793714,0.021580850606254316,0.9996749047382176,58.15404632147651,3.534037346162052,277.115649997149,-84.71436315901296,-160.00531005859375,4761.76025390625,True
1599386192.2742286,0.0,10,0.5,0.5,6.929308852386475,-0.1005,-0.001,-0.12575,0.2407989258588778,10,1,100,-0.2349423331936981,-10,-1,-100,19209.481168718776,0.014387438762681322,0.02160835186559982,0.9996629835777169,58.344953780665975,3.5453599593285716,279.9086164678302,-85.26124109317753,-159.2349395751953,4761.76025390625,True
1599386192.306172,0.0,10,0.5,0.5,7.026719032287597,-0.1005,-0.001,-0.12575,0.23794976977952292,10,1,100,-0.1548260303878599,-10,-1,-100,19209.481168718776,0.014387438762681322,0.02160835186559982,0.9996629835777169,58.344953780665975,3.5453599593285716,279.9086164678302,-85.26124109317753,-159.2349395751953,4761.76025390625,True
1599386192.3420818,0.0,10,0.5,0.5,6.827270778656007,-0.1005,-0.001,-0.12575,0.24789697782566714,10,1,100,-0.19834786740476376,-10,-1,-100,19206.05978199572,0.014775879105763756,0.021699572525303086,0.9996553415797221,58.55560728758514,3.557989908754435,282.17974119024825,-85.6258034220719,-158.3514404296875,4761.76025390625,True
1599386192.3729649,0.0,10,0.5,0.5,6.513439491271973,-0.1005,-0.001,-0.12575,0.2600635209252581,10,1,100,-0.20047519612020098,-10,-1,-100,19200.900361252483,0.015142013417731146,0.021893613175172563,0.9996456317774779,58.98331607145434,3.5837603581965696,286.1460564837386,-86.17260439147914,-156.47244262695312,4761.76025390625,True
1599386192.4061575,0.0,10,0.5,0.5,6.749594020080567,-0.1005,-0.001,-0.12575,0.2406400391475414,10,1,100,-0.164471363020608,-10,-1,-100,19200.900361252483,0.015142013417731146,0.021893613175172563,0.9996456317774779,58.98331607145434,3.5837603581965696,286.1460564837386,-86.17260439147914,-156.47244262695312,4761.76025390625,True
1599386192.4394648,0.0,10,0.5,0.5,6.382487978363038,-0.1005,-0.001,-0.12575,0.2595725138864865,10,1,100,-0.17506487016091876,-10,-1,-100,19197.442521664314,0.015233305770666214,0.02206581344608955,0.9996404585010852,59.329368810377545,3.6046826639031773,289.10276339901816,-86.53710593266099,-154.85069274902344,4761.76025390625,True
1599386192.4753196,0.0,10,0.5,0.5,5.910481727600098,-0.1005,-0.001,-0.12575,0.2751064765634856,10,1,100,-0.15665219685950607,-10,-1,-100,19192.228426871472,0.015144793267005735,0.02236336460895123,0.9996351910373439,59.91057122005365,3.6399469914735274,293.8708872443938,-87.08380409066967,-151.8650360107422,4761.76025390625,True
1599386192.5052338,0.0,10,0.5,0.5,6.285114784240723,-0.1005,-0.001,-0.12575,0.24542197525402218,10,1,100,-0.16580731602802193,-10,-1,-100,19192.228426871472,0.015144793267005735,0.02236336460895123,0.9996351910373439,59.91057122005365,3.6399469914735274,293.8708872443938,-87.08380409066967,-151.8650360107422,4761.76025390625,True
1599386192.5392468,0.0,10,0.5,0.5,5.750602006530762,-0.1005,-0.001,-0.12575,0.2692808829296193,10,1,100,-0.142478136345257,-10,-1,-100,19188.734141541063,0.014930670609005863,0.022579556056528956,0.9996335522197399,60.317286323667275,3.6647346774406215,297.16556044029977,-87.44823175793616,-149.50621032714844,4761.76025390625,True
1599386192.5732436,0.0,10,0.5,0.5,5.754347338104248,-0.1005,-0.001,-0.12575,0.2594621926768156,10,1,100,-0.14718632816491367,-10,-1,-100,19186.981532806414,0.014776970841626304,0.0226859286648759,0.999633427699053,60.519769473936584,3.6771200857514392,298.81522384288473,-87.63043415357703,-148.2164306640625,4761.76025390625,True
1599386192.6041641,0.0,10,0.5,0.5,4.940052132415771,-0.1005,-0.001,-0.12575,0.2843852475575239,10,1,100,-0.09256484235592007,-10,-1,-100,19181.701843617484,0.014139594498148732,0.02300819964587172,0.9996352807981937,61.093318385959726,3.712452268201345,303.62227472226925,-88.17699752681666,-143.9056854248047,4761.76025390625,True
1599386192.6300588,0.0,10,0.5,0.5,5.122243122100831,-0.1005,-0.001,-0.12575,0.2632286695278025,10,1,100,-0.12616454066495725,-10,-1,-100,19179.93466015579,0.013865838574400853,0.023107568148524753,0.9996368234588449,61.263529950402706,3.7230508429713405,305.128572991868,-88.35917166095102,-142.32180786132812,4761.76025390625,True
1599386192.6609757,0.0,10,0.5,0.5,4.944745832061768,-0.1005,-0.001,-0.12575,0.2642153159365421,10,1,100,-0.12025813871815105,-10,-1,-100,19178.163833425497,0.013563749171648435,0.023205509739849757,0.9996386992439431,61.41809666123239,3.7327550014517743,306.56055624295084,-88.54133970113058,-140.66444396972656,4761.76025390625,True
1599386192.6899517,0.0,10,0.5,0.5,3.9268836341857907,-0.1005,-0.001,-0.12575,0.2807681495468272,10,1,100,-0.03193249100128012,-10,-1,-100,19172.829493425088,0.012487263944387515,0.023443658821861856,0.9996471693053642,61.75359277616444,3.7544585447137755,310.2333210574632,-89.087814265969,-135.25225830078125,4761.76025390625,True
1599386192.7198265,0.0,10,0.5,0.5,4.605343963623047,-0.1005,-0.001,-0.12575,0.2571082459102863,10,1,100,-0.1393155387800378,-10,-1,-100,19172.829493425088,0.012487263944387515,0.023443658821861856,0.9996471693053642,61.75359277616444,3.7544585447137755,310.2333210574632,-89.087814265969,-135.25225830078125,4761.76025390625,True
1599386192.7517815,0.0,10,0.5,0.5,4.161862520599366,-0.1005,-0.001,-0.12575,0.2643719052910321,10,1,100,-0.09332332248052397,-10,-1,-100,19171.04409410886,0.012071566295731338,0.023508282956553463,0.9996507579748052,61.81044814804437,3.758490680122112,311.1860159836266,-89.26996547156216,-133.30149841308594,4761.76025390625,True
1599386192.785725,0.0,10,0.5,0.5,3.472642362213135,-0.1005,-0.001,-0.12575,0.2661700638884546,10,1,100,-0.03589854585003767,-10,-1,-100,19167.46236631961,0.011174490227107606,0.02358206773033107,0.9996594504378611,61.81850501408646,3.7603501158020265,312.56171267989635,-89.63426414631456,-129.18051147460938,4761.76025390625,True
1599386192.813618,0.0,10,0.5,0.5,2.9898718536376956,-0.1005,-0.001,-0.12575,0.26386364107462396,10,1,100,-0.013150633972425496,-10,-1,-100,19163.86606654292,0.010155776695871283,0.023627069405347364,0.9996692561997785,61.657553416877924,3.752212738532388,313.08097148535205,-89.99856667655276,-124.76629638671875,4761.76025390625,True
1599386192.8455298,0.0,10,0.5,0.5,2.4774097156524655,-0.1005,-0.001,-0.12575,0.25522796428624134,10,1,100,0.006076833282081584,-10,-1,-100,19160.255194310215,0.00905941379840741,0.0235883250438347,0.9996807079979365,61.29476468155588,3.7320355954786617,312.56579751445184,-90.3628853873733,-120.05982208251953,4761.76025390625,True
1599386192.8744936,0.0,10,0.5,0.5,2.5090959304809575,-0.1005,-0.001,-0.12575,0.25363547333762343,10,1,100,-0.040077764608008756,-10,-1,-100,19158.444293056964,0.008487645014996164,0.023537708643847292,0.999686919067113,61.02670354981908,3.7167382303734846,311.860214654903,-90.54505514616534,-117.5970230102539,4761.76025390625,True
1599386192.9074368,0.0,10,0.5,0.5,2.241993065643311,-0.1005,-0.001,-0.12575,0.25101163516934566,10,1,100,-0.03192373909968473,-10,-1,-100,19156.629748271895,0.007899445276207204,0.023467066315075332,0.9996934007799051,60.694640835939246,3.697569725203439,310.8216403799993,-90.72723425998362,-115.06116485595703,4761.76025390625,True
1599386192.9410408,0.0,10,0.5,0.5,0.7376721225738525,-0.1005,-0.001,-0.12575,0.22106496839335177,10,1,100,0.11476498586149247,-10,-1,-100,19151.164249904687,0.006036857240590122,0.023130186439437966,0.9997142345840303,59.39403983401781,3.621495968590808,306.09755109147994,-91.27384372297837,-107.01554870605469,4761.76025390625,True
1599386192.977105,0.0,10,0.5,0.5,1.7458777275085449,-0.1005,-0.001,-0.12575,0.2547552177861797,10,1,100,-0.07071091956683469,-10,-1,-100,19151.164249904687,0.006036857240590122,0.023130186439437966,0.9997142345840303,59.39403983401781,3.621495968590808,306.09755109147994,-91.27384372297837,-107.01554870605469,4761.76025390625,True
1599386193.0080204,0.0,10,0.5,0.5,0.4464517131805421,-0.1005,-0.001,-0.12575,0.21689456648023836,10,1,100,0.07350308208014823,-10,-1,-100,19147.502361870836,0.004732663491009421,0.02278606717602069,0.9997291618428116,58.269162564365686,3.5548377330267655,301.56987808756173,-91.63832069426083,-101.28710174560547,4761.76025390625,True
1599386193.0410554,0.0,10,0.5,0.5,-0.8876529685974122,-0.1005,-0.001,-0.12575,0.17426271430372609,10,1,100,0.15841485855863338,-10,-1,-100,19141.98218915786,0.0027821572056347175,0.022086267000078368,0.9997521975026035,56.23030671436503,3.4326187047868872,292.85956446136487,-92.18516051678873,-92.22164154052734,4761.76025390625,True
1599386193.0743499,0.0,10,0.5,0.5,0.24802559051513676,-0.1005,-0.001,-0.12575,0.24410699271578012,10,1,100,-0.03566525930496171,-10,-1,-100,19141.98218915786,0.0027821572056347175,0.022086267000078368,0.9997521975026035,56.23030671436503,3.4326187047868872,292.85956446136487,-92.18516051678873,-92.22164154052734,4761.76025390625,True
1599386193.111251,0.0,10,0.5,0.5,-1.1945026050567629,-0.1005,-0.001,-0.12575,0.17885149283126162,10,1,100,0.11038318955858352,-10,-1,-100,19138.283844809514,0.001462888951502576,0.021494327924724995,0.9997678999762795,57.13836082842001,3.4888533496740486,298.838322117967,-92.54974368131221,-85.86398315429688,4761.76025390625,True
1599386193.1421683,0.0,10,0.5,0.5,-1.828176350402832,-0.1005,-0.001,-0.12575,0.16601480749439917,10,1,100,0.11691556422192227,-10,-1,-100,19134.570920775877,0.00021299767923900871,0.020841402298437367,0.9997827716970438,59.5691951555317,3.637586909614399,312.85475448734064,-92.91420751313794,-79.54876708984375,4761.76025390625,True
1599386193.1735973,0.0,10,0.5,0.5,-2.4538166793823244,-0.1005,-0.001,-0.12575,0.14411044393042788,10,1,100,0.13634788248740026,-10,-1,-100,19130.843421340338,-0.001090885662489823,0.020051235394055157,0.9997983586342016,61.672510693420016,3.7659891614459755,325.2498802710178,-93.2785563288596,-73.29348754882812,4761.76025390625,True
1599386193.206731,0.0,10,0.5,0.5,-2.3708792991638186,-0.1005,-0.001,-0.12575,0.17894386130512135,10,1,100,0.07293695735537938,-10,-1,-100,19128.974207507563,-0.0016905436542604827,0.01965278481134107,0.9998054361281059,62.61211533376166,3.82327878807383,330.8894769375776,-93.4606901330975,-70.20404052734375,4761.76025390625,True
1599386193.2427747,0.0,10,0.5,0.5,-3.9943989242553712,-0.1005,-0.001,-0.12575,0.0754390256040185,10,1,100,0.20698606633365776,-10,-1,-100,19123.34471461305,-0.0034450626477915617,0.018353135705984153,0.9998256317744163,64.89321000029813,3.9623418808061612,345.0708440263865,-94.00694939285653,-61.33209228515625,4761.76025390625,True
1599386193.2749593,0.0,10,0.5,0.5,-2.8841243400573733,-0.1005,-0.001,-0.12575,0.20489254307880114,10,1,100,0.032668617772949736,-10,-1,-100,19123.34471461305,-0.0034450626477915617,0.018353135705984153,0.9998256317744163,64.89321000029813,3.9623418808061612,345.0708440263865,-94.00694939285653,-61.33209228515625,4761.76025390625,True
1599386193.3078368,0.0,10,0.5,0.5,-4.144329091644288,-0.1005,-0.001,-0.12575,0.10089935877104356,10,1,100,0.1553770040861459,-10,-1,-100,19119.573513919837,-0.0045519735052857255,0.017412085894762223,0.9998380362848778,65.97791084081351,4.028679981094313,352.279273216518,-94.37102588722485,-55.782318115234375,4761.76025390625,True
1599386193.340855,0.0,10,0.5,0.5,-5.209017386627198,-0.1005,-0.001,-0.12575,0.03760602848510394,10,1,100,0.21345959761609562,-10,-1,-100,19113.889410982374,-0.006076653470783712,0.015986390427910724,0.9998537441064479,67.03143503663607,4.0938611592214755,360.09984426883636,-94.91704246134037,-48.01458740234375,4761.76025390625,True
1599386193.3771982,0.0,10,0.5,0.5,-4.237552500915528,-0.1005,-0.001,-0.12575,0.1794956074954429,10,1,100,0.062072532762476304,-10,-1,-100,19113.889410982374,-0.006076653470783712,0.015986390427910724,0.9998537441064479,67.03143503663607,4.0938611592214755,360.09984426883636,-94.91704246134037,-48.01458740234375,4761.76025390625,True
1599386193.4081156,0.0,10,0.5,0.5,-5.329399697113038,-0.1005,-0.001,-0.12575,0.07042930875596957,10,1,100,0.16619965307801385,-10,-1,-100,19110.081809776835,-0.007015210191219127,0.015000423963526573,0.9998628776521746,67.40641795643769,4.117861108592332,363.5871062617092,-95.28101353511408,-43.208282470703125,4761.76025390625,True
1599386193.4401474,0.0,10,0.5,0.5,-6.235063102722169,-0.1005,-0.001,-0.12575,0.009525749871895584,10,1,100,0.21590584059295942,-10,-1,-100,19104.343111413298,-0.008311411307753688,0.013556863772446266,0.9998735579495684,67.57597008008156,4.130623364860529,366.7193650981179,-95.82694795607972,-36.5556640625,4761.76025390625,True
1599386193.4741118,0.0,10,0.5,0.5,-5.403427169799805,-0.1005,-0.001,-0.12575,0.1530880225646985,10,1,100,0.08726315896542892,-10,-1,-100,19104.343111413298,-0.008311411307753688,0.013556863772446266,0.9998735579495684,67.57597008008156,4.130623364860529,366.7193650981179,-95.82694795607972,-36.5556640625,4761.76025390625,True
1599386193.5060613,0.0,10,0.5,0.5,-6.327101861572267,-0.1005,-0.001,-0.12575,0.046071249135045594,10,1,100,0.17494538798731127,-10,-1,-100,19100.499114573817,-0.009100773017964444,0.012590606321745777,0.9998793189995112,67.48159957004738,4.126876662341367,367.6862215242033,-96.19090652910191,-32.49212646484375,4761.76025390625,True
1599386193.5339556,0.0,10,0.5,0.5,-6.672613600158692,-0.1005,-0.001,-0.12575,0.04397943706574342,10,1,100,0.17988946944934653,-10,-1,-100,19096.640558945015,-0.009856039052033201,0.011699956374181048,0.9998829779104387,67.26392817656327,4.11582739531198,367.976802572301,-96.55487724576017,-28.724517822265625,4761.76025390625,True
1599386193.5649066,0.0,10,0.5,0.5,-7.355521653747559,-0.1005,-0.001,-0.12575,-0.018558428678587147,10,1,100,0.21669867408265006,-10,-1,-100,19090.825426556286,-0.010869850492945947,0.010328978395480254,0.9998875729578636,66.77776537433962,4.089735559117868,367.5208235545088,-97.10086805167907,-23.63043212890625,4761.76025390625,True
1599386193.5923443,0.0,10,0.5,0.5,-6.718710543823243,-0.1005,-0.001,-0.12575,0.11773695346044194,10,1,100,0.11606000877589095,-10,-1,-100,19090.825426556286,-0.010869850492945947,0.010328978395480254,0.9998875729578636,66.77776537433962,4.089735559117868,367.5208235545088,-97.10086805167907,-23.63043212890625,4761.76025390625,True
1599386193.8506517,0.0,10,0.5,0.5,-7.407168667602539,-0.1005,-0.001,-0.12575,0.025516744852580556,10,1,100,0.18716498740183635,-10,-1,-100,19086.93047110224,-0.011509509582413492,0.009497907551145608,0.9998886542717256,66.39148697673848,4.068581327576152,366.85865210615947,-97.46488929103883,-20.60418701171875,4761.76025390625,True
1599386193.8775885,0.0,10,0.5,0.5,-7.34738881225586,-0.1005,-0.001,-0.12575,0.06492702520013663,10,1,100,0.15859747060236856,-10,-1,-100,19084.977533021243,-0.011824988114591437,0.009107858585222455,0.9998886020792923,66.1898879700558,4.057474007823016,366.475264353068,-97.64690855356231,-19.20196533203125,4761.76025390625,True
1599386193.912472,0.0,10,0.5,0.5,-7.758021699523925,-0.1005,-0.001,-0.12575,0.014787136610212415,10,1,100,0.18973340570560837,-10,-1,-100,19081.060734955827,-0.01238961497692465,0.008303704657968177,0.9998887667784236,65.78524149266471,4.035114447875076,365.6888527970965,-98.01096367069374,-16.620391845703125,4761.76025390625,True
1599386194.0081847,0.0,10,0.5,0.5,-7.703556832885743,-0.1005,-0.001,-0.12575,0.05519880957339634,10,1,100,0.16577976434513564,-10,-1,-100,19079.096874911687,-0.012679412692581328,0.00794701873810227,0.9998880324251048,65.58754799871294,4.024180620895086,365.3155725726863,-98.19299924611039,-15.440155029296875,4761.76025390625,True
1599386194.0650325,0.0,10,0.5,0.5,-8.458672535705567,-0.1005,-0.001,-0.12575,-0.055611085903840535,10,1,100,0.2565686640261702,-10,-1,-100,19071.20502598444,-0.013763069519822839,0.006621808311363315,0.9998833579833601,65.01354138183011,3.9934348659902783,365.000804832043,-98.92117904077026,-11.45892333984375,4761.76025390625,True
1599386194.0929575,0.0,10,0.5,0.5,-8.31057803039551,-0.1005,-0.001,-0.12575,0.011633505874344634,10,1,100,0.20422603204432388,-10,-1,-100,19067.237255483866,-0.014267413928196455,0.006034690626366933,0.9998800045049634,64.87133818425535,3.986761686044212,365.6432978384004,-99.28528266586139,-9.91180419921875,4761.76025390625,True
1599386194.1189208,0.0,10,0.5,0.5,-8.118692184448243,-0.1005,-0.001,-0.12575,0.06959305705937494,10,1,100,0.1543871914690065,-10,-1,-100,19067.237255483866,-0.014267413928196455,0.006034690626366933,0.9998800045049634,64.87133818425535,3.986761686044212,365.6432978384004,-99.28528266586139,-9.91180419921875,4761.76025390625,True
1599386194.1448514,0.0,10,0.5,0.5,-8.404342703247071,-0.1005,-0.001,-0.12575,0.016726356663029324,10,1,100,0.21397647148223972,-10,-1,-100,19063.25492085109,-0.014804437709307455,0.0055600441824868625,0.9998749494475797,64.78144693603352,3.9831864890046353,366.57717969554227,-99.64938877983653,-8.65924072265625,4761.76025390625,True
1599386194.1747632,0.0,10,0.5,0.5,-8.248839373779298,-0.1005,-0.001,-0.12575,0.06357700983186693,10,1,100,0.16076893323686714,-10,-1,-100,19063.25492085109,-0.014804437709307455,0.0055600441824868625,0.9998749494475797,64.78144693603352,3.9831864890046353,366.57717969554227,-99.64938877983653,-8.65924072265625,4761.76025390625,True
1599386194.200671,0.0,10,0.5,0.5,-8.466809576416017,-0.1005,-0.001,-0.12575,0.013657515534014862,10,1,100,0.21530449112145364,-10,-1,-100,19059.258022069465,-0.015296638610788822,0.0051105659927000195,0.9998699390232938,64.75129065413485,3.9831850147613457,367.847996179864,-100.01349382505997,-7.70245361328125,4761.76025390625,True
1599386194.2286296,0.0,10,0.5,0.5,-8.547767486572265,-0.1005,-0.001,-0.12575,0.0020250640724598507,10,1,100,0.2494663127339828,-10,-1,-100,19053.235366286477,-0.016050631637596836,0.004600943909064008,0.9998605945526504,64.83428347200456,3.9909397570704868,370.4872092758366,-100.55964026849617,-6.81988525390625,4761.76025390625,True
1599386194.2535634,0.0,10,0.5,0.5,-8.4713740814209,-0.1005,-0.001,-0.12575,0.03819275286504277,10,1,100,0.20224750811205333,-10,-1,-100,19051.220532499603,-0.01630268969080914,0.004470900061729371,0.9998571064714612,64.8986854656333,3.9957652768135414,371.5792227805834,-100.74168398064444,-6.673095703125,4761.76025390625,True
1599386194.2834775,0.0,10,0.5,0.5,-8.454168182373047,-0.1005,-0.001,-0.12575,0.05073344174615718,10,1,100,0.17748947294844455,-10,-1,-100,19051.220532499603,-0.01630268969080914,0.004470900061729371,0.9998571064714612,64.8986854656333,3.9957652768135414,371.5792227805834,-100.74168398064444,-6.673095703125,4761.76025390625,True
1599386194.315388,0.0,10,0.5,0.5,-8.471706338500978,-0.1005,-0.001,-0.12575,0.03798768248913697,10,1,100,0.20548191596021992,-10,-1,-100,19049.20205797418,-0.01655360910481266,0.0043585138908439494,0.9998534799570727,64.98222516554411,4.00176548375957,372.78279464350294,-100.9237242112787,-6.5999755859375,4761.76025390625,True
1599386194.341331,0.0,10,0.5,0.5,-8.44647922668457,-0.1005,-0.001,-0.12575,0.030258017550796816,10,1,100,0.23491597534557743,-10,-1,-100,19045.154186570784,-0.017045778024307987,0.004189337240460709,0.9998459335842856,65.20768755686098,4.017367816986648,375.5327377406569,-101.28779205256244,-6.67474365234375,4761.76025390625,True
1599386194.376233,0.0,10,0.5,0.5,-8.305956782531739,-0.1005,-0.001,-0.12575,0.03195167280732875,10,1,100,0.2650792449801372,-10,-1,-100,19039.05507622531,-0.017764431576432024,0.0040531484888725105,0.9998339846985066,65.69249739763397,4.0498865468699154,380.5281444235654,-101.83385358171654,-7.339508056640625,4761.76025390625,True
1599386194.410951,0.0,10,0.5,0.5,-8.389808135986328,-0.1005,-0.001,-0.12575,0.04537239375239917,10,1,100,0.19356359153255703,-10,-1,-100,19039.05507622531,-0.017764431576432024,0.0040531484888725105,0.9998339846985066,65.69249739763397,4.0498865468699154,380.5281444235654,-101.83385358171654,-7.339508056640625,4761.76025390625,True
1599386194.4408772,0.0,10,0.5,0.5,-8.30665777282715,-0.1005,-0.001,-0.12575,0.045444442868654095,10,1,100,0.22003347901064302,-10,-1,-100,19037.01475882507,-0.018001887810188955,0.004055604882781641,0.9998297275557995,65.89242030415743,4.0631274224461045,382.4234880361778,-102.01586103412228,-7.708160400390625,4761.76025390625,True
1599386194.474912,0.0,10,0.5,0.5,-8.002978543090823,-0.1005,-0.001,-0.12575,0.0569605976633733,10,1,100,0.27263857391404583,-10,-1,-100,19030.871967406478,-0.018693078476270844,0.004163897956559848,0.9998165985674009,66.59822110952561,4.109565294288748,388.75689482236817,-102.5618363350388,-9.255706787109375,4761.76025390625,True
1599386194.5088117,0.0,10,0.5,0.5,-8.047506565856933,-0.1005,-0.001,-0.12575,0.053478876644780876,10,1,100,0.2285513364069912,-10,-1,-100,19028.81709122064,-0.018917105431038462,0.0042319634200309484,0.9998120991504967,66.86649304475468,4.127152215825543,391.0720804249715,-102.74381050905758,-9.91876220703125,4761.76025390625,True
1599386194.5446389,0.0,10,0.5,0.5,-7.5809542617797865,-0.1005,-0.001,-0.12575,0.0854504390781626,10,1,100,0.27687185709543716,-10,-1,-100,19022.630627360544,-0.019556752426340123,0.0045852904112833,0.9997982339184136,67.7560944328459,4.185404382561541,398.55362600587995,-103.28967295519202,-12.348419189453125,4761.76025390625,True
1599386194.5780096,0.0,10,0.5,0.5,-7.436309992980958,-0.1005,-0.001,-0.12575,0.08574517630136397,10,1,100,0.2573481299899732,-10,-1,-100,19018.48812473868,-0.019957573884029467,0.004909190426721614,0.9997887752390588,68.47703547988849,4.232374122075041,404.3303759709433,-103.65352377791035,-14.335693359375,4761.76025390625,True
1599386194.6089962,0.0,10,0.5,0.5,-7.685443460083008,-0.1005,-0.001,-0.12575,0.05339900379403178,10,1,100,0.21763147264036084,-10,-1,-100,19018.48812473868,-0.019957573884029467,0.004909190426721614,0.9997887752390588,68.47703547988849,4.232374122075041,404.3303759709433,-103.65352377791035,-14.335693359375,4761.76025390625,True
1599386194.6419098,0.0,10,0.5,0.5,-6.885731887817384,-0.1005,-0.001,-0.12575,0.12622652373201332,10,1,100,0.2749466539520363,-10,-1,-100,19012.247085258015,-0.020475298364869044,0.0055708603440078166,0.999774838487095,69.71648125732668,4.312965253183078,413.99519220788795,-104.19919770294932,-17.866943359375,4761.76025390625,True
1599386194.6783242,0.0,10,0.5,0.5,-7.32865987854004,-0.1005,-0.001,-0.12575,0.060180766648709416,10,1,100,0.22356637479408428,-10,-1,-100,19012.247085258015,-0.020475298364869044,0.0055708603440078166,0.999774838487095,69.71648125732668,4.312965253183078,413.99519220788795,-104.19919770294932,-17.866943359375,4761.76025390625,True
1599386194.7082436,0.0,10,0.5,0.5,-6.711843484497072,-0.1005,-0.001,-0.12575,0.11823927540105383,10,1,100,0.2586642521468905,-10,-1,-100,19008.06820577674,-0.020791252231403136,0.006097409038934996,0.9997652451619142,70.61539538882221,4.371406350984695,420.91763176175465,-104.56290381075976,-20.5882568359375,4761.76025390625,True
1599386194.755118,0.0,10,0.5,0.5,-6.004750184631348,-0.1005,-0.001,-0.12575,0.17007262181879768,10,1,100,0.2650686016944407,-10,-1,-100,19001.772613094305,-0.0211339527235437,0.007045443492166409,0.9997518280894904,71.96168874293444,4.459161949544955,431.3638945246661,-105.10834253648318,-25.220184326171875,4761.76025390625,True
1599386194.79202,0.0,10,0.5,0.5,-6.2029120452880875,-0.1005,-0.001,-0.12575,0.1141065297842854,10,1,100,0.24023488437661064,-10,-1,-100,18999.666810552822,-0.021216674357921114,0.007395790072060043,0.9997475456425987,72.3965008450185,4.48757344051035,434.7820643897048,-105.29012313419658,-26.910858154296875,4761.76025390625,True
1599386194.8239348,0.0,10,0.5,0.5,-6.014487297058106,-0.1005,-0.001,-0.12575,0.11978721541189619,10,1,100,0.23953908484464592,-10,-1,-100,18997.557372733834,-0.021282627860202963,0.007762893027496828,0.999743360689736,72.8183038743771,4.515171703771004,438.1315509277271,-105.47188791263119,-28.67486572265625,4761.76025390625,True
1599386194.8518598,0.0,10,0.5,0.5,-5.386366822814941,-0.1005,-0.001,-0.12575,0.1682466471367959,10,1,100,0.239850662015973,-10,-1,-100,18993.327592375455,-0.02134306397348586,0.008533891461692141,0.9997357882544486,73.60633718668079,4.566847159284947,444.5227678557815,-105.83537154660176,-32.422943115234375,4761.76025390625,True
1599386194.8837738,0.0,10,0.5,0.5,-4.45904351348877,-0.1005,-0.001,-0.12575,0.23050472832104935,10,1,100,0.23116866931826668,-10,-1,-100,18986.955664371373,-0.021316873271452576,0.009796870841688675,0.9997247682415596,74.5830178322871,4.631205372402363,452.92750789865454,-106.38049342531498,-38.5948486328125,4761.76025390625,True
1599386194.9117,0.0,10,0.5,0.5,-4.733885629272462,-0.1005,-0.001,-0.12575,0.15263747233199254,10,1,100,0.2269672574580069,-10,-1,-100,18984.824420718127,-0.021253268779197126,0.010232411968666456,0.9997217594468485,74.83616619810543,4.647991910539303,455.3029374389749,-106.5621774677729,-40.798828125,4761.76025390625,True
1599386194.9426162,0.0,10,0.5,0.5,-5.008389736938477,-0.1005,-0.001,-0.12575,0.10961568178840884,10,1,100,0.23345727617306866,-10,-1,-100,18984.824420718127,-0.021253268779197126,0.010232411968666456,0.9997217594468485,74.83616619810543,4.647991910539303,455.3029374389749,-106.5621774677729,-40.798828125,4761.76025390625,True
1599386194.9755292,0.0,10,0.5,0.5,-3.958632904052734,-0.1005,-0.001,-0.12575,0.20744368403206132,10,1,100,0.21168810644344394,-10,-1,-100,18980.551032967283,-0.021054189331750385,0.011116918151297893,0.9997165274428547,75.20283791252679,4.6725532629185835,459.2182682972353,-106.92551948942764,-45.42694091796875,4761.76025390625,True
1599386195.0094392,0.0,10,0.5,0.5,-3.989450260925293,-0.1005,-0.001,-0.12575,0.16986048729421555,10,1,100,0.21791265611077532,-10,-1,-100,18978.40888921125,-0.020929268566531923,0.011574307385339428,0.99971395965337,75.30536458239841,4.679621980627867,460.687929235051,-107.1071811510804,-47.850860595703125,4761.76025390625,True
1599386195.0450583,0.0,10,0.5,0.5,-3.1446746475219727,-0.1005,-0.001,-0.12575,0.22679820060074796,10,1,100,0.19479569352416826,-10,-1,-100,18974.11370236159,-0.020605137328999018,0.012502273676308089,0.99970951854455,75.32266627572952,4.68167728947562,462.4822319255655,-107.4704968917241,-52.91864013671875,4761.76025390625,True
1599386195.0759757,0.0,10,0.5,0.5,-2.5656660659790043,-0.1005,-0.001,-0.12575,0.23274106507359482,10,1,100,0.1789961187667427,-10,-1,-100,18969.803982794052,-0.020167009265176512,0.013394082831816959,0.9997069021880326,75.05430300160533,4.665430234533056,462.5188622221311,-107.83381904250106,-58.280181884765625,4761.76025390625,True
1599386195.1098847,0.0,10,0.5,0.5,-2.6051895111083985,-0.1005,-0.001,-0.12575,0.19395251707747657,10,1,100,0.19527011120315765,-10,-1,-100,18967.643672854756,-0.019917535450631067,0.013846423773824265,0.9997057408709066,74.798791666107,4.6495808884484005,461.7846387925745,-108.01548931479716,-61.070831298828125,4761.76025390625,True
1599386195.1427963,0.0,10,0.5,0.5,-0.2610490417480469,-0.1005,-0.001,-0.12575,0.33428890404646017,10,1,100,0.08445061720603521,-10,-1,-100,18958.966094490024,-0.01868447216371345,0.015527563935638245,0.9997048490720589,72.84636628627761,4.52760935715678,453.0138063267769,-108.74230106265225,-72.96762084960938,4761.76025390625,True
1599386195.1786997,0.0,10,0.5,0.5,-1.7526410522460938,-0.1005,-0.001,-0.12575,0.16695135495587632,10,1,100,0.207497130328148,-10,-1,-100,18958.966094490024,-0.01868447216371345,0.015527563935638245,0.9997048490720589,72.84636628627761,4.52760935715678,453.0138063267769,-108.74230106265225,-72.96762084960938,4761.76025390625,True
1599386195.2106166,0.0,10,0.5,0.5,-1.0341950286865238,-0.1005,-0.001,-0.12575,0.21114392215295588,10,1,100,0.16727785447551052,-10,-1,-100,18956.78761327034,-0.018321259284880174,0.015922956662453563,0.9997053520459624,72.10119865455108,4.481108695357645,449.1947296435717,-108.92405162333374,-76.12515258789062,4761.76025390625,True
1599386195.24253,0.0,10,0.5,0.5,0.7976790115356446,-0.1005,-0.001,-0.12575,0.2871660715072988,10,1,100,0.07257602578796415,-10,-1,-100,18950.230354579748,-0.017132863328769114,0.01696794587566991,0.9997092346312091,69.19561048373642,4.300501690544681,433.44506501500103,-109.4694622025892,-85.960205078125,4761.76025390625,True
1599386195.275511,0.0,10,0.5,0.5,0.3346997268676758,-0.1005,-0.001,-0.12575,0.21892562782495628,10,1,100,0.14266209262660884,-10,-1,-100,18948.037327973405,-0.0166933952539744,0.017291445187020745,0.9997111265151744,68.00492473688763,4.2267979800492,426.7587968954798,-109.65132605056353,-89.36026000976562,4761.76025390625,True
1599386195.3115108,0.0,10,0.5,0.5,0.6974613132476807,-0.1005,-0.001,-0.12575,0.21872183206316614,10,1,100,0.1374866042032103,-10,-1,-100,18945.840663313633,-0.016250974267153058,0.017577265478397636,0.9997134317261475,66.69744911813304,4.146040305778052,419.31176888118966,-109.83322326984043,-92.83191680908203,4761.76025390625,True
1599386195.3444226,0.0,10,0.5,0.5,1.8679419078826904,-0.1005,-0.001,-0.12575,0.24515642243116387,10,1,100,0.08237309524827807,-10,-1,-100,18941.4364198572,-0.015352108029602088,0.018071543521788334,0.9997188265176301,66.96178584379511,4.164240253735029,422.4959335336928,-110.19702609708402,-99.91390991210938,4761.76025390625,True
1599386195.376374,0.0,10,0.5,0.5,2.570347427749634,-0.1005,-0.001,-0.12575,0.24228799733469653,10,1,100,0.06700160503876273,-10,-1,-100,18937.017628734582,-0.014400286230411912,0.01848890402750613,0.9997253583781617,69.21047321912096,4.30674989625415,438.2564557339553,-110.56068132781078,-106.93163299560547,4761.76025390625,True
1599386195.4092855,0.0,10,0.5,0.5,2.475621876907349,-0.1005,-0.001,-0.12575,0.21965953153483608,10,1,100,0.10883270427952071,-10,-1,-100,18934.802779515507,-0.013920917179790085,0.018657166952386124,0.9997290223786564,70.2799417200883,4.374854412721956,445.82604825329645,-110.74245398827324,-110.38954162597656,4761.76025390625,True
1599386195.4450834,0.0,10,0.5,0.5,3.5750956989288336,-0.1005,-0.001,-0.12575,0.23176349823520245,10,1,100,0.051920921611127796,-10,-1,-100,18930.362177318893,-0.012973425556862477,0.018915384686716205,0.9997369146187781,72.07781979220921,4.490111995660573,458.8645007406069,-111.10590017026277,-117.1479721069336,4761.76025390625,True
1599386195.4760022,0.0,10,0.5,0.5,4.19761509513855,-0.1005,-0.001,-0.12575,0.2245047432860212,10,1,100,0.044255083549560884,-10,-1,-100,18925.90704094409,-0.012048692926272014,0.019079531253921093,0.9997453678241771,73.64460788266638,4.591017816784995,470.5049942799711,-111.46922579017426,-123.63099670410156,4761.76025390625,True
1599386195.5090046,0.0,10,0.5,0.5,5.463043869018555,-0.1005,-0.001,-0.12575,0.2158064933754582,10,1,100,-0.012299755602367443,-10,-1,-100,18919.19709371915,-0.010699924523660828,0.01914645134554016,0.9997594335719272,75.11623423143683,4.68695855337629,482.45183457574217,-112.01404906301028,-132.804931640625,4761.76025390625,True
1599386195.5429144,0.0,10,0.5,0.5,4.9737659919738775,-0.1005,-0.001,-0.12575,0.2076616054707514,10,1,100,0.07554441739046142,-10,-1,-100,18916.95318093209,-0.010279613500894605,0.019129953459323886,0.9997641594030645,75.3949945587864,4.705444942986865,485.0932022172729,-112.1956282306245,-135.71481323242188,4761.76025390625,True
1599386195.5789056,0.0,10,0.5,0.5,5.2554036842346195,-0.1005,-0.001,-0.12575,0.20539148269159987,10,1,100,0.07179740832858406,-10,-1,-100,18914.70563689829,-0.009870759439439141,0.019091402449501468,0.9997690165536237,75.5788845749858,4.717847778247623,487.12944688573793,-112.37719909399712,-138.55059814453125,4761.76025390625,True
1599386195.615807,0.0,10,0.5,0.5,5.5288567581176755,-0.1005,-0.001,-0.12575,0.20434975866915095,10,1,100,0.06932042764555385,-10,-1,-100,18912.45446157863,-0.009483157835442381,0.019044955443482614,0.9997736540785739,75.6744899611464,4.72457541941391,488.60004096203977,-112.55876484049965,-141.31211853027344,4761.76025390625,True
1599386195.645727,0.0,10,0.5,0.5,6.386113227081299,-0.1005,-0.001,-0.12575,0.19156541286466489,10,1,100,0.026060041872985995,-10,-1,-100,18907.941216951353,-0.008744071267893375,0.01888491546682791,0.9997834271408347,75.62891329722436,4.722780121294377,490.01476686077297,-112.92189293588542,-146.6129913330078,4761.76025390625,True
1599386195.6756468,0.0,10,0.5,0.5,6.857161199188233,-0.1005,-0.001,-0.12575,0.18245734115608297,10,1,100,0.025396677658835826,-10,-1,-100,18903.413446953055,-0.008072968261810422,0.01865543515434704,0.9997933796153313,75.3098288338319,4.703373155359537,489.65161558308205,-113.28503315232771,-151.617431640625,4761.76025390625,True
1599386195.7124338,0.0,10,0.5,0.5,6.773991848754884,-0.1005,-0.001,-0.12575,0.19065112220998098,10,1,100,0.05797438431111644,-10,-1,-100,18901.144114424707,-0.0077656529892719175,0.01852077479655209,0.9997983174293631,75.06326218864488,4.68808026477824,488.89897946252864,-113.46661312134165,-154.00845336914062,4761.76025390625,True
1599386195.7433531,0.0,10,0.5,0.5,7.509648593139649,-0.1005,-0.001,-0.12575,0.1707835712822936,10,1,100,0.02657445317322655,-10,-1,-100,18896.59455422603,-0.007206853034111678,0.01821771321669675,0.9998080696786253,74.42675897631099,4.648334787951969,486.44248322571696,-113.82980105829274,-158.56809997558594,4761.76025390625,True
1599386195.776423,0.0,10,0.5,0.5,7.905625819396973,-0.1005,-0.001,-0.12575,0.1630145519117257,10,1,100,0.028190389650623135,-10,-1,-100,18892.030465227203,-0.006719647101165682,0.01787197474412827,0.9998177028146586,73.63880883889573,4.598994720006731,482.9673786338392,-114.19303387690431,-162.83123779296875,4761.76025390625,True
1599386195.809386,0.0,10,0.5,0.5,8.271640690612793,-0.1005,-0.001,-0.12575,0.15339461428238022,10,1,100,0.031364447526456424,-10,-1,-100,18887.45184524299,-0.0063112729414093495,0.017471161617837957,0.999827448285744,72.74342200085745,4.542959693125782,478.7528287337743,-114.55631757698072,-166.79824829101562,4761.76025390625,True
1599386195.8453867,0.0,10,0.5,0.5,8.20068937225342,-0.1005,-0.001,-0.12575,0.1709521883584813,10,1,100,0.052169529812901135,-10,-1,-100,18885.157085580286,-0.006134376653312056,0.017267862512480484,0.99983208107528,72.26774671208395,4.513239767007273,476.4469987685205,-114.73797959843998,-168.67044067382812,4761.76025390625,True
1599386195.8762653,0.0,10,0.5,0.5,8.765756185913085,-0.1005,-0.001,-0.12575,0.1434673982189017,10,1,100,0.03664048632487121,-10,-1,-100,18880.556665407727,-0.0058365392213963795,0.01683489122346211,0.9998412480226104,71.28369938780914,4.45190898958518,471.58867405897183,-115.10134425712542,-172.19268798828125,4761.76025390625,True
1599386195.91021,0.0,10,0.5,0.5,9.056359951782227,-0.1005,-0.001,-0.12575,0.1361152247100757,10,1,100,0.04133546395577392,-10,-1,-100,18875.94170903985,-0.005612498692917151,0.01637652943994323,0.9998501433424534,70.28352147996316,4.3898291431555,466.58087634885754,-115.46476250784212,-175.41867065429688,4761.76025390625,True
1599386195.9431155,0.0,10,0.5,0.5,8.994203237915041,-0.1005,-0.001,-0.12575,0.1551749639115065,10,1,100,0.05450972645005707,-10,-1,-100,18873.62877913774,-0.005532462654017265,0.016135575332220486,0.9998545069487261,69.78671643155768,4.359105252094228,464.08248015348755,-115.64649099650762,-176.920654296875,4761.76025390625,True
1599386195.9791763,0.0,10,0.5,0.5,-71.72218376922608,-0.1005,-0.001,-0.12575,0.09802867007874763,10,1,100,0.045819709996599844,-10,-1,-100,18866.66817961319,-0.005384294010150871,0.015399659272275878,0.9998669210811556,68.34852509825518,4.270666227409353,456.87076107223237,-116.1917484091567,179.01779174804688,4761.76025390625,True
1599386196.010102,0.0,10,0.5,0.5,-26.995487257385253,-0.1005,-0.001,-0.12575,0.1712717504537532,10,1,100,0.06030059665746499,-10,-1,-100,18866.66817961319,-0.005384294010150871,0.015399659272275878,0.9998669210811556,68.34852509825518,4.270666227409353,456.87076107223237,-116.1917484091567,179.01779174804688,4761.76025390625,True
1599386196.0439515,0.0,10,0.5,0.5,-26.499627191925047,-0.1005,-0.001,-0.12575,0.11446604284855338,10,1,100,0.05945395813735867,-10,-1,-100,18862.009602865903,-0.005379041545651413,0.014886203544848672,0.9998747255811956,67.6461879220049,4.228123169961,453.7299004054973,-116.555302387517,176.6800079345703,4761.76025390625,True
1599386196.0768712,0.0,10,0.5,0.5,-26.29655081634522,-0.1005,-0.001,-0.12575,0.10765859685990634,10,1,100,0.06439997414202844,-10,-1,-100,18857.336485165753,-0.005421400006552195,0.014360843893883242,0.9998821803515776,68.62047584890574,4.290699457067346,461.8422132210569,-116.91881258684435,174.33692932128906,4761.76025390625,True
1599386196.112772,0.0,10,0.5,0.5,-26.33921636886597,-0.1005,-0.001,-0.12575,0.130240245256502,10,1,100,0.06712056515126483,-10,-1,-100,18854.994474160485,-0.005486263482934655,0.014092038168722641,0.9998856511487936,69.11332338163362,4.322477225942916,465.95397639352683,-117.1005428487121,173.07608032226562,4761.76025390625,True
1599386196.1506705,0.0,10,0.5,0.5,-25.912886038208008,-0.1005,-0.001,-0.12575,0.0966923826982721,10,1,100,0.0783676442725999,-10,-1,-100,18850.2995499589,-0.005648597711311056,0.01354612506493401,0.9998922921193166,70.12955713031612,4.388214654153277,474.4186373238412,-117.46395124401926,170.34249877929688,4761.76025390625,True
1599386196.180594,0.0,10,0.5,0.5,-25.605908599853517,-0.1005,-0.001,-0.12575,0.08925086289835849,10,1,100,0.086258603395758,-10,-1,-100,18845.59009133035,-0.005868512706618402,0.012985758460175044,0.9998984601627438,71.17552243997858,4.456173968644343,483.13232302216664,-117.8272868308522,167.31735229492188,4761.76025390625,True
1599386196.2095187,0.0,10,0.5,0.5,-25.26901300582886,-0.1005,-0.001,-0.12575,0.08241564051929032,10,1,100,0.0972968278972583,-10,-1,-100,18840.866101679858,-0.006169024619590259,0.012418088710632005,0.9999038624827978,72.26003909338998,4.52688925176575,492.1567742694872,-118.19054567807102,163.99842834472656,4761.76025390625,True
1599386196.246382,0.0,10,0.5,0.5,-25.31957512207032,-0.1005,-0.001,-0.12575,0.10671016394032674,10,1,100,0.0857188524618144,-10,-1,-100,18838.49865869526,-0.00633666068615319,0.012126899880795784,0.999906388133724,72.86018576768022,4.565988907626689,497.08254189475934,-118.372143338072,162.22865295410156,4761.76025390625,True
1599386196.277332,0.0,10,0.5,0.5,-24.725183448028567,-0.1005,-0.001,-0.12575,0.07058924604163495,10,1,100,0.11156303442331182,-10,-1,-100,18833.752878686995,-0.0067233458899574345,0.011537674081464881,0.9999108353732515,74.06294792944279,4.644530452818577,506.9919216456229,-118.73527286833313,158.4686279296875,4761.76025390625,True
1599386196.3102918,0.0,10,0.5,0.5,-24.314341638946537,-0.1005,-0.001,-0.12575,0.06262980735887036,10,1,100,0.1226213737528668,-10,-1,-100,18828.992576170946,-0.007174325629833666,0.010933835640639615,0.9999144864886901,75.34438224053822,4.7281668557134475,517.4960301244487,-119.09830882263505,154.41468811035156,4761.76025390625,True
1599386196.343256,0.0,10,0.5,0.5,-24.338166049957277,-0.1005,-0.001,-0.12575,0.08958376329413528,10,1,100,0.10551623821688544,-10,-1,-100,18826.606980172102,-0.007427178677921606,0.010633987406238724,0.9999158741257838,75.95571306373056,4.768158410563675,522.5675664606057,-119.27979208070866,152.27767944335938,4761.76025390625,True
1599386196.3791373,0.0,10,0.5,0.5,-23.587393943786623,-0.1005,-0.001,-0.12575,0.05139996493651151,10,1,100,0.14073414971433745,-10,-1,-100,18821.824901021784,-0.007975350749189506,0.010018605091592277,0.999918007304822,77.0930153398754,4.84270815203087,532.1626449487435,-119.64269315287564,147.78341674804688,4761.76025390625,True
1599386196.4100542,0.0,10,0.5,0.5,-23.61633254699707,-0.1005,-0.001,-0.12575,0.07759525932337549,10,1,100,0.11883114078147651,-10,-1,-100,18819.428418744355,-0.008272210451676554,0.009701730753115412,0.9999187201741135,77.60735583321168,4.876486835095731,536.6038313828606,-119.82411308723877,145.42617797851562,4761.76025390625,True
1599386196.4440417,0.0,10,0.5,0.5,-22.793500569152833,-0.1005,-0.001,-0.12575,0.03968848049510505,10,1,100,0.16068819675776772,-10,-1,-100,18814.624570174725,-0.008920009953317314,0.009073291649825593,0.9999190511241747,78.49639606275161,4.934977120102174,544.552319472545,-120.18689964857901,140.49197387695312,4761.76025390625,True
1599386196.47721,0.0,10,0.5,0.5,-22.22800487289429,-0.1005,-0.001,-0.12575,0.030174353400427553,10,1,100,0.17466877332037775,-10,-1,-100,18809.806212192983,-0.009632893154041384,0.008420053806445869,0.9999181516821162,79.15530179153168,4.978457061058867,550.9396947566898,-120.54962897219565,135.26451110839844,4761.76025390625,True
1599386196.5130782,0.0,10,0.5,0.5,-22.265683830261228,-0.1005,-0.001,-0.12575,0.05976587035030538,10,1,100,0.14592104576103634,-10,-1,-100,18807.391592410626,-0.010016003726484953,0.008099875076789088,0.9999170324047347,79.38112045458146,4.9934290246564155,553.4225035710415,-120.73097849674187,132.54112243652344,4761.76025390625,True
1599386196.5439906,0.0,10,0.5,0.5,-19.974367633819583,-0.1005,-0.001,-0.12575,-0.0556238476423844,10,1,100,0.2969311282934466,-10,-1,-100,18797.696845269995,-0.011733334550801139,0.006764247780243368,0.9999082827001116,79.42588614610506,4.997466153543145,557.387069121539,-121.4563506065781,120.91546630859375,4761.76025390625,True
1599386196.5771027,0.0,10,0.5,0.5,-21.431985595703125,-0.1005,-0.001,-0.12575,0.07737349791914874,10,1,100,0.12575447685494906,-10,-1,-100,18797.696845269995,-0.011733334550801139,0.006764247780243368,0.9999082827001116,79.42588614610506,4.997466153543145,557.387069121539,-121.4563506065781,120.91546630859375,4761.76025390625,True
1599386196.6100626,0.0,10,0.5,0.5,-20.728970457458495,-0.1005,-0.001,-0.12575,0.04061687765778662,10,1,100,0.1785708124502024,-10,-1,-100,18795.264091023128,-0.012208576989062853,0.006434971825231488,0.999904766358032,79.18602891073428,4.982256281156091,556.6167461920045,-121.63770565426934,117.82647705078125,4761.76025390625,True
