Timestamp,Input Throttle,horizon,dT,dt,Input Roll,Roll P,Roll I,Roll D,Input Pitch,Pitch P,Pitch I,Pitch D,Input Yaw,Yaw P,Yaw I,Yaw D,Altitude,Direction X,Direction Y,Direction Z,Drag X,Drag Y,Drag Z,Vertical Velocity,Roll,Mass,Has Fuel
1599385191.443212,0.0,10,0.5,0.5,-0.056075256347656255,-0.001,-0.03,-0.001,-0.00016849877850336485,10,1,100,0.49808081789292435,-10,-1,-100,19351.09416689363,-0.04884327052325659,-0.00017537665563020037,0.9988064397908238,60.98673936644133,3.680694263701804,232.75488097685783,-68.4818746541204,-33.922576904296875,4761.76025390625,True
1599385191.473238,0.0,10,0.5,0.5,-0.224307373046875,-0.001,-0.03,-0.001,-0.0008541336917296472,10,1,100,0.4988984859611121,-10,-1,-100,19349.72087996709,-0.04889401101122223,-0.00016703874171987876,0.9988039586351735,61.07639095093621,3.6867756156267033,233.74153614217843,-68.6643346835168,-33.923736572265625,4761.76025390625,True
1599385191.5085623,0.0,10,0.5,0.5,-0.3925349426269531,-0.001,-0.03,-0.001,-0.0007325792457922537,10,1,100,0.5045022719123664,-10,-1,-100,19348.343944116146,-0.04894663313528311,-0.00015820192616404656,0.9988013826967155,61.16633799012975,3.6928785270566813,234.73139399268433,-68.84679144964667,-33.9249267578125,4761.76025390625,True
1599385191.5394802,0.0,10,0.5,0.5,-0.5607267456054688,-0.001,-0.03,-0.001,0.022655591502449175,10,1,100,0.5085050813690921,-10,-1,-100,19344.19124216831,-0.04898636366754933,6.259509653087207e-05,0.9987994454626437,61.436129129257374,3.7112066099607435,237.71322560566526,-69.39414087216662,-33.942230224609375,4761.76025390625,True
1599385191.572523,0.0,10,0.5,0.5,-0.7289173583984375,-0.001,-0.03,-0.001,0.0005821487426103954,10,1,100,0.5094306645092245,-10,-1,-100,19344.19124216831,-0.04898636366754933,6.259509653087207e-05,0.9987994454626437,61.436129129257374,3.7112066099607435,237.71322560566526,-69.39414087216662,-33.942230224609375,4761.76025390625,True
1599385191.6065,0.0,10,0.5,0.5,-0.8968981018066405,-0.001,-0.03,-0.001,0.02875774718171365,10,1,100,0.5103009279628462,-10,-1,-100,19341.404529881896,-0.04894974209561176,0.00031867999588951,0.9988011920256371,61.609622781914354,3.7230592456999854,239.68672084649063,-69.75902342173642,-34.03851318359375,4761.76025390625,True
1599385191.641825,0.0,10,0.5,0.5,-1.0646870117187501,-0.001,-0.03,-0.001,0.022447943500968456,10,1,100,0.5129475107521432,-10,-1,-100,19340.00570054818,-0.04889600983548429,0.0004938328891215977,0.9988037526717878,61.69509660327358,3.7289132681193236,240.67151002363812,-69.94145937928033,-34.134429931640625,4761.76025390625,True
1599385191.6637673,0.0,10,0.5,0.5,-1.2317470092773437,-0.001,-0.03,-0.001,0.05636232817041906,10,1,100,0.503973614366385,-10,-1,-100,19337.19709611265,-0.048721130532011075,0.000960926440973845,0.9988119583084986,61.86588731907993,3.7406162802765306,242.6463913536742,-70.30632033863994,-34.45074462890625,4761.76025390625,True
1599385191.6817272,0.0,10,0.5,0.5,-1.3976240539550782,-0.001,-0.03,-0.001,0.07712295519460952,10,1,100,0.4951164767578923,-10,-1,-100,19334.373897638987,-0.048437337977383664,0.0015734163461130978,0.9988249839940261,62.03986443963817,3.7525080365255477,244.6416952669227,-70.67116621856562,-34.9942626953125,4761.76025390625,True
1599385191.706797,0.0,10,0.5,0.5,-1.5624400939941405,-0.001,-0.03,-0.001,0.05609959006880165,10,1,100,0.5085349502351661,-10,-1,-100,19332.95682602201,-0.04825729692480907,0.0019376734711449716,0.9988330584812608,62.12916182642353,3.758586686936095,245.65145733996604,-70.85358302578945,-35.366607666015625,4761.76025390625,True
1599385191.7388356,0.0,10,0.5,0.5,-1.7258245544433592,-0.001,-0.03,-0.001,0.06396553485424601,10,1,100,0.5085768641550273,-10,-1,-100,19331.53610595758,-0.0480501340063538,0.002338563379704219,0.9988421876068765,62.219910459733484,3.7647450769585764,246.66900150595683,-71.03599562332688,-35.810638427734375,4761.76025390625,True
1599385191.774821,0.0,10,0.5,0.5,-1.719570770263672,-0.001,-0.03,-0.001,0.07156910438820459,10,1,100,0.5027600359772737,-10,-1,-100,19330.111737683765,-0.047809644857521164,0.002769846710489218,0.9988526246688239,62.311731685813854,3.7709573121205384,247.69286273794404,-71.2184038922581,-36.32745361328125,4761.76025390625,True
1599385191.7967658,0.0,10,0.5,0.5,-1.7103700866699219,-0.001,-0.03,-0.001,0.13510441740971924,10,1,100,0.46406809943575944,-10,-1,-100,19327.252057378413,-0.04724025926834473,0.003736846324623706,0.9988765658898029,62.49427579432297,3.783268869069949,249.74240581178628,-71.5832070926956,-37.58062744140625,4761.76025390625,True
1599385191.81671,0.0,10,0.5,0.5,-1.6975632019042968,-0.001,-0.03,-0.001,0.16029545328945471,10,1,100,0.44460848017037435,-10,-1,-100,19324.377785240067,-0.046547281624741685,0.004841405347061028,0.9989043554653331,62.66722030081816,3.7949141280088146,251.76158249719683,-71.94799225766334,-39.127105712890625,4761.76025390625,True
1599385191.8396559,0.0,10,0.5,0.5,-1.679875,-0.001,-0.03,-0.001,0.18529318578729423,10,1,100,0.4229339292492257,-10,-1,-100,19321.488922168035,-0.04572247792404012,0.006068457653574835,0.998935748101044,62.818252917190634,3.8051166973346326,253.70004236538915,-72.3127596381189,-40.967132568359375,4761.76025390625,True
1599385191.8732703,0.0,10,0.5,0.5,-1.6606403198242188,-0.001,-0.03,-0.001,0.06318854139161796,10,1,100,0.5050879107450313,-10,-1,-100,19321.488922168035,-0.04572247792404012,0.006068457653574835,0.998935748101044,62.818252917190634,3.8051166973346326,253.70004236538915,-72.3127596381189,-40.967132568359375,4761.76025390625,True
1599385191.9094362,0.0,10,0.5,0.5,-1.6377938537597654,-0.001,-0.03,-0.001,0.13448936315902404,10,1,100,0.4532396419928164,-10,-1,-100,19320.039019400836,-0.04525406390281232,0.00671141987177154,0.9989529651307838,62.88110216315862,3.8093977279761564,254.6205491799779,-72.49513718183293,-41.9974365234375,4761.76025390625,True
1599385191.9402263,0.0,10,0.5,0.5,-1.6130275573730468,-0.001,-0.03,-0.001,0.14396049188304738,10,1,100,0.4442565390668407,-10,-1,-100,19318.585469100042,-0.04474987926230788,0.007376379797639075,0.9989709892319646,62.93265425295367,3.8129536065038856,255.4966390741849,-72.67751084873655,-43.101226806640625,4761.76025390625,True
1599385191.9731748,0.0,10,0.5,0.5,-1.5833246154785157,-0.001,-0.03,-0.001,0.23471246814403782,10,1,100,0.3719705446062638,-10,-1,-100,19315.667426236905,-0.04363799441336197,0.008800074556839779,0.9990086506789486,62.992556053101275,3.8173093945352394,257.0761555402078,-73.04224791294267,-45.52886962890625,4761.76025390625,True
1599385192.0073493,0.0,10,0.5,0.5,-1.5487051391601563,-0.001,-0.03,-0.001,0.25691502486677076,10,1,100,0.3432856879733701,-10,-1,-100,19312.7347943841,-0.04237078162089758,0.010289614255219149,0.9990489681208389,62.978524467310145,3.816976898066636,258.3554736787959,-73.40697470722074,-48.250518798828125,4761.76025390625,True
1599385192.0425768,0.0,10,0.5,0.5,-1.5098329162597657,-0.001,-0.03,-0.001,0.1934523720255035,10,1,100,0.39333596309547536,-10,-1,-100,19311.263007407775,-0.041679123870043557,0.011059215372657897,0.999069839595194,62.93706300064491,3.8146378379662673,258.85347887854437,-73.58933571702923,-49.721588134765625,4761.76025390625,True
1599385192.0737062,0.0,10,0.5,0.5,-1.4563301696777342,-0.001,-0.03,-0.001,0.4609169309626991,10,1,100,0.11435058244746199,-10,-1,-100,19305.339387771208,-0.03851990519077279,0.01418242087703767,0.9991571827506223,62.47152235840363,3.7865215213590067,259.59338697620046,-74.31878250524124,-56.342071533203125,4761.76025390625,True
1599385192.106905,0.0,10,0.5,0.5,-1.4029067993164062,-0.001,-0.03,-0.001,0.14973763794137665,10,1,100,0.42934347640786413,-10,-1,-100,19305.339387771208,-0.03851990519077279,0.01418242087703767,0.9991571827506223,62.47152235840363,3.7865215213590067,259.59338697620046,-74.31878250524124,-56.342071533203125,4761.76025390625,True
1599385192.2788856,0.0,10,0.5,0.5,-1.3391193542480468,-0.001,-0.03,-0.001,0.32739908002710494,10,1,100,0.22805735170886543,-10,-1,-100,19302.35569418629,-0.03669795892448877,0.015788028919133005,0.9992016803196565,62.01319232137391,3.758451983690501,259.0079672242874,-74.68352160260369,-60.0936279296875,4761.76025390625,True
1599385192.3028522,0.0,10,0.5,0.5,-1.2759963684082032,-0.001,-0.03,-0.001,0.24575581661505108,10,1,100,0.30535280711920043,-10,-1,-100,19300.85837611812,-0.03575328402496113,0.01649550963222639,0.9992244997213606,61.715872878416185,3.7402160849588686,258.4230408348775,-74.86589903998338,-62.08111572265625,4761.76025390625,True
1599385192.3373399,0.0,10,0.5,0.5,-1.2018388061523437,-0.001,-0.03,-0.001,0.42959448037285897,10,1,100,0.054382601708201195,-10,-1,-100,19296.344534987467,-0.03262200424338062,0.018800455358310767,0.999290922463256,60.50884909630133,3.666235707495796,255.30314869597117,-75.4130785734786,-68.482666015625,4761.76025390625,True
1599385192.3808336,0.0,10,0.5,0.5,-1.1256937561035156,-0.001,-0.03,-0.001,0.20037310753489496,10,1,100,0.3662005324981861,-10,-1,-100,19296.344534987467,-0.03262200424338062,0.018800455358310767,0.999290922463256,60.50884909630133,3.666235707495796,255.30314869597117,-75.4130785734786,-68.482666015625,4761.76025390625,True
1599385192.4037738,0.0,10,0.5,0.5,-1.027096221923828,-0.001,-0.03,-0.001,0.4948021765902228,10,1,100,-0.134927423229998,-10,-1,-100,19290.275002866285,-0.028077779245542063,0.021466093226553257,0.9993752274067171,58.039695495788386,3.51556966948752,247.36451693978933,-76.14280979547763,-78.0535888671875,4761.76025390625,True
1599385192.4625344,0.0,10,0.5,0.5,-0.93181005859375,-0.001,-0.03,-0.001,0.2296473611088652,10,1,100,0.3178278665521808,-10,-1,-100,19290.275002866285,-0.028077779245542063,0.021466093226553257,0.9993752274067171,58.039695495788386,3.51556966948752,247.36451693978933,-76.14280979547763,-78.0535888671875,4761.76025390625,True
1599385192.5054214,0.0,10,0.5,0.5,-0.8290823974609375,-0.001,-0.03,-0.001,0.3027276913334712,10,1,100,0.17871721255029055,-10,-1,-100,19288.7484972619,-0.026827282586586534,0.022118945302531754,0.9993953417780788,57.24791924626107,3.4674527340133245,244.60238505796738,-76.32527893043023,-80.63034057617188,4761.76025390625,True
1599385192.5293596,0.0,10,0.5,0.5,-0.7237657775878905,-0.001,-0.03,-0.001,0.3595008996483728,10,1,100,0.03275755442004383,-10,-1,-100,19285.684536399203,-0.02437769191274682,0.02321781332805921,0.9994331699925065,55.43462125437743,3.357568596220828,238.04181060773274,-76.69026770288107,-86.00729370117188,4761.76025390625,True
1599385192.5512996,0.0,10,0.5,0.5,-0.6089625549316405,-0.001,-0.03,-0.001,0.36512507985461873,10,1,100,-0.013678883722033991,-10,-1,-100,19282.605973936967,-0.02174437043701664,0.02425685990045422,0.9994692527046879,53.303865798150724,3.2289110255950773,230.0346141544107,-77.05532737715181,-91.6688232421875,4761.76025390625,True
1599385192.5772297,0.0,10,0.5,0.5,-0.5027823791503906,-0.001,-0.03,-0.001,0.31103456257221457,10,1,100,0.10451389662835037,-10,-1,-100,19281.06121601828,-0.020440172130223387,0.024700557137315633,0.9994859087753029,52.11691694564652,3.157416479394864,225.47102279628152,-77.2378844200191,-94.59954833984375,4761.76025390625,True
1599385192.6081443,0.0,10,0.5,0.5,-0.3849539337158203,-0.001,-0.03,-0.001,0.3129946756418128,10,1,100,0.08780318442971718,-10,-1,-100,19279.51280758332,-0.0191190578613879,0.02511217552940392,0.9995017960297387,52.821795522136576,3.2006830858628152,229.08680518192776,-77.420423669538,-97.5929183959961,4761.76025390625,True
1599385192.6417046,0.0,10,0.5,0.5,-0.25686112976074216,-0.001,-0.03,-0.001,0.38563619006668753,10,1,100,-0.21724736539558998,-10,-1,-100,19274.84568183415,-0.015160838892273848,0.02613827497461007,0.9995433655151906,55.420829060262534,3.360694939160411,242.1404457346146,-77.96790178674702,-106.88706970214844,4761.76025390625,True
1599385192.6747003,0.0,10,0.5,0.5,-0.11894245147705078,-0.001,-0.03,-0.001,0.33943822305049065,10,1,100,-0.11700065893529968,-10,-1,-100,19271.716019375483,-0.0124925121110207,0.026642344983429884,0.9995669675389138,57.023207324924456,3.4599815799788307,250.36221322340748,-78.33276568130579,-113.28455352783203,4761.76025390625,True
1599385192.7106433,0.0,10,0.5,0.5,0.022066719055175783,-0.001,-0.03,-0.001,0.3333160306850449,10,1,100,-0.12667330118747813,-10,-1,-100,19268.571765103377,-0.009997126918618362,0.027037805161193737,0.9995844209197331,58.43192391765409,3.547667548994718,257.79672945149235,-78.6975370794239,-119.78504943847656,4761.76025390625,True
1599385192.7413542,0.0,10,0.5,0.5,0.16947337341308594,-0.001,-0.03,-0.001,0.2945937478889479,10,1,100,0.12060273032027946,-10,-1,-100,19268.571765103377,-0.009997126918618362,0.027037805161193737,0.9995844209197331,58.43192391765409,3.547667548994718,257.79672945149235,-78.6975370794239,-119.78504943847656,4761.76025390625,True
1599385192.7743452,0.0,10,0.5,0.5,0.30121723937988276,-0.001,-0.03,-0.001,0.31161993889961864,10,1,100,-0.019731865282416883,-10,-1,-100,19266.994167063618,-0.008737794824345599,0.027187523523168344,0.9995921615870568,59.049545623779,3.586223028327912,261.15245870767177,-78.87989062070793,-123.0597915649414,4761.76025390625,True
1599385192.8083427,0.0,10,0.5,0.5,0.45922308349609375,-0.001,-0.03,-0.001,0.32801013588684597,10,1,100,-0.42499657513374633,-10,-1,-100,19260.647311234497,-0.003926304634922997,0.027467431615486766,0.9996149880490799,60.510505640249036,3.678336322299552,270.1971905683671,-79.60915443457893,-136.19078063964844,4761.76025390625,True
1599385192.8302834,0.0,10,0.5,0.5,0.6127734146118163,-0.001,-0.03,-0.001,0.3005541752862992,10,1,100,0.05386234601334743,-10,-1,-100,19260.647311234497,-0.003926304634922997,0.027467431615486766,0.9996149880490799,60.510505640249036,3.678336322299552,270.1971905683671,-79.60915443457893,-136.19078063964844,4761.76025390625,True
1599385192.851264,0.0,10,0.5,0.5,0.776305778503418,-0.001,-0.03,-0.001,0.3019224313196569,10,1,100,-0.19307758795173877,-10,-1,-100,19257.452007270535,-0.0016999883145838717,0.027476007017346902,0.9996210177252742,60.613231143396206,3.685541459654684,271.94962591118207,-79.97374098668055,-142.68173217773438,4761.76025390625,True
1599385192.8741996,0.0,10,0.5,0.5,0.9292651748657227,-0.001,-0.03,-0.001,0.30579649500216105,10,1,100,-0.0854863793047309,-10,-1,-100,19255.848886594526,-0.000672388449359677,0.027516095100590797,0.9996211344325352,60.512009167588175,3.6796804494197923,272.1415396040903,-80.15603431107785,-145.88754272460938,4761.76025390625,True
1599385192.908181,0.0,10,0.5,0.5,1.0799233474731444,-0.001,-0.03,-0.001,0.30206924047409905,10,1,100,0.0152968288496022,-10,-1,-100,19255.848886594526,-0.000672388449359677,0.027516095100590797,0.9996211344325352,60.512009167588175,3.6796804494197923,272.1415396040903,-80.15603431107785,-145.88754272460938,4761.76025390625,True
1599385192.941098,0.0,10,0.5,0.5,1.2373803710937499,-0.001,-0.03,-0.001,0.29090924176888183,10,1,100,-0.21607403264372335,-10,-1,-100,19252.631706959684,0.0014142133192959845,0.027412455185478652,0.9996232076644638,60.028471862022116,3.650547114694878,271.2496683505032,-80.52063551432954,-152.1741180419922,4761.76025390625,True
1599385192.9771457,0.0,10,0.5,0.5,1.3730687103271486,-0.001,-0.03,-0.001,0.2949628372160449,10,1,100,-0.11744991950197531,-10,-1,-100,19251.017647930537,0.002399472942047449,0.027353929602886486,0.9996229314420917,59.656368206852534,3.6279314898940522,270.20624814331615,-80.70294845118704,-155.2310028076172,4761.76025390625,True
1599385193.0083086,0.0,10,0.5,0.5,1.507674690246582,-0.001,-0.03,-0.001,0.2833060556288417,10,1,100,-0.22739457549587203,-10,-1,-100,19247.778590045287,0.00428112221262687,0.027194106890992255,0.9996210044526885,58.690273728562666,3.5690695200435627,267.0871525100142,-81.06760842171066,-161.14276123046875,4761.76025390625,True
1599385193.041306,0.0,10,0.5,0.5,1.6424773635864258,-0.001,-0.03,-0.001,0.28016703074130367,10,1,100,-0.32277441893511144,-10,-1,-100,19242.892649934744,0.0068458217179364796,0.02702013483417461,0.999611448032959,56.80741250166642,3.4543888956291697,260.3466630802107,-81.6147011728332,-169.46340942382812,4761.76025390625,True
1599385193.0749962,0.0,10,0.5,0.5,1.7884436874389649,-0.001,-0.03,-0.001,0.28956319130510394,10,1,100,-0.15558698683729322,-10,-1,-100,19241.256707976805,0.007642169204931818,0.026947414124308587,0.9996076400877778,56.096443579351416,3.41116646225628,257.69086027847845,-81.79709513546354,-172.08935546875,4761.76025390625,True
1599385193.1109679,0.0,10,0.5,0.5,1.9380089721679687,-0.001,-0.03,-0.001,0.29270795783035286,10,1,100,-0.16158240339593832,-10,-1,-100,19239.617117901216,0.008405734376343192,0.026910111455931612,0.9996025157686549,55.35520497323326,3.3661637431174496,254.88075875100836,-81.97950404619971,-174.640625,4761.76025390625,True
1599385193.140974,0.0,10,0.5,0.5,1.3452230072021483,-0.001,-0.03,-0.001,0.29310995188797245,10,1,100,-0.31939026350805294,-10,-1,-100,19234.676455399254,0.010523290497726151,0.02688036108534868,0.9995832664390806,53.020245904729016,3.2248368288588223,245.84060629469485,-82.52681736045429,178.1514892578125,4761.76025390625,True
1599385193.1743877,0.0,10,0.5,0.5,0.754988311767578,-0.001,-0.03,-0.001,0.29602628189325175,10,1,100,-0.10907961088302198,-10,-1,-100,19234.676455399254,0.010523290497726151,0.02688036108534868,0.9995832664390806,53.020245904729016,3.2248368288588223,245.84060629469485,-82.52681736045429,178.1514892578125,4761.76025390625,True
1599385193.208329,0.0,10,0.5,0.5,-0.19864343261718753,-0.001,-0.03,-0.001,0.2996894189359975,10,1,100,-0.24948677977374734,-10,-1,-100,19231.364434526302,0.0117886072341761,0.02691420382749364,0.9995682339749551,51.856399096277904,3.154922290535429,241.56059293720665,-82.8917510480623,173.717529296875,4761.76025390625,True
1599385193.2436,0.0,10,0.5,0.5,-1.153622344970703,-0.001,-0.03,-0.001,0.3169505242429169,10,1,100,-0.25296187712222756,-10,-1,-100,19228.03781744442,0.012959158792586295,0.027102436269754778,0.9995486572206639,53.07086275740166,3.2300513135732305,248.36063038426835,-83.25664075327145,169.5823974609375,4761.76025390625,True
1599385193.2754748,0.0,10,0.5,0.5,-2.1002319946289063,-0.001,-0.03,-0.001,0.3062769590693386,10,1,100,-0.1965079738066132,-10,-1,-100,19226.369036043645,0.013497686954415482,0.027176900314624042,0.9995395082417551,53.59785753149024,3.2628574055109896,251.4038873309817,-83.43906287627932,167.61474609375,4761.76025390625,True
1599385193.308424,0.0,10,0.5,0.5,-3.0461251373291014,-0.001,-0.03,-0.001,0.3720980868776307,10,1,100,-0.3568795129688159,-10,-1,-100,19219.657431829488,0.01543419611788466,0.027843182930826806,0.9994931429251904,55.43177192909471,3.3780234195642076,262.39247762940283,-84.16861005367502,159.89419555664062,4761.76025390625,True
1599385193.3419614,0.0,10,0.5,0.5,-3.999221282958984,-0.001,-0.03,-0.001,0.30551875059014844,10,1,100,-0.1645320689394819,-10,-1,-100,19219.657431829488,0.01543419611788466,0.027843182930826806,0.9994931429251904,55.43177192909471,3.3780234195642076,262.39247762940283,-84.16861005367502,159.89419555664062,4761.76025390625,True
1599385193.377336,0.0,10,0.5,0.5,-4.9582177124023445,-0.001,-0.03,-0.001,0.3299815682652868,10,1,100,-0.21277900196749072,-10,-1,-100,19217.970412575058,0.015862665441861778,0.02806498211329185,0.9994802312322442,55.883116416416776,3.4065023401116488,265.1302215435367,-84.35096093004462,157.83697509765625,4761.76025390625,True
1599385193.408305,0.0,10,0.5,0.5,-5.928974822998046,-0.001,-0.03,-0.001,0.4049330886900371,10,1,100,-0.2997623482881425,-10,-1,-100,19212.887475659256,0.017034743572279697,0.028947045330958605,0.999435783869096,57.255911614472936,3.493258369133832,273.49053768616557,-84.89792498050375,151.23634338378906,4761.76025390625,True
1599385193.4408653,0.0,10,0.5,0.5,-6.900860626220703,-0.001,-0.03,-0.001,0.3541199994835315,10,1,100,-0.22231575735210563,-10,-1,-100,19211.18587118783,0.017387670523816245,0.02928516596222683,0.9994198557004558,57.70053308053222,3.5214122108648542,276.23457185064893,-85.08021641017449,148.890380859375,4761.76025390625,True
1599385193.474912,0.0,10,0.5,0.5,-7.86896238708496,-0.001,-0.03,-0.001,0.36321140116254086,10,1,100,-0.22522746728152646,-10,-1,-100,19209.48062130541,0.017726817900801047,0.0296730383200014,0.9994024568330678,58.118341786300796,3.5479244713928733,278.8593666079215,-85.26249374085698,146.47177124023438,4761.76025390625,True
1599385193.5100222,0.0,10,0.5,0.5,-7.766230209350586,-0.001,-0.03,-0.001,0.42305325710820973,10,1,100,-0.2621471492787752,-10,-1,-100,19206.059185742633,0.018364218509486697,0.03056712762908922,0.9993640008460595,58.85642918024323,3.594929701814429,283.66544113721125,-85.62700961252466,141.41595458984375,4761.76025390625,True
1599385193.5300033,0.0,10,0.5,0.5,-7.650383438110352,-0.001,-0.03,-0.001,0.4447374627567974,10,1,100,-0.26410116886927554,-10,-1,-100,19202.623170873965,0.0189543093063766,0.031573713628207364,0.9993216873291814,59.43556901771856,3.632059954680559,287.7333811598379,-85.99148112309894,136.06796264648438,4761.76025390625,True
1599385193.5509467,0.0,10,0.5,0.5,-7.537216293334961,-0.001,-0.03,-0.001,0.40648386100544753,10,1,100,-0.23675088377792808,-10,-1,-100,19200.899696863722,0.019235602255380443,0.03213679587530185,0.9992983628310125,59.65470951128528,3.6462324154499672,289.4349224053422,-86.17370386132524,133.2847442626953,4761.76025390625,True
1599385193.574846,0.0,10,0.5,0.5,-7.425394424438477,-0.001,-0.03,-0.001,0.41678940141218984,10,1,100,-0.23958315762689647,-10,-1,-100,19199.172578424215,0.019511365204499292,0.03273779886762581,0.999273507681035,59.82094884264375,3.65710048769222,290.88396851346107,-86.3559201253933,130.42868041992188,4761.76025390625,True
1599385193.60883,0.0,10,0.5,0.5,-7.304832397460938,-0.001,-0.03,-0.001,0.5059069377013409,10,1,100,-0.27165182193554493,-10,-1,-100,19195.707408636692,0.02004812512627679,0.03408926928277351,0.9992176911958112,59.97703274584365,3.667819003463631,292.9315880880586,-86.72034072340692,124.49873352050781,4761.76025390625,True
1599385193.6449304,0.0,10,0.5,0.5,-7.198427337646484,-0.001,-0.03,-0.001,0.45110517347414936,10,1,100,-0.24793341536125932,-10,-1,-100,19193.96935759869,0.020316272332664292,0.03481400263415882,0.9991872868982541,59.95835116851969,3.6671438794048723,293.4847656285697,-86.90254926220382,121.42442321777344,4761.76025390625,True
1599385193.6763327,0.0,10,0.5,0.5,-7.066775405883789,-0.001,-0.03,-0.001,0.6500476118630905,10,1,100,-0.31211341181164953,-10,-1,-100,19188.73333881551,0.021139058782370313,0.037275081648314626,0.9990814323576969,59.46502752125457,3.637948181167719,292.9893636893621,-87.44919462621112,111.76596069335938,4761.76025390625,True
1599385193.7090182,0.0,10,0.5,0.5,-6.924616424560547,-0.001,-0.03,-0.001,0.6087046803457241,10,1,100,-0.2957495780204996,-10,-1,-100,19185.224436810357,0.021733487617328507,0.03912820855690292,0.9989978172203956,58.73393792506626,3.593642085472365,290.6532393748584,-87.81366405338504,104.96376037597656,4761.76025390625,True
1599385193.7420664,0.0,10,0.5,0.5,-6.7855825653076165,-0.001,-0.03,-0.001,0.5389852261760517,10,1,100,-0.2723212522310987,-10,-1,-100,19183.464518307825,0.02205662110189136,0.0401698005602353,0.9989493944082044,58.23755241632682,3.5634647569746223,288.82523993675653,-87.99591703891902,101.45460510253906,4761.76025390625,True
1599385193.7779682,0.0,10,0.5,0.5,-6.632311981201171,-0.001,-0.03,-0.001,0.6781322288685334,10,1,100,-0.31917979308199945,-10,-1,-100,19179.933745054994,0.02277212104961298,0.04237178001083457,0.9988423613171475,56.97227883209002,3.4865056195837907,283.7813202608666,-88.36046902633667,94.21839904785156,4761.76025390625,True
1599385193.8090975,0.0,10,0.5,0.5,-6.48278807067871,-0.001,-0.03,-0.001,0.4592041579776901,10,1,100,-0.24813432862471854,-10,-1,-100,19179.933745054994,0.02277212104961298,0.04237178001083457,0.9988423613171475,56.97227883209002,3.4865056195837907,283.7813202608666,-88.36046902633667,94.21839904785156,4761.76025390625,True
1599385193.842703,0.0,10,0.5,0.5,-6.318399810791015,-0.001,-0.03,-0.001,0.862332580161254,10,1,100,-0.3900029387377558,-10,-1,-100,19174.610238727066,0.02405782850287684,0.04602585234670174,0.9986505103405724,54.368935758319296,3.328394649780095,272.57943820820634,-88.90743380111915,82.82060241699219,4761.76025390625,True
1599385193.8760202,0.0,10,0.5,0.5,-6.154133743286133,-0.001,-0.03,-0.001,0.7907655474947012,10,1,100,-0.3766194275825105,-10,-1,-100,19171.042999087367,0.02510034561425403,0.04868398859259552,0.9984987941428677,52.482230297969956,3.214263705575612,264.2576238430642,-89.27217172595205,74.85971069335938,4761.76025390625,True
1599385193.9122317,0.0,10,0.5,0.5,-5.986819534301758,-0.001,-0.03,-0.001,0.5266066421770529,10,1,100,-0.272954190780679,-10,-1,-100,19171.042999087367,0.02510034561425403,0.04868398859259552,0.9984987941428677,52.482230297969956,3.214263705575612,264.2576238430642,-89.27217172595205,74.85971069335938,4761.76025390625,True
1599385193.9424126,0.0,10,0.5,0.5,-5.795148147583007,-0.001,-0.03,-0.001,1.0167478011894668,10,1,100,-0.5010532874215126,-10,-1,-100,19165.664789093076,0.02716889287425274,0.05312532077477658,0.9982181883499041,55.56978015751164,3.406521081926738,281.60936117136146,-89.81913327764377,62.377471923828125,4761.76025390625,True
1599385193.9763188,0.0,10,0.5,0.5,-5.6212666015625,-0.001,-0.03,-0.001,0.5745181881205609,10,1,100,-0.29491063819643915,-10,-1,-100,19165.664789093076,0.02716889287425274,0.05312532077477658,0.9982181883499041,55.56978015751164,3.406521081926738,281.60936117136146,-89.81913327764377,62.377471923828125,4761.76025390625,True
1599385194.1383948,0.0,10,0.5,0.5,-5.426755905151367,-0.001,-0.03,-0.001,0.915688226376251,10,1,100,-0.47599606345651935,-10,-1,-100,19162.06108810543,0.028808894357942934,0.05621021992424593,0.9980032358574499,57.34425611721738,3.5178335167650103,291.8422497595505,-90.18363545497931,53.69255065917969,4761.76025390625,True
1599385194.1568534,0.0,10,0.5,0.5,-5.252319686889648,-0.001,-0.03,-0.001,0.7887355895007528,10,1,100,-0.4248037387773319,-10,-1,-100,19160.25377109542,0.02982744745005452,0.057843345053735416,0.9978799881807475,58.07591916048667,3.564014554436122,296.19346633244214,-90.36585007826427,49.242095947265625,4761.76025390625,True
1599385194.1807895,0.0,10,0.5,0.5,-5.080558547973632,-0.001,-0.03,-0.001,0.8079344393631462,10,1,100,-0.44478526820019604,-10,-1,-100,19158.442810091306,0.030927696928697707,0.05948552550065959,0.9977499435322446,58.806142167930986,3.610108190027202,300.5527955588445,-90.54804186047481,44.71879577636719,4761.76025390625,True
1599385194.203728,0.0,10,0.5,0.5,-4.886858551025392,-0.001,-0.03,-0.001,1.1866664951358303,10,1,100,-0.7371344008292924,-10,-1,-100,19152.988067686092,0.03457757850061347,0.06440387575494194,0.9973246872773057,60.253431614319425,3.702453330277873,309.9007878753717,-91.09451631600453,30.710861206054688,4761.76025390625,True
1599385194.223674,0.0,10,0.5,0.5,-4.710343872070313,-0.001,-0.03,-0.001,0.6970346792820058,10,1,100,-0.3733267893828159,-10,-1,-100,19152.988067686092,0.03457757850061347,0.06440387575494194,0.9973246872773057,60.253431614319425,3.702453330277873,309.9007878753717,-91.09451631600453,30.710861206054688,4761.76025390625,True
1599385194.243608,0.0,10,0.5,0.5,-4.5004142456054685,-0.001,-0.03,-0.001,1.0576683880990994,10,1,100,-0.6953175158015719,-10,-1,-100,19149.333358431468,0.0374940346885558,0.06766233483896633,0.9970035134375972,60.50493761119294,3.719762533597197,312.5007453918,-91.45879285871438,21.007354736328125,4761.76025390625,True
1599385194.2752585,0.0,10,0.5,0.5,-4.3147529602050785,-0.001,-0.03,-0.001,0.9037627316419133,10,1,100,-0.5878329606443962,-10,-1,-100,19147.50053973263,0.039156011443269335,0.06920575850893021,0.9968336720622244,60.39986182004019,3.714094283039345,312.6105986414052,-91.6409334026866,16.044830322265625,4761.76025390625,True
1599385194.3122427,0.0,10,0.5,0.5,-4.14327084350586,-0.001,-0.03,-0.001,0.751472541637159,10,1,100,-0.423040851755944,-10,-1,-100,19147.50053973263,0.039156011443269335,0.06920575850893021,0.9968336720622244,60.39986182004019,3.714094283039345,312.6105986414052,-91.6409334026866,16.044830322265625,4761.76025390625,True
1599385194.3425221,0.0,10,0.5,0.5,-3.9465373229980463,-0.001,-0.03,-0.001,1.0876551915242312,10,1,100,-0.8081123189339675,-10,-1,-100,19143.82397305849,0.04264388326686135,0.0722433082625251,0.9964749889642027,59.70273324386691,3.672631730966401,310.2940435144805,-92.00524167057625,5.900390625,4761.76025390625,True
1599385194.3755643,0.0,10,0.5,0.5,-3.7768843078613283,-0.001,-0.03,-0.001,0.9424806711665885,10,1,100,-0.6694385930121457,-10,-1,-100,19141.98022468388,0.04453993742502607,0.07366756877391667,0.996287751247156,59.10740504217466,3.6366880189044486,307.8401271366924,-92.1874172630487,0.71728515625,4761.76025390625,True
1599385194.4091103,0.0,10,0.5,0.5,-3.5541367187499997,-0.001,-0.03,-0.001,1.3384278806657692,10,1,100,-1.4025701954000107,-10,-1,-100,19134.568787556025,0.052912663913655705,0.07854319637244779,0.995505507921056,55.095577743078536,3.393035994500114,289.3370112463374,-92.9163324254622,-20.757781982421875,4761.76025390625,True
1599385194.4449646,0.0,10,0.5,0.5,-3.3522607879638673,-0.001,-0.03,-0.001,0.8530984184574774,10,1,100,-0.5677079234926187,-10,-1,-100,19134.568787556025,0.052912663913655705,0.07854319637244779,0.995505507921056,55.095577743078536,3.393035994500114,289.3370112463374,-92.9163324254622,-20.757781982421875,4761.76025390625,True
1599385194.475949,0.0,10,0.5,0.5,-3.131151473999023,-0.001,-0.03,-0.001,0.9642469716461036,10,1,100,-0.8185850409642288,-10,-1,-100,19132.70681502833,0.05517237842115798,0.07953481971841829,0.9953040847458184,53.70184010449412,3.308272007440849,282.6006265737114,-93.09862288958618,-26.3126220703125,4761.76025390625,True
1599385194.508862,0.0,10,0.5,0.5,-2.9009399414062496,-0.001,-0.03,-0.001,1.0384847789007765,10,1,100,-1.105055970008895,-10,-1,-100,19128.971932130982,0.059808904890663865,0.08109295801323599,0.9949104618288236,53.63605784659557,3.306753378994685,283.4175725419726,-93.46320558958583,-37.648681640625,4761.76025390625,True
1599385194.5428987,0.0,10,0.5,0.5,-2.6839293060302736,-0.001,-0.03,-0.001,1.015673156720387,10,1,100,-1.171334836857818,-10,-1,-100,19125.222469908884,0.06460352653757756,0.082286897095741,0.9945125695159733,55.51063669673819,3.425207103587795,294.52431388987844,-93.82765845398427,-49.28271484375,4761.76025390625,True
1599385194.578876,0.0,10,0.5,0.5,-2.4437200622558595,-0.001,-0.03,-0.001,0.9352209391853952,10,1,100,-0.9571557741711525,-10,-1,-100,19123.342272745795,0.06698789478485945,0.08262465517375399,0.9943268015646118,56.174546037185685,3.4676055305619298,298.65374345507735,-94.00984598895627,-55.2139892578125,4761.76025390625,True
1599385194.609328,0.0,10,0.5,0.5,-2.1720324707031247,-0.001,-0.03,-0.001,0.9171759066780207,10,1,100,-1.733160586344733,-10,-1,-100,19115.785053273663,0.0761832788838789,0.08275406011248532,0.9936537996472414,57.16912727998412,3.5338990637009955,306.40883781784305,-94.73846050966132,-79.69140625,4761.76025390625,True
1599385194.6431754,0.0,10,0.5,0.5,-1.9093011779785156,-0.001,-0.03,-0.001,0.9055902429652434,10,1,100,-0.8173249031868495,-10,-1,-100,19115.785053273663,0.0761832788838789,0.08275406011248532,0.9936537996472414,57.16912727998412,3.5338990637009955,306.40883781784305,-94.73846050966132,-79.69140625,4761.76025390625,True
1599385194.6763406,0.0,10,0.5,0.5,-1.609478210449219,-0.001,-0.03,-0.001,0.8792725880681495,10,1,100,-1.059019550946095,-10,-1,-100,19113.8866408607,0.07834684180219875,0.0825024920665085,0.9935064726424467,56.92327630737125,3.519649906384054,305.70545639849337,-94.92061048635445,-85.99853515625,4761.76025390625,True
1599385194.7133203,0.0,10,0.5,0.5,-1.3144099426269529,-0.001,-0.03,-0.001,0.8147188549611898,10,1,100,-1.291974466315422,-10,-1,-100,19110.078886160743,0.08239903190536038,0.08167761519300815,0.9932467803710427,55.75921870638446,3.4493383970112705,300.658545552094,-95.28495116344337,-98.83784484863281,4761.76025390625,True
1599385194.7434094,0.0,10,0.5,0.5,-1.0023079376220703,-0.001,-0.03,-0.001,0.7680307668935704,10,1,100,-1.2985254313789916,-10,-1,-100,19106.256555309636,0.08610797795928492,0.08049600810155756,0.9930286042262214,53.71981024901604,3.3247634591922623,290.8240147521202,-95.64938010572692,-111.9758071899414,4761.76025390625,True
1599385194.7755551,0.0,10,0.5,0.5,-0.7284322052001955,-0.001,-0.03,-0.001,0.81303368602213,10,1,100,-1.1118623239047776,-10,-1,-100,19104.339922501473,0.08775263220031834,0.07982916199983565,0.9929384575271116,52.38930546322693,3.2432661909704423,284.1880269494403,-95.83163652721218,-118.6556167602539,4761.76025390625,True
1599385194.8099823,0.0,10,0.5,0.5,-0.3865149917602539,-0.001,-0.03,-0.001,0.5615085286225827,10,1,100,-1.554638975110398,-10,-1,-100,19096.6369340003,0.09324134200468467,0.07693517687134041,0.9926666261645654,51.98194905274718,3.2220908723040687,284.22611239750904,-96.56074639080563,-146.1073760986328,4761.76025390625,True
1599385194.84621,0.0,10,0.5,0.5,-0.04051748657226562,-0.001,-0.03,-0.001,0.7722476532687835,10,1,100,-1.1279615301739583,-10,-1,-100,19094.702074712026,0.09431758417870141,0.07622245483571663,0.9926199326497079,52.84790832173301,3.2768020651982632,289.53131073359026,-96.74295991026388,-153.13987731933594,4761.76025390625,True
1599385194.8763967,0.0,10,0.5,0.5,0.2989235992431641,-0.001,-0.03,-0.001,0.8430328065134096,10,1,100,-1.0237881807010885,-10,-1,-100,19094.702074712026,0.09431758417870141,0.07622245483571663,0.9926199326497079,52.84790832173301,3.2768020651982632,289.53131073359026,-96.74295991026388,-153.13987731933594,4761.76025390625,True
1599385194.9103792,0.0,10,0.5,0.5,0.6389196166992187,-0.001,-0.03,-0.001,0.7018983702026493,10,1,100,-1.2349944282426404,-10,-1,-100,19090.821424621856,0.09621062819485995,0.0749449276349461,0.9925355272453188,53.83806948265385,3.3400719447743845,296.11757137718257,-97.107338142193,-167.35214233398438,4761.76025390625,True
1599385194.9441016,0.0,10,0.5,0.5,0.2696957855224609,-0.001,-0.03,-0.001,0.714080958587263,10,1,100,-1.2126689631003624,-10,-1,-100,19086.9262001015,0.0977020524051561,0.07390127164459558,0.9924680906735147,54.04733063923854,3.354603376942577,298.4353326319647,-97.47169532446661,178.36087036132812,4761.76025390625,True
1599385194.9787936,0.0,10,0.5,0.5,-0.11610282897949219,-0.001,-0.03,-0.001,0.7172960429305303,10,1,100,-1.261068757043545,-10,-1,-100,19081.056034309557,0.09947832820170764,0.07298976950055015,0.992359086100616,52.49881433366237,3.26052676336784,291.5880691495391,-98.01830712649686,157.03826904296875,4761.76025390625,True
1599385195.0106735,0.0,10,0.5,0.5,-0.8476144561767578,-0.001,-0.03,-0.001,0.807469828273879,10,1,100,-1.0857706823201738,-10,-1,-100,19081.056034309557,0.09947832820170764,0.07298976950055015,0.992359086100616,52.49881433366237,3.26052676336784,291.5880691495391,-98.01830712649686,157.03826904296875,4761.76025390625,True
1599385195.0432973,0.0,10,0.5,0.5,-1.534566207885742,-0.001,-0.03,-0.001,0.8018312355009685,10,1,100,-1.258551274866431,-10,-1,-100,19075.153064313577,0.1010298504190377,0.07294715749585638,0.9922054633681381,49.21616332826511,3.0589720088706938,274.95440048798673,-98.5651118979966,135.9589385986328,4761.76025390625,True
1599385195.0764766,0.0,10,0.5,0.5,-2.260035888671875,-0.001,-0.03,-0.001,0.8052193902006304,10,1,100,-1.1052621349847929,-10,-1,-100,19075.153064313577,0.1010298504190377,0.07294715749585638,0.9922054633681381,49.21616332826511,3.0589720088706938,274.95440048798673,-98.5651118979966,135.9589385986328,4761.76025390625,True
1599385195.1124465,0.0,10,0.5,0.5,-2.9757168350219727,-0.001,-0.03,-0.001,0.8584405910414559,10,1,100,-1.2255558574732854,-10,-1,-100,19071.199524892378,0.10210986437578785,0.07343784918586907,0.9920586968038292,51.53899052048376,3.2052485717607686,289.04640400738066,-98.92959464952746,121.89729309082031,4761.76025390625,True
1599385195.143545,0.0,10,0.5,0.5,-3.668411026000976,-0.001,-0.03,-0.001,0.9663561392155501,10,1,100,-1.337712933943055,-10,-1,-100,19065.241886392352,0.10409825300239911,0.0748707932627487,0.991744885561834,53.59130350417888,3.335688668073318,302.29413554701796,-99.476138659176,100.38420104980469,4761.76025390625,True
1599385195.1770024,0.0,10,0.5,0.5,-4.4293988494873044,-0.001,-0.03,-0.001,0.8228552931667276,10,1,100,-1.1399597623817006,-10,-1,-100,19065.241886392352,0.10409825300239911,0.0748707932627487,0.991744885561834,53.59130350417888,3.335688668073318,302.29413554701796,-99.476138659176,100.38420104980469,4761.76025390625,True
1599385195.2112846,0.0,10,0.5,0.5,-5.160598159790038,-0.001,-0.03,-0.001,0.9698841048745557,10,1,100,-1.3288740624948139,-10,-1,-100,19061.251911358442,0.10580676421358769,0.07620864760697711,0.9914621377927479,54.020034499354104,3.3639751085007754,305.88067861527276,-99.8404513078719,85.69773864746094,4761.76025390625,True
1599385195.2475638,0.0,10,0.5,0.5,-5.8466738433837895,-0.001,-0.03,-0.001,1.0991132047229166,10,1,100,-1.5275294244226343,-10,-1,-100,19055.239624039154,0.10915546935034395,0.07859970137965053,0.9909122920087003,53.07110487003288,3.3070718634080247,302.2318382512076,-100.38695924809657,63.13592529296875,4761.76025390625,True
1599385195.2775807,0.0,10,0.5,0.5,-6.560699859619141,-0.001,-0.03,-0.001,0.8603733048300456,10,1,100,-1.193953394862556,-10,-1,-100,19055.239624039154,0.10915546935034395,0.07859970137965053,0.9909122920087003,53.07110487003288,3.3070718634080247,302.2318382512076,-100.38695924809657,63.13592529296875,4761.76025390625,True
1599385195.3105645,0.0,10,0.5,0.5,-6.184224243164063,-0.001,-0.03,-0.001,1.0436477238625526,10,1,100,-1.5053894418607063,-10,-1,-100,19051.213212958188,0.11197629394401333,0.08026156116200509,0.9904642302447886,51.34467487278742,3.2010888476151895,293.5137538475247,-100.75138200152111,47.73553466796875,4761.76025390625,True
1599385195.3436265,0.0,10,0.5,0.5,-5.840335510253907,-0.001,-0.03,-0.001,1.0525549136104388,10,1,100,-1.592924429872059,-10,-1,-100,19047.17222281522,0.11532509076950478,0.08184670651488869,0.9899501199917454,49.8598340469088,3.1103356997529086,286.10670855321473,-101.11587357728337,32.045074462890625,4761.76025390625,True
1599385195.3798952,0.0,10,0.5,0.5,-5.432871459960937,-0.001,-0.03,-0.001,1.101708751791543,10,1,100,-1.902309072108455,-10,-1,-100,19041.083406692487,0.12116763302885716,0.08372654905823443,0.9890946717523977,52.87925343826044,3.3017325539520184,305.1501038221524,-101.66242840707015,7.957611083984375,4761.76025390625,True
1599385195.4108183,0.0,10,0.5,0.5,-5.072954940795898,-0.001,-0.03,-0.001,0.9148024366132071,10,1,100,-1.320068624434199,-10,-1,-100,19041.083406692487,0.12116763302885716,0.08372654905823443,0.9890946717523977,52.87925343826044,3.3017325539520184,305.1501038221524,-101.66242840707015,7.957611083984375,4761.76025390625,True
1599385195.444279,0.0,10,0.5,0.5,-4.639436492919922,-0.001,-0.03,-0.001,1.0207072298837065,10,1,100,-2.061511298193588,-10,-1,-100,19034.96180440788,0.1278897138970245,0.08467952045927317,0.988166787487884,53.89238761837314,3.3677027971264857,312.74610559158646,-102.2088323692717,-16.79962158203125,4761.76025390625,True
1599385195.4779196,0.0,10,0.5,0.5,-4.214341690063477,-0.001,-0.03,-0.001,0.9234719938170768,10,1,100,-1.913717236816733,-10,-1,-100,19030.862522789743,0.13263367790145864,0.08465168170390866,0.9875436194270268,53.586752510057565,3.350243926608281,312.13345635930784,-102.57310181946464,-33.680267333984375,4761.76025390625,True
1599385195.5130916,0.0,10,0.5,0.5,-3.8290289306640624,-0.001,-0.03,-0.001,0.9272339581976438,10,1,100,-1.4421743788632253,-10,-1,-100,19030.862522789743,0.13263367790145864,0.08465168170390866,0.9875436194270268,53.586752510057565,3.350243926608281,312.13345635930784,-102.57310181946464,-33.680267333984375,4761.76025390625,True
1599385195.5441163,0.0,10,0.5,0.5,-3.3574970245361326,-0.001,-0.03,-0.001,0.7269525935110258,10,1,100,-2.493439559360243,-10,-1,-100,19022.620240575285,0.14216469279243238,0.08282205030817472,0.986371992762357,50.50532181367173,3.1609776023777547,296.375026080142,-103.30181228327754,-68.34951782226562,4761.76025390625,True
1599385195.5774713,0.0,10,0.5,0.5,-2.930024505615234,-0.001,-0.03,-0.001,0.91057707335454,10,1,100,-1.5439738631207531,-10,-1,-100,19022.620240575285,0.14216469279243238,0.08282205030817472,0.986371992762357,50.50532181367173,3.1609776023777547,296.375026080142,-103.30181228327754,-68.34951782226562,4761.76025390625,True
1599385195.6104972,0.0,10,0.5,0.5,-2.4819821472167964,-0.001,-0.03,-0.001,0.6102821488756829,10,1,100,-2.2699614895974483,-10,-1,-100,19016.40026639041,0.14873457192090953,0.08008825795025008,0.9856286816311698,50.9486245703677,3.191449249390119,300.63100258604516,-103.84841931766744,-95.14253234863281,4761.76025390625,True
1599385195.6470282,0.0,10,0.5,0.5,-2.0339397888183592,-0.001,-0.03,-0.001,0.8838102403252062,10,1,100,-1.6169314870067901,-10,-1,-100,19016.40026639041,0.14873457192090953,0.08008825795025008,0.9856286816311698,50.9486245703677,3.191449249390119,300.63100258604516,-103.84841931766744,-95.14253234863281,4761.76025390625,True
1599385195.6774778,0.0,10,0.5,0.5,-1.5503800659179687,-0.001,-0.03,-0.001,0.49431053476351505,10,1,100,-2.2429734883659505,-10,-1,-100,19010.147502098815,0.1543924462260138,0.07654750908442721,0.9850398222413737,51.900516200495055,3.2534211665291624,307.93211439806896,-104.39488120019865,-122.60529327392578,4761.76025390625,True
1599385195.7104752,0.0,10,0.5,0.5,-1.0765413360595704,-0.001,-0.03,-0.001,0.5619355655059608,10,1,100,-2.0254415558329226,-10,-1,-100,19005.96077718574,0.1575228895208479,0.07394823693809272,0.9847427062592291,51.3876382683524,3.2226309136110745,306.0019587249591,-104.75919713464684,-141.28048706054688,4761.76025390625,True
1599385195.7463768,0.0,10,0.5,0.5,-0.6475022354125975,-0.001,-0.03,-0.001,0.8208849489273966,10,1,100,-1.7160327519987133,-10,-1,-100,19005.96077718574,0.1575228895208479,0.07394823693809272,0.9847427062592291,51.3876382683524,3.2226309136110745,306.0019587249591,-104.75919713464684,-141.28048706054688,4761.76025390625,True
1599385195.781278,0.0,10,0.5,0.5,-0.16186746978759764,-0.001,-0.03,-0.001,0.5465345393639656,10,1,100,-2.02748821603908,-10,-1,-100,19001.75947822421,0.16032125259713123,0.07146303168035256,0.9844745456682664,50.22219315146799,3.1508806971872083,300.1504116528526,-105.12356478985694,-160.24072265625,4761.76025390625,True
1599385195.8111908,0.0,10,0.5,0.5,0.26867046356201174,-0.001,-0.03,-0.001,0.6597097984089699,10,1,100,-1.8857705085342524,-10,-1,-100,18999.65336275776,0.16154739301761756,0.0702446351544333,0.9843617886941936,49.431271947676116,3.101939524227829,295.95921284667446,-105.30577343533079,-169.82815551757812,4761.76025390625,True
1599385195.98644,0.0,10,0.5,0.5,-0.01380841827392576,-0.001,-0.03,-0.001,0.5336586287752901,10,1,100,-1.998322179250188,-10,-1,-100,18995.430197616108,0.16365897793809894,0.06800417954015459,0.9841702954800695,47.99827725140734,3.0133368846806117,288.41935204997435,-105.67024029049209,170.8394012451172,4761.76025390625,True
1599385196.0083416,0.0,10,0.5,0.5,-0.22837244415283203,-0.001,-0.03,-0.001,0.4471104232845334,10,1,100,-2.1171214799888136,-10,-1,-100,18989.068119084695,0.1666303894179453,0.06519573393377047,0.9838616923121161,50.11199503513473,3.1478926605944304,302.74845489247656,-106.21682021964754,141.67568969726562,4761.76025390625,True
1599385196.045343,0.0,10,0.5,0.5,-0.8876117782592773,-0.001,-0.03,-0.001,0.7261923522855046,10,1,100,-1.8224269016667285,-10,-1,-100,18989.068119084695,0.1666303894179453,0.06519573393377047,0.9838616923121161,50.11199503513473,3.1478926605944304,302.74845489247656,-106.21682021964754,141.67568969726562,4761.76025390625,True
1599385196.099789,0.0,10,0.5,0.5,-1.478833335876465,-0.001,-0.03,-0.001,0.5597538621104889,10,1,100,-2.038080343560851,-10,-1,-100,18984.80851591949,0.1685686337109596,0.06369868067433797,0.9836295511060904,50.4610917462854,3.1709431339560656,305.95115817811075,-106.5811602263634,122.2486572265625,4761.76025390625,True
1599385196.1349263,0.0,10,0.5,0.5,-2.1309968032836912,-0.001,-0.03,-0.001,0.6348630196905951,10,1,100,-1.957955809194123,-10,-1,-100,18982.6732492022,0.16958423815419318,0.06303543330492385,0.9834976971593387,50.39643406007484,3.167443201177692,306.10562814072273,-106.76333124281055,112.53009033203125,4761.76025390625,True
1599385196.1698325,0.0,10,0.5,0.5,-2.6852831039428713,-0.001,-0.03,-0.001,0.46408720630849376,10,1,100,-2.3681001588629056,-10,-1,-100,18974.095744931255,0.17421714567572785,0.060895476324387667,0.9828225308344473,48.49467136127536,3.050250784514954,296.6586176313312,-107.49210398783768,73.30502319335938,4761.76025390625,True
1599385196.1980329,0.0,10,0.5,0.5,-3.272233383178711,-0.001,-0.03,-0.001,0.5657690242054633,10,1,100,-2.214953467224994,-10,-1,-100,18969.785128589137,0.17701861468091498,0.059888670170927256,0.9823837118161148,49.45834096619465,3.1120380008043678,303.6260951171691,-107.8564926616965,53.302154541015625,4761.76025390625,True
1599385196.2190075,0.0,10,0.5,0.5,-3.8759841766357424,-0.001,-0.03,-0.001,0.6650436828747877,10,1,100,-1.9367561392222878,-10,-1,-100,18969.785128589137,0.17701861468091498,0.059888670170927256,0.9823837118161148,49.45834096619465,3.1120380008043678,303.6260951171691,-107.8564926616965,53.302154541015625,4761.76025390625,True
1599385196.2451932,0.0,10,0.5,0.5,-4.41914631652832,-0.001,-0.03,-0.001,0.5306662145999688,10,1,100,-2.2772623884454997,-10,-1,-100,18965.4599394626,0.18009640265098048,0.058679838247308144,0.9818971241099781,50.79366447841913,3.197161423145261,312.92506491656053,-108.22079686923065,33.00926208496094,4761.76025390625,True
1599385196.2810736,0.0,10,0.5,0.5,-5.019189163208007,-0.001,-0.03,-0.001,0.6502710876185755,10,1,100,-1.9714611064443346,-10,-1,-100,18965.4599394626,0.18009640265098048,0.058679838247308144,0.9818971241099781,50.79366447841913,3.197161423145261,312.92506491656053,-108.22079686923065,33.00926208496094,4761.76025390625,True
1599385196.311029,0.0,10,0.5,0.5,-5.565722808837891,-0.001,-0.03,-0.001,0.39206765740532556,10,1,100,-2.54158750749343,-10,-1,-100,18958.944835743052,0.18526250719721465,0.05634304778801235,0.9810725072047224,51.51113838622085,3.2439471361174625,319.02198556325703,-108.76718183277073,2.01995849609375,4761.76025390625,True
1599385196.3453412,0.0,10,0.5,0.5,-5.090253784179687,-0.001,-0.03,-0.001,0.6245805901596908,10,1,100,-2.027137405795924,-10,-1,-100,18958.944835743052,0.18526250719721465,0.05634304778801235,0.9810725072047224,51.51113838622085,3.2439471361174625,319.02198556325703,-108.76718183277073,2.01995849609375,4761.76025390625,True
1599385196.3790538,0.0,10,0.5,0.5,-4.629222869873047,-0.001,-0.03,-0.001,0.39268842309122226,10,1,100,-2.4262421707999815,-10,-1,-100,18954.58322062448,0.18887379404472493,0.05424298507479514,0.9805021103971814,51.07751621303041,3.2178023791707373,317.44547488903186,-109.13144105169064,-19.01190185546875,4761.76025390625,True
1599385196.4140916,0.0,10,0.5,0.5,-4.1255319213867185,-0.001,-0.03,-0.001,0.3225278890176989,10,1,100,-2.453861667231523,-10,-1,-100,18950.207033986226,0.1923876471421785,0.05170597116107381,0.9799558590943711,49.9150974831735,3.1457451618273398,311.30444173154234,-109.49574017905017,-40.3419189453125,4761.76025390625,True
1599385196.4450636,0.0,10,0.5,0.5,-3.5939765014648435,-0.001,-0.03,-0.001,0.05624553742592453,10,1,100,-2.6526498677715185,-10,-1,-100,18943.61543243483,0.1973675708598351,0.046989748688232164,0.9792027397281446,51.59388867351216,3.2531308676332067,323.45309439966104,-110.04213585741735,-72.89877319335938,4761.76025390625,True
1599385196.4789379,0.0,10,0.5,0.5,-3.0261027526855466,-0.001,-0.03,-0.001,0.1409628513237285,10,1,100,-2.472876204209963,-10,-1,-100,18939.202821918647,0.20023521063195823,0.043487018098007695,0.9787822738894074,52.84962154056465,3.3332429349533332,332.47235778064845,-110.40629156673512,-94.97077941894531,4761.76025390625,True
1599385196.5115638,0.0,10,0.5,0.5,-2.521059509277344,-0.001,-0.03,-0.001,0.2935270562953249,10,1,100,-2.330688562445105,-10,-1,-100,18936.991054733284,0.20152588816788397,0.04170549075047849,0.978594894958791,53.18575262595769,3.3549189261995545,335.1642977808922,-110.58835319648506,-106.11470031738281,4761.76025390625,True
1599385196.5475667,0.0,10,0.5,0.5,-2.0539528656005857,-0.001,-0.03,-0.001,0.46986147310620047,10,1,100,-2.204071536201228,-10,-1,-100,18936.991054733284,0.20152588816788397,0.04170549075047849,0.978594894958791,53.18575262595769,3.3549189261995545,335.1642977808922,-110.58835319648506,-106.11470031738281,4761.76025390625,True
1599385196.5785353,0.0,10,0.5,0.5,-1.48511669921875,-0.001,-0.03,-0.001,-0.33275504987691956,10,1,100,-2.655085589263888,-10,-1,-100,18928.107573544257,0.20560373658346545,0.0344255070682869,0.9780296457500703,52.09202414855367,3.2879523836861084,330.53389803718244,-111.31661908009386,-151.40750122070312,4761.76025390625,True
1599385196.6119676,0.0,10,0.5,0.5,-0.9771592102050781,-0.001,-0.03,-0.001,0.3928178852243375,10,1,100,-2.2498514810989882,-10,-1,-100,18928.107573544257,0.20560373658346545,0.0344255070682869,0.9780296457500703,52.09202414855367,3.2879523836861084,330.53389803718244,-111.31661908009386,-151.40750122070312,4761.76025390625,True
1599385196.6448784,0.0,10,0.5,0.5,-0.40091099548339837,-0.001,-0.03,-0.001,0.1982050512745984,10,1,100,-2.333646105554247,-10,-1,-100,18925.877598972875,0.2063423174113019,0.03267834887890656,0.9779340333375672,51.19517540648797,3.2317934722366517,325.3985810981784,-111.49872073306115,-162.90646362304688,4761.76025390625,True
1599385196.6812465,0.0,10,0.5,0.5,-0.5912209014892579,-0.001,-0.03,-0.001,0.008883674877360359,10,1,100,-2.422156258295918,-10,-1,-100,18921.406725888723,0.2077992288158829,0.029390433193048734,0.9777298619456445,53.026154467856465,3.3481110692264564,338.186847175874,-111.86285130297027,173.88864135742188,4761.76025390625,True
1599385196.7122662,0.0,10,0.5,0.5,-0.7230760955810546,-0.001,-0.03,-0.001,0.0010647603993520494,10,1,100,-2.4013372699713047,-10,-1,-100,18916.921290378086,0.20891394227017032,0.026354840269373327,0.9775788393370182,54.43609370648951,3.437789124656855,348.3612614852863,-112.2268929735923,150.4107666015625,4761.76025390625,True
1599385196.7454429,0.0,10,0.5,0.5,-1.2311927642822265,-0.001,-0.03,-0.001,0.14557318955075843,10,1,100,-2.358301884864739,-10,-1,-100,18914.673112337478,0.20951786904743971,0.024934276189958852,0.9774868512776542,54.69971492823721,3.454801480036438,350.64264341747156,-112.40889896056677,138.59616088867188,4761.76025390625,True
1599385196.778539,0.0,10,0.5,0.5,-1.7323592681884767,-0.001,-0.03,-0.001,-0.01555350834036634,10,1,100,-2.4380950157780226,-10,-1,-100,18910.165835555643,0.21077671256061878,0.022202404041454665,0.9772820630181024,54.17859880854223,3.422707110451834,348.47944425881553,-112.77292032766242,114.864990234375,4761.76025390625,True
1599385196.8149095,0.0,10,0.5,0.5,-2.247494186401367,-0.001,-0.03,-0.001,-0.1776985211739283,10,1,100,-2.548618028304001,-10,-1,-100,18903.377615243313,0.2129136802849261,0.018267372284915546,0.9769002343419375,53.486223474052515,3.379960465478463,345.7681816041731,-113.31903799169213,78.92121887207031,4761.76025390625,True
1599385196.8458242,0.0,10,0.5,0.5,-2.7565465698242186,-0.001,-0.03,-0.001,-0.08637464912202589,10,1,100,-2.519968028271017,-10,-1,-100,18898.83393501735,0.2145843977888575,0.015543214657454636,0.9765817654982636,55.9834925381333,3.5382203746816057,363.12852920747287,-113.68298317985324,54.63752746582031,4761.76025390625,True
1599385196.8787038,0.0,10,0.5,0.5,-3.263086944580078,-0.001,-0.03,-0.001,0.1834248860147628,10,1,100,-2.354202128839976,-10,-1,-100,18898.83393501735,0.2145843977888575,0.015543214657454636,0.9765817654982636,55.9834925381333,3.5382203746816057,363.12852920747287,-113.68298317985324,54.63752746582031,4761.76025390625,True
1599385196.911812,0.0,10,0.5,0.5,-3.696199005126953,-0.001,-0.03,-0.001,-0.1507761278805782,10,1,100,-2.5450061049540746,-10,-1,-100,18894.27569921664,0.21630710801751205,0.012528807509399739,0.9762449815509899,56.955333387512425,3.6002458903967325,370.6705844486784,-114.04685141847956,30.065216064453125,4761.76025390625,True
1599385196.94875,0.0,10,0.5,0.5,-4.2403999786376945,-0.001,-0.03,-0.001,-0.02770012772588007,10,1,100,-2.4720661350810698,-10,-1,-100,18891.991123543936,0.21720038725250337,0.010927216193991531,0.9760658726354552,56.798265044750735,3.5906850693613244,370.2655178020002,-114.22878032962075,17.67047119140625,4761.76025390625,True
1599385196.979889,0.0,10,0.5,0.5,-4.659402053833008,-0.001,-0.03,-0.001,-0.6797916929797468,10,1,100,-2.7413860812867905,-10,-1,-100,18882.816431589425,0.22045028002193928,0.0035644810330164585,0.9753917000432257,57.4007712334452,3.629591681428354,376.6852536193377,-114.95653581473421,-32.642822265625,4761.76025390625,True
1599385197.0119572,0.0,10,0.5,0.5,-5.074984298706055,-0.001,-0.03,-0.001,-0.17223726776609855,10,1,100,-2.489982838558201,-10,-1,-100,18880.513663511607,0.22110641854879326,0.0015116837230230952,0.9752485152456511,58.71324862419279,3.7126279755953138,385.93614121912304,-115.13840263680132,-45.40380859375,4761.76025390625,True
1599385197.0460622,0.0,10,0.5,0.5,-4.429867935180664,-0.001,-0.03,-0.001,0.0302545882862352,10,1,100,-2.425699704846094,-10,-1,-100,18880.513663511607,0.22110641854879326,0.0015116837230230952,0.9752485152456511,58.71324862419279,3.7126279755953138,385.93614121912304,-115.13840263680132,-45.40380859375,4761.76025390625,True
1599385197.0820622,0.0,10,0.5,0.5,-3.7650050811767577,-0.001,-0.03,-0.001,-0.665818170037382,10,1,100,-2.566438487062371,-10,-1,-100,18873.58353793004,0.22237477795414248,-0.004793665755785833,0.9749494750490754,59.41906873871266,3.7577485319094546,392.51294912715497,-115.68392502368845,-84.11337280273438,4761.76025390625,True
1599385197.1120908,0.0,10,0.5,0.5,-3.083262649536133,-0.001,-0.03,-0.001,-0.5155361281674053,10,1,100,-2.4709199461476863,-10,-1,-100,18868.94526882784,0.22264779348804764,-0.009132575863207123,0.9748561720135983,57.270736034271735,3.622119738294986,379.56413717044916,-116.04767054613582,-110.27507019042969,4761.76025390625,True
1599385197.145198,0.0,10,0.5,0.5,-2.3811374969482424,-0.001,-0.03,-0.001,-0.5307890670027482,10,1,100,-2.4322495722970507,-10,-1,-100,18864.292449979694,0.2225336486830216,-0.0131872163321799,0.9748358182428617,59.65147120398768,3.772371275695653,396.6377903657624,-116.41137695053995,-136.70840454101562,4761.76025390625,True
1599385197.1795595,0.0,10,0.5,0.5,-1.7606819610595703,-0.001,-0.03,-0.001,-0.12847047896717995,10,1,100,-2.4446260496394627,-10,-1,-100,18864.292449979694,0.2225336486830216,-0.0131872163321799,0.9748358182428617,59.65147120398768,3.772371275695653,396.6377903657624,-116.41137695053995,-136.70840454101562,4761.76025390625,True
1599385197.2005095,0.0,10,0.5,0.5,-1.1063216247558592,-0.001,-0.03,-0.001,-0.7515372320898708,10,1,100,-2.3835531168402913,-10,-1,-100,18857.285953859915,0.22197121361130717,-0.01882534096875924,0.9748714719722457,61.885746614591014,3.9134033918405815,413.5129826604733,-116.956691566063,-176.8696746826172,4761.76025390625,True
1599385197.2214146,0.0,10,0.5,0.5,-1.1449169464111328,-0.001,-0.03,-0.001,-0.3808237932169877,10,1,100,-2.4145298527130885,-10,-1,-100,18854.943184435717,0.22173480040329907,-0.020549542507144962,0.974890452611398,61.3374197150953,3.8787421733748952,410.51523221525184,-117.13846078497694,169.608154296875,4761.76025390625,True
1599385197.2453868,0.0,10,0.5,0.5,-1.2170679321289062,-0.001,-0.03,-0.001,-0.2117114743800699,10,1,100,-2.4387139427524778,-10,-1,-100,18854.943184435717,0.22173480040329907,-0.020549542507144962,0.974890452611398,61.3374197150953,3.8787421733748952,410.51523221525184,-117.13846078497694,169.608154296875,4761.76025390625,True
1599385197.2794447,0.0,10,0.5,0.5,-1.6457029724121093,-0.001,-0.03,-0.001,-0.3939501911932346,10,1,100,-2.4049909099849596,-10,-1,-100,18852.596779403277,0.22142410518436637,-0.022177642879354517,0.9749253908887687,60.180725102828546,3.8055023327373103,403.4267103230364,-117.32025685890994,156.01914978027344,4761.76025390625,True
1599385197.3135042,0.0,10,0.5,0.5,-2.142921142578125,-0.001,-0.03,-0.001,-0.7432479172250802,10,1,100,-2.380767232498489,-10,-1,-100,18845.535747040412,0.22092055443985742,-0.0268097660690051,0.9749232508609645,62.6358468551079,3.959538155879643,421.9268726810768,-117.86561639460334,114.84077453613281,4761.76025390625,True
1599385197.3484755,0.0,10,0.5,0.5,-2.6648332672119137,-0.001,-0.03,-0.001,-0.2828677432392248,10,1,100,-2.4311037205384896,-10,-1,-100,18845.535747040412,0.22092055443985742,-0.0268097660690051,0.9749232508609645,62.6358468551079,3.959538155879643,421.9268726810768,-117.86561639460334,114.84077453613281,4761.76025390625,True
1599385197.3793588,0.0,10,0.5,0.5,-3.033800018310547,-0.001,-0.03,-0.001,-0.9754242198244838,10,1,100,-2.4077267653289796,-10,-1,-100,18836.07015552558,0.22070820563259727,-0.03307998726542379,0.9747787453617145,61.579629446813904,3.8918303199503863,417.49069575521634,-118.59248292761548,58.957275390625,4761.76025390625,True
1599385197.4124641,0.0,10,0.5,0.5,-3.518895462036133,-0.001,-0.03,-0.001,-0.3512307323335784,10,1,100,-2.42879498882284,-10,-1,-100,18836.07015552558,0.22070820563259727,-0.03307998726542379,0.9747787453617145,61.579629446813904,3.8918303199503863,417.49069575521634,-118.59248292761548,58.957275390625,4761.76025390625,True
1599385197.4455423,0.0,10,0.5,0.5,-3.9412733764648435,-0.001,-0.03,-0.001,-0.9294029919240945,10,1,100,-2.417445244626472,-10,-1,-100,18828.932796365232,0.2206067894015898,-0.03831432834224465,0.9746100023668981,64.83236970376447,4.095532409825916,441.65900223101227,-119.13765805832507,16.297714233398438,4761.76025390625,True
1599385197.4814682,0.0,10,0.5,0.5,-4.442951293945312,-0.001,-0.03,-0.001,-0.4084815954430151,10,1,100,-2.427394181799077,-10,-1,-100,18828.932796365232,0.2206067894015898,-0.03831432834224465,0.9746100023668981,64.83236970376447,4.095532409825916,441.65900223101227,-119.13765805832507,16.297714233398438,4761.76025390625,True
1599385197.5124955,0.0,10,0.5,0.5,-4.844372756958007,-0.001,-0.03,-0.001,-0.8365352530229573,10,1,100,-2.4030943991945346,-10,-1,-100,18824.156392503413,0.22038763397725888,-0.042182882400234975,0.9744998179693589,66.02460497619028,4.169995475915169,451.2185158126207,-119.50090120959051,-12.500732421875,4761.76025390625,True
1599385197.54555,0.0,10,0.5,0.5,-5.337266799926757,-0.001,-0.03,-0.001,-0.673935606166258,10,1,100,-2.3834606878415525,-10,-1,-100,18821.76274188317,0.22001135310614373,-0.04420033698931848,0.9744954257021603,65.31449829898901,4.124728537124934,447.0747189962309,-119.68252800490436,-27.00634765625,4761.76025390625,True
1599385197.5795383,0.0,10,0.5,0.5,-4.644497817993163,-0.001,-0.03,-0.001,-1.3689286155769946,10,1,100,-2.15296283722408,-10,-1,-100,18812.151808943367,0.21757541135160488,-0.052331004160871844,0.9746396289802168,67.84809296703057,4.280922142054922,467.3687110753818,-120.40906091375462,-85.72189331054688,4761.76025390625,True
1599385197.61603,0.0,10,0.5,0.5,-3.9075249176025384,-0.001,-0.03,-0.001,-0.7746577644219313,10,1,100,-2.2962520234324195,-10,-1,-100,18809.739996580174,0.2166673290757833,-0.05429116525028003,0.9747347012838586,68.49050477445373,4.3206814550575885,472.5405962113187,-120.59060194045072,-100.571044921875,4761.76025390625,True
1599385197.6462233,0.0,10,0.5,0.5,-3.0928141174316406,-0.001,-0.03,-0.001,-0.9759289611981827,10,1,100,-2.15646622348153,-10,-1,-100,18804.905478918692,0.21457534407649065,-0.05787367391827982,0.9749913125672741,66.56199706562981,4.197548632148324,460.68226524955276,-120.95372648238305,-130.46572875976562,4761.76025390625,True
