Timestamp,Input Throttle,horizon,dT,dt,Input Roll,Roll P,Roll I,Roll D,Input Pitch,Pitch P,Pitch I,Pitch D,Input Yaw,Yaw P,Yaw I,Yaw D,Altitude,Direction X,Direction Y,Direction Z,Drag X,Drag Y,Drag Z,Vertical Velocity,Roll,Mass,Has Fuel
1599386324.5709798,0.0,10,0.5,0.5,-5.635809555053711,-0.1005,-0.00825,-0.001,-0.00015773659455679215,10,1,100,0.49805366343823354,-10,-1,-100,19351.09416849271,-0.048842876687482766,-0.00017556815698762385,0.9988064590163169,60.98665265997099,3.6806890314760357,232.75454064496344,-68.48187416566874,-33.922271728515625,4761.76025390625,True
1599386324.605735,0.0,10,0.5,0.5,-5.681837306976319,-0.1005,-0.00825,-0.001,9.629618014226488e-05,10,1,100,0.5047005910189599,-10,-1,-100,19348.343945657718,-0.04894639974634989,-0.00015857238820837598,0.9988013940752526,61.16627208580283,3.692874564405556,234.73113033829665,-68.84679080515669,-33.92462158203125,4761.76025390625,True
1599386324.6377072,0.0,10,0.5,0.5,-5.728101844024659,-0.1005,-0.00825,-0.001,-0.0016191379366033598,10,1,100,0.49924292510688223,-10,-1,-100,19348.343945657718,-0.04894639974634989,-0.00015857238820837598,0.9988013940752526,61.16627208580283,3.692874564405556,234.73113033829665,-68.84679080515669,-33.92462158203125,4761.76025390625,True
1599386324.6740353,0.0,10,0.5,0.5,-5.76973631515503,-0.1005,-0.00825,-0.001,0.01103206039962864,10,1,100,0.50917757369277,-10,-1,-100,19345.57912673999,-0.04899221800645219,-4.341733752607745e-05,0.9987991593357212,61.346976293294944,3.705140521341782,236.7201935750681,-69.211693824071,-33.97021484375,4761.76025390625,True
1599386324.7099361,0.0,10,0.5,0.5,-5.787391460418701,-0.1005,-0.00825,-0.001,0.023774267811027292,10,1,100,0.5075303303273375,-10,-1,-100,19342.799711851752,-0.048974357650489936,0.0001771467916864781,0.9988000204804445,61.537229159165314,3.717990977368144,238.7546273462833,-69.57658252516495,-34.25213623046875,4761.76025390625,True
1599386324.738107,0.0,10,0.5,0.5,-5.776119379425049,-0.1005,-0.00825,-0.001,0.03656773994438622,10,1,100,0.5058400337123268,-10,-1,-100,19340.00570223434,-0.04889823248706916,0.0004938028860087129,0.9988036438751866,61.7410434431624,3.7316508077110684,240.8506453270292,-69.94145559642516,-34.819091796875,4761.76025390625,True
1599386324.7720194,0.0,10,0.5,0.5,-5.680250592803956,-0.1005,-0.00825,-0.001,0.08745806180631954,10,1,100,0.48436247130738774,-10,-1,-100,19335.787323428085,-0.04858932428710804,0.0012438624406046759,0.9988180667026159,62.064625136829356,3.7531522856415154,244.08215069119876,-70.48873272770007,-36.21771240234375,4761.76025390625,True
1599386324.8090785,0.0,10,0.5,0.5,-5.663808724212647,-0.1005,-0.00825,-0.001,0.04784564339695348,10,1,100,0.5027252498681888,-10,-1,-100,19334.37390032434,-0.04843126088834421,0.0015644910842971284,0.9988252926995853,62.1736286904433,3.7603579932968842,245.16865311604752,-70.67114931563124,-36.83062744140625,4761.76025390625,True
1599386324.8399613,0.0,10,0.5,0.5,-5.561512812042237,-0.1005,-0.00825,-0.001,0.09713672116194585,10,1,100,0.4787576036201664,-10,-1,-100,19331.536109404173,-0.04802565077731475,0.002302650111804473,0.9988434485292867,62.38587282236055,3.7743540558792295,247.32609858270294,-71.0359683767737,-38.27667236328125,4761.76025390625,True
1599386324.8719106,0.0,10,0.5,0.5,-5.605630602264404,-0.1005,-0.00825,-0.001,0.023551083422391834,10,1,100,0.5241211798008436,-10,-1,-100,19331.536109404173,-0.04802565077731475,0.002302650111804473,0.9988434485292867,62.38587282236055,3.7743540558792295,247.32609858270294,-71.0359683767737,-38.27667236328125,4761.76025390625,True
1599386324.9058206,0.0,10,0.5,0.5,-5.372281076812745,-0.1005,-0.00825,-0.001,0.17315566397183552,10,1,100,0.43689571770537183,-10,-1,-100,19327.252063141903,-0.04718903234846745,0.0036605984348795934,0.998879269604247,62.665775301112454,3.7927957948078093,250.4262892082808,-71.58316279000478,-40.99609375,4761.76025390625,True
1599386324.9417827,0.0,10,0.5,0.5,-5.14790463104248,-0.1005,-0.00825,-0.001,0.15456968626996567,10,1,100,0.4409725546558877,-10,-1,-100,19324.377793048625,-0.046467035789373695,0.004722646052574643,0.998908660088204,62.80439330294157,3.8019886032205883,252.31078812639655,-71.94793779529915,-43.175994873046875,4761.76025390625,True
1599386324.9727042,0.0,10,0.5,0.5,-4.891313370513917,-0.1005,-0.00825,-0.001,0.17112759901031563,10,1,100,0.4161975797289005,-10,-1,-100,19321.48893245298,-0.04558770220354947,0.005834232894990794,0.998943303263167,62.88343373013335,3.807378963420428,253.96107276459685,-72.3126989630901,-45.6502685546875,4761.76025390625,True
1599386325.0059223,0.0,10,0.5,0.5,-4.884113985443116,-0.1005,-0.00825,-0.001,0.060568195297020434,10,1,100,0.503795068557043,-10,-1,-100,19321.48893245298,-0.04558770220354947,0.005834232894990794,0.998943303263167,62.88343373013335,3.807378963420428,253.96107276459685,-72.3126989630901,-45.6502685546875,4761.76025390625,True
1599386325.2540247,0.0,10,0.5,0.5,-4.737737294769288,-0.1005,-0.00825,-0.001,0.126974421856883,10,1,100,0.4494751361806844,-10,-1,-100,19320.039030949934,-0.04509697965085794,0.0064325825453236205,0.9989619033317376,62.89387875005145,3.8082313110536528,254.66995991326166,-72.49507557019753,-46.997467041015625,4761.76025390625,True
1599386325.2799563,0.0,10,0.5,0.5,-4.584366989135742,-0.1005,-0.00825,-0.001,0.13558104223935505,10,1,100,0.43992884682246963,-10,-1,-100,19318.585481768474,-0.044567608679699715,0.007049092016599902,0.9989815006086522,62.88113710845854,3.807620350611943,255.28509930490492,-72.67745030168342,-48.418182373046875,4761.76025390625,True
1599386325.309868,0.0,10,0.5,0.5,-4.09721985244751,-0.1005,-0.00825,-0.001,0.2898361185497449,10,1,100,0.29203137484547337,-10,-1,-100,19314.20294950169,-0.04274577680049897,0.009005914694099528,0.9990453903933717,62.67401744065117,3.795186167507645,256.439002922102,-73.22457084322714,-53.121124267578125,4761.76025390625,True
1599386325.3447819,0.0,10,0.5,0.5,-4.087977479553222,-0.1005,-0.00825,-0.001,0.09493005602513178,10,1,100,0.4736302080168867,-10,-1,-100,19314.20294950169,-0.04274577680049897,0.009005914694099528,0.9990453903933717,62.67401744065117,3.795186167507645,256.439002922102,-73.22457084322714,-53.121124267578125,4761.76025390625,True
1599386325.371705,0.0,10,0.5,0.5,-3.718981163787842,-0.1005,-0.00825,-0.001,0.2448217994052388,10,1,100,0.31746910317910526,-10,-1,-100,19311.263023795444,-0.04133129901478082,0.01036180197609159,0.9990917659462313,62.363361621930906,3.7761347987413894,256.49235186443315,-73.589324238541,-56.6241455078125,4761.76025390625,True
1599386325.426708,0.0,10,0.5,0.5,-3.518314301300049,-0.1005,-0.00825,-0.001,0.1812854251364504,10,1,100,0.37482918551915,-10,-1,-100,19309.78758961975,-0.04057295118700339,0.011009496873764218,0.9991159225087767,62.1461360526309,3.7627748064380726,256.2592753183756,-73.77170614812422,-58.486541748046875,4761.76025390625,True
1599386325.4586267,0.0,10,0.5,0.5,-3.1031255798339843,-0.1005,-0.00825,-0.001,0.26889460010255173,10,1,100,0.2685546584484948,-10,-1,-100,19306.82577775675,-0.03892418718800914,0.0123868421470112,0.9991653886086016,61.56987166332098,3.727324009145425,255.19249110451625,-74.13648632114334,-62.43115234375,4761.76025390625,True
1599386325.4845517,0.0,10,0.5,0.5,-2.6590365509033203,-0.1005,-0.00825,-0.001,0.27663240709920367,10,1,100,0.23595087709549026,-10,-1,-100,19303.849373804755,-0.037136426308587475,0.01370138496473972,0.9992162718306158,60.78061040423788,3.6788441694299783,253.21534066693104,-74.5012971075908,-66.67105102539062,4761.76025390625,True
1599386325.51547,0.0,10,0.5,0.5,-1.9423046340942383,-0.1005,-0.00825,-0.001,0.3592958436254708,10,1,100,0.08719468575234351,-10,-1,-100,19299.357404133538,-0.034167342505521704,0.015639747186629742,0.9992937461097458,59.13560463362767,3.578187351542528,248.25396114825494,-75.04859449751456,-73.583251953125,4761.76025390625,True
1599386325.5414,0.0,10,0.5,0.5,-1.9261721237182619,-0.1005,-0.00825,-0.001,0.16644017286563242,10,1,100,0.3829610300891178,-10,-1,-100,19299.357404133538,-0.034167342505521704,0.015639747186629742,0.9992937461097458,59.13560463362767,3.578187351542528,248.25396114825494,-75.04859449751456,-73.583251953125,4761.76025390625,True
1599386325.574426,0.0,10,0.5,0.5,-1.3979226852416993,-0.1005,-0.00825,-0.001,0.29786750172831605,10,1,100,0.14843692516120022,-10,-1,-100,19296.344512364827,-0.032045687333175206,0.01682562698147992,0.9993447714377778,57.692892378567436,3.490316849800998,243.42996629349747,-75.4135284361855,-78.56063842773438,4761.76025390625,True
1599386325.605313,0.0,10,0.5,0.5,-1.3768604553222656,-0.1005,-0.00825,-0.001,0.18031882668691374,10,1,100,0.35929731316408176,-10,-1,-100,19296.344512364827,-0.032045687333175206,0.01682562698147992,0.9993447714377778,57.692892378567436,3.490316849800998,243.42996629349747,-75.4135284361855,-78.56063842773438,4761.76025390625,True
1599386325.6392581,0.0,10,0.5,0.5,-0.8168226562500001,-0.1005,-0.00825,-0.001,0.3033001814860236,10,1,100,0.11126249634769525,-10,-1,-100,19293.317021047114,-0.029802208926977623,0.017934751538776484,0.9993949034442365,55.94582743015372,3.384343423308554,237.25520461381657,-75.77852761387875,-83.833251953125,4761.76025390625,True
1599386325.672263,0.0,10,0.5,0.5,-0.23154760513305667,-0.1005,-0.00825,-0.001,0.30018204861998354,10,1,100,0.08195180102362279,-10,-1,-100,19290.27492786548,-0.027507989116464182,0.01890658280404147,0.9994427705784071,53.87471653734749,3.2592160598642455,229.6257751320515,-76.14359796653058,-89.40182495117188,4761.76025390625,True
1599386325.7081728,0.0,10,0.5,0.5,0.6959959648132324,-0.1005,-0.00825,-0.001,0.3457926695593543,10,1,100,-0.09485162968145894,-10,-1,-100,19285.684404666652,-0.023828883362027615,0.020195707173631245,0.9995120398121655,53.557093259652085,3.2413469751561195,229.9934567997136,-76.69125957381507,-98.30015563964844,4761.76025390625,True
1599386325.7390497,0.0,10,0.5,0.5,0.7214803424835206,-0.1005,-0.00825,-0.001,0.2178636231201308,10,1,100,0.27130870419692243,-10,-1,-100,19285.684404666652,-0.023828883362027615,0.020195707173631245,0.9995120398121655,53.557093259652085,3.2413469751561195,229.9934567997136,-76.69125957381507,-98.30015563964844,4761.76025390625,True
1599386325.7720692,0.0,10,0.5,0.5,1.380351396179199,-0.1005,-0.00825,-0.001,0.29471956112632025,10,1,100,-0.0008828950819506909,-10,-1,-100,19282.60580374964,-0.02136963615751511,0.02088604641886945,0.9995534561570403,55.30579688824539,3.348802641163043,238.6877603060973,-77.05626492765047,-104.46788787841797,4761.76025390625,True
1599386325.8060114,0.0,10,0.5,0.5,2.33262997341156,-0.1005,-0.00825,-0.001,0.3147991075301745,10,1,100,-0.16437504295927077,-10,-1,-100,19277.960533598904,-0.01766362331001037,0.02168844233251026,0.9996087273932492,57.69260208363479,3.4964232255806897,250.84046224115946,-77.60359045292266,-113.56903076171875,4761.76025390625,True
1599386325.8418822,0.0,10,0.5,0.5,2.36221966381073,-0.1005,-0.00825,-0.001,0.23535822190287056,10,1,100,0.20427896149134533,-10,-1,-100,19277.960533598904,-0.01766362331001037,0.02168844233251026,0.9996087273932492,57.69260208363479,3.4964232255806897,250.84046224115946,-77.60359045292266,-113.56903076171875,4761.76025390625,True
1599386325.872891,0.0,10,0.5,0.5,2.9820915372848513,-0.1005,-0.00825,-0.001,0.27783876833669297,10,1,100,-0.06179554318033964,-10,-1,-100,19274.845446449355,-0.015259767557718245,0.0220691303045033,0.9996399816842498,59.01963787267378,3.578996549592083,257.8715291912398,-77.9683622824901,-119.35113525390625,4761.76025390625,True
1599386325.9068286,0.0,10,0.5,0.5,3.8395801549911504,-0.1005,-0.00825,-0.001,0.28121884387540547,10,1,100,-0.20993489546520788,-10,-1,-100,19270.14546250645,-0.011744911466633695,0.022440093344741747,0.9996791981757548,60.327042456457626,3.6611555404390588,265.5157198864871,-78.51538956228843,-127.48426055908203,4761.76025390625,True
1599386325.94074,0.0,10,0.5,0.5,4.384811013031006,-0.1005,-0.00825,-0.001,0.2600480728792949,10,1,100,-0.10540641644490575,-10,-1,-100,19266.993907842552,-0.009518301898438252,0.02257976685739091,0.9996997329486671,60.782674683193825,3.6903015703702877,268.8179504411837,-78.88001601133348,-132.53846740722656,4761.76025390625,True
1599386325.975729,0.0,10,0.5,0.5,4.6695295886993415,-0.1005,-0.00825,-0.001,0.2532183441122188,10,1,100,-0.0018694150584486202,-10,-1,-100,19265.41266144975,-0.008455836290350858,0.022639423298393174,0.9997079350216977,60.90326221200287,3.698222519385919,270.0009363168066,-79.06231854656258,-134.9546356201172,4761.76025390625,True
1599386326.0066462,0.0,10,0.5,0.5,5.177319781494141,-0.1005,-0.00825,-0.001,0.25328046717469893,10,1,100,-0.12709179759926453,-10,-1,-100,19262.239230616833,-0.006370978962297287,0.02268994420736358,0.9997222499569212,60.9629116429778,3.7027503942771633,271.5661924834771,-79.42691228946947,-139.56578063964844,4761.76025390625,True
1599386326.0396252,0.0,10,0.5,0.5,5.214093899917604,-0.1005,-0.00825,-0.001,0.24860671241799034,10,1,100,0.07928023419067581,-10,-1,-100,19262.239230616833,-0.006370978962297287,0.02268994420736358,0.9997222499569212,60.9629116429778,3.7027503942771633,271.5661924834771,-79.42691228946947,-139.56578063964844,4761.76025390625,True
1599386326.0736058,0.0,10,0.5,0.5,5.894007989883423,-0.1005,-0.00825,-0.001,0.24292084624072724,10,1,100,-0.24807190632938142,-10,-1,-100,19257.451740139513,-0.0034109212342965218,0.022635987026630524,0.999737954519915,60.679733706476334,3.686245482222005,272.2480920566299,-79.9737985306256,-145.9290313720703,4761.76025390625,True
1599386326.1085129,0.0,10,0.5,0.5,6.3200450756073,-0.1005,-0.00825,-0.001,0.23745320359639607,10,1,100,-0.15762057253478706,-10,-1,-100,19254.241849839105,-0.0015608062998173483,0.022535010765694734,0.999744836032417,60.30292295429864,3.66346605296711,271.84619956335325,-80.33840093617756,-149.802001953125,4761.76025390625,True
1599386326.1400418,0.0,10,0.5,0.5,6.353572749137879,-0.1005,-0.00825,-0.001,0.24771572612465756,10,1,100,0.025410037927360508,-10,-1,-100,19254.241849839105,-0.0015608062998173483,0.022535010765694734,0.999744836032417,60.30292295429864,3.66346605296711,271.84619956335325,-80.33840093617756,-149.802001953125,4761.76025390625,True
1599386326.1730938,0.0,10,0.5,0.5,6.746423164176941,-0.1005,-0.00825,-0.001,0.24321225501760857,10,1,100,-0.16317472927042698,-10,-1,-100,19251.017375129042,0.0001389617501532714,0.022493300511600485,0.9997469840523285,59.82088669933995,3.6340970324459096,270.95275333252084,-80.70302058374003,-153.37794494628906,4761.76025390625,True
1599386326.2060838,0.0,10,0.5,0.5,7.2639833147048956,-0.1005,-0.00825,-0.001,0.22715674185778117,10,1,100,-0.2590350836500991,-10,-1,-100,19246.15331516217,0.00253947903079616,0.022308691198989927,0.9997479048956494,58.984772393510774,3.582964300912479,269.0605011194885,-81.24998987619668,-158.188720703125,4761.76025390625,True
1599386326.2429957,0.0,10,0.5,0.5,7.291213546943665,-0.1005,-0.00825,-0.001,0.2456416292082856,10,1,100,-0.020763280244661682,-10,-1,-100,19246.15331516217,0.00253947903079616,0.022308691198989927,0.9997479048956494,58.984772393510774,3.582964300912479,269.0605011194885,-81.24998987619668,-158.188720703125,4761.76025390625,True
1599386326.2729902,0.0,10,0.5,0.5,7.737101588439942,-0.1005,-0.00825,-0.001,0.2357748483054955,10,1,100,-0.25554099389965,-10,-1,-100,19241.25643464178,0.004660836072662027,0.022219112647278882,0.9997422606053378,58.097907386201356,3.528675911344401,266.8841024073498,-81.79700958345883,-162.33213806152344,4761.76025390625,True
1599386326.3068938,0.0,10,0.5,0.5,7.757537949371339,-0.1005,-0.00825,-0.001,0.24469663805558878,10,1,100,-0.04482320351017337,-10,-1,-100,19241.25643464178,0.004660836072662027,0.022219112647278882,0.9997422606053378,58.097907386201356,3.528675911344401,266.8841024073498,-81.79700958345883,-162.33213806152344,4761.76025390625,True
1599386326.3398633,0.0,10,0.5,0.5,8.022988105010986,-0.1005,-0.00825,-0.001,0.23623947784931548,10,1,100,-0.18811786890065912,-10,-1,-100,19237.97361298767,0.005951590601336432,0.02214261147326832,0.9997371071068923,57.52446832805193,3.493596528409577,265.48503354505203,-82.16171595766718,-164.72488403320312,4761.76025390625,True
1599386326.3767624,0.0,10,0.5,0.5,8.254032962417602,-0.1005,-0.00825,-0.001,0.24627961473592375,10,1,100,-0.18831163248807525,-10,-1,-100,19234.676202417817,0.0071155629604136425,0.02216483649834979,0.9997290076749589,56.98872165632279,3.460863044621689,264.2371188858944,-82.5264405925422,-166.8202667236328,4761.76025390625,True
1599386326.4126663,0.0,10,0.5,0.5,8.369566390609743,-0.1005,-0.00825,-0.001,0.24118196450120188,10,1,100,-0.1339269967946303,-10,-1,-100,19233.02202622348,0.007667053378795506,0.02213917616238912,0.9997254989102444,56.741468637910906,3.4457743889548285,263.7007102694755,-82.70880885730796,-167.7576446533203,4761.76025390625,True
1599386326.450566,0.0,10,0.5,0.5,8.6268436504364,-0.1005,-0.00825,-0.001,0.24999144856479888,10,1,100,-0.24231803902891036,-10,-1,-100,19228.03761237394,0.009143710529806027,0.02219638644924325,0.9997118149678652,56.09777837747047,3.4065748628280788,262.5197825744598,-83.2559318614708,-170.12420654296875,4761.76025390625,True
1599386326.4844482,0.0,10,0.5,0.5,8.706275637435914,-0.1005,-0.00825,-0.001,0.24865516689623407,10,1,100,-0.14387356984422056,-10,-1,-100,19226.368845981662,0.009581445022836935,0.022236555626047733,0.9997068227761398,55.92174242854029,3.395884090630515,262.29800842544984,-83.4383107003591,-170.76492309570312,4761.76025390625,True
1599386326.520126,0.0,10,0.5,0.5,8.872955301284792,-0.1005,-0.00825,-0.001,0.2638209184314886,10,1,100,-0.2285509978174667,-10,-1,-100,19221.340661167167,0.010739050951419403,0.022411214850862893,0.9996911574249175,55.52650240149161,3.37197585213453,262.2385020279464,-83.98545352403856,-172.24301147460938,4761.76025390625,True
1599386326.552076,0.0,10,0.5,0.5,8.921990370941163,-0.1005,-0.00825,-0.001,0.257007182667964,10,1,100,-0.1500742477239933,-10,-1,-100,19219.657304518973,0.011068358531825284,0.022508127535263486,0.9996853883268813,55.44211587642178,3.3669095543609133,262.4375017392226,-84.16783479149309,-172.58734130859375,4761.76025390625,True
1599386326.5879786,0.0,10,0.5,0.5,8.961003128814697,-0.1005,-0.00825,-0.001,0.2567239519481913,10,1,100,-0.1516730230988546,-10,-1,-100,19217.97029996966,0.011374509854237524,0.022593473845142206,0.9996800265410851,55.38317701534295,3.3633993878552135,262.75557120707896,-84.35021526581608,-172.85806274414062,4761.76025390625,True
1599386326.6243367,0.0,10,0.5,0.5,9.010113438415527,-0.1005,-0.00825,-0.001,0.2891253932398176,10,1,100,-0.20405782513290077,-10,-1,-100,19212.88740155974,0.012121022865082307,0.022965361063459325,0.9996627796391787,55.35921318994384,3.3621977055278305,264.4331747953085,-84.89734652836836,-173.225341796875,4761.76025390625,True
1599386326.66021,0.0,10,0.5,0.5,8.988429875564577,-0.1005,-0.00825,-0.001,0.3042813377689806,10,1,100,-0.1853769530164407,-10,-1,-100,19207.77167602314,0.012623062958616635,0.023440543259088932,0.9996455367845453,55.56811119426763,3.375166870625762,267.2303421138551,-85.44445077842987,-172.92678833007812,4761.76025390625,True
1599386326.6931562,0.0,10,0.5,0.5,8.997469015502931,-0.1005,-0.00825,-0.001,0.2568852612672008,10,1,100,-0.13596916635160333,-10,-1,-100,19207.77167602314,0.012623062958616635,0.023440543259088932,0.9996455367845453,55.56811119426763,3.375166870625762,267.2303421138551,-85.44445077842987,-172.92678833007812,4761.76025390625,True
1599386326.7266188,0.0,10,0.5,0.5,8.90632562866211,-0.1005,-0.00825,-0.001,0.324086525996387,10,1,100,-0.1610913808440798,-10,-1,-100,19202.62312591786,0.012845381751859803,0.02405028390954897,0.9996282208959084,56.00538044220617,3.401984502553285,271.14786447446346,-85.99151288102216,-171.962158203125,4761.76025390625,True
1599386326.7605212,0.0,10,0.5,0.5,8.80878091545105,-0.1005,-0.00825,-0.001,0.3120771263810304,10,1,100,-0.1417527519066636,-10,-1,-100,19199.172524754773,0.012866475101930312,0.02449370318854467,0.9996171828868102,56.41897227319623,3.427244340014601,274.3695715763138,-86.35619006070785,-170.9498291015625,4761.76025390625,True
1599386326.7914045,0.0,10,0.5,0.5,8.749791558074952,-0.1005,-0.00825,-0.001,0.2948158529781976,10,1,100,-0.134325010729431,-10,-1,-100,19197.441754387575,0.012813399207907628,0.024737750477582143,0.9996118549227233,56.65914976640245,3.4418880940293253,276.14999273209963,-86.53851772438749,-170.33273315429688,4761.76025390625,True
1599386326.8253498,0.0,10,0.5,0.5,8.602837600708009,-0.1005,-0.00825,-0.001,0.3268176286247759,10,1,100,-0.11906703405269284,-10,-1,-100,19193.969274404924,0.01262310343566384,0.02524822655165025,0.9996015127617851,57.20253013044573,3.4749726507541343,280.0352514683124,-86.90314861696193,-168.87713623046875,4761.76025390625,True
1599386326.8592577,0.0,10,0.5,0.5,8.602735773468018,-0.1005,-0.00825,-0.001,0.2760711883105257,10,1,100,-0.13840077711835433,-10,-1,-100,19193.969274404924,0.01262310343566384,0.02524822655165025,0.9996015127617851,57.20253013044573,3.4749726507541343,280.0352514683124,-86.90314861696193,-168.87713623046875,4761.76025390625,True
1599386326.891172,0.0,10,0.5,0.5,8.422262683105469,-0.1005,-0.00825,-0.001,0.33540538986506657,10,1,100,-0.10474247284617544,-10,-1,-100,19190.482210447663,0.012315406076385628,0.025785049282418086,0.9995916476275084,57.82134017005242,3.5125962234511863,284.31525637869976,-87.26774325875792,-167.12643432617188,4761.76025390625,True
1599386326.9260783,0.0,10,0.5,0.5,8.096850391387939,-0.1005,-0.00825,-0.001,0.37468329862097116,10,1,100,-0.056482956651703164,-10,-1,-100,19185.224272288033,0.01159582465023336,0.026627162824763295,0.9995781765577839,58.86149626607538,3.5757637487749676,291.34001692242026,-87.81455956471537,-163.94754028320312,4761.76025390625,True
1599386326.9609513,0.0,10,0.5,0.5,7.9701830177307125,-0.1005,-0.00825,-0.001,0.32178252144179476,10,1,100,-0.09427448195823687,-10,-1,-100,19183.46433609561,0.011285017843067062,0.02690813744437586,0.9995742096070486,59.23041058763039,3.598157201922894,293.8067994881276,-87.99680983609439,-162.74069213867188,4761.76025390625,True
1599386326.9938967,0.0,10,0.5,0.5,7.695363977050783,-0.1005,-0.00825,-0.001,0.35484847497282646,10,1,100,-0.04540897400486034,-10,-1,-100,19179.933529386297,0.010558994314268837,0.027460584152141285,0.9995671182852578,59.9880370322691,3.6441495699188473,298.8630268722095,-88.36127575660852,-160.1064453125,4761.76025390625,True
1599386327.0327601,0.0,10,0.5,0.5,7.687421440887452,-0.1005,-0.00825,-0.001,0.30000580828558926,10,1,100,-0.11780492002024806,-10,-1,-100,19179.933529386297,0.010558994314268837,0.027460584152141285,0.9995671182852578,59.9880370322691,3.6441495699188473,298.8630268722095,-88.36127575660852,-160.1064453125,4761.76025390625,True
1599386327.0706594,0.0,10,0.5,0.5,7.379614570617677,-0.1005,-0.00825,-0.001,0.36042563079134643,10,1,100,-0.023321761613118483,-10,-1,-100,19176.388145475183,0.009701932936607975,0.02800620068319994,0.9995606661031564,60.75478356947425,3.6907309367367946,303.99773517134736,-88.72569431231172,-157.17807006835938,4761.76025390625,True
1599386327.104604,0.0,10,0.5,0.5,6.686480220794678,-0.1005,-0.00825,-0.001,0.4170750159393358,10,1,100,0.12493560602643483,-10,-1,-100,19169.25365359662,0.007577849659116027,0.0290136138338953,0.9995502920848163,62.21748497806397,3.7799003122232167,314.009492856284,-89.45438959214457,-150.4404754638672,4761.76025390625,True
1599386327.137482,0.0,10,0.5,0.5,6.486756384658814,-0.1005,-0.00825,-0.001,0.33968127213370475,10,1,100,-0.01924049321262665,-10,-1,-100,19167.460922859376,0.006962364513971918,0.02922175547207139,0.9995487054103492,62.54812482945214,3.800174276580364,316.35505233390666,-89.6365352742035,-148.5730743408203,4761.76025390625,True
1599386327.1723874,0.0,10,0.5,0.5,6.0693292098999025,-0.1005,-0.00825,-0.001,0.35796648152080124,10,1,100,0.06440145261776681,-10,-1,-100,19163.86453319085,0.005647770360559094,0.029573127951210088,0.99954666363964,63.1390717736007,3.8366437052043487,320.71054491884695,-90.00079684726283,-144.61895751953125,4761.76025390625,True
1599386327.2082899,0.0,10,0.5,0.5,6.053270329284668,-0.1005,-0.00825,-0.001,0.32326172374688755,10,1,100,-0.0663604294160052,-10,-1,-100,19163.86453319085,0.005647770360559094,0.029573127951210088,0.99954666363964,63.1390717736007,3.8366437052043487,320.71054491884695,-90.00079684726283,-144.61895751953125,4761.76025390625,True
1599386327.2422006,0.0,10,0.5,0.5,5.141457107543945,-0.1005,-0.00825,-0.001,0.37996391837633003,10,1,100,0.26040154623168055,-10,-1,-100,19156.62804679561,0.002683548157466591,0.030084670719296328,0.9995437514971509,63.912000305096285,3.88573590182599,327.4048143359412,-90.7292281800137,-135.83274841308594,4761.76025390625,True
1599386327.276137,0.0,10,0.5,0.5,5.124426025772095,-0.1005,-0.00825,-0.001,0.32923960371139377,10,1,100,-0.035057488285677785,-10,-1,-100,19156.62804679561,0.002683548157466591,0.030084670719296328,0.9995437514971509,63.912000305096285,3.88573590182599,327.4048143359412,-90.7292281800137,-135.83274841308594,4761.76025390625,True
1599386327.3110435,0.0,10,0.5,0.5,4.610834357452394,-0.1005,-0.00825,-0.001,0.34457806093493903,10,1,100,0.1481686688852209,-10,-1,-100,19152.987951616407,0.0010259578890882092,0.030220968050515346,0.9995427156957823,64.0169947032334,3.8937620583787926,329.3306332376954,-91.09342023062744,-131.00125122070312,4761.76025390625,True
1599386327.3459523,0.0,10,0.5,0.5,4.333277568817139,-0.1005,-0.00825,-0.001,0.327303821023953,10,1,100,0.07280371822537027,-10,-1,-100,19151.162441202323,0.00021351997833739394,0.03018482450642718,0.999544311563392,63.98210916176176,3.8926113139267224,329.8453843142759,-91.27551659760731,-128.47708129882812,4761.76025390625,True
1599386327.3808498,0.0,10,0.5,0.5,3.7749283042907718,-0.1005,-0.00825,-0.001,0.3265890214688977,10,1,100,0.188400900083659,-10,-1,-100,19147.500494031236,-0.0015665384352969438,0.030142991979160812,0.9995443691962228,63.70745007667512,3.878113778293273,329.8135097602241,-91.6397208615978,-123.20832061767578,4761.76025390625,True
1599386327.4157634,0.0,10,0.5,0.5,3.1855046396255493,-0.1005,-0.00825,-0.001,0.30584184841287976,10,1,100,0.2065236899985276,-10,-1,-100,19143.823978298227,-0.0033385027807819054,0.029913913192203025,0.9995469034501144,63.12774082177384,3.84531692463091,328.186407282704,-92.00395611960457,-117.6491928100586,4761.76025390625,True
1599386327.4506757,0.0,10,0.5,0.5,2.865218949890137,-0.1005,-0.00825,-0.001,0.3127155959126823,10,1,100,0.13190922236814528,-10,-1,-100,19141.980256344308,-0.0042592111748398585,0.0297664140790496,0.9995478076175461,62.70925594907304,3.8211353142837376,326.6943955374559,-92.18609165260739,-114.76019287109375,4761.76025390625,True
1599386327.485583,0.0,10,0.5,0.5,1.914710569381714,-0.1005,-0.00825,-0.001,0.253089387114227,10,1,100,0.3420344777938828,-10,-1,-100,19136.427231239155,-0.00699568743618656,0.0290895831687013,0.9995523280490954,61.13177983607146,3.728843088882405,320.4803032046947,-92.7325914003858,-105.6571273803711,4761.76025390625,True
1599386327.5204895,0.0,10,0.5,0.5,1.5656580816268921,-0.1005,-0.00825,-0.001,0.28829859553952336,10,1,100,0.16913653797918435,-10,-1,-100,19134.56893515587,-0.007898904537322523,0.028794486210708604,0.9995541430412719,60.44473166719277,3.6881032862168484,317.5406029935066,-92.91479426847836,-102.47732543945312,4761.76025390625,True
1599386327.5533676,0.0,10,0.5,0.5,0.5215382230758667,-0.1005,-0.00825,-0.001,0.19804311382694575,10,1,100,0.37215006960449576,-10,-1,-100,19128.972178836237,-0.0105532733941327,0.02770641972581954,0.999560394736929,58.06287964518046,3.545426935622659,306.939817868422,-93.4615247557729,-92.50163269042969,4761.76025390625,True
1599386327.5873094,0.0,10,0.5,0.5,0.4885171228408814,-0.1005,-0.00825,-0.001,0.3066630914933132,10,1,100,0.10833328829894717,-10,-1,-100,19128.972178836237,-0.0105532733941327,0.02770641972581954,0.999560394736929,58.06287964518046,3.545426935622659,306.939817868422,-93.4615247557729,-92.50163269042969,4761.76025390625,True
1599386327.6212196,0.0,10,0.5,0.5,-0.9933628911972046,-0.1005,-0.00825,-0.001,0.10488069137152148,10,1,100,0.46270993430478363,-10,-1,-100,19121.45881189464,-0.013762845792775215,0.025874196316524593,0.9995704627692129,62.686386937134436,3.82907407100785,334.1384043985533,-94.19034789776556,-78.2540283203125,4761.76025390625,True
1599386327.6521397,0.0,10,0.5,0.5,-1.3997374055862428,-0.1005,-0.00825,-0.001,0.2274924649179373,10,1,100,0.2290923318511417,-10,-1,-100,19119.571362319402,-0.014541891229280535,0.025327018862499124,0.9995734467836839,63.95055811175091,3.9062978160125326,341.5797789111007,-94.37246664668803,-74.57797241210938,4761.76025390625,True
1599386327.6880436,0.0,10,0.5,0.5,-1.4426105546951296,-0.1005,-0.00825,-0.001,0.2817208154016826,10,1,100,0.1527445731124465,-10,-1,-100,19119.571362319402,-0.014541891229280535,0.025327018862499124,0.9995734467836839,63.95055811175091,3.9062978160125326,341.5797789111007,-94.37246664668803,-74.57797241210938,4761.76025390625,True
1599386327.7209678,0.0,10,0.5,0.5,-2.2377585329055787,-0.1005,-0.00825,-0.001,0.16247531663519238,10,1,100,0.30644604576329604,-10,-1,-100,19115.785538959317,-0.015925763334099514,0.024247385060661875,0.9995791286236153,66.16877241727416,4.041671630149248,354.88148764700594,-94.7366059179869,-67.18209838867188,4761.76025390625,True
1599386327.753907,0.0,10,0.5,0.5,-3.005777910995483,-0.1005,-0.00825,-0.001,0.14118362918978142,10,1,100,0.312512174529083,-10,-1,-100,19111.985153469723,-0.017225921668261375,0.023077698633959275,0.9995852577186395,67.87927487481532,4.146149550838825,365.5449408782779,-95.10063107994537,-59.9979248046875,4761.76025390625,True
1599386327.78981,0.0,10,0.5,0.5,-3.4000121431350707,-0.1005,-0.00825,-0.001,0.18937449957960545,10,1,100,0.2507903572122449,-10,-1,-100,19110.07950111467,-0.017834151433812284,0.02245866089919008,0.9995886912091648,68.53229611505253,4.186180477971784,369.8131216756173,-95.28260962300297,-56.51165771484375,4761.76025390625,True
1599386327.8253162,0.0,10,0.5,0.5,-4.1299227449417115,-0.1005,-0.00825,-0.001,0.11705717614251739,10,1,100,0.31297783275841956,-10,-1,-100,19106.257279045647,-0.018940087416315633,0.021245112521044426,0.9995948770790245,69.45326407635606,4.243153276022554,376.3058276218749,-95.6465178299189,-49.759521484375,4761.76025390625,True
1599386327.8632185,0.0,10,0.5,0.5,-4.8245075386047365,-0.1005,-0.00825,-0.001,0.10606063758219103,10,1,100,0.3129637348512396,-10,-1,-100,19102.420502020977,-0.019934497055816923,0.02004904952731601,0.9996002458183886,69.89929667087098,4.271778168136491,380.25592954759065,-96.01038728663427,-43.30413818359375,4761.76025390625,True
1599386327.9040728,0.0,10,0.5,0.5,-6.086688287353516,-0.1005,-0.00825,-0.001,-0.035236819088601545,10,1,100,0.39741512507199117,-10,-1,-100,19094.703283943818,-0.02159530428235357,0.01768514759663151,0.9996103632853341,69.57498991330124,4.256532128932625,381.55093240684494,-96.7381250158031,-31.286224365234375,4761.76025390625,True
1599386327.9349916,0.0,10,0.5,0.5,-6.125173085403443,-0.1005,-0.00825,-0.001,0.20015124676692964,10,1,100,0.2324386055071485,-10,-1,-100,19094.703283943818,-0.02159530428235357,0.01768514759663151,0.9996103632853341,69.57498991330124,4.256532128932625,381.55093240684494,-96.7381250158031,-31.286224365234375,4761.76025390625,True
1599386327.9738848,0.0,10,0.5,0.5,-6.461801224517823,-0.1005,-0.00825,-0.001,0.13828828587886022,10,1,100,0.27250498123892936,-10,-1,-100,19092.76488227141,-0.021949505851835013,0.017131867290493777,0.9996122839961508,69.28112063971251,4.239978000035609,380.70294298180244,-96.92007677456132,-28.467254638671875,4761.76025390625,True
1599386328.0304976,0.0,10,0.5,0.5,-7.31327986907959,-0.1005,-0.00825,-0.001,0.022630561521216924,10,1,100,0.34126722908847795,-10,-1,-100,19086.92784052028,-0.022889176204487622,0.015585398908050017,0.9996165169471525,68.00041255362356,4.166085281943266,375.9195184602682,-97.46600885524124,-20.4552001953125,4761.76025390625,True
1599386328.075379,0.0,10,0.5,0.5,-8.328882389068603,-0.1005,-0.00825,-0.001,-0.023656683230363018,10,1,100,0.35347896440872817,-10,-1,-100,19079.09415483696,-0.023846849314378443,0.013767581444409009,0.9996208188503023,65.88943525984094,4.042271900977879,367.1745381782077,-98.1941314286349,-10.81024169921875,4761.76025390625,True
1599386328.1092541,0.0,10,0.5,0.5,-8.816292402648926,-0.1005,-0.00825,-0.001,0.07513156569395651,10,1,100,0.30622446486910837,-10,-1,-100,19075.155464998097,-0.024279415820205284,0.013023603683518351,0.9996203757999956,64.85262363509719,3.980880293863828,362.840825052183,-98.55828107379871,-6.43145751953125,4761.76025390625,True
1599386328.158724,0.0,10,0.5,0.5,-9.072990462493896,-0.1005,-0.00825,-0.001,0.11120408018749951,10,1,100,0.28675586698364214,-10,-1,-100,19073.180657595396,-0.024488076615192624,0.01268539565208373,0.9996196350816837,64.3194134309075,3.949072582865234,360.57455371693,-98.7403759805976,-4.353057861328125,4761.76025390625,True
1599386328.1986513,0.0,10,0.5,0.5,-9.320277513122559,-0.1005,-0.00825,-0.001,0.11006584358663052,10,1,100,0.28895299194979884,-10,-1,-100,19071.20220771979,-0.02469114015128533,0.012377033748027878,0.9996185055478064,63.76927418463619,3.916080093714041,358.2017914807238,-98.92248413938528,-2.348541259765625,4761.76025390625,True
1599386328.2414527,0.0,10,0.5,0.5,-9.747349169158936,-0.1005,-0.00825,-0.001,0.07955478621857798,10,1,100,0.3091369329329689,-10,-1,-100,19067.234380836715,-0.02505300011238254,0.011828496611132229,0.9996161432536439,62.635563006249306,3.8475914115353307,353.23204761474085,-99.28673876657169,1.438568115234375,4761.76025390625,True
1599386328.2753265,0.0,10,0.5,0.5,-10.464615806579591,-0.1005,-0.00825,-0.001,0.050169949653721166,10,1,100,0.35055871768258556,-10,-1,-100,19059.255022265832,-0.025752968199561913,0.011071252168737406,0.9996070287889778,65.61251721429453,4.031238168952944,372.95321680532925,-100.01507604982726,8.12640380859375,4761.76025390625,True
1599386328.3122268,0.0,10,0.5,0.5,-10.500358168029786,-0.1005,-0.00825,-0.001,0.1249966141573456,10,1,100,0.28114375607902276,-10,-1,-100,19059.255022265832,-0.025752968199561913,0.011071252168737406,0.9996070287889778,65.61251721429453,4.031238168952944,372.95321680532925,-100.01507604982726,8.12640380859375,4761.76025390625,True
1599386328.3501284,0.0,10,0.5,0.5,-10.683838109588624,-0.1005,-0.00825,-0.001,0.11098608708134437,10,1,100,0.3001266964430172,-10,-1,-100,19057.251080005197,-0.025921760690218947,0.010949896372980935,0.999604002639115,66.29155638270912,4.072894727379012,377.5540348898754,-100.1971090909386,9.613739013671875,4761.76025390625,True
1599386328.3890553,0.0,10,0.5,0.5,-10.995558972930908,-0.1005,-0.00825,-0.001,0.10626949276985775,10,1,100,0.32280479616578733,-10,-1,-100,19053.232274951413,-0.026277439809743373,0.010802817747846674,0.9995963161625557,67.51948668448601,4.147981456532407,386.057190803058,-100.56111901051392,12.367095947265625,4761.76025390625,True
1599386328.4309108,0.0,10,0.5,0.5,-11.495514836883546,-0.1005,-0.00825,-0.001,0.12227053129034143,10,1,100,0.361038477249353,-10,-1,-100,19045.150992682902,-0.026944428897381714,0.010820327574767787,0.9995783702454593,69.52389611465036,4.269765843615329,400.62704077850196,-101.28893645684111,16.987991333007812,4761.76025390625,True
1599386328.475822,0.0,10,0.5,0.5,-11.711398580551148,-0.1005,-0.00825,-0.001,0.14114415936840774,10,1,100,0.3336486633275718,-10,-1,-100,19041.088520380552,-0.027298097711679563,0.011012155919345111,0.9995666792582333,70.33405875434423,4.3186678949776764,406.86845118108636,-101.65275646337344,18.856109619140625,4761.76025390625,True
1599386328.517713,0.0,10,0.5,0.5,-11.89372335700989,-0.1005,-0.00825,-0.001,0.1575679183952532,10,1,100,0.3386575122686314,-10,-1,-100,19037.01149670838,-0.027662012307416967,0.011338357156045878,0.9995530274738336,71.03919265778194,4.361061242194289,412.53643513646955,-102.01652513066298,20.4296875,4761.76025390625,True
1599386328.5576043,0.0,10,0.5,0.5,-11.914310223770142,-0.1005,-0.00825,-0.001,0.12477927007242928,10,1,100,0.3026043123436122,-10,-1,-100,19037.01149670838,-0.027662012307416967,0.011338357156045878,0.9995530274738336,71.03919265778194,4.361061242194289,412.53643513646955,-102.01652513066298,20.4296875,4761.76025390625,True
1599386328.5964656,0.0,10,0.5,0.5,-12.064562804794312,-0.1005,-0.00825,-0.001,0.1737999097722321,10,1,100,0.3442099892279082,-10,-1,-100,19032.919923727866,-0.028037360337554,0.011785223915585938,0.9995374004621146,71.65458756212666,4.397924764547209,417.71323138778433,-102.38024803918427,21.708572387695312,4761.76025390625,True
1599386328.6360373,0.0,10,0.5,0.5,-12.253097385406496,-0.1005,-0.00825,-0.001,0.2696530416120311,10,1,100,0.39364939370349417,-10,-1,-100,19024.693136011134,-0.02882499293274184,0.013063396540831839,0.9994991082803648,72.6600672413852,4.4578662295293645,426.82779853061857,-103.10757546378599,23.38311767578125,4761.76025390625,True
1599386328.6839402,0.0,10,0.5,0.5,-12.309736184692385,-0.1005,-0.00825,-0.001,0.23567121860730714,10,1,100,0.3595857855673384,-10,-1,-100,19020.557924331166,-0.029227924315474496,0.013915323354712714,0.9994759087722639,73.06788944377045,4.482064757389015,430.8604520445574,-103.47118854393821,23.779266357421875,4761.76025390625,True
1599386328.7228298,0.0,10,0.5,0.5,-12.331190033721926,-0.1005,-0.00825,-0.001,0.20487211141696243,10,1,100,0.3406475760842249,-10,-1,-100,19018.484864497557,-0.02941890098073414,0.014407224873614035,0.9994633360641736,73.25120718210377,4.492916976706995,432.76237610377603,-103.65298424347833,23.8673095703125,4761.76025390625,True
1599386328.7587368,0.0,10,0.5,0.5,-12.345561115264893,-0.1005,-0.00825,-0.001,0.21372712795841498,10,1,100,0.3431529326225351,-10,-1,-100,19016.408169020084,-0.029611959433335572,0.014931875520533098,0.9994499341897811,73.42118475517239,4.502962443926818,434.58974754020653,-103.83477321353253,23.881820678710938,4761.76025390625,True
1599386328.7954621,0.0,10,0.5,0.5,-12.316984778976442,-0.1005,-0.00825,-0.001,0.35598777322650205,10,1,100,0.3885886191275476,-10,-1,-100,19010.156268845312,-0.0301971640868887,0.0166984892663989,0.9994044685398046,73.85414598907242,4.52845049805937,439.63857367580795,-104.38010463841114,23.484451293945312,4761.76025390625,True
1599386328.8493109,0.0,10,0.5,0.5,-12.262427265167236,-0.1005,-0.00825,-0.001,0.33047402981295537,10,1,100,0.37165752058159485,-10,-1,-100,19005.9701585687,-0.030571685853994567,0.018067198939318702,0.9993692752664212,74.08025462415824,4.541670140367966,442.6489252853569,-104.74363353827226,22.8526611328125,4761.76025390625,True
1599386328.8852148,0.0,10,0.5,0.5,-12.115932381057739,-0.1005,-0.00825,-0.001,0.4554799461644442,10,1,100,0.38735528661007096,-10,-1,-100,18999.66372952459,-0.03105156964529822,0.020441309816655193,0.9993087375158604,74.32205766973749,4.555627511105809,446.60184361193393,-105.28889825288438,21.35546875,4761.76025390625,True
1599386328.918126,0.0,10,0.5,0.5,-12.11949154472351,-0.1005,-0.00825,-0.001,0.21901177382052614,10,1,100,0.3397422546730677,-10,-1,-100,18999.66372952459,-0.03105156964529822,0.020441309816655193,0.9993087375158604,74.32205766973749,4.555627511105809,446.60184361193393,-105.28889825288438,21.35546875,4761.76025390625,True
1599386328.9520383,0.0,10,0.5,0.5,-12.054720783615112,-0.1005,-0.00825,-0.001,0.31521031398971305,10,1,100,0.3559988644936938,-10,-1,-100,18997.554316495312,-0.0311962755915422,0.021307566588501792,0.9992861351961676,74.37354184692904,4.558523671411565,447.7488144182849,-105.470647473842,20.709808349609375,4761.76025390625,True
1599386328.9859445,0.0,10,0.5,0.5,-11.719135637283326,-0.1005,-0.00825,-0.001,0.6555231520409173,10,1,100,0.391331501674519,-10,-1,-100,18989.080315213534,-0.031645819277695025,0.02517976290025287,0.9991819262089016,74.40830488545772,4.559805581139987,451.315668932075,-106.19762992893969,17.394912719726562,4761.76025390625,True
1599386329.0158648,0.0,10,0.5,0.5,-11.616213151931763,-0.1005,-0.00825,-0.001,0.3878710336889362,10,1,100,0.35372463265325904,-10,-1,-100,18986.952727635857,-0.031709334311331466,0.026254563435931598,0.9991522486669989,74.3695868925833,4.557281784038423,451.92130456022784,-106.37937496703151,16.38330078125,4761.76025390625,True
1599386329.0507724,0.0,10,0.5,0.5,-11.611449914932253,-0.1005,-0.00825,-0.001,0.2817100968105734,10,1,100,0.34766156342747395,-10,-1,-100,18986.952727635857,-0.031709334311331466,0.026254563435931598,0.9991522486669989,74.3695868925833,4.557281784038423,451.92130456022784,-106.37937496703151,16.38330078125,4761.76025390625,True
1599386329.0856779,0.0,10,0.5,0.5,-11.377741431808472,-0.1005,-0.00825,-0.001,0.5345751091911475,10,1,100,0.34911400058701014,-10,-1,-100,18982.68664776499,-0.03172028245824011,0.028542118784772072,0.9990891707630732,74.22615515767866,4.548290251506364,452.72941612817914,-106.74286901620341,14.140869140625,4761.76025390625,True
1599386329.1152942,0.0,10,0.5,0.5,-10.97482469291687,-0.1005,-0.00825,-0.001,0.7118972060523462,10,1,100,0.3421925002088747,-10,-1,-100,18976.26026497339,-0.03166522042337627,0.032220883715264166,0.998979043057534,73.80962299918751,4.52280232606151,452.6995022234616,-107.28813140689311,10.22821044921875,4761.76025390625,True
1599386329.1491702,0.0,10,0.5,0.5,-10.967473123168945,-0.1005,-0.00825,-0.001,0.3457496138226098,10,1,100,0.3479040297942623,-10,-1,-100,18976.26026497339,-0.03166522042337627,0.032220883715264166,0.998979043057534,73.80962299918751,4.52280232606151,452.6995022234616,-107.28813140689311,10.22821044921875,4761.76025390625,True
1599386329.1850731,0.0,10,0.5,0.5,-10.654706798934939,-0.1005,-0.00825,-0.001,0.6392743179238197,10,1,100,0.32310922568008293,-10,-1,-100,18971.957833518507,-0.031438478516577835,0.03487517884850347,0.9988970637502381,73.38108071410397,4.496880733923266,451.73876273125984,-107.65166308546685,7.2545166015625,4761.76025390625,True
1599386329.2159908,0.0,10,0.5,0.5,-10.313317013168337,-0.1005,-0.00825,-0.001,0.6833771146942543,10,1,100,0.2937887488031817,-10,-1,-100,18967.64086015476,-0.030965011727277805,0.0376738289585348,0.998810217539014,72.80859436989938,4.462475440784821,449.87204545402153,-108.01522154548624,3.988555908203125,4761.76025390625,True
1599386329.2489023,0.0,10,0.5,0.5,-10.125376776504519,-0.1005,-0.00825,-0.001,0.5640901323140415,10,1,100,0.3181310894640972,-10,-1,-100,18965.476919861743,-0.03075596006839339,0.03911796329225055,0.9987611605725053,72.45943232896724,4.4415691603972345,448.5404729399152,-108.1970131805929,2.24591064453125,4761.76025390625,True
1599386329.28381,0.0,10,0.5,0.5,-9.53622867012024,-0.1005,-0.00825,-0.001,0.9176797406282545,10,1,100,0.21694826637862874,-10,-1,-100,18958.963281762204,-0.02964633799551867,0.04362828489532535,0.9986078646798991,71.14964520920698,4.363514021270367,442.8689928682207,-108.74244818518258,-3.42034912109375,4761.76025390625,True
1599386329.3137302,0.0,10,0.5,0.5,-9.101481797409058,-0.1005,-0.00825,-0.001,0.8128476814383221,10,1,100,0.21735642832498037,-10,-1,-100,18954.60267335677,-0.028642710253868504,0.0467552669797514,0.9984956385277629,70.02743644589849,4.296929813803815,437.484926568727,-109.10613068436655,-7.563262939453125,4761.76025390625,True
1599386329.3461516,0.0,10,0.5,0.5,-9.085034216308594,-0.1005,-0.00825,-0.001,0.502307023403667,10,1,100,0.3174188915876142,-10,-1,-100,18954.60267335677,-0.028642710253868504,0.0467552669797514,0.9984956385277629,70.02743644589849,4.296929813803815,437.484926568727,-109.10613068436655,-7.563262939453125,4761.76025390625,True
1599386329.3790631,0.0,10,0.5,0.5,-8.378774898529052,-0.1005,-0.00825,-0.001,1.0276959275332236,10,1,100,0.09015593157327545,-10,-1,-100,18948.03448102658,-0.026579471184699482,0.0515128927413439,0.9983185631815931,68.42365517087214,4.20320732860222,429.8138918051019,-109.65174703853957,-14.32684326171875,4761.76025390625,True
1599386329.4095414,0.0,10,0.5,0.5,-8.116501010894776,-0.1005,-0.00825,-0.001,0.7298748501171461,10,1,100,0.2055094608455126,-10,-1,-100,18945.83780898014,-0.025757131263499464,0.05310758061236782,0.9982565577398307,69.13996764748521,4.249197104870288,435.1044344642063,-109.83360106265766,-16.72784423828125,4761.76025390625,True
1599386329.4500878,0.0,10,0.5,0.5,-7.3177570091247555,-0.1005,-0.00825,-0.001,1.1004492173916534,10,1,100,-0.026034351926366384,-10,-1,-100,18939.225975032896,-0.02291002681102304,0.057903822505041815,0.9980592557613114,71.17866327533316,4.381752542483856,450.3748009012237,-110.37901352937658,-24.3699951171875,4761.76025390625,True
1599386329.4819713,0.0,10,0.5,0.5,-6.742502338409425,-0.1005,-0.00825,-0.001,0.9681867483157256,10,1,100,0.009876724856537789,-10,-1,-100,18934.799909586203,-0.020656173637354832,0.06103830819879176,0.9979216639711218,72.48870561779525,4.468095610747358,460.3180646021343,-110.74249478870465,-29.83160400390625,4761.76025390625,True
1599386329.510925,0.0,10,0.5,0.5,-6.426441242218018,-0.1005,-0.00825,-0.001,0.8177945916427493,10,1,100,0.09552727701712146,-10,-1,-100,18932.581425582408,-0.019395865814376332,0.062494441564734174,0.99785682598398,73.14630145895215,4.511660511368137,465.3272984126983,-110.92419513301607,-32.6737060546875,4761.76025390625,True
1599386329.5438054,0.0,10,0.5,0.5,-6.396342560577393,-0.1005,-0.00825,-0.001,0.674943181320131,10,1,100,0.2203537980447513,-10,-1,-100,18932.581425582408,-0.019395865814376332,0.062494441564734174,0.99785682598398,73.14630145895215,4.511660511368137,465.3272984126983,-110.92419513301607,-32.6737060546875,4761.76025390625,True
1599386329.579317,0.0,10,0.5,0.5,-5.766760501098633,-0.1005,-0.00825,-0.001,0.988074125723848,10,1,100,-0.07953250192990458,-10,-1,-100,18928.133557575173,-0.016680144129073007,0.06531852232058051,0.9977250440044538,74.34490694427559,4.591916889051891,474.64363062793615,-111.2875188979732,-38.5784912109375,4761.76025390625,True
1599386329.6112397,0.0,10,0.5,0.5,-4.784012269592285,-0.1005,-0.00825,-0.001,1.1468063346787944,10,1,100,-0.3099488263995831,-10,-1,-100,18921.434513350483,-0.012129408570835925,0.06930506985364185,0.9975217715620565,75.98189251517434,4.702615654674162,487.6803122290123,-111.83231914075115,-47.987091064453125,4761.76025390625,True
1599386329.6437204,0.0,10,0.5,0.5,-4.756653307342529,-0.1005,-0.00825,-0.001,0.7507192598684923,10,1,100,0.1433730364816568,-10,-1,-100,18921.434513350483,-0.012129408570835925,0.06930506985364185,0.9975217715620565,75.98189251517434,4.702615654674162,487.6803122290123,-111.83231914075115,-47.987091064453125,4761.76025390625,True
1599386329.6766346,0.0,10,0.5,0.5,-3.700442107391358,-0.1005,-0.00825,-0.001,1.1029513374225148,10,1,100,-0.41000696556025923,-10,-1,-100,18914.70278819115,-0.007113693371984899,0.07248667982879306,0.9973440111686678,76.93790516491057,4.770570683866245,496.42748089695857,-112.3769499107807,-58.064544677734375,4761.76025390625,True
1599386329.7165208,0.0,10,0.5,0.5,-3.668856003570557,-0.1005,-0.00825,-0.001,0.7873634811922977,10,1,100,0.08941165263665492,-10,-1,-100,18914.70278819115,-0.007113693371984899,0.07248667982879306,0.9973440111686678,76.93790516491057,4.770570683866245,496.42748089695857,-112.3769499107807,-58.064544677734375,4761.76025390625,True
1599386329.992747,0.0,10,0.5,0.5,-2.5422731018066407,-0.1005,-0.00825,-0.001,1.067571248306691,10,1,100,-0.4984200003224132,-10,-1,-100,18907.93838868942,-0.0017874654158231119,0.07501495608702623,0.9971808067400058,77.03545443876567,4.783890945269023,499.66862005156213,-112.92150088346436,-68.80838012695312,4761.76025390625,True
1599386330.020717,0.0,10,0.5,0.5,-2.131392429351807,-0.1005,-0.00825,-0.001,0.884769150362158,10,1,100,-0.1628197482583278,-10,-1,-100,18905.676328318426,-1.8141988847423403e-05,0.07563163599912912,0.997135825906864,76.84662001418083,4.774217621232781,499.3126216103185,-113.10301892104198,-72.53900146484375,4761.76025390625,True
1599386330.0577538,0.0,10,0.5,0.5,-1.3157001945495606,-0.1005,-0.00825,-0.001,0.9473765573850023,10,1,100,-0.40203374552170645,-10,-1,-100,18901.141315554734,0.003744195751868304,0.07674529615261752,0.9970437004046606,76.1008641767156,4.731492193168606,496.18966728664043,-113.46608264695591,-80.22061157226562,4761.76025390625,True
1599386330.0866811,0.0,10,0.5,0.5,-0.8805067352294923,-0.1005,-0.00825,-0.001,0.8741330160900935,10,1,100,-0.21969802942169397,-10,-1,-100,18898.868362893,0.005484723215801375,0.07707758501860433,0.997010011834859,75.53034678386935,4.697639056424349,493.32588989028017,-113.64763704481723,-84.17434692382812,4761.76025390625,True
1599386330.1391664,0.0,10,0.5,0.5,0.838410424041748,-0.1005,-0.00825,-0.001,0.905025261793433,10,1,100,-0.8093689723681813,-10,-1,-100,18889.740231220145,0.012405047128862982,0.07764724700002827,0.9969037164335618,71.86354475308727,4.47559063772035,472.64339303102724,-114.37409904054965,-100.72984313964844,4761.76025390625,True
1599386330.1700513,0.0,10,0.5,0.5,0.8780012409210205,-0.1005,-0.00825,-0.001,0.8495743441945683,10,1,100,-0.12051667235634456,-10,-1,-100,18889.740231220145,0.012405047128862982,0.07764724700002827,0.9969037164335618,71.86354475308727,4.47559063772035,472.64339303102724,-114.37409904054965,-100.72984313964844,4761.76025390625,True
1599386330.197015,0.0,10,0.5,0.5,2.2568939689636234,-0.1005,-0.00825,-0.001,0.8050646671082622,10,1,100,-0.638152500578569,-10,-1,-100,18882.85597867181,0.0170843863024669,0.07723140564044417,0.9968668084189931,67.60233191673443,4.215494886836776,446.9284395594963,-114.91929305566734,-113.80982208251953,4761.76025390625,True
1599386330.2289252,0.0,10,0.5,0.5,2.298117743110657,-0.1005,-0.00825,-0.001,0.8474414366453523,10,1,100,-0.1731399627055076,-10,-1,-100,18882.85597867181,0.0170843863024669,0.07723140564044417,0.9968668084189931,67.60233191673443,4.215494886836776,446.9284395594963,-114.91929305566734,-113.80982208251953,4761.76025390625,True
1599386330.254825,0.0,10,0.5,0.5,3.6541052539825443,-0.1005,-0.00825,-0.001,0.7414165225172933,10,1,100,-0.6196635547209738,-10,-1,-100,18875.93900482834,0.021117133689086316,0.07626033702492836,0.996864297515766,66.89302507460275,4.178166451292503,444.521742489788,-115.46467053136845,-126.63429260253906,4761.76025390625,True
1599386330.285786,0.0,10,0.5,0.5,3.6978508255004887,-0.1005,-0.00825,-0.001,0.8389007497884879,10,1,100,-0.2192118987651392,-10,-1,-100,18875.93900482834,0.021117133689086316,0.07626033702492836,0.996864297515766,66.89302507460275,4.178166451292503,444.521742489788,-115.46467053136845,-126.63429260253906,4761.76025390625,True
1599386330.31391,0.0,10,0.5,0.5,4.587666854476929,-0.1005,-0.00825,-0.001,0.7413868800526031,10,1,100,-0.4723257398053272,-10,-1,-100,18871.30951511883,0.02339250421939614,0.07537041670260565,0.9968811820033625,68.95100438135184,4.311955660061865,459.7609018475041,-115.8280810168796,-134.84361267089844,4761.76025390625,True
1599386330.344828,0.0,10,0.5,0.5,5.03928611907959,-0.1005,-0.00825,-0.001,0.7821614730449322,10,1,100,-0.3551834746478809,-10,-1,-100,18868.98932031158,0.02437320231857809,0.07493175319986474,0.9968907559863981,69.77654147114836,4.366211050371841,466.0550460052223,-116.00973595077834,-138.8372039794922,4761.76025390625,True
1599386330.3776932,0.0,10,0.5,0.5,5.878241299057008,-0.1005,-0.00825,-0.001,0.7142414331433475,10,1,100,-0.4511452055098535,-10,-1,-100,18864.338033433538,0.026114951467209227,0.07391614954626702,0.9969224704790834,71.15313829144192,4.457436724961241,476.857530243988,-116.37296557121721,-146.60324096679688,4761.76025390625,True
1599386330.4116023,0.0,10,0.5,0.5,7.050838389205933,-0.1005,-0.00825,-0.001,0.6474112780444972,10,1,100,-0.4948148547274812,-10,-1,-100,18857.333866686677,0.028075019544565656,0.07238789858446713,0.996981336543517,72.44898710531324,4.545300654136355,487.9953068625353,-116.91766343849125,-157.69287109375,4761.76025390625,True
1599386330.4462535,0.0,10,0.5,0.5,7.100401541519165,-0.1005,-0.00825,-0.001,0.799767405581072,10,1,100,-0.3010670766247147,-10,-1,-100,18857.333866686677,0.028075019544565656,0.07238789858446713,0.996981336543517,72.44898710531324,4.545300654136355,487.9953068625353,-116.91766343849125,-157.69287109375,4761.76025390625,True
1599386330.4781427,0.0,10,0.5,0.5,7.859845937347413,-0.1005,-0.00825,-0.001,0.6923797465325967,10,1,100,-0.40200539813556746,-10,-1,-100,18852.64626710571,0.02897839521974095,0.07141642836440423,0.9970255495072133,72.72603991387463,4.566362939928985,491.5042518795513,-117.28075206625672,-164.7120819091797,4761.76025390625,True
1599386330.5160737,0.0,10,0.5,0.5,8.25041563949585,-0.1005,-0.00825,-0.001,0.739626800647534,10,1,100,-0.3512169268835058,-10,-1,-100,18850.29702116328,0.029322865778435316,0.0709684566732425,0.9970474651188668,72.71087526871094,4.567045003241373,492.22392033762924,-117.46229556442064,-168.10916137695312,4761.76025390625,True
1599386330.5469334,0.0,10,0.5,0.5,9.280724984550476,-0.1005,-0.00825,-0.001,0.6417058362667389,10,1,100,-0.3748304108442208,-10,-1,-100,18843.227496860898,0.02983956297736763,0.06967671268596752,0.9971232402218879,72.14268102219539,4.535671081170158,490.82989537088844,-118.00696041872888,-177.85211181640625,4761.76025390625,True
1599386330.5809035,0.0,10,0.5,0.5,-26.901823625564578,-0.1005,-0.00825,-0.001,0.7317629533869949,10,1,100,-0.3289847270350505,-10,-1,-100,18840.86372611532,0.029880913144791004,0.06932796893767848,0.9971463101032916,71.80392643939946,4.515709028380735,489.3407337041234,-118.18853511131914,179.05075073242188,4761.76025390625,True
1599386330.6128247,0.0,10,0.5,0.5,-25.899752174377443,-0.1005,-0.00825,-0.001,0.6722024976597631,10,1,100,-0.29251464265840155,-10,-1,-100,18833.75062199775,0.02957899091224662,0.06847577263088384,0.9972141955764652,70.4424984373485,4.434098000616393,482.46874159092044,-118.7333425966922,170.20977783203125,4761.76025390625,True
1599386330.645237,0.0,10,0.5,0.5,-25.86065172157288,-0.1005,-0.00825,-0.001,0.7347371854691385,10,1,100,-0.29766036371485516,-10,-1,-100,18831.372322248062,0.029343602840243888,0.06827662275424125,0.9972348047263638,69.89680253555713,4.401175425986524,479.52871944901096,-118.91497635060631,167.32467651367188,4761.76025390625,True
1599386330.6771505,0.0,10,0.5,0.5,-26.11282566146851,-0.1005,-0.00825,-0.001,0.7539427937385609,10,1,100,-0.3217942807772133,-10,-1,-100,18831.372322248062,0.029343602840243888,0.06827662275424125,0.9972348047263638,69.89680253555713,4.401175425986524,479.52871944901096,-118.91497635060631,167.32467651367188,4761.76025390625,True
1599386330.7150462,0.0,10,0.5,0.5,-25.763462298202516,-0.1005,-0.00825,-0.001,0.7250986927970318,10,1,100,-0.25274500455588994,-10,-1,-100,18826.604823572095,0.02871136360139398,0.06802045377335973,0.9972707132311742,68.62627521674145,4.324250140778179,472.38026195631346,-119.27829729351242,161.3941650390625,4761.76025390625,True
1599386330.749956,0.0,10,0.5,0.5,-25.394124382400516,-0.1005,-0.00825,-0.001,0.7458519863864204,10,1,100,-0.22139496788222587,-10,-1,-100,18821.822789702448,0.027849239948920586,0.06798159891043726,0.9972978101068145,67.06284043051912,4.22922730939893,463.1526252817768,-119.64169900049114,155.19351196289062,4761.76025390625,True
1599386330.7788782,0.0,10,0.5,0.5,-25.000154398727418,-0.1005,-0.00825,-0.001,0.7719220219465807,10,1,100,-0.19149635724849787,-10,-1,-100,18817.026217932114,0.026793890876906923,0.06818728235803104,0.9973126801240936,66.73497545187406,4.212629991883892,462.41520224792004,-120.00514740706278,148.70777893066406,4761.76025390625,True
1599386330.8117876,0.0,10,0.5,0.5,-24.91930367126465,-0.1005,-0.00825,-0.001,0.7706490292897652,10,1,100,-0.23127048382480925,-10,-1,-100,18814.622481118655,0.026197230260922477,0.06836651339189655,0.9973162612598332,67.8132439906465,4.282986247580777,470.6621456353595,-120.18682483450007,145.35687255859375,4761.76025390625,True
1599386330.8467906,0.0,10,0.5,0.5,-24.476372819137573,-0.1005,-0.00825,-0.001,0.8142340563109733,10,1,100,-0.14541102740024114,-10,-1,-100,18809.80411032797,0.02487679933794856,0.06892845086376027,0.9973113924528395,69.979197668467,4.424828958136894,487.29447579526914,-120.55006932236394,138.4397430419922,4761.76025390625,True
1599386330.8787413,0.0,10,0.5,0.5,-23.62843868255615,-0.1005,-0.00825,-0.001,0.9084917080984398,10,1,100,-0.029302755716695716,-10,-1,-100,18802.549320762162,0.02262491972579503,0.07029804540516743,0.9972694208786381,73.00497449741417,4.624349376155565,510.8636835826321,-121.09466486595986,127.52590942382812,4761.76025390625,True
1599386330.9116547,0.0,10,0.5,0.5,-23.116425720977784,-0.1005,-0.00825,-0.001,0.9120934282654356,10,1,100,-0.07109410159081245,-10,-1,-100,18797.69464689202,0.020964236534739764,0.07157530941458372,0.9972148594303646,74.87394864547237,4.748127001845084,525.6495319457338,-121.45756328437645,119.89178466796875,4761.76025390625,True
1599386331.0871508,0.0,10,0.5,0.5,-21.438546064758302,-0.1005,-0.00825,-0.001,1.176104011012208,10,1,100,0.1611406377334214,-10,-1,-100,18787.941763665644,0.01735140570956926,0.07513451168404472,0.9970224339872709,77.38632016375831,4.91707364820352,546.8206533429671,-122.18308171492752,103.76658630371094,4761.76025390625,True
1599386331.120062,0.0,10,0.5,0.5,-19.647379204940794,-0.1005,-0.00825,-0.001,1.3654561576449682,10,1,100,0.20524108552968098,-10,-1,-100,18778.13084664254,0.01367721687508706,0.08008547986289513,0.9966941605395717,77.72855362622522,4.946599600779101,552.8087863495479,-122.90849427496211,86.50080871582031,4761.76025390625,True
1599386331.1529713,0.0,10,0.5,0.5,-18.678369344329838,-0.1005,-0.00825,-0.001,1.2023004047628543,10,1,100,0.030707221573445104,-10,-1,-100,18773.203623440117,0.011937958866946438,0.08309239058373205,0.9964703406349693,76.88554463556028,4.896868292208822,548.5911479172972,-123.27127073658299,77.44075012207031,4761.76025390625,True
1599386331.1829264,0.0,10,0.5,0.5,-17.6649015750885,-0.1005,-0.00825,-0.001,1.2793288950530324,10,1,100,0.04388379484019431,-10,-1,-100,18768.261886502034,0.010252851506187514,0.08651273590728588,0.9961979851223492,75.27913392477646,4.799132266281515,538.8773819969414,-123.63414822914284,68.09716796875,4761.76025390625,True
1599386331.2158444,0.0,10,0.5,0.5,-17.112263232803347,-0.1005,-0.00825,-0.001,1.1418815801961488,10,1,100,-0.0370407694004746,-10,-1,-100,18765.78557374759,0.009473394045953851,0.08835580853715048,0.9960439276974669,74.17769737878281,4.731613873396387,531.8560738339403,-123.81563543632736,63.3187255859375,4761.76025390625,True
1599386331.2457583,0.0,10,0.5,0.5,-15.54286392631531,-0.1005,-0.00825,-0.001,1.6206974127827625,10,1,100,0.10463562350317451,-10,-1,-100,18758.33485300734,0.0074935344610745904,0.09436567830633596,0.9955094001058281,74.17467666711254,4.741807572050105,534.4237886927488,-124.36016747770856,48.55635070800781,4761.76025390625,True
1599386331.2788928,0.0,10,0.5,0.5,-15.475001372909546,-0.1005,-0.00825,-0.001,1.0223282754590448,10,1,100,-0.09142029934316835,-10,-1,-100,18758.33485300734,0.0074935344610745904,0.09436567830633596,0.9955094001058281,74.17467666711254,4.741807572050105,534.4237886927488,-124.36016747770856,48.55635070800781,4761.76025390625,True
1599386331.3133416,0.0,10,0.5,0.5,-14.360075115966797,-0.1005,-0.00825,-0.001,1.5063050330480314,10,1,100,0.018694573945036985,-10,-1,-100,18753.349563437747,0.006509493518272585,0.09874183140722272,0.9950917933660609,78.05979447606613,4.998997692579313,564.2272515850655,-124.72290192940694,38.35865783691406,4761.76025390625,True
1599386331.3482432,0.0,10,0.5,0.5,-13.759348667144778,-0.1005,-0.00825,-0.001,1.3249855659524445,10,1,100,-0.035678979448261865,-10,-1,-100,18750.85147983313,0.006125913424591367,0.10104469054302946,0.9948630276062016,79.80944885251459,5.115722478727544,577.7979833531246,-124.90417273084968,33.153167724609375,4761.76025390625,True
