Timestamp,Input Throttle,horizon,dT,dt,Input Roll,Roll P,Roll I,Roll D,Input Pitch,Pitch P,Pitch I,Pitch D,Input Yaw,Yaw P,Yaw I,Yaw D,Altitude,Direction X,Direction Y,Direction Z,Drag X,Drag Y,Drag Z,Vertical Velocity,Roll,Mass,Has Fuel
1599384840.325996,0.0,10,0.5,0.5,-0.05499404907226563,-0.001,-0.00825,-0.5,-0.00016339027168874856,10,1,100,0.4982113719462663,-10,-1,-100,19348.346775289392,-0.048847885531623815,-0.00017637436208348565,0.9988062139229881,61.16636797747542,3.691904724889442,234.71031671590652,-68.84811678583984,-33.922576904296875,4761.76025390625,True
1599384840.3579478,0.0,10,0.5,0.5,-0.10176030349731446,-0.001,-0.00825,-0.5,-0.0008775735093524244,10,1,100,0.4990070393209092,-10,-1,-100,19346.96616379125,-0.04889918912663753,-0.00016815792983175128,0.9988037049519131,61.25619971286852,3.6980023942931397,235.70169704277643,-69.03057006402811,-33.923736572265625,4761.76025390625,True
1599384840.3894248,0.0,10,0.5,0.5,-0.14611089782714845,-0.001,-0.00825,-0.5,0.011918152283187176,10,1,100,0.509756409442711,-10,-1,-100,19342.802435641992,-0.04899909649673307,-4.4210795189058445e-05,0.9987988218795163,61.527356211618226,3.7164181997769825,238.69472966866837,-69.57790932358692,-33.9287109375,4761.76025390625,True
1599384840.4218528,0.0,10,0.5,0.5,-0.19485689392089844,-0.001,-0.00825,-0.5,-0.000480982260601014,10,1,100,0.5046655820828301,-10,-1,-100,19342.802435641992,-0.04899909649673307,-4.4210795189058445e-05,0.9987988218795163,61.527356211618226,3.7164181997769825,238.69472966866837,-69.57790932358692,-33.9287109375,4761.76025390625,True
1599384840.455645,0.0,10,0.5,0.5,-0.2371099090576172,-0.001,-0.00825,-0.5,0.011150171003201096,10,1,100,0.5089413438975815,-10,-1,-100,19341.40722849965,-0.04899342242550651,6.156715338658715e-05,0.9987990993030187,61.616619782719255,3.7224965021677865,239.692218399641,-69.76034887130922,-33.93670654296875,4761.76025390625,True
1599384840.4921951,0.0,10,0.5,0.5,-0.22612625579833984,-0.001,-0.00825,-0.5,0.07176851775960136,10,1,100,0.4971449252901954,-10,-1,-100,19335.78991383838,-0.04883648453484657,0.0007087488342831887,0.9988065355479846,61.94879902759014,3.745349367481405,243.60499809513516,-70.49007293264779,-34.058929443359375,4761.76025390625,True
1599384840.5222342,0.0,10,0.5,0.5,-0.33338908920288085,-0.001,-0.00825,-0.5,0.00712122455336953,10,1,100,0.5177223628096738,-10,-1,-100,19335.78991383838,-0.04883648453484657,0.0007087488342831887,0.9988065355479846,61.94879902759014,3.745349367481405,243.60499809513516,-70.49007293264779,-34.058929443359375,4761.76025390625,True
1599384840.5560331,0.0,10,0.5,0.5,-0.25858676757812504,-0.001,-0.00825,-0.5,0.10201323116697036,10,1,100,0.48103045908427267,-10,-1,-100,19331.5386186298,-0.04845852496958397,0.0015707591227393024,0.9988239605023252,62.17342274507478,3.7610529780735313,246.4626841059223,-71.0373299576911,-34.30035400390625,4761.76025390625,True
1599384840.5892127,0.0,10,0.5,0.5,-0.42525125579833983,-0.001,-0.00825,-0.5,0.015969278233632915,10,1,100,0.5236722681074908,-10,-1,-100,19331.5386186298,-0.04845852496958397,0.0015707591227393024,0.9988239605023252,62.17342274507478,3.7610529780735313,246.4626841059223,-71.0373299576911,-34.30035400390625,4761.76025390625,True
1599384840.6243405,0.0,10,0.5,0.5,-0.34731421203613283,-0.001,-0.00825,-0.5,0.10014862363154287,10,1,100,0.48673723443177275,-10,-1,-100,19328.686180515564,-0.04807869873165055,0.0023345979362450844,0.9988408223439544,62.31142422109016,3.770831209611519,248.32975230329058,-71.40215060608251,-34.547637939453125,4761.76025390625,True
1599384840.6462824,0.0,10,0.5,0.5,-0.25323904647827156,-0.001,-0.00825,-0.5,0.1772494440907941,10,1,100,0.44220927982799274,-10,-1,-100,19324.380162775167,-0.04728489465646612,0.003727791045483311,0.9988744877667304,62.501171932894245,3.7844771712836627,251.07320443891697,-71.94935527115751,-35.073516845703125,4761.76025390625,True
1599384840.6642342,0.0,10,0.5,0.5,-0.5152289741516114,-0.001,-0.00825,-0.5,0.03832054970772812,10,1,100,0.5214333882589199,-10,-1,-100,19324.380162775167,-0.04728489465646612,0.003727791045483311,0.9988744877667304,62.501171932894245,3.7844771712836627,251.07320443891697,-71.94935527115751,-35.073516845703125,4761.76025390625,True
1599384840.6892254,0.0,10,0.5,0.5,-0.4016593727111817,-0.001,-0.00825,-0.5,0.09672426227714598,10,1,100,0.48533046583696127,-10,-1,-100,19322.937527615693,-0.04695815381123938,0.004255192115227732,0.9988877940643296,62.56007727556232,3.788767023225582,251.97318074468657,-72.13174968947142,-35.298309326171875,4761.76025390625,True
1599384840.723028,0.0,10,0.5,0.5,-0.3875533798217774,-0.001,-0.00825,-0.5,0.10601932255032803,10,1,100,0.4785119441963609,-10,-1,-100,19321.49124475359,-0.04660098552128733,0.004815239633014846,0.9989019779816843,62.61678813802713,3.792925016300463,252.8656924804572,-72.31414048400572,-35.548553466796875,4761.76025390625,True
1599384840.758059,0.0,10,0.5,0.5,-0.05738427658081058,-0.001,-0.00825,-0.5,0.2567670243092856,10,1,100,0.37604197835122294,-10,-1,-100,19317.13050980773,-0.04534692203271644,0.006690389710240742,0.9989488952632581,62.77160531628689,3.8044691324219397,255.48896091339307,-72.86129122749999,-36.45465087890625,4761.76025390625,True
1599384840.7892852,0.0,10,0.5,0.5,-0.1320093955993652,-0.001,-0.00825,-0.5,0.2234441346553444,10,1,100,0.3912665719455164,-10,-1,-100,19314.205115451594,-0.04434858471250265,0.008086110035813132,0.9989833921835171,62.862272019190314,3.8113941573963794,257.19262800345797,-73.22604012154164,-37.205841064453125,4761.76025390625,True
1599384840.8233166,0.0,10,0.5,0.5,-0.5050082862854004,-0.001,-0.00825,-0.5,0.08460983821825832,10,1,100,0.4906515139846608,-10,-1,-100,19314.205115451594,-0.04434858471250265,0.008086110035813132,0.9989833921835171,62.862272019190314,3.8113941573963794,257.19262800345797,-73.22604012154164,-37.205841064453125,4761.76025390625,True
1599384840.855231,0.0,10,0.5,0.5,-0.0936524711608886,-0.001,-0.00825,-0.5,0.2434310595949351,10,1,100,0.3632826734052611,-10,-1,-100,19311.265131618013,-0.04319476607071024,0.009523232629054258,0.9990212811669177,62.93923547849929,3.8174712725436253,258.844293167372,-73.5907742828859,-38.021728515625,4761.76025390625,True
1599384840.8923073,0.0,10,0.5,0.5,-0.2878394172668457,-0.001,-0.00825,-0.5,0.18481331931602396,10,1,100,0.4096172679659762,-10,-1,-100,19309.789668674814,-0.04257184885499534,0.010289589644459439,0.9990404206187135,62.96997847204926,3.820032815317121,259.63962698323184,-73.77313601928763,-38.4422607421875,4761.76025390625,True
1599384840.9122524,0.0,10,0.5,0.5,-0.03169767379760746,-0.001,-0.00825,-0.5,0.2911348879995491,10,1,100,0.3241789318697004,-10,-1,-100,19306.827801806852,-0.04123419985448346,0.011944911346021905,0.9990781049824364,63.017059386934896,3.824263954929131,261.1729044349,-74.13784895185464,-39.36639404296875,4761.76025390625,True
1599384840.955572,0.0,10,0.5,0.5,0.2746917709350586,-0.001,-0.00825,-0.5,0.40207719705955625,10,1,100,0.20388444694746388,-10,-1,-100,19302.357648638426,-0.0389307913537043,0.014449579053978959,0.9991374295609874,63.05384059154111,3.8284972281857983,263.3360896677418,-74.68489268271382,-40.892303466796875,4761.76025390625,True
1599384840.9895623,0.0,10,0.5,0.5,-0.2116032806396484,-0.001,-0.00825,-0.5,0.25009777475478434,10,1,100,0.3413387650131866,-10,-1,-100,19300.86030382337,-0.03809396297477778,0.015335171505706995,0.9991564854915205,63.05505736978214,3.8292194044401273,264.0116491205068,-74.86723402181946,-41.4349365234375,4761.76025390625,True
1599384841.025558,0.0,10,0.5,0.5,0.0779417655944824,-0.001,-0.00825,-0.5,0.354781662109257,10,1,100,0.22665389548128267,-10,-1,-100,19297.85467408446,-0.03629897557244699,0.017081375091900212,0.9991949814712646,63.03985171305398,3.8295613129172907,265.2889275341626,-75.23190739275515,-42.5439453125,4761.76025390625,True
1599384841.0567403,0.0,10,0.5,0.5,0.07986063842773433,-0.001,-0.00825,-0.5,0.3755275359695869,10,1,100,0.19185613915468686,-10,-1,-100,19294.834457660094,-0.03436051576575794,0.018845771584463707,0.9992318008598892,62.997744406795285,3.82822632106784,266.4521875236906,-75.59656909425834,-43.64263916015625,4761.76025390625,True
1599384841.091711,0.0,10,0.5,0.5,-0.4628086647033692,-0.001,-0.00825,-0.5,0.20049093990838232,10,1,100,0.38447807284803914,-10,-1,-100,19294.834457660094,-0.03436051576575794,0.018845771584463707,0.9992318008598892,62.997744406795285,3.82822632106784,266.4521875236906,-75.59656909425834,-43.64263916015625,4761.76025390625,True
1599384841.1246226,0.0,10,0.5,0.5,0.3642947959899902,-0.001,-0.00825,-0.5,0.48751700167484174,10,1,100,0.03331246759781653,-10,-1,-100,19290.27678426064,-0.031178088814634967,0.021444049071545863,0.9992837832854508,62.884332229602364,3.823090731326895,267.98032525520586,-76.14354173238122,-45.281707763671875,4761.76025390625,True
1599384841.1583407,0.0,10,0.5,0.5,0.09734306716918945,-0.001,-0.00825,-0.5,0.4218553789186144,10,1,100,0.09651191764360717,-10,-1,-100,19287.220103317057,-0.02887148703757388,0.023197052090167817,0.9993139316603994,62.775742357226896,3.8176105036527206,268.85429385994445,-76.50817826088496,-46.371368408203125,4761.76025390625,True
1599384841.1906261,0.0,10,0.5,0.5,0.09763103713989257,-0.001,-0.00825,-0.5,0.4196162342828164,10,1,100,0.05878814150087647,-10,-1,-100,19284.148837037385,-0.02644570300047073,0.024756598117631107,0.999343652425157,62.64173561388308,3.8105425493479146,269.61461919623497,-76.87280628006502,-47.4443359375,4761.76025390625,True
1599384841.223637,0.0,10,0.5,0.5,-0.43107907638549803,-0.001,-0.00825,-0.5,0.26518496808534503,10,1,100,0.2996916389041676,-10,-1,-100,19284.148837037385,-0.02644570300047073,0.024756598117631107,0.999343652425157,62.64173561388308,3.8105425493479146,269.61461919623497,-76.87280628006502,-47.4443359375,4761.76025390625,True
1599384841.2567706,0.0,10,0.5,0.5,0.0870716346740723,-0.001,-0.00825,-0.5,0.4384213308183544,10,1,100,0.01607315528779757,-10,-1,-100,19281.062985942,-0.02388201328200784,0.026318322316591945,0.9993682981524068,62.482944926940085,3.8019280238300697,270.26240170380004,-77.2374267092141,-48.4637451171875,4761.76025390625,True
1599384841.2937033,0.0,10,0.5,0.5,-0.1658049171447754,-0.001,-0.00825,-0.5,0.36462113328202106,10,1,100,0.12527720009403343,-10,-1,-100,19279.51459114533,-0.02255992502398234,0.027054093964434613,0.9993793703007261,62.394749600948636,3.7970715337039347,270.5457322580914,-77.4197343270607,-48.961395263671875,4761.76025390625,True
1599384841.3233738,0.0,10,0.5,0.5,0.6656574119567871,-0.001,-0.00825,-0.5,0.6019956736284016,10,1,100,-0.3625658306726951,-10,-1,-100,19273.284551144694,-0.016937972570015915,0.0298694689975219,0.9994102860722535,61.98219809924211,3.773910587981914,271.3993986120614,-78.1489500487062,-51.1043701171875,4761.76025390625,True
1599384841.356679,0.0,10,0.5,0.5,-0.12155967178344729,-0.001,-0.00825,-0.5,0.39480278503150146,10,1,100,0.034588584442081655,-10,-1,-100,19271.717925965437,-0.015456834104185102,0.030532116133545967,0.9994142665400987,61.86386712058229,3.7671687890628833,271.54083614133896,-78.33125090033369,-51.655853271484375,4761.76025390625,True
1599384841.3896978,0.0,10,0.5,0.5,-0.38978392486572266,-0.001,-0.00825,-0.5,0.3298831455332594,10,1,100,0.18061821687833676,-10,-1,-100,19271.717925965437,-0.015456834104185102,0.030532116133545967,0.9994142665400987,61.86386712058229,3.7671687890628833,271.54083614133896,-78.33125090033369,-51.655853271484375,4761.76025390625,True
1599384841.4258113,0.0,10,0.5,0.5,0.16805234909057615,-0.001,-0.00825,-0.5,0.4558756949178515,10,1,100,-0.14967164624207607,-10,-1,-100,19268.573737632483,-0.012471384150055507,0.031666878996543094,0.9994206688637172,61.60875574910724,3.7525273948849382,271.7350047238453,-78.69584961867955,-52.756103515625,4761.76025390625,True
1599384841.456667,0.0,10,0.5,0.5,-0.1078016319274902,-0.001,-0.00825,-0.5,0.406221931581962,10,1,100,-0.02363978487947882,-10,-1,-100,19266.99617461802,-0.010922982141975578,0.03223542819856687,0.9994206149714849,61.473947256654974,3.7447486556229785,271.79605720734065,-78.87814767601094,-53.288543701171875,4761.76025390625,True
1599384841.4906027,0.0,10,0.5,0.5,0.7336433326721191,-0.001,-0.00825,-0.5,0.5560385186056571,10,1,100,-0.5694951023045315,-10,-1,-100,19260.649462947855,-0.004571436618650311,0.034104449737779326,0.999407818898434,60.88007086203353,3.710192237811588,271.76833403138573,-79.60733452732661,-55.48626708984375,4761.76025390625,True
1599384841.5237286,0.0,10,0.5,0.5,-0.35769857025146484,-0.001,-0.00825,-0.5,0.37022710444917245,10,1,100,0.06322944498610301,-10,-1,-100,19260.649462947855,-0.004571436618650311,0.034104449737779326,0.999407818898434,60.88007086203353,3.710192237811588,271.76833403138573,-79.60733452732661,-55.48626708984375,4761.76025390625,True
1599384841.559594,0.0,10,0.5,0.5,-0.07484736328124997,-0.001,-0.00825,-0.5,0.4141913719431233,10,1,100,-0.11927663866529002,-10,-1,-100,19259.05367022974,-0.0029321761003483922,0.034495626849887835,0.9994005473640435,60.71841732559717,3.700720766358564,271.69466781810326,-79.78963040049905,-56.03759765625,4761.76025390625,True
1599384841.590542,0.0,10,0.5,0.5,0.7425609558105468,-0.001,-0.00825,-0.5,0.4987412602797313,10,1,100,-0.6868549989226933,-10,-1,-100,19252.63404024043,0.0036964880759932698,0.035611024092380865,0.9993588899584551,60.026157921518646,3.6599361707445146,271.15999620792763,-80.51881375944784,-58.205230712890625,4761.76025390625,True
1599384841.6234617,0.0,10,0.5,0.5,-0.052094365692138656,-0.001,-0.00825,-0.5,0.4065543151396401,10,1,100,-0.21047409967458167,-10,-1,-100,19251.020017899224,0.005366739605541038,0.03577851053721389,0.9993453338509891,59.8406941787338,3.6489548354348047,270.9611201636045,-80.70111017721871,-58.766357421875,4761.76025390625,True
1599384841.6574917,0.0,10,0.5,0.5,0.23157990264892575,-0.001,-0.00825,-0.5,0.4067838771872983,10,1,100,-0.4062141868268088,-10,-1,-100,19247.781035488704,0.00863921754775969,0.0359249265815201,0.9993171486421489,59.45231377515202,3.6258914898644123,270.47228919415215,-81.06570428905727,-59.876434326171875,4761.76025390625,True
1599384841.692825,0.0,10,0.5,0.5,0.21508180923461911,-0.001,-0.00825,-0.5,0.3996084927153629,10,1,100,-0.4528652703731434,-10,-1,-100,19244.52746918064,0.012015046263727163,0.03598729634697724,0.999280017394982,59.0559834527315,3.6022963696133385,269.9307916697697,-81.43030099870106,-60.936920166015625,4761.76025390625,True
1599384841.724264,0.0,10,0.5,0.5,-0.3075042304992676,-0.001,-0.00825,-0.5,0.39391703419099183,10,1,100,-0.11802958681318723,-10,-1,-100,19244.52746918064,0.012015046263727163,0.03598729634697724,0.999280017394982,59.0559834527315,3.6022963696133385,269.9307916697697,-81.43030099870106,-60.936920166015625,4761.76025390625,True
1599384841.7573283,0.0,10,0.5,0.5,0.460979126739502,-0.001,-0.00825,-0.5,0.354933093694595,10,1,100,-0.655232218455281,-10,-1,-100,19239.619774775696,0.01687373211468446,0.035627937633179604,0.9992226614846803,58.44253343062081,3.5656614853824227,269.0000482275078,-81.97720226094394,-62.455535888671875,4761.76025390625,True
1599384841.789552,0.0,10,0.5,0.5,-0.2903267028808594,-0.001,-0.00825,-0.5,0.3912650709380223,10,1,100,-0.17229814498602541,-10,-1,-100,19239.619774775696,0.01687373211468446,0.035627937633179604,0.9992226614846803,58.44253343062081,3.5656614853824227,269.0000482275078,-81.97720226094394,-62.455535888671875,4761.76025390625,True
1599384841.82659,0.0,10,0.5,0.5,0.19904798583984373,-0.001,-0.00825,-0.5,0.34208167941620854,10,1,100,-0.5308393799380489,-10,-1,-100,19236.32974841504,0.020107928146742254,0.035177731792586195,0.9991787619898526,58.030115740327844,3.540972782311329,268.3420732447506,-82.34180772887373,-63.417236328125,4761.76025390625,True
1599384841.857646,0.0,10,0.5,0.5,-0.04035427703857425,-0.001,-0.00825,-0.5,0.3507133402943751,10,1,100,-0.37527465000672683,-10,-1,-100,19234.67926600401,0.021611445753996057,0.03484594768907115,0.9991589990297202,57.81972687293029,3.5283570913828886,267.9872019287371,-82.52411207406448,-63.8861083984375,4761.76025390625,True
1599384841.8905864,0.0,10,0.5,0.5,0.176370361328125,-0.001,-0.00825,-0.5,0.29996257661637993,10,1,100,-0.564664138844289,-10,-1,-100,19231.367362978053,0.024676199947865855,0.03408228110884725,0.9991143494468241,57.40337422808271,3.503364050654717,267.2847653726538,-82.88872435835003,-64.77279663085938,4761.76025390625,True
1599384841.9238808,0.0,10,0.5,0.5,0.17319536972045896,-0.001,-0.00825,-0.5,0.2691046653863631,10,1,100,-0.5797619503880418,-10,-1,-100,19228.040875241742,0.027574494432646864,0.033107888066317225,0.9990713262848514,56.984947741114794,3.478202542883538,266.55509591180373,-83.25334135703534,-65.63699340820312,4761.76025390625,True
1599384841.9589586,0.0,10,0.5,0.5,0.17295892868041995,-0.001,-0.00825,-0.5,0.2411123218588825,10,1,100,-0.6077193287548748,-10,-1,-100,19224.699802798685,0.03044175830727658,0.031969875937427436,0.9990251380139075,56.56685099815416,3.4530196482947644,265.80935462412833,-83.61796363379656,-66.48675537109375,4761.76025390625,True
1599384841.990268,0.0,10,0.5,0.5,-0.03561525497436527,-0.001,-0.00825,-0.5,0.28342066299584867,10,1,100,-0.4712941130568773,-10,-1,-100,19223.02379701438,0.03178533712450204,0.03132340313477258,0.9990037721449996,56.35551780160564,3.44027315647618,265.41912442016087,-83.80027693675449,-66.90579223632812,4761.76025390625,True
1599384842.0240161,0.0,10,0.5,0.5,0.16489951095581054,-0.001,-0.00825,-0.5,0.19129557581921453,10,1,100,-0.6258594896947876,-10,-1,-100,19219.660846854793,0.034390870273618236,0.029902382997523083,0.9989610180246736,55.935072419449895,3.414885190832948,264.63582903105845,-84.16490811551373,-67.712646484375,4761.76025390625,True
1599384842.056923,0.0,10,0.5,0.5,0.33429563751220703,-0.001,-0.00825,-0.5,0.06416157462676228,10,1,100,-0.7680193532579105,-10,-1,-100,19214.589073845418,0.03803155751065236,0.02746031460131893,0.998899159953251,55.32135057086001,3.3777626796205378,263.5084477991253,-84.71186621713822,-68.8448486328125,4761.76025390625,True
1599384842.0939407,0.0,10,0.5,0.5,-0.22528139572143552,-0.001,-0.00825,-0.5,0.30751571607261163,10,1,100,-0.40655228067919047,-10,-1,-100,19214.589073845418,0.03803155751065236,0.02746031460131893,0.998899159953251,55.32135057086001,3.3777626796205378,263.5084477991253,-84.71186621713822,-68.8448486328125,4761.76025390625,True
1599384842.124064,0.0,10,0.5,0.5,0.48932187957763673,-0.001,-0.00825,-0.5,-0.10863774567391582,10,1,100,-0.8645220560690542,-10,-1,-100,19207.77565930935,0.04217568471838206,0.023684526424561283,0.9988294423106379,54.527771157469914,3.329639720871273,262.0639234765299,-85.44116619644389,-70.26068115234375,4761.76025390625,True
1599384842.1581438,0.0,10,0.5,0.5,-0.046663680267334,-0.001,-0.00825,-0.5,0.1517947260651109,10,1,100,-0.5622573171818386,-10,-1,-100,19206.06318930199,0.0431722100513401,0.022630417289871498,0.9988113057492738,54.34269802362625,3.3183991702292914,261.75656554445476,-85.62349515708802,-70.59100341796875,4761.76025390625,True
1599384842.179083,0.0,10,0.5,0.5,-0.2059064552307129,-0.001,-0.00825,-0.5,0.25595090808381793,10,1,100,-0.4649112120764942,-10,-1,-100,19206.06318930199,0.0431722100513401,0.022630417289871498,0.9988113057492738,54.34269802362625,3.3183991702292914,261.75656554445476,-85.62349515708802,-70.59100341796875,4761.76025390625,True
1599384842.2240613,0.0,10,0.5,0.5,0.13282494277954102,-0.001,-0.00825,-0.5,0.0187841998627557,10,1,100,-0.6515650447474589,-10,-1,-100,19202.627309323405,0.04484946238080583,0.020485461333679296,0.9987836961014627,53.9720879755522,3.29586355484396,261.1280073570588,-85.98815802111656,-71.25607299804688,4761.76025390625,True
1599384842.257329,0.0,10,0.5,0.5,0.12672958450317381,-0.001,-0.00825,-0.5,-0.020412399435035256,10,1,100,-0.6554677447058873,-10,-1,-100,19199.17684261466,0.04639137698682135,0.01819152939786571,0.9987576825233603,53.61732789486579,3.274261424333275,260.56100147005054,-86.35282752192573,-71.89697265625,4761.76025390625,True
1599384842.2906866,0.0,10,0.5,0.5,0.3216942687988281,-0.001,-0.00825,-0.5,-0.19480426483277274,10,1,100,-0.7168026612388763,-10,-1,-100,19193.97379214305,0.04833360143117702,0.014534316460481611,0.9987254961288006,53.093570747241344,3.2423110449513035,259.7238274279138,-86.89984434834692,-72.91543579101562,4761.76025390625,True
1599384842.3270454,0.0,10,0.5,0.5,-0.18223363723754885,-0.001,-0.00825,-0.5,0.16917347295794255,10,1,100,-0.5243694011156993,-10,-1,-100,19193.97379214305,0.04833360143117702,0.014534316460481611,0.9987254961288006,53.093570747241344,3.2423110449513035,259.7238274279138,-86.89984434834692,-72.91543579101562,4761.76025390625,True
1599384842.3581324,0.0,10,0.5,0.5,0.31448957748413087,-0.001,-0.00825,-0.5,-0.24892848437931064,10,1,100,-0.6790665018791707,-10,-1,-100,19188.7379199469,0.04972489483420251,0.010748652381665029,0.9987051122857566,52.58613633665303,3.2112931636239885,258.9344252937557,-87.44687804227765,-73.89700317382812,4761.76025390625,True
1599384842.391111,0.0,10,0.5,0.5,-0.17119201965332032,-0.001,-0.00825,-0.5,0.12772255044076183,10,1,100,-0.5414705640326801,-10,-1,-100,19188.7379199469,0.04972489483420251,0.010748652381665029,0.9987051122857566,52.58613633665303,3.2112931636239885,258.9344252937557,-87.44687804227765,-73.89700317382812,4761.76025390625,True
1599384842.4240236,0.0,10,0.5,0.5,0.1263013557434082,-0.001,-0.00825,-0.5,-0.16478269692007336,10,1,100,-0.6177580351428003,-10,-1,-100,19185.22910368454,0.050407786992182194,0.008104706189493485,0.9986958339495227,52.287265563956,3.1929901561042002,258.58561490484203,-87.81157574986935,-74.48248291015625,4761.76025390625,True
1599384842.46005,0.0,10,0.5,0.5,0.10684565353393552,-0.001,-0.00825,-0.5,-0.18539197544407643,10,1,100,-0.590908593057918,-10,-1,-100,19181.705699270475,0.05077326109004522,0.005531357672220986,0.9986948883620983,52.01498594862801,3.1762896688671214,258.3566169314513,-88.17627958660202,-75.0186767578125,4761.76025390625,True
1599384842.4910626,0.0,10,0.5,0.5,-0.02712218856811524,-0.001,-0.00825,-0.5,-0.08173827871650585,10,1,100,-0.5715586888968147,-10,-1,-100,19179.938526508282,0.05092178607175461,0.004150759143816938,0.9986940186572625,51.894290992449605,3.1688749424306355,258.31483568272057,-88.35863352813035,-75.278564453125,4761.76025390625,True
1599384842.5243423,0.0,10,0.5,0.5,0.3682888725280762,-0.001,-0.00825,-0.5,-0.5376073072160714,10,1,100,-0.5463404912763163,-10,-1,-100,19172.83336411789,0.05082050737128552,-0.0012317946336863786,0.9987070434879818,51.449782930354544,3.1415122873862864,258.3155206876944,-89.08806182546745,-76.3194580078125,4761.76025390625,True
1599384842.5583556,0.0,10,0.5,0.5,-0.14743192977905273,-0.001,-0.00825,-0.5,-0.001738150658095454,10,1,100,-0.5572331910552205,-10,-1,-100,19172.83336411789,0.05082050737128552,-0.0012317946336863786,0.9987070434879818,51.449782930354544,3.1415122873862864,258.3155206876944,-89.08806182546745,-76.3194580078125,4761.76025390625,True
1599384842.5944278,0.0,10,0.5,0.5,0.22457550201416016,-0.001,-0.00825,-0.5,-0.4457127530293632,10,1,100,-0.48410056214663233,-10,-1,-100,19167.46619692433,0.050150237067579734,-0.005248184422545752,0.9987278960168943,51.17943752905994,3.1248059209157484,258.61128137102065,-89.63514514833466,-77.05364990234375,4761.76025390625,True
1599384842.625108,0.0,10,0.5,0.5,-0.1382661865234375,-0.001,-0.00825,-0.5,-0.0464177455254669,10,1,100,-0.5515034785252865,-10,-1,-100,19167.46619692433,0.050150237067579734,-0.005248184422545752,0.9987278960168943,51.17943752905994,3.1248059209157484,258.61128137102065,-89.63514514833466,-77.05364990234375,4761.76025390625,True
1599384842.6571593,0.0,10,0.5,0.5,0.10418086013793945,-0.001,-0.00825,-0.5,-0.3543383376763184,10,1,100,-0.47416141560100217,-10,-1,-100,19163.86984904227,0.04944547591768951,-0.008029478441296195,0.9987445481138979,51.03823769760816,3.116040372784048,258.99776169369653,-89.99987212127243,-77.53076171875,4761.76025390625,True
1599384842.6910865,0.0,10,0.5,0.5,-0.014246359252929691,-0.001,-0.00825,-0.5,-0.21781482933380242,10,1,100,-0.49580865649413336,-10,-1,-100,19162.066204201314,0.04900056626728458,-0.009296292205317564,0.9987554873224572,50.97312368323684,3.1119905349615498,259.2169172250459,-90.18223669854872,-77.762939453125,4761.76025390625,True
1599384842.726596,0.0,10,0.5,0.5,0.30716221542358396,-0.001,-0.00825,-0.5,-0.6594028585546469,10,1,100,-0.2875425235927846,-10,-1,-100,19154.81515169947,0.04670343294832867,-0.014444155034083774,0.998804363094291,50.798535465442264,3.1010276678726694,260.5219962057355,-90.91170103726047,-78.62982177734375,4761.76025390625,True
1599384842.7585106,0.0,10,0.5,0.5,-0.01822361450195313,-0.001,-0.00825,-0.5,-0.28695617808205304,10,1,100,-0.4395725622421246,-10,-1,-100,19152.993270225823,0.04599996797507718,-0.015715248867378795,0.9988178181727277,50.774979584338304,3.0995135085241086,260.94972565565394,-91.09406805096489,-78.83770751953125,4761.76025390625,True
1599384842.7916753,0.0,10,0.5,0.5,-0.11857342529296876,-0.001,-0.00825,-0.5,-0.16222879025823822,10,1,100,-0.5094782776655629,-10,-1,-100,19152.993270225823,0.04599996797507718,-0.015715248867378795,0.9988178181727277,50.774979584338304,3.0995135085241086,260.94972565565394,-91.09406805096489,-78.83770751953125,4761.76025390625,True
1599384842.8248394,0.0,10,0.5,0.5,0.27208475189208986,-0.001,-0.00825,-0.5,-0.6885086634123181,10,1,100,-0.14850243231773802,-10,-1,-100,19145.669271435007,0.04272270873838329,-0.02048029625374352,0.9988770332845851,51.288794530995816,3.1305785492566223,265.80917016182224,-91.82351925441034,-79.61117553710938,4761.76025390625,True
1599384842.86102,0.0,10,0.5,0.5,-0.015195610809326188,-0.001,-0.00825,-0.5,-0.34416778175283946,10,1,100,-0.3708189426830045,-10,-1,-100,19143.82915408141,0.04177189505137615,-0.02165939399408205,0.9988923763026856,51.62657784256633,3.1511221395752957,268.118749975754,-92.00586709534325,-79.80255126953125,4761.76025390625,True
1599384842.8819413,0.0,10,0.5,0.5,-0.1080099250793457,-0.001,-0.00825,-0.5,-0.22830076765502635,10,1,100,-0.46499545015172766,-10,-1,-100,19143.82915408141,0.04177189505137615,-0.02165939399408205,0.9988923763026856,51.62657784256633,3.1511221395752957,268.118749975754,-92.00586709534325,-79.80255126953125,4761.76025390625,True
1599384842.9018874,0.0,10,0.5,0.5,0.08727955093383788,-0.001,-0.00825,-0.5,-0.4670964363983775,10,1,100,-0.24643860183183142,-10,-1,-100,19140.13797897019,0.039793240623304284,-0.02381169316505761,0.9989241719316381,52.319672225993415,3.1932771905001016,272.8520819234157,-92.37054039569766,-80.18661499023438,4761.76025390625,True
1599384842.9248269,0.0,10,0.5,0.5,0.08220613555908203,-0.001,-0.00825,-0.5,-0.4892299101631159,10,1,100,-0.20312317162017757,-10,-1,-100,19136.432217646274,0.03761010268353689,-0.025952666255858,0.9989554240757421,53.011840508432556,3.235370937861078,277.6117491829824,-92.73518349353532,-80.55462646484375,4761.76025390625,True
1599384842.9575102,0.0,10,0.5,0.5,-0.004759745788574216,-0.001,-0.00825,-0.5,-0.39301557371203744,10,1,100,-0.29172650385407456,-10,-1,-100,19134.573867722298,0.03644231678986019,-0.027005507387181906,0.9989708004329998,53.359737811182356,3.256526325666169,280.0128030243405,-92.91749383314233,-80.7425537109375,4761.76025390625,True
1599384842.9935114,0.0,10,0.5,0.5,-0.09607364044189454,-0.001,-0.00825,-0.5,-0.28962906347423545,10,1,100,-0.4072047773089623,-10,-1,-100,19134.573867722298,0.03644231678986019,-0.027005507387181906,0.9989708004329998,53.359737811182356,3.256526325666169,280.0128030243405,-92.91749383314233,-80.7425537109375,4761.76025390625,True
1599384843.0243442,0.0,10,0.5,0.5,0.26580556182861326,-0.001,-0.00825,-0.5,-0.6999601212471787,10,1,100,0.13445939551547076,-10,-1,-100,19127.10400869313,0.03152951362734482,-0.03071969044404333,0.9990306253511178,54.76624523467368,3.3420406642150224,289.7746724628535,-93.64665951811865,-81.4599609375,4761.76025390625,True
1599384843.0583167,0.0,10,0.5,0.5,-0.09056318664550782,-0.001,-0.00825,-0.5,-0.3301693691020321,10,1,100,-0.3553035288039678,-10,-1,-100,19127.10400869313,0.03152951362734482,-0.03071969044404333,0.9990306253511178,54.76624523467368,3.3420406642150224,289.7746724628535,-93.64665951811865,-81.4599609375,4761.76025390625,True
1599384843.0923967,0.0,10,0.5,0.5,0.001990553283691396,-0.001,-0.00825,-0.5,-0.4294484206132312,10,1,100,-0.20576969768158038,-10,-1,-100,19125.22743007273,0.03018327012109378,-0.03160858687452999,0.9990444772083935,55.117624770753494,3.363399147473652,292.2337685654691,-93.82893214114708,-81.640380859375,4761.76025390625,True
1599384843.1272655,0.0,10,0.5,0.5,0.27164852294921876,-0.001,-0.00825,-0.5,-0.685209319689783,10,1,100,0.2779911954397456,-10,-1,-100,19117.684663631255,0.02457596490326622,-0.03472732513202547,0.999094607551381,56.537484440602974,3.4496888008174023,302.22693311872524,-94.55794716772286,-82.35406494140625,4761.76025390625,True
1599384843.1582937,0.0,10,0.5,0.5,-0.08293063430786134,-0.001,-0.00825,-0.5,-0.3747601968280633,10,1,100,-0.28092465195949856,-10,-1,-100,19117.684663631255,0.02457596490326622,-0.03472732513202547,0.999094607551381,56.537484440602974,3.4496888008174023,302.22693311872524,-94.55794716772286,-82.35406494140625,4761.76025390625,True
1599384843.1922746,0.0,10,0.5,0.5,0.18161531295776367,-0.001,-0.00825,-0.5,-0.5841497766600642,10,1,100,0.2039686505858312,-10,-1,-100,19111.989318844862,0.02018347663480696,-0.03661898682946371,0.9991254561237621,57.60743658959928,3.5146961925281537,309.83430917634445,-95.1046291798599,-82.87789916992188,4761.76025390625,True
1599384843.2243042,0.0,10,0.5,0.5,-0.07776463928222656,-0.001,-0.00825,-0.5,-0.3964795661997782,10,1,100,-0.23312133441843805,-10,-1,-100,19111.989318844862,0.02018347663480696,-0.03661898682946371,0.9991254561237621,57.60743658959928,3.5146961925281537,309.83430917634445,-95.1046291798599,-82.87789916992188,4761.76025390625,True
1599384843.2605875,0.0,10,0.5,0.5,0.09144547729492188,-0.001,-0.00825,-0.5,-0.5266837964589515,10,1,100,0.118051618084175,-10,-1,-100,19108.174200998503,0.01700882230659093,-0.03779101865576128,0.9991409004102987,58.30313404153684,3.55695272760649,314.85183459625085,-95.46904664762896,-83.21121215820312,4761.76025390625,True
1599384843.2917695,0.0,10,0.5,0.5,0.08091340560913085,-0.001,-0.00825,-0.5,-0.5057842515043166,10,1,100,0.13430784654491645,-10,-1,-100,19104.344507226488,0.013993717458912295,-0.0386557441324443,0.9991545973057661,58.994968379164106,3.598969624328046,319.8805716328636,-95.8334348888359,-83.51846313476562,4761.76025390625,True
1599384843.3246443,0.0,10,0.5,0.5,0.0034253936767578153,-0.001,-0.00825,-0.5,-0.4681130722567066,10,1,100,0.015101655073966824,-10,-1,-100,19102.424194892403,0.012356813519241212,-0.03908880181195489,0.9991593340066218,59.329645630726525,3.619290880662161,322.3459016167875,-96.01561840013663,-83.66586303710938,4761.76025390625,True
1599384843.3588247,0.0,10,0.5,0.5,0.07068886947631836,-0.001,-0.00825,-0.5,-0.4962027778641813,10,1,100,0.1970762989502232,-10,-1,-100,19098.57263944985,0.009236299996365733,-0.0397268667584645,0.9991678872041136,59.99074800993692,3.659428628382912,327.2549158781575,-96.37996429212276,-83.94241333007812,4761.76025390625,True
1599384843.3937852,0.0,10,0.5,0.5,0.05989521789550781,-0.001,-0.00825,-0.5,-0.48480512406740994,10,1,100,0.23271085265589175,-10,-1,-100,19094.706511136028,0.006095785590637382,-0.04019512242412584,0.9991732550120338,60.62914395442964,3.6981807022430697,332.07044989092986,-96.74428291153663,-84.19277954101562,4761.76025390625,True
1599384843.4256995,0.0,10,0.5,0.5,-0.0035273307800293002,-0.001,-0.00825,-0.5,-0.45818472311298697,10,1,100,0.09691626540919332,-10,-1,-100,19092.76798236987,0.004498390313160419,-0.04037019171879586,0.9991746654640409,60.939009539070724,3.7169878164423986,334.4382354102478,-96.92643228995166,-84.31155395507812,4761.76025390625,True
1599384843.4587998,0.0,10,0.5,0.5,0.05051888580322265,-0.001,-0.00825,-0.5,-0.4621429172673095,10,1,100,0.2808732111743135,-10,-1,-100,19088.87999633653,0.0013972268083238453,-0.040557364110949484,0.9991762346921678,61.544131439485405,3.7537132574489203,339.1152185620214,-97.2907117778676,-84.5335693359375,4761.76025390625,True
1599384843.4918978,0.0,10,0.5,0.5,-0.007028146362304685,-0.001,-0.00825,-0.5,-0.44704223914559754,10,1,100,0.14256986849002307,-10,-1,-100,19086.930539408582,-0.00014363804612954308,-0.04058494190363819,0.9991760815085547,61.83718995591959,3.7714981035801376,341.41197926163943,-97.4728419930736,-84.63668823242188,4761.76025390625,True
1599384843.513878,0.0,10,0.5,0.5,0.13077304763793945,-0.001,-0.00825,-0.5,-0.40845505498577894,10,1,100,0.659306078738872,-10,-1,-100,19079.09628813516,-0.006219553822486344,-0.0402538949348372,0.9991701262011511,62.9445821245064,3.838701850874817,350.3078425252791,-98.20130250919547,-85.01089477539062,4761.76025390625,True
1599384843.5599751,0.0,10,0.5,0.5,-0.011133582305908205,-0.001,-0.00825,-0.5,-0.4212161689024265,10,1,100,0.2205407666531553,-10,-1,-100,19077.128619803116,-0.007730335299797563,-0.04006564880961912,0.9991671460279392,63.205340869450104,3.8545281719668716,352.45866082695966,-98.38340306466377,-85.09759521484375,4761.76025390625,True
1599384843.5918477,0.0,10,0.5,0.5,-0.009582575988769534,-0.001,-0.00825,-0.5,-0.41480431685152425,10,1,100,0.23680945027361677,-10,-1,-100,19075.157309710397,-0.009226293937598681,-0.03983309307533979,0.9991637504414521,63.460608167822755,3.870023083097384,354.58508587783507,-98.56549807096849,-85.18356323242188,4761.76025390625,True
1599384843.6258454,0.0,10,0.5,0.5,-0.011064883422851564,-0.001,-0.00825,-0.5,-0.40767596362901704,10,1,100,0.23936133472394355,-10,-1,-100,19073.18235789542,-0.010585605179471587,-0.039555019129045264,0.9991613210211278,63.71112692631519,3.885232370586389,356.69110226184523,-98.74758755338237,-85.26315307617188,4761.76025390625,True
1599384843.662993,0.0,10,0.5,0.5,0.0533848617553711,-0.001,-0.00825,-0.5,-0.31755553569995254,10,1,100,0.5654570422247949,-10,-1,-100,19067.235652653733,-0.014763504265147073,-0.038482130492152745,0.999150221225316,64.40243058834088,3.927211521991178,362.70629763168125,-99.29382475315468,-85.46835327148438,4761.76025390625,True
1599384843.6920297,0.0,10,0.5,0.5,-0.04772818145751953,-0.001,-0.00825,-0.5,-0.4247837322572242,10,1,100,0.15037916543568508,-10,-1,-100,19067.235652653733,-0.014763504265147073,-0.038482130492152745,0.999150221225316,64.40243058834088,3.927211521991178,362.70629763168125,-99.29382475315468,-85.46835327148438,4761.76025390625,True
1599384843.7279477,0.0,10,0.5,0.5,0.08209849853515624,-0.001,-0.00825,-0.5,-0.2091644433147265,10,1,100,0.7148309414330045,-10,-1,-100,19059.25573332305,-0.019873066043066785,-0.03652308671655396,0.9991351887421157,65.22651176478979,3.9773012767340727,370.2512372969195,-100.02207223478618,-85.7249755859375,4761.76025390625,True
1599384843.758937,0.0,10,0.5,0.5,-0.04494859695434571,-0.001,-0.00825,-0.5,-0.404701617303848,10,1,100,0.20647164880440388,-10,-1,-100,19059.25573332305,-0.019873066043066785,-0.03652308671655396,0.9991351887421157,65.22651176478979,3.9773012767340727,370.2512372969195,-100.02207223478618,-85.7249755859375,4761.76025390625,True
1599384843.7950902,0.0,10,0.5,0.5,-0.01354027557373047,-0.001,-0.00825,-0.5,-0.338752106516311,10,1,100,0.3506875438020459,-10,-1,-100,19057.25165078498,-0.021161963764539687,-0.03592704307757839,0.9991303312708159,65.41349037009067,3.98867802832814,372.04195559954735,-100.20412255631445,-85.78533935546875,4761.76025390625,True
1599384843.8261354,0.0,10,0.5,0.5,0.07977789611816405,-0.001,-0.00825,-0.5,-0.10208710059194709,10,1,100,0.7380338624072441,-10,-1,-100,19049.198912332184,-0.025834510779950616,-0.03323789455286399,0.9991135172834233,66.10093071292205,4.030570475399355,378.9051387412387,-100.93228074702168,-86.02978515625,4761.76025390625,True
1599384843.8591332,0.0,10,0.5,0.5,-0.04129569931030273,-0.001,-0.00825,-0.5,-0.3702672483283096,10,1,100,0.27334824813953335,-10,-1,-100,19049.198912332184,-0.025834510779950616,-0.03323789455286399,0.9991135172834233,66.10093071292205,4.030570475399355,378.9051387412387,-100.93228074702168,-86.02978515625,4761.76025390625,True
1599384843.8921638,0.0,10,0.5,0.5,-0.008683935546875007,-0.001,-0.00825,-0.5,-0.2867768493758457,10,1,100,0.3951681516265622,-10,-1,-100,19047.176625908352,-0.026924132668962274,-0.03248526910818884,0.9991095026927693,66.25777140474493,4.040147834786785,380.54558079728423,-101.11430999396049,-86.09320068359375,4761.76025390625,True
1599384843.93017,0.0,10,0.5,0.5,0.023452197265624995,-0.001,-0.00825,-0.5,-0.18934639877551251,10,1,100,0.51040274303745,-10,-1,-100,19043.121131974156,-0.02894483631055443,-0.030922224043664244,0.9991026035954209,66.55452357213328,4.05829726662073,383.74095862486115,-101.4783567925132,-86.218994140625,4761.76025390625,True
1599384843.959046,0.0,10,0.5,0.5,0.023453705596923828,-0.001,-0.00825,-0.5,-0.15140159928609878,10,1,100,0.5363815868268875,-10,-1,-100,19039.051076587057,-0.03100008498065768,-0.029164422052403285,0.9990938050140944,66.82228292240079,4.074716630205826,386.7838925635447,-101.84238866789283,-86.34283447265625,4761.76025390625,True
1599384843.9920228,0.0,10,0.5,0.5,-0.005468179321289061,-0.001,-0.00825,-0.5,-0.22720715036065592,10,1,100,0.4358513418268318,-10,-1,-100,19037.01058839599,-0.03193602292638632,-0.028265007612913517,0.9990901760022902,66.94717814671823,4.0823932804465635,388.2585268517697,-102.02439921651346,-86.40692138671875,4761.76025390625,True
1599384844.0253448,0.0,10,0.5,0.5,0.02770710983276367,-0.001,-0.00825,-0.5,-0.11036315283647741,10,1,100,0.5376955635688896,-10,-1,-100,19032.91869178752,-0.03369712078501176,-0.02639442825668414,0.9990834991169673,67.17889031653047,4.096675691155117,391.1124949831257,-102.38840998756825,-86.53555297851562,4761.76025390625,True
1599384844.0621502,0.0,10,0.5,0.5,0.025948816680908204,-0.001,-0.00825,-0.5,-0.08145056356382999,10,1,100,0.5402244206390618,-10,-1,-100,19028.812235245015,-0.03530389606938203,-0.02444204866875652,0.999077685257356,67.38361038072432,4.109355348216251,393.82114351096743,-102.7524078172694,-86.65866088867188,4761.76025390625,True
1599384844.0933022,0.0,10,0.5,0.5,-0.0048219390869140635,-0.001,-0.00825,-0.5,-0.16247015719570618,10,1,100,0.4659797188377377,-10,-1,-100,19026.753547114786,-0.03607562101150086,-0.023414682656428282,0.9990747230336344,67.47496984378232,4.115040358560813,395.11524518595115,-102.93440191736627,-86.71856689453125,4761.76025390625,True
1599384844.126324,0.0,10,0.5,0.5,0.02555075225830078,-0.001,-0.00825,-0.5,-0.03478226143884933,10,1,100,0.5431148149533371,-10,-1,-100,19022.62525166024,-0.03746368769177939,-0.02133183123294039,0.9990702803510784,67.63697917203886,4.125180500274583,397.58933747254775,-103.29838143275632,-86.83734130859375,4761.76025390625,True
1599384844.1594422,0.0,10,0.5,0.5,0.050633375549316406,-0.001,-0.00825,-0.5,0.11364879326922259,10,1,100,0.600028839422412,-10,-1,-100,19016.40551032638,-0.03922814696545398,-0.01810222508864587,0.9990662950637945,67.82778287998029,4.137288901357695,401.0090369350542,-103.8443299753824,-87.00421142578125,4761.76025390625,True
1599384844.1944156,0.0,10,0.5,0.5,-0.031997781372070315,-0.001,-0.00825,-0.5,-0.20779825421380763,10,1,100,0.4249222756735037,-10,-1,-100,19016.40551032638,-0.03922814696545398,-0.01810222508864587,0.9990662950637945,67.82778287998029,4.137288901357695,401.0090369350542,-103.8443299753824,-87.00421142578125,4761.76025390625,True
1599384844.21536,0.0,10,0.5,0.5,0.04861630096435547,-0.001,-0.00825,-0.5,0.1561000259952875,10,1,100,0.575808119679992,-10,-1,-100,19010.15301289258,-0.04058766042352614,-0.01480781860443975,0.9990662492195012,67.95672433542944,4.1457191375107465,404.0778746743397,-104.39025602496352,-87.16351318359375,4761.76025390625,True
1599384844.2622795,0.0,10,0.5,0.5,0.017398173522949218,-0.001,-0.00825,-0.5,0.07782314820821579,10,1,100,0.5192387245114082,-10,-1,-100,19005.96648411255,-0.0412968931313732,-0.012540582008229155,0.999068216099677,68.00987940874239,4.149389398716097,405.934951979651,-104.75419529298524,-87.2584228515625,4761.76025390625,True
1599384844.2932355,0.0,10,0.5,0.5,-0.004827976989746092,-0.001,-0.00825,-0.5,-0.01849150570171093,10,1,100,0.4829731754384474,-10,-1,-100,19003.867760912282,-0.041600734186188315,-0.01137175617634198,0.9990695982145769,68.02645013653631,4.150627873415028,406.805160946158,-104.93616184097779,-87.30706787109375,4761.76025390625,True
1599384844.3289704,0.0,10,0.5,0.5,0.01858317718505859,-0.001,-0.00825,-0.5,0.1063514481824517,10,1,100,0.496966258715806,-10,-1,-100,18999.659396297764,-0.04199452622108211,-0.00919042644465767,0.9990755706297859,68.04081407834194,4.151988105303483,408.4351633433673,-105.30008892951753,-87.4007568359375,4761.76025390625,True
1599384844.3601093,0.0,10,0.5,0.5,-0.005776443481445313,-0.001,-0.00825,-0.5,0.014139676731290268,10,1,100,0.4754365249648358,-10,-1,-100,18997.549755233922,-0.04214765003389065,-0.008063028775562725,0.9990788573298833,68.03952142713153,4.152164683093517,409.2000092674644,-105.48204972279069,-87.44400024414062,4761.76025390625,True
1599384844.392472,0.0,10,0.5,0.5,-0.00535067443847656,-0.001,-0.00825,-0.5,0.029296535144818933,10,1,100,0.47379598254006805,-10,-1,-100,18995.43647498323,-0.042264257178719726,-0.006916997090336261,0.9990825229761469,68.03233382553829,4.1519897484449455,409.92967011963447,-105.66400875817803,-87.48651123046875,4761.76025390625,True
1599384844.425328,0.0,10,0.5,0.5,0.016764553070068355,-0.001,-0.00825,-0.5,0.1627469629605355,10,1,100,0.47245036766502985,-10,-1,-100,18991.1989969922,-0.04235170321051005,-0.004677896261422435,0.9990918128589266,68.00009263325833,4.150574249051224,411.28148838618495,-106.02792163715574,-87.57171630859375,4761.76025390625,True
1599384844.4612296,0.0,10,0.5,0.5,0.01727839889526367,-0.001,-0.00825,-0.5,0.18813406306837313,10,1,100,0.4560722458156402,-10,-1,-100,18986.94696273061,-0.04227660205696225,-0.002428591676334074,0.999102993119822,67.94663847946678,4.14789450054421,412.5043825552499,-106.39182812455401,-87.6563720703125,4761.76025390625,True
1599384844.491925,0.0,10,0.5,0.5,0.040621060943603515,-0.001,-0.00825,-0.5,0.33005363485525646,10,1,100,0.41780000681505874,-10,-1,-100,18980.541618799092,-0.04185602345885425,0.0008892238358482786,0.999123256951404,67.8273422942577,4.14154064525926,414.0976630249382,-106.93767710352866,-87.78610229492188,4761.76025390625,True
1599384844.5253334,0.0,10,0.5,0.5,-0.023598991394042968,-0.001,-0.00825,-0.5,0.0001712285294706191,10,1,100,0.4601206542751986,-10,-1,-100,18980.541618799092,-0.04185602345885425,0.0008892238358482786,0.999123256951404,67.8273422942577,4.14154064525926,414.0976630249382,-106.93767710352866,-87.78610229492188,4761.76025390625,True
1599384844.5592413,0.0,10,0.5,0.5,0.01907637252807617,-0.001,-0.00825,-0.5,0.23867811916836165,10,1,100,0.40813647261102587,-10,-1,-100,18976.253194637713,-0.04138105101054959,0.0030402033426341116,0.9991388120681218,67.80007885173441,4.140530375370473,415.4770211029685,-107.30156774981253,-87.8699951171875,4761.76025390625,True
1599384844.5955076,0.0,10,0.5,0.5,-0.0023346458435058587,-0.001,-0.00825,-0.5,0.13861143182069235,10,1,100,0.42384679562711847,-10,-1,-100,18974.103524514707,-0.041091357729885265,0.004069716625690535,0.9991471051484365,67.88073032193654,4.145793381320436,416.74546475545884,-107.48350680402102,-87.90982055664062,4761.76025390625,True
1599384844.6264625,0.0,10,0.5,0.5,0.015336027526855471,-0.001,-0.00825,-0.5,0.2671876349263595,10,1,100,0.3754874205291081,-10,-1,-100,18969.793268312234,-0.04038855636966441,0.006159412094307967,0.9991650645198855,68.17268163559065,4.164322012465185,420.09368417850976,-107.84736540101161,-87.9837646484375,4761.76025390625,True
1599384844.65945,0.0,10,0.5,0.5,0.03329103088378906,-0.001,-0.00825,-0.5,0.3838504830810776,10,1,100,0.3010182057503221,-10,-1,-100,18963.30059635942,-0.03907375516039878,0.009103769168757025,0.9991948573949863,68.59907820980413,4.191472066579983,425.0712477988373,-108.39310300307201,-88.09228515625,4761.76025390625,True
1599384844.693263,0.0,10,0.5,0.5,-0.020398712158203124,-0.001,-0.00825,-0.5,0.09124419519751333,10,1,100,0.43220624957081677,-10,-1,-100,18963.30059635942,-0.03907375516039878,0.009103769168757025,0.9991948573949863,68.59907820980413,4.191472066579983,425.0712477988373,-108.39310300307201,-88.09228515625,4761.76025390625,True
1599384844.728443,0.0,10,0.5,0.5,0.016020125579833986,-0.001,-0.00825,-0.5,0.2999860439092254,10,1,100,0.31650891529212855,-10,-1,-100,18958.95395823021,-0.0380247556622957,0.010985816158914117,0.9992164078917767,68.85200208836552,4.207699483235224,428.21194077608266,-108.75689550345359,-88.16390991210938,4761.76025390625,True
1599384844.7597787,0.0,10,0.5,0.5,0.030686187744140624,-0.001,-0.00825,-0.5,0.4042413982161206,10,1,100,0.2233733473194357,-10,-1,-100,18952.406718270504,-0.03622828686564698,0.013628268631620293,0.9992506099697337,69.18311834338193,4.22915510975808,432.6441050516738,-109.30253701796829,-88.2635498046875,4761.76025390625,True
1599384844.7927597,0.0,10,0.5,0.5,0.015486289978027343,-0.001,-0.00825,-0.5,0.3258488387519725,10,1,100,0.2532130854113514,-10,-1,-100,18948.023704726133,-0.03487197050256999,0.015301196552685432,0.9992746464597827,69.37100850360392,4.241492859515997,435.40605918604274,-109.66626786190479,-88.33151245117188,4761.76025390625,True
1599384844.826742,0.0,10,0.5,0.5,-0.01793804244995117,-0.001,-0.00825,-0.5,0.16032902546836061,10,1,100,0.3881042585636117,-10,-1,-100,18948.023704726133,-0.03487197050256999,0.015301196552685432,0.9992746464597827,69.37100850360392,4.241492859515997,435.40605918604274,-109.66626786190479,-88.33151245117188,4761.76025390625,True
1599384844.8630075,0.0,10,0.5,0.5,0.015169879913330075,-0.001,-0.00825,-0.5,0.32714967138679474,10,1,100,0.2316601884156696,-10,-1,-100,18943.626142556197,-0.03345610082209441,0.016804646085837708,0.9992989008238282,69.53336021355766,4.252303096011225,438.0162464969097,-110.02997582316945,-88.39669799804688,4761.76025390625,True
1599384844.893186,0.0,10,0.5,0.5,0.028138434600830077,-0.001,-0.00825,-0.5,0.41590809945578844,10,1,100,0.11212797345190195,-10,-1,-100,18937.002522612223,-0.03108992636075214,0.01896384462364882,0.9993366745376521,69.72905237378802,4.265654864982527,441.64331533374735,-110.57549645335492,-88.48663330078125,4761.76025390625,True
1599384844.9266486,0.0,10,0.5,0.5,-0.01632049026489258,-0.001,-0.00825,-0.5,0.20158060980277864,10,1,100,0.34771630712114904,-10,-1,-100,18937.002522612223,-0.03108992636075214,0.01896384462364882,0.9993366745376521,69.72905237378802,4.265654864982527,441.64331533374735,-110.57549645335492,-88.48663330078125,4761.76025390625,True
1599384844.9597144,0.0,10,0.5,0.5,0.028891891479492185,-0.001,-0.00825,-0.5,0.40388497294975056,10,1,100,0.07379352343324219,-10,-1,-100,18930.34617344942,-0.0286088114466522,0.02078943508135042,0.9993744720056683,69.86722833746124,4.275557264418614,444.9183734203179,-111.12097066798319,-88.575927734375,4761.76025390625,True
1599384844.9958165,0.0,10,0.5,0.5,-0.015266790771484375,-0.001,-0.00825,-0.5,0.22278892947829473,10,1,100,0.3207270403509351,-10,-1,-100,18930.34617344942,-0.0286088114466522,0.02078943508135042,0.9993744720056683,69.86722833746124,4.275557264418614,444.9183734203179,-111.12097066798319,-88.575927734375,4761.76025390625,True
1599384845.0268183,0.0,10,0.5,0.5,0.039241070556640625,-0.001,-0.00825,-0.5,0.4483758535003085,10,1,100,-0.06976077148414517,-10,-1,-100,18921.420133281732,-0.025068435833345785,0.022829601967084553,0.9994250261019553,69.96788074991802,4.2837436582803985,448.76472293234843,-111.84820361948663,-88.68392944335938,4761.76025390625,True
1599384845.0597293,0.0,10,0.5,0.5,-0.0013675025939941417,-0.001,-0.00825,-0.5,0.29680706757432596,10,1,100,0.17718395629091588,-10,-1,-100,18919.17953306588,-0.024107596727683284,0.023293923052244533,0.9994379505146136,69.97905174813167,4.2849492985216555,449.63797569103485,-112.03000107464975,-88.70968627929688,4761.76025390625,True
1599384845.0928,0.0,10,0.5,0.5,-0.013795655059814452,-0.001,-0.00825,-0.5,0.25160576974766097,10,1,100,0.27187615096370477,-10,-1,-100,18919.17953306588,-0.024107596727683284,0.023293923052244533,0.9994379505146136,69.97905174813167,4.2849492985216555,449.63797569103485,-112.03000107464975,-88.70968627929688,4761.76025390625,True
1599384845.1287403,0.0,10,0.5,0.5,0.013527455139160156,-0.001,-0.00825,-0.5,0.3378381851782876,10,1,100,0.06618673317512647,-10,-1,-100,18914.68742533971,-0.02224871173882163,0.024069067143049662,0.9994626930670429,69.98158317890228,4.286163975936522,451.25762605392185,-112.39358381334151,-88.76348876953125,4761.76025390625,True
1599384845.1607904,0.0,10,0.5,0.5,0.013356644439697264,-0.001,-0.00825,-0.5,0.3368050656636096,10,1,100,0.03612587684395943,-10,-1,-100,18910.18077466439,-0.020297011472085652,0.024756380802202375,0.9994874451111824,69.96235460019456,4.286066264773599,452.73668649546744,-112.75715124930092,-88.81613159179688,4761.76025390625,True
1599384845.1928027,0.0,10,0.5,0.5,0.0011801307678222638,-0.001,-0.00825,-0.5,0.30302430441808703,10,1,100,0.11863188464397059,-10,-1,-100,18907.921996003366,-0.019286043081444396,0.02506551794988235,0.9994997590555812,69.94412204582368,4.285496192085742,453.4200489627327,-112.93892967672272,-88.84356689453125,4761.76025390625,True
1599384845.2271438,0.0,10,0.5,0.5,0.04580819702148438,-0.001,-0.00825,-0.5,0.3721410244001303,10,1,100,-0.22381194471893479,-10,-1,-100,18898.85052671132,-0.015266737057326523,0.025967375655006314,0.9995462081070662,69.80842849191698,4.279408128220507,455.7396383414661,-113.66601141446371,-88.95928955078125,4761.76025390625,True
1599384845.2630818,0.0,10,0.5,0.5,0.002662890624999999,-0.001,-0.00825,-0.5,0.3005667022462823,10,1,100,0.06186973608822524,-10,-1,-100,18896.57357128663,-0.014224313396651207,0.026130203793691884,0.9995573427063071,69.76176137277551,4.277112892461578,456.2342393193314,-113.84777452000009,-88.98788452148438,4761.76025390625,True
1599384845.2942426,0.0,10,0.5,0.5,0.003273200225830079,-0.001,-0.00825,-0.5,0.299551313166829,10,1,100,0.04956155871818198,-10,-1,-100,18894.29298055137,-0.013180095377186073,0.026262483692529152,0.9995681902882605,69.70997595831732,4.274506233945425,456.69422964391737,-114.02953503270973,-89.01681518554688,4761.76025390625,True
1599384845.3272908,0.0,10,0.5,0.5,0.0030237121582031255,-0.001,-0.00825,-0.5,0.29624194084162025,10,1,100,0.04612902347119677,-10,-1,-100,18892.008754456765,-0.012213627508217419,0.0263476774443237,0.9995782246509677,69.6527836188746,4.271570088474355,457.1175364164568,-114.21129310572668,-89.04446411132812,4761.76025390625,True
1599384845.3603182,0.0,10,0.5,0.5,0.01660199661254883,-0.001,-0.00825,-0.5,0.3014240857656205,10,1,100,-0.08767274580068116,-10,-1,-100,18887.42939742119,-0.01013354534662742,0.02646718377038877,0.9995983190471922,69.52978487428348,4.26517390327209,457.90344930298585,-114.57480202629266,-89.098388671875,4761.76025390625,True
1599384845.3964252,0.0,10,0.5,0.5,0.003589128112792968,-0.001,-0.00825,-0.5,0.2913863614810583,10,1,100,0.005825388787155286,-10,-1,-100,18885.134266206296,-0.009106121778241133,0.026481266953494353,0.9996078336261163,69.46198395050897,4.261590727458267,458.2527015439263,-114.75655330000083,-89.12554931640625,4761.76025390625,True
1599384845.4273024,0.0,10,0.5,0.5,0.018010248565673827,-0.001,-0.00825,-0.5,0.28411069374689635,10,1,100,-0.11842349736424207,-10,-1,-100,18880.533098936896,-0.007056202728285843,0.026425029827915003,0.9996258939231472,69.31272006009675,4.253587246647639,458.8560577412486,-115.120049907839,-89.18075561523438,4761.76025390625,True
1599384845.4598386,0.0,10,0.5,0.5,0.018041275787353515,-0.001,-0.00825,-0.5,0.271479518136292,10,1,100,-0.13424604618608776,-10,-1,-100,18875.91739204747,-0.005064299869945526,0.026256229838404945,0.9996424176981987,69.14662096039235,4.244549678517121,459.3406644942355,-115.48353962160107,-89.23513793945312,4761.76025390625,True
1599384845.4947946,0.0,10,0.5,0.5,0.018209561157226564,-0.001,-0.00825,-0.5,0.2585378608542971,10,1,100,-0.15974820183478475,-10,-1,-100,18871.287145648268,-0.0030372635036196973,0.025983135542927343,0.9996577672872687,68.96799809403012,4.234739509225444,459.73410631872355,-115.84702359384993,-89.28897094726562,4761.76025390625,True
1599384845.5298362,0.0,10,0.5,0.5,0.030563856506347655,-0.001,-0.00825,-0.5,0.21966702896854506,10,1,100,-0.27698164300466843,-10,-1,-100,18864.314515183563,-0.00014443529447769784,0.02538038157104021,0.999677855796433,68.6758940409107,4.218527216664803,460.1468651583128,-116.39224038925244,-89.3665771484375,4761.76025390625,True
1599384845.560786,0.0,10,0.5,0.5,0.004393106079101563,-0.001,-0.00825,-0.5,0.2525259279516307,10,1,100,-0.09313601195152504,-10,-1,-100,18861.983035530895,0.0007966831517255738,0.025130854438606177,0.9996838527510292,68.5746636826487,4.212881149150235,460.25404313529657,-116.57397735337096,-89.39093017578125,4761.76025390625,True
1599384845.5942252,0.0,10,0.5,0.5,-0.007427304077148438,-0.001,-0.00825,-0.5,0.27739498907339394,10,1,100,-0.0006305093521030928,-10,-1,-100,18861.983035530895,0.0007966831517255738,0.025130854438606177,0.9996838527510292,68.5746636826487,4.212881149150235,460.25404313529657,-116.57397735337096,-89.39093017578125,4761.76025390625,True
1599384845.6274147,0.0,10,0.5,0.5,0.015732143402099608,-0.001,-0.00825,-0.5,0.21512281138513073,10,1,100,-0.20126652690952507,-10,-1,-100,18857.309172085952,0.002606991496294522,0.024565652231762953,0.9996948195953433,68.36841965876646,4.201347808078013,460.4359498701702,-116.93744888131374,-89.43649291992188,4761.76025390625,True
1599384845.6634107,0.0,10,0.5,0.5,0.015023110198974609,-0.001,-0.00825,-0.5,0.19807211092507382,10,1,100,-0.21979553098441723,-10,-1,-100,18852.620769916102,0.004406819949425785,0.0238983682499602,0.9997046803596162,68.16068354505735,4.189709254988275,460.59833761971424,-117.30091757556731,-89.4798583984375,4761.76025390625,True
1599384845.6943517,0.0,10,0.5,0.5,0.004891343688964844,-0.001,-0.00825,-0.5,0.2235713806313459,10,1,100,-0.13931651735203823,-10,-1,-100,18850.271116734017,0.005296290739743812,0.023525784635827777,0.999709201098834,68.05432924262851,4.183731629635334,460.6591503144214,-117.48265110636555,-89.502197265625,4761.76025390625,True
1599384845.727424,0.0,10,0.5,0.5,0.03952545013427734,-0.001,-0.00825,-0.5,0.07652934701903538,10,1,100,-0.41421529191024253,-10,-1,-100,18840.836158001563,0.008589953194119902,0.021853000498445078,0.9997242915290885,67.60104886049783,4.1580667406113525,460.6883160460065,-118.2095819869316,-89.59295654296875,4761.76025390625,True
1599384845.745374,0.0,10,0.5,0.5,0.005570301818847656,-0.001,-0.00825,-0.5,0.1910343662268327,10,1,100,-0.17469930834083625,-10,-1,-100,18838.468331544194,0.009390686415674143,0.021377449881309008,0.999727372659774,67.48598568670249,4.151532136179307,460.6772704493693,-118.39131434157255,-89.614990234375,4761.76025390625,True
1599384845.763328,0.0,10,0.5,0.5,-0.0050883003234863285,-0.001,-0.00825,-0.5,0.23808466994577906,10,1,100,-0.09627067509980806,-10,-1,-100,18838.468331544194,0.009390686415674143,0.021377449881309008,0.999727372659774,67.48598568670249,4.151532136179307,460.6772704493693,-118.39131434157255,-89.614990234375,4761.76025390625,True
1599384845.7938237,0.0,10,0.5,0.5,0.006248667907714843,-0.001,-0.00825,-0.5,0.18319579475670972,10,1,100,-0.18338003082588275,-10,-1,-100,18836.096870584297,0.010169448752924259,0.020882895361369374,0.9997302071025902,67.37019198837959,4.144947903384607,460.65862611952167,-118.57304667457096,-89.63699340820312,4761.76025390625,True
1599384845.827895,0.0,10,0.5,0.5,0.005563984680175781,-0.001,-0.00825,-0.5,0.17943755533903769,10,1,100,-0.1830311735379782,-10,-1,-100,18833.721774830832,0.010862236982119283,0.02040377111233774,0.9997328132716958,67.25329389496181,4.138290920471403,460.62980583083555,-118.75477908857918,-89.65701293945312,4761.76025390625,True
1599384845.8609426,0.0,10,0.5,0.5,0.025990209197998045,-0.001,-0.00825,-0.5,0.047041672390896266,10,1,100,-0.3502158840862411,-10,-1,-100,18826.57467982266,0.013001899402483879,0.018769128868651973,0.9997393012247942,66.91236452571127,4.1188918454515155,460.5947750203287,-119.29997660149608,-89.71728515625,4761.76025390625,True
1599384845.8818913,0.0,10,0.5,0.5,-0.0038766563415527345,-0.001,-0.00825,-0.5,0.20986972420247768,10,1,100,-0.13747016367485732,-10,-1,-100,18826.57467982266,0.013001899402483879,0.018769128868651973,0.9997393012247942,66.91236452571127,4.1188918454515155,460.5947750203287,-119.29997660149608,-89.71728515625,4761.76025390625,True
1599384845.9278297,0.0,10,0.5,0.5,0.016574471282958983,-0.001,-0.00825,-0.5,0.08170439452984765,10,1,100,-0.28132502800329096,-10,-1,-100,18821.79177670856,0.014298575245241677,0.017609772894873477,0.9997426902181116,66.68307226612504,4.105811365294437,460.54484137457206,-119.66344253265622,-89.757568359375,4761.76025390625,True
1599384845.960838,0.0,10,0.5,0.5,0.023973880004882812,-0.001,-0.00825,-0.5,-0.002532079270055776,10,1,100,-0.3439382486652137,-10,-1,-100,18814.590161814587,0.016035953850358112,0.01579635031992744,0.9997466296520731,66.34862849238755,4.086738823396429,460.5166779886332,-120.20864374753003,-89.81201171875,4761.76025390625,True
1599384845.9943078,0.0,10,0.5,0.5,0.01489942626953125,-0.001,-0.00825,-0.5,0.036877315893924595,10,1,100,-0.2874352624029128,-10,-1,-100,18809.77091183979,0.017091153494533107,0.014513417042312711,0.9997485949967534,66.13386187133644,4.074505351403434,460.5426519668866,-120.57211268660052,-89.84768676757812,4761.76025390625,True
1599384846.0302894,0.0,10,0.5,0.5,-0.002653069305419922,-0.001,-0.00825,-0.5,0.1642694068960459,10,1,100,-0.18309478426089232,-10,-1,-100,18809.77091183979,0.017091153494533107,0.014513417042312711,0.9997485949967534,66.13386187133644,4.074505351403434,460.5426519668866,-120.57211268660052,-89.84768676757812,4761.76025390625,True
1599384846.0622034,0.0,10,0.5,0.5,0.013106307983398437,-0.001,-0.00825,-0.5,0.023986129019318347,10,1,100,-0.2832055125397312,-10,-1,-100,18804.937123111566,0.017993522660431267,0.013244786864757127,0.9997503732248245,65.92578668336321,4.062666292511836,460.6059425977038,-120.93558283950159,-89.87872314453125,4761.76025390625,True
1599384846.094273,0.0,10,0.5,0.5,0.01142847137451172,-0.001,-0.00825,-0.5,0.004348020748749015,10,1,100,-0.28455077439233667,-10,-1,-100,18800.088795374613,0.018818267158776228,0.01192035177635283,0.9997518582301654,65.73602668616384,4.051939210133184,460.7885532681468,-121.29905382291693,-89.90591430664062,4761.76025390625,True
1599384846.1281788,0.0,10,0.5,0.5,0.0047849082946777345,-0.001,-0.00825,-0.5,0.05948424997973939,10,1,100,-0.24567500814169815,-10,-1,-100,18797.65917951602,0.019206048299772113,0.011226155687271524,0.9997525199454071,65.64715043043988,4.046940004453137,460.91895112742037,-121.48078945742111,-89.9193115234375,4761.76025390625,True
1599384846.1641889,0.0,10,0.5,0.5,0.011483305358886718,-0.001,-0.00825,-0.5,-0.022312912343668084,10,1,100,-0.2807111457158915,-10,-1,-100,18792.789043699973,0.019868871860854814,0.009860236621233994,0.9997539715673803,65.47330818585817,4.037172272649471,461.2016169285562,-121.84426105258933,-89.94558715820312,4761.76025390625,True
1599384846.1981368,0.0,10,0.5,0.5,0.016487339782714844,-0.001,-0.00825,-0.5,-0.11475186189783776,10,1,100,-0.3021361933375287,-10,-1,-100,18785.45657953329,0.020658024044873304,0.007787722960244792,0.9997562690044289,65.37617901639804,4.032590152872425,462.7701507114734,-122.38946406649752,-89.9813232421875,4761.76025390625,True
