Timestamp,Input Throttle,horizon,dT,dt,Input Roll,Roll P,Roll I,Roll D,Input Pitch,Pitch P,Pitch I,Pitch D,Input Yaw,Yaw P,Yaw I,Yaw D,Altitude,Direction X,Direction Y,Direction Z,Drag X,Drag Y,Drag Z,Vertical Velocity,Roll,Mass,Has Fuel
1599386157.609354,0.0,10,0.5,0.5,-5.635667282104492,-0.1005,-0.001,-0.001,0.000818564335071289,10,1,100,0.5037637406203286,-10,-1,-100,19348.34535398835,-0.04889718169519721,-0.00016559777686886814,0.998803803656976,61.166277532034165,3.6923879925589422,234.72058239640882,-68.84745282696933,-33.923675537109375,4761.76025390625,True
1599386157.6392436,0.0,10,0.5,0.5,-5.6410304382324234,-0.1005,-0.001,-0.001,0.0002784973051596178,10,1,100,0.5056991444578295,-10,-1,-100,19345.580508584157,-0.04900479632552755,-0.00014786109640036645,0.9987985322747476,61.34662044792628,3.704630169842841,236.7081448096243,-69.21235589347857,-33.926116943359375,4761.76025390625,True
1599386157.6742547,0.0,10,0.5,0.5,-5.6420032592773435,-0.1005,-0.001,-0.001,0.011352121204897571,10,1,100,0.505232090504425,-10,-1,-100,19342.801067449036,-0.04905383204777371,-3.093311407101956e-05,0.9987961356576082,61.528049386969215,3.716952990744125,238.70824728906456,-69.57724522168658,-33.9718017578125,4761.76025390625,True
1599386157.704212,0.0,10,0.5,0.5,-5.6476517639160155,-0.1005,-0.001,-0.001,-0.000343770339444221,10,1,100,0.5052339014845869,-10,-1,-100,19342.801067449036,-0.04905383204777371,-3.093311407101956e-05,0.9987961356576082,61.528049386969215,3.716952990744125,238.70824728906456,-69.57724522168658,-33.9718017578125,4761.76025390625,True
1599386157.7381172,0.0,10,0.5,0.5,-5.642447286987305,-0.1005,-0.001,-0.001,0.011432945134562687,10,1,100,0.5095464614753527,-10,-1,-100,19341.405873602722,-0.04904844274582815,7.615605670547145e-05,0.9987963979032285,61.62185994934814,3.723305357953453,239.72348244818002,-69.75968459248959,-34.078277587890625,4761.76025390625,True
1599386157.7721198,0.0,10,0.5,0.5,-5.605235794067383,-0.1005,-0.001,-0.001,0.028785213219039464,10,1,100,0.5109439906224076,-10,-1,-100,19338.604539888212,-0.049011658697445566,0.0003311885072187017,0.9987981515931523,61.81947758013482,3.736611828492339,241.7995019724114,-70.12455205716323,-34.50103759765625,4761.76025390625,True
1599386157.8080595,0.0,10,0.5,0.5,-5.5787431945800785,-0.1005,-0.001,-0.001,0.022906614302307823,10,1,100,0.5141833698709923,-10,-1,-100,19337.198400144,-0.04896311150235995,0.0005092933007084246,0.9988004577153243,61.92327198913485,3.743560016257365,242.86043220751054,-70.30697956136419,-34.820892333984375,4761.76025390625,True
1599386157.839937,0.0,10,0.5,0.5,-5.380397702026367,-0.1005,-0.001,-0.001,0.12364269722888202,10,1,100,0.4731650875063369,-10,-1,-100,19331.537357578636,-0.04850157229305583,0.001586526327485476,0.9988218461864526,62.35639317991805,3.7723268278734756,247.19866143541026,-71.03664565146133,-36.832550048828125,4761.76025390625,True
1599386157.872849,0.0,10,0.5,0.5,-5.240968032836914,-0.1005,-0.001,-0.001,0.09959316862795081,10,1,100,0.4807122620676716,-10,-1,-100,19328.684947349597,-0.04810650953307053,0.002345754704249343,0.9988394571578618,62.56888005522621,3.7863506500120443,249.36606068011272,-71.40145082286429,-38.2784423828125,4761.76025390625,True
1599386157.9067996,0.0,10,0.5,0.5,-5.247586080932617,-0.1005,-0.001,-0.001,0.023904906421989044,10,1,100,0.5250291890195085,-10,-1,-100,19328.684947349597,-0.04810650953307053,0.002345754704249343,0.9988394571578618,62.56888005522621,3.7863506500120443,249.36606068011272,-71.40145082286429,-38.2784423828125,4761.76025390625,True
1599386157.9427037,0.0,10,0.5,0.5,-5.168180065917969,-0.1005,-0.001,-0.001,0.06923969636470013,10,1,100,0.5018842421052776,-10,-1,-100,19327.25327030057,-0.04785236773427473,0.002755756653997399,0.9988506178140392,62.669314698191776,3.7929699766932234,250.43010164516178,-71.58384636121991,-39.111724853515625,4761.76025390625,True
1599386157.9756148,0.0,10,0.5,0.5,-4.97700498046875,-0.1005,-0.001,-0.001,0.130524621866392,10,1,100,0.4616364044069442,-10,-1,-100,19324.378972869134,-0.04725639013262181,0.0036829656088465884,0.9988760029933432,62.84910260132914,3.8048304555487733,252.48022910508396,-71.94862407867916,-40.998321533203125,4761.76025390625,True
1599386158.006533,0.0,10,0.5,0.5,-4.756942977905274,-0.1005,-0.001,-0.001,0.15731005763034953,10,1,100,0.4420605101824525,-10,-1,-100,19321.490084743244,-0.0465382190983446,0.00476590423228615,0.9989051408016695,62.98726552664857,3.814006111617418,254.37035504518727,-72.31338504732724,-43.17803955078125,4761.76025390625,True
1599386158.0394447,0.0,10,0.5,0.5,-4.636388442993164,-0.1005,-0.001,-0.001,0.11209348244779685,10,1,100,0.46768331787306405,-10,-1,-100,19320.040169459302,-0.04612055787614309,0.005334973354347675,0.9989216346643524,63.035389007581024,3.817252967665473,255.232947126549,-72.49576008390815,-44.378173828125,4761.76025390625,True
1599386158.0743515,0.0,10,0.5,0.5,-4.370556484985351,-0.1005,-0.001,-0.001,0.18881470888974355,10,1,100,0.4053196503684483,-10,-1,-100,19317.129396670964,-0.04517659003698305,0.006544896517995469,0.9989575766979294,63.076901092335504,3.8202703882961395,256.738839396957,-72.8605015705537,-46.998779296875,4761.76025390625,True
1599386158.1072636,0.0,10,0.5,0.5,-3.9169780731201174,-0.1005,-0.001,-0.001,0.28468051784808085,10,1,100,0.31240325748900555,-10,-1,-100,19312.735882183886,-0.043477262841305216,0.008510453347786266,0.9990181679026879,62.95939151443812,3.81346093271532,258.26480158658853,-73.4076016685206,-51.480621337890625,4761.76025390625,True
1599386158.142171,0.0,10,0.5,0.5,-3.91976195678711,-0.1005,-0.001,-0.001,0.08894276135305787,10,1,100,0.48178253747117505,-10,-1,-100,19312.735882183886,-0.043477262841305216,0.008510453347786266,0.9990181679026879,62.95939151443812,3.81346093271532,258.26480158658853,-73.4076016685206,-51.480621337890625,4761.76025390625,True
1599386158.186053,0.0,10,0.5,0.5,-3.395981817626953,-0.1005,-0.001,-0.001,0.3150133951326803,10,1,100,0.25572494881132013,-10,-1,-100,19308.309541461058,-0.041427180988634765,0.010558367145740035,0.9990857368407131,62.551532434737645,3.7885032439217943,258.58500915270906,-73.95470733512414,-56.624603271484375,4761.76025390625,True
1599386158.2219565,0.0,10,0.5,0.5,-3.013757586669922,-0.1005,-0.001,-0.001,0.26704638560483335,10,1,100,0.28747008059051815,-10,-1,-100,19305.340410263045,-0.03985849358538563,0.011975887020155531,0.9991335639538812,62.073118936748976,3.7590718901891087,257.9274065066557,-74.31946153195832,-60.421539306640625,4761.76025390625,True
1599386158.2528737,0.0,10,0.5,0.5,-2.8114698059082035,-0.1005,-0.001,-0.001,0.2066732931097871,10,1,100,0.34978415027772936,-10,-1,-100,19303.850373236928,-0.039006403866813505,0.012706940490291101,0.9991581627153708,61.761193862312496,3.7398828709440197,257.2885571607621,-74.50184757276631,-62.43011474609375,4761.76025390625,True
1599386158.2897744,0.0,10,0.5,0.5,-2.599613140869141,-0.1005,-0.001,-0.001,0.20629973465902024,10,1,100,0.338496652507008,-10,-1,-100,19302.356688154163,-0.03813743605716525,0.013358719308329155,0.9991832067190816,61.39643375785849,3.717460368526083,256.42278340809514,-74.6842412014863,-64.51336669921875,4761.76025390625,True
1599386158.326676,0.0,10,0.5,0.5,-2.153870202636719,-0.1005,-0.001,-0.001,0.28784724561424624,10,1,100,0.22028628391186192,-10,-1,-100,19299.358374045347,-0.03628165736269015,0.014682947458270958,0.9992337326136234,60.493275164778076,3.6620470406276175,253.94025254809637,-75.04905675503952,-68.90042114257812,4761.76025390625,True
1599386158.3625805,0.0,10,0.5,0.5,-1.1751718200683594,-0.1005,-0.001,-0.001,0.43814166985509145,10,1,100,-0.054646980816904056,-10,-1,-100,19293.317961273366,-0.032105169536333036,0.017243104195089894,0.999335746106763,57.895462980431894,3.5035155762460444,245.50847905610357,-75.77883839475302,-78.55850219726562,4761.76025390625,True
1599386158.395493,0.0,10,0.5,0.5,-0.9174593811035158,-0.1005,-0.001,-0.001,0.2459596732733839,10,1,100,0.24000401960497303,-10,-1,-100,19291.798734779586,-0.031000128833990916,0.017812067441489037,0.9993606567529741,57.06273945279986,3.452938407248612,242.58777708684985,-75.96132210697789,-81.1578369140625,4761.76025390625,True
1599386158.4403722,0.0,10,0.5,0.5,-0.9163807495117189,-0.1005,-0.001,-0.001,0.19031105804218376,10,1,100,0.34899604693496983,-10,-1,-100,19291.798734779586,-0.031000128833990916,0.017812067441489037,0.9993606567529741,57.06273945279986,3.452938407248612,242.58777708684985,-75.96132210697789,-81.1578369140625,4761.76025390625,True
1599386158.4792693,0.0,10,0.5,0.5,-0.3627746276855469,-0.1005,-0.001,-0.001,0.30611404373063567,10,1,100,0.10085259783479797,-10,-1,-100,19288.749331364757,-0.028757166988719347,0.01885457897418088,0.9994085902164785,55.15903530554051,3.3376712967167497,235.67597343900906,-76.3263418131715,-86.57843017578125,4761.76025390625,True
1599386158.526143,0.0,10,0.5,0.5,0.8207323722839356,-0.1005,-0.001,-0.001,0.406272222540381,10,1,100,-0.21711672878499522,-10,-1,-100,19282.60671450151,-0.023840862429067605,0.020703441878874424,0.9995013660686044,53.66848798056995,3.2489775578916267,231.60846710202745,-77.0565230739519,-98.2574234008789,4761.76025390625,True
1599386158.5730176,0.0,10,0.5,0.5,1.12489153213501,-0.1005,-0.001,-0.001,0.2623684892781773,10,1,100,0.13860420345019547,-10,-1,-100,19281.061933673685,-0.022623172577351608,0.021064926045729352,0.9995221162901916,54.575939428215776,3.3046616219837297,236.10958428224734,-77.23903237446733,-101.32304382324219,4761.76025390625,True
1599386158.6198916,0.0,10,0.5,0.5,1.440841059112549,-0.1005,-0.001,-0.001,0.264280550523967,10,1,100,0.12199493843302414,-10,-1,-100,19279.51350315858,-0.021382283037827583,0.021401378973377384,0.9995422847234268,55.415409949525404,3.3563644842655584,240.33513299530676,-77.4215181535852,-104.42201232910156,4761.76025390625,True
1599386158.6577914,0.0,10,0.5,0.5,2.363233419799805,-0.1005,-0.001,-0.001,0.3231094693517573,10,1,100,-0.15681545415994694,-10,-1,-100,19274.846318602213,-0.01773635826064015,0.02223348499517076,0.9995954650460454,57.80543706131707,3.5042492102245997,252.5570385096808,-77.96882762102987,-113.4968032836914,4761.76025390625,True
1599386158.6976845,0.0,10,0.5,0.5,3.220060753631592,-0.1005,-0.001,-0.001,0.2986321827277013,10,1,100,-0.19823055229881395,-10,-1,-100,19270.14630326582,-0.014064716703394757,0.022758763732487065,0.9996420471435872,59.65203109426076,3.6194259354487888,262.53776894080994,-78.51594077356982,-121.97754669189453,4761.76025390625,True
1599386158.745557,0.0,10,0.5,0.5,3.489409184265137,-0.1005,-0.001,-0.001,0.26213064224944305,10,1,100,0.04121188115270237,-10,-1,-100,19268.572337485617,-0.012925494427597977,0.022895912176223034,0.9996542946436137,60.08563923487816,3.646712920311446,265.0878412169529,-78.69827695438201,-124.65816497802734,4761.76025390625,True
1599386159.0707479,0.0,10,0.5,0.5,4.014032089233399,-0.1005,-0.001,-0.001,0.2717969792374262,10,1,100,-0.09530226952858128,-10,-1,-100,19265.41346722853,-0.010670032955166591,0.02310100203885744,0.9996761946258079,60.703263709589784,3.685921887053636,269.10875790616103,-79.06291161742932,-129.79833984375,4761.76025390625,True
1599386159.1046586,0.0,10,0.5,0.5,4.263647726440429,-0.1005,-0.001,-0.001,0.25993417780941186,10,1,100,0.007512909260240688,-10,-1,-100,19263.82856272906,-0.009573783366110228,0.023174278357503346,0.9996855983231268,60.89993310905023,3.6985877797569517,270.63061606473957,-79.24521463469087,-132.2577667236328,4761.76025390625,True
1599386159.142548,0.0,10,0.5,0.5,4.743129606628418,-0.1005,-0.001,-0.001,0.2605528072307519,10,1,100,-0.12077125734979788,-10,-1,-100,19260.647816128912,-0.007430451630029439,0.023241642359269975,0.9997022629008185,61.099268649633125,3.711852350001635,272.82066753008115,-79.60980252830896,-136.9556121826172,4761.76025390625,True
1599386159.1874654,0.0,10,0.5,0.5,4.9711707565307615,-0.1005,-0.001,-0.001,0.256606873080413,10,1,100,-0.020767503979102778,-10,-1,-100,19259.05197420926,-0.006412520243511369,0.023262074255038574,0.9997088353543144,61.112325030717386,3.7130811181897116,273.53133450084937,-79.79209118747866,-139.19363403320312,4761.76025390625,True
1599386159.243311,0.0,10,0.5,0.5,5.4060400802612305,-0.1005,-0.001,-0.001,0.25369352791114586,10,1,100,-0.13766843715648192,-10,-1,-100,19255.849353166297,-0.004444705633014411,0.023250156935761365,0.9997197981406082,60.991996460402454,3.7063753827576114,274.29537851480404,-80.15666577843834,-143.44827270507812,4761.76025390625,True
1599386159.2772222,0.0,10,0.5,0.5,6.180017455291749,-0.1005,-0.001,-0.001,0.2385665259941795,10,1,100,-0.3408194735748459,-10,-1,-100,19249.40036113991,-0.000826588525846644,0.02309948961439431,0.9997328294754372,60.309884110251886,3.665280181048812,273.80662234593,-80.88583764575527,-151.07106018066406,4761.76025390625,True
1599386159.3101332,0.0,10,0.5,0.5,6.519183914947511,-0.1005,-0.001,-0.001,0.2430200805374469,10,1,100,-0.16150042501651823,-10,-1,-100,19246.15398916416,0.0008126205991833431,0.02300115657848245,0.9997351081380577,59.82315348336863,3.6355906128322224,272.8775993160326,-81.25044758390878,-154.43869018554688,4761.76025390625,True
1599386159.3420475,0.0,10,0.5,0.5,6.5208179527282715,-0.1005,-0.001,-0.001,0.25301336188914336,10,1,100,0.00020099712277939046,-10,-1,-100,19246.15398916416,0.0008126205991833431,0.02300115657848245,0.9997351081380577,59.82315348336863,3.6355906128322224,272.8775993160326,-81.25044758390878,-154.43869018554688,4761.76025390625,True
1599386159.376139,0.0,10,0.5,0.5,6.836586030578613,-0.1005,-0.001,-0.001,0.24904550669263445,10,1,100,-0.16748300026816126,-10,-1,-100,19242.89303212287,0.0023201578674102367,0.02296438728434754,0.9997335914052927,59.287040120024265,3.6027985715182065,271.70264472845116,-81.61507794864146,-157.50936889648438,4761.76025390625,True
1599386159.411042,0.0,10,0.5,0.5,7.248425719451904,-0.1005,-0.001,-0.001,0.23531358065028876,10,1,100,-0.24818227874360338,-10,-1,-100,19237.97424794326,0.004409380756874337,0.022805938031520062,0.999730186876361,58.460225385754136,3.5521681785147163,269.7948630857446,-82.16206264643003,-161.56214904785156,4761.76025390625,True
1599386159.4499402,0.0,10,0.5,0.5,7.370107733154297,-0.1005,-0.001,-0.001,0.24953971689979176,10,1,100,-0.11010305290515804,-10,-1,-100,19236.327359878458,0.0050376496258699496,0.022791303562258475,0.99972755217018,58.188913086399154,3.5355563756913404,269.1675363040399,-82.34440082611428,-162.76455688476562,4761.76025390625,True
1599386159.4858432,0.0,10,0.5,0.5,7.693211804199219,-0.1005,-0.001,-0.001,0.25206022845140785,10,1,100,-0.23831394299236436,-10,-1,-100,19231.364814097178,0.006760076977948713,0.02280119478474136,0.9997171634395602,57.42620589063224,3.4888949357667807,267.4907823664217,-82.89144165288948,-165.92721557617188,4761.76025390625,True
1599386159.5217488,0.0,10,0.5,0.5,7.869932173156739,-0.1005,-0.001,-0.001,0.2502794263474081,10,1,100,-0.17960821098669572,-10,-1,-100,19228.038214808446,0.007777382588565093,0.02279433686202831,0.9997099231912682,56.984215654630596,3.4618974339235784,266.65791510618897,-83.25615360941437,-167.66629028320312,4761.76025390625,True
1599386159.5526304,0.0,10,0.5,0.5,7.948188330078126,-0.1005,-0.001,-0.001,0.2560507381994673,10,1,100,-0.12989565545165524,-10,-1,-100,19226.369444512995,0.008236448244062711,0.022840975499578118,0.9997051819204252,56.78769384538998,3.4499095491560423,266.3494619988604,-83.43851372579017,-168.42416381835938,4761.76025390625,True
1599386159.586573,0.0,10,0.5,0.5,8.081682763671875,-0.1005,-0.001,-0.001,0.26274892705053005,10,1,100,-0.17804314009687633,-10,-1,-100,19223.020961928298,0.00907816781993749,0.022944649703956203,0.999695518605038,56.45319127200604,3.4295378834239014,265.9963040126904,-83.80323975673932,-169.71804809570312,4761.76025390625,True
1599386159.6204834,0.0,10,0.5,0.5,8.083015856933596,-0.1005,-0.001,-0.001,0.252350955889541,10,1,100,-0.09522346985469375,-10,-1,-100,19223.020961928298,0.00907816781993749,0.022944649703956203,0.999695518605038,56.45319127200604,3.4295378834239014,265.9963040126904,-83.80323975673932,-169.71804809570312,4761.76025390625,True
1599386159.652391,0.0,10,0.5,0.5,8.186194703674316,-0.1005,-0.001,-0.001,0.265290139298998,10,1,100,-0.17682461439859115,-10,-1,-100,19219.657890121453,0.00981099208274948,0.02306241940759712,0.9996858852886842,56.20433656486054,3.414428523466438,266.03488945678845,-84.16797012745376,-170.71621704101562,4761.76025390625,True
1599386159.686307,0.0,10,0.5,0.5,8.282411094665527,-0.1005,-0.001,-0.001,0.2842910507750312,10,1,100,-0.20185577382250175,-10,-1,-100,19214.585927867098,0.010696571615083599,0.023342162639935424,0.9996703090514264,56.00396562674679,3.402358669796503,266.89797978022546,-84.71506443603036,-171.657958984375,4761.76025390625,True
1599386159.7190952,0.0,10,0.5,0.5,8.28319127960205,-0.1005,-0.001,-0.001,0.2563508281473461,10,1,100,-0.1142862156906799,-10,-1,-100,19214.585927867098,0.010696571615083599,0.023342162639935424,0.9996703090514264,56.00396562674679,3.402358669796503,266.89797978022546,-84.71506443603036,-171.657958984375,4761.76025390625,True
1599386159.7500157,0.0,10,0.5,0.5,8.310757070922852,-0.1005,-0.001,-0.001,0.2838919651115066,10,1,100,-0.1642517455980956,-10,-1,-100,19211.186383565888,0.01114318878356222,0.02359219318019544,0.9996595609329619,55.99228295596006,3.401759125888068,268.0505259583526,-85.07978686776343,-171.9156036376953,4761.76025390625,True
1599386159.7859497,0.0,10,0.5,0.5,8.294462712097168,-0.1005,-0.001,-0.001,0.3082646490820934,10,1,100,-0.17013411957656577,-10,-1,-100,19206.059713179944,0.011596558874686434,0.024040348748211083,0.9996437272620333,56.1645566609861,3.412417851436586,270.6942667649122,-85.62684887451421,-171.74740600585938,4761.76025390625,True
1599386159.823825,0.0,10,0.5,0.5,8.295529194641114,-0.1005,-0.001,-0.001,0.2635739967991243,10,1,100,-0.12545300138902601,-10,-1,-100,19206.059713179944,0.011596558874686434,0.024040348748211083,0.9996437272620333,56.1645566609861,3.412417851436586,270.6942667649122,-85.62684887451421,-171.74740600585938,4761.76025390625,True
1599386159.8537786,0.0,10,0.5,0.5,8.247191856384278,-0.1005,-0.001,-0.001,0.30315382819797454,10,1,100,-0.1425100153915921,-10,-1,-100,19202.623698342824,0.011747225836621819,0.024399038893688385,0.9996332775504263,56.40470591641228,3.427134227827925,273.0702625862138,-85.99153568395397,-171.26544189453125,4761.76025390625,True
1599386159.8906481,0.0,10,0.5,0.5,8.21231916656494,-0.1005,-0.001,-0.001,0.2889734647697606,10,1,100,-0.1306525787650478,-10,-1,-100,19200.900220816373,0.011772791975187168,0.02459474962929157,0.9996281807050967,56.56136243297349,3.436709524403188,274.4398445665667,-86.17387114397503,-170.91357421875,4761.76025390625,True
1599386159.9290593,0.0,10,0.5,0.5,8.119005836486817,-0.1005,-0.001,-0.001,0.31498706284194655,10,1,100,-0.12538542906418731,-10,-1,-100,19197.44232618471,0.011744935882301369,0.02500756139492369,0.9996182663167974,56.94579176261406,3.460163278600057,277.536130569484,-86.53852325464995,-169.98831176757812,4761.76025390625,True
1599386159.9729428,0.0,10,0.5,0.5,7.996058306884766,-0.1005,-0.001,-0.001,0.32334469726463777,10,1,100,-0.11051509608528076,-10,-1,-100,19193.969846308697,0.011582002981631161,0.025456947938712837,0.9996088239949561,57.41842123037362,3.488945563097779,281.0812596855974,-86.9031468419119,-168.7676239013672,4761.76025390625,True
1599386160.0382795,0.0,10,0.5,0.5,7.75516896057129,-0.1005,-0.001,-0.001,0.3579406364919909,10,1,100,-0.07482646216373068,-10,-1,-100,19188.73378163448,0.011107163822497159,0.026177705791283677,0.9995955975449899,58.27382505134913,3.5409526904312734,287.15972707457286,-87.4500193488769,-166.38323974609375,4761.76025390625,True
1599386160.0761786,0.0,10,0.5,0.5,7.3297083419799804,-0.1005,-0.001,-0.001,0.39761678753830243,10,1,100,-0.001615241535491127,-10,-1,-100,19181.70132742205,0.010008756970537026,0.027190800406420284,0.999580154443436,59.625640562056525,3.623037824554296,296.40199383712746,-88.17904584484978,-162.1722869873047,4761.76025390625,True
1599386160.1161163,0.0,10,0.5,0.5,7.332970727539062,-0.1005,-0.001,-0.001,0.2966921898012902,10,1,100,-0.11138714526704971,-10,-1,-100,19181.70132742205,0.010008756970537026,0.027190800406420284,0.999580154443436,59.625640562056525,3.623037824554296,296.40199383712746,-88.17904584484978,-162.1722869873047,4761.76025390625,True
1599386160.1570027,0.0,10,0.5,0.5,6.785234585571289,-0.1005,-0.001,-0.001,0.39974890424704945,10,1,100,0.0715789234397858,-10,-1,-100,19174.61055961484,0.008346054359242655,0.028124180867048564,0.9995695942890569,61.10247296937088,3.7127538503234643,306.3887881694785,-88.90789544820555,-156.78521728515625,4761.76025390625,True
1599386160.193904,0.0,10,0.5,0.5,6.633736302185058,-0.1005,-0.001,-0.001,0.33348020029551767,10,1,100,-0.0402738067580636,-10,-1,-100,19172.828758003772,0.007853892382068512,0.028366145806526844,0.9995667452184139,61.472100654247285,3.735247300012638,308.9076196846816,-89.09007870679584,-155.25445556640625,4761.76025390625,True
1599386160.2298095,0.0,10,0.5,0.5,6.123017137145997,-0.1005,-0.001,-0.001,0.3701547361731712,10,1,100,0.09717640291558448,-10,-1,-100,19167.461493176874,0.0061603274662339605,0.028915586262160026,0.9995628740787766,62.53274731827386,3.79999600712369,316.26826041401864,-89.63655994553339,-150.22390747070312,4761.76025390625,True
1599386160.2657135,0.0,10,0.5,0.5,6.125895335388184,-0.1005,-0.001,-0.001,0.3156982143612479,10,1,100,-0.07163646552702539,-10,-1,-100,19167.461493176874,0.0061603274662339605,0.028915586262160026,0.9995628740787766,62.53274731827386,3.79999600712369,316.26826041401864,-89.63655994553339,-150.22390747070312,4761.76025390625,True
1599386160.300624,0.0,10,0.5,0.5,5.338953459167481,-0.1005,-0.001,-0.001,0.37207631456745427,10,1,100,0.22288006214543163,-10,-1,-100,19160.254142152146,0.0034879834859119765,0.029424008493699656,0.9995609344584074,63.692607220073675,3.871643240912178,324.8928946097652,-90.36505688815019,-142.49151611328125,4761.76025390625,True
1599386160.3335352,0.0,10,0.5,0.5,5.343843644714356,-0.1005,-0.001,-0.001,0.32171701729993213,10,1,100,-0.04352585503783925,-10,-1,-100,19160.254142152146,0.0034879834859119765,0.029424008493699656,0.9995609344584074,63.692607220073675,3.871643240912178,324.8928946097652,-90.36505688815019,-142.49151611328125,4761.76025390625,True
1599386160.367445,0.0,10,0.5,0.5,5.126298554992675,-0.1005,-0.001,-0.001,0.3329308286039733,10,1,100,0.03956813070907911,-10,-1,-100,19158.443198900204,0.0027400899358458,0.029521937280919324,0.9995603769289401,63.90931966194528,3.885296305457743,326.6905732081816,-90.54716018376968,-140.37530517578125,4761.76025390625,True
1599386160.4043102,0.0,10,0.5,0.5,4.436851199340821,-0.1005,-0.001,-0.001,0.33068361181957284,10,1,100,0.22487516258906526,-10,-1,-100,19152.988517480087,0.00038361543055466144,0.029586838762767922,0.9995621400449436,64.3129086080525,3.9118365389256073,330.8448049700807,-91.09343898158315,-133.58984375,4761.76025390625,True
1599386160.437345,0.0,10,0.5,0.5,3.944152479553223,-0.1005,-0.001,-0.001,0.31674675874789726,10,1,100,0.17660100884328042,-10,-1,-100,19149.33385451848,-0.0013100294962102002,0.029516042233822794,0.9995634482480691,64.32568396101101,3.9144432434416077,332.30662809598266,-91.45761531359108,-128.7011260986328,4761.76025390625,True
1599386160.4732487,0.0,10,0.5,0.5,3.9456940811157226,-0.1005,-0.001,-0.001,0.32405893582515044,10,1,100,0.00836839481346897,-10,-1,-100,19149.33385451848,-0.0013100294962102002,0.029516042233822794,0.9995634482480691,64.32568396101101,3.9144432434416077,332.30662809598266,-91.45761531359108,-128.7011260986328,4761.76025390625,True
1599386160.5071583,0.0,10,0.5,0.5,3.4166024887084965,-0.1005,-0.001,-0.001,0.2997189807194333,10,1,100,0.19890419533658285,-10,-1,-100,19145.664623975288,-0.003031883331450556,0.02929265605847318,0.9995662799357051,64.08611282242853,3.9020653146150535,332.46191432950235,-91.8218021846076,-123.52137756347656,4761.76025390625,True
1599386160.5430615,0.0,10,0.5,0.5,2.8631252792358404,-0.1005,-0.001,-0.001,0.28468573346162446,10,1,100,0.22187411855753097,-10,-1,-100,19141.980825457373,-0.004795678903958869,0.02895184958291034,0.9995693031849161,63.54795896511947,3.871787872972195,331.05389382628675,-92.1860178175751,-118.05014038085938,4761.76025390625,True
1599386160.5729816,0.0,10,0.5,0.5,2.2799625106811527,-0.1005,-0.001,-0.001,0.2688154013472087,10,1,100,0.2505215625800837,-10,-1,-100,19138.28245667217,-0.00664806112345688,0.02849721730974363,0.9995717642515219,62.67016128243529,3.8209357088324856,327.84868358242187,-92.55028192248265,-112.28744506835938,4761.76025390625,True
1599386160.6058939,0.0,10,0.5,0.5,1.9784243194580078,-0.1005,-0.001,-0.001,0.2816566594588998,10,1,100,0.16372264002314418,-10,-1,-100,19136.427808011184,-0.007531319855583176,0.028201034288746006,0.9995738996623901,62.18193875539204,3.7924819636985156,325.9743775643556,-92.73243639481856,-109.29722595214844,4761.76025390625,True
1599386160.6378086,0.0,10,0.5,0.5,1.3481321426391604,-0.1005,-0.001,-0.001,0.2363512115750514,10,1,100,0.27207442787889413,-10,-1,-100,19132.707579505164,-0.009306851640457702,0.027520558881598104,0.9995779115963832,60.976316030363414,3.7214045049963853,320.9897904814034,-93.09679750339045,-103.09831237792969,4761.76025390625,True
1599386160.6697226,0.0,10,0.5,0.5,0.6916592758178711,-0.1005,-0.001,-0.001,0.2154761500828945,10,1,100,0.2866976969962636,-10,-1,-100,19128.972774350434,-0.011042278586750293,0.02671390199754595,0.9995821304543605,59.52059661750468,3.634590146390259,314.6333502601559,-93.46123716570884,-96.60833740234375,4761.76025390625,True
1599386160.701638,0.0,10,0.5,0.5,0.3531248901367187,-0.1005,-0.001,-0.001,0.2459930906702832,10,1,100,0.2099102357604357,-10,-1,-100,19127.09990451194,-0.011908662288442702,0.026260468023289484,0.9995841993457567,58.668589746001196,3.5833465868668277,310.7744521789313,-93.64348835473432,-93.25428771972656,4761.76025390625,True
1599386160.7295623,0.0,10,0.5,0.5,-0.3512634582519531,-0.1005,-0.001,-0.001,0.18196916071378466,10,1,100,0.3056772737577315,-10,-1,-100,19123.343229772174,-0.013553576224298229,0.0252691845645951,0.9995887998987246,59.66145262675515,3.64501379701538,317.34658698901706,-94.0079815872189,-86.327880859375,4761.76025390625,True
1599386160.7624748,0.0,10,0.5,0.5,-0.7102852935791018,-0.1005,-0.001,-0.001,0.22275273850083468,10,1,100,0.2282437778493091,-10,-1,-100,19121.459425947978,-0.014332341483495001,0.02474270272220809,0.9995911077283556,61.11294088800363,3.733947226703362,325.73984802593776,-94.19017608917866,-82.76904296875,4761.76025390625,True
1599386160.7923944,0.0,10,0.5,0.5,-1.448343849182129,-0.1005,-0.001,-0.001,0.14988516213757902,10,1,100,0.3176855403664156,-10,-1,-100,19117.68088981812,-0.01584157836747732,0.023605989752655408,0.9995958191402284,63.79392156277812,3.897868432886024,341.433717682206,-94.55445949788285,-75.50772094726562,4761.76025390625,True
1599386160.8282986,0.0,10,0.5,0.5,-1.8166315429687498,-0.1005,-0.001,-0.001,0.19881676841353735,10,1,100,0.2453285189921819,-10,-1,-100,19115.78615879023,-0.016542610295994336,0.023022819885099105,0.9995980651287462,64.99643985926421,3.9712685321417394,348.58450563031863,-94.736549626575,-71.86013793945312,4761.76025390625,True
1599386160.8602128,0.0,10,0.5,0.5,-2.909783079528809,-0.1005,-0.001,-0.001,0.05402035375679773,10,1,100,0.39015107615799516,-10,-1,-100,19110.08012082323,-0.01848419827164034,0.02118203426878063,0.9996047498078883,67.88679357487658,4.147618493792787,366.32307452146637,-95.28263773330696,-61.105133056640625,4761.76025390625,True
1599386160.8891373,0.0,10,0.5,0.5,-3.256246241760254,-0.1005,-0.001,-0.001,0.16909266051240143,10,1,100,0.2614051508815969,-10,-1,-100,19108.170828366536,-0.019066416638471556,0.020561768147463983,0.9996067654068864,68.59293856144944,4.190810840228729,370.8863115684727,-95.46461645198804,-57.641845703125,4761.76025390625,True
1599386160.924042,0.0,10,0.5,0.5,-3.602405244445801,-0.1005,-0.001,-0.001,0.1594479803081864,10,1,100,0.2660308932207538,-10,-1,-100,19106.25789661205,-0.019626468851842258,0.019917424989103514,0.9996089724998528,69.17052742883911,4.226272463936128,374.76834490221205,-95.64657597730907,-54.251129150390625,4761.76025390625,True
1599386160.9529653,0.0,10,0.5,0.5,-4.270454913330078,-0.1005,-0.001,-0.001,0.08677417299529007,10,1,100,0.32314701312500926,-10,-1,-100,19102.421117072692,-0.020643849091312255,0.01867851805984007,0.9996123971108918,69.95923271181385,4.2752637468069175,380.5768280749648,-96.01045247751757,-47.690185546875,4761.76025390625,True
1599386160.9908633,0.0,10,0.5,0.5,-4.591076536560058,-0.1005,-0.001,-0.001,0.14011109013576348,10,1,100,0.2740888361107242,-10,-1,-100,19100.4972694451,-0.02111245042938161,0.018045158317079202,0.9996142439452222,70.18209444316412,4.289532270824306,382.55956139864486,-96.1923772419133,-44.52130126953125,4761.76025390625,True
1599386161.022779,0.0,10,0.5,0.5,-5.21377547454834,-0.1005,-0.001,-0.001,0.06602237717008591,10,1,100,0.3214403000410142,-10,-1,-100,19096.638658977812,-0.021959764798044908,0.01680372365459086,0.9996176286967706,70.31619527239133,4.299521775479145,384.8355571211138,-96.5562176841727,-38.40643310546875,4761.76025390625,True
1599386161.053696,0.0,10,0.5,0.5,-5.803708868408203,-0.1005,-0.001,-0.001,0.06229041794439978,10,1,100,0.3203652419345607,-10,-1,-100,19092.76549472299,-0.02271113996630778,0.015649816826975856,0.9996195713143641,70.08040860600127,4.287469343844763,385.08757961473265,-96.92006760727739,-32.58807373046875,4761.76025390625,True
1599386161.092594,0.0,10,0.5,0.5,-6.0872185455322265,-0.1005,-0.001,-0.001,0.11331032241211403,10,1,100,0.2830130476088622,-10,-1,-100,19090.823454551864,-0.02304631784018403,0.015073372813157454,0.9996207584209348,69.84096486186422,4.274169139410095,384.5416849893713,-97.10200305355791,-29.790496826171875,4761.76025390625,True
1599386161.125504,0.0,10,0.5,0.5,-6.6350768859863285,-0.1005,-0.001,-0.001,0.0514200495720169,10,1,100,0.31780629664319193,-10,-1,-100,19086.928457293427,-0.023659405465513903,0.013995484256511707,0.9996221080755687,69.15305095277792,4.234962544195969,382.2813322324466,-97.46590605036126,-24.417510986328125,4761.76025390625,True
1599386161.1574192,0.0,10,0.5,0.5,-7.150097024536134,-0.1005,-0.001,-0.001,0.04966238359253408,10,1,100,0.31746078703913355,-10,-1,-100,19083.0189022813,-0.024206509740233223,0.013008343610198586,0.9996223426288123,68.2315091397151,4.181504090900695,378.69775298601303,-97.82986299617593,-19.3408203125,4761.76025390625,True
1599386161.1863403,0.0,10,0.5,0.5,-7.635460726928711,-0.1005,-0.001,-0.001,0.0461287900718205,10,1,100,0.3149150984224188,-10,-1,-100,19079.09478727705,-0.024673767457604072,0.01208792351452099,0.9996224723887289,67.22479278675964,4.122663586858096,374.6024638031453,-98.19388060038926,-14.560638427734375,4761.76025390625,True
1599386161.2172575,0.0,10,0.5,0.5,-7.866680529785158,-0.1005,-0.001,-0.001,0.09209551906906857,10,1,100,0.2936785598998744,-10,-1,-100,19077.127268775017,-0.02489986087847629,0.011677324700929304,0.9996217469703537,66.7145688563828,4.092705404375679,372.501021967509,-98.37591132630334,-12.2813720703125,4761.76025390625,True
1599386161.2451837,0.0,10,0.5,0.5,-8.30909691772461,-0.1005,-0.001,-0.001,0.04950304738868505,10,1,100,0.31759667598714025,-10,-1,-100,19073.181309153093,-0.025317534639844357,0.010924925530975679,0.9996197619304568,65.67978318348476,4.031589814810773,368.18599950767583,-98.74001640487027,-7.94482421875,4761.76025390625,True
1599386161.278095,0.0,10,0.5,0.5,-8.518208169555665,-0.1005,-0.001,-0.001,0.0865406318202471,10,1,100,0.29795031841831326,-10,-1,-100,19071.202867426677,-0.02551346111247326,0.010585806598084882,0.9996184292022282,65.18961265664612,4.00251868228457,366.1651040608706,-98.92208844954978,-5.88751220703125,4761.76025390625,True
1599386161.3113797,0.0,10,0.5,0.5,-8.915452584838867,-0.1005,-0.001,-0.001,0.053624481345630824,10,1,100,0.3191196453880076,-10,-1,-100,19067.235058358987,-0.02587959759456843,0.009985635937925605,0.9996151927133052,64.15780923176924,3.9408083897305737,361.8019147645679,-99.28627050961714,-1.99468994140625,4761.76025390625,True
1599386161.3433251,0.0,10,0.5,0.5,-9.452255783081055,-0.1005,-0.001,-0.001,0.03723262426689246,10,1,100,0.34141146299637026,-10,-1,-100,19061.256028270116,-0.026410768059126257,0.009298336202864235,0.999607929277467,63.41526322432832,3.8966468275160397,359.74109719833797,-99.83261297159663,3.29046630859375,4761.76025390625,True
1599386161.3752408,0.0,10,0.5,0.5,-9.451140316772461,-0.1005,-0.001,-0.001,0.10521205902785678,10,1,100,0.2887395168666957,-10,-1,-100,19061.256028270116,-0.026410768059126257,0.009298336202864235,0.999607929277467,63.41526322432832,3.8966468275160397,359.74109719833797,-99.83261297159663,3.29046630859375,4761.76025390625,True
1599386161.4101484,0.0,10,0.5,0.5,-9.618553656005862,-0.1005,-0.001,-0.001,0.0856317537976619,10,1,100,0.30840231691441145,-10,-1,-100,19059.255734017584,-0.026586157488566565,0.009126107501338928,0.9996048671309414,64.21443004243956,3.9459804949772375,364.99290337312317,-100.01470351654375,4.904510498046875,4761.76025390625,True
1599386161.4460528,0.0,10,0.5,0.5,-9.925575082397462,-0.1005,-0.001,-0.001,0.07412551166238684,10,1,100,0.3303278114666014,-10,-1,-100,19055.24422187684,-0.026941707066124587,0.008870340358096893,0.999597649798305,65.66952819225779,4.035532172877874,374.73326867237296,-100.37882352259692,7.91107177734375,4761.76025390625,True
1599386161.4769368,0.0,10,0.5,0.5,-10.20098012084961,-0.1005,-0.001,-0.001,0.08189314465470561,10,1,100,0.3315347455068207,-10,-1,-100,19051.218147289008,-0.027272922171906046,0.008713098840441955,0.9995900507832207,66.94926826188656,4.113949613115622,383.5345933911852,-100.74286678230149,10.6221923828125,4761.76025390625,True
1599386161.5098822,0.0,10,0.5,0.5,-10.44650018005371,-0.1005,-0.001,-0.001,0.09353496946825443,10,1,100,0.33760091600421177,-10,-1,-100,19047.177513074712,-0.027626386170382135,0.00867989154521496,0.9995806332007079,68.0688649064783,4.182242234630929,391.4724718866698,-101.10683947616242,13.038299560546875,4761.76025390625,True
1599386161.5417972,0.0,10,0.5,0.5,-10.558234393310547,-0.1005,-0.001,-0.001,0.09971396453445378,10,1,100,0.32254456568879225,-10,-1,-100,19045.151736853993,-0.027808156967299512,0.008708973988309783,0.9995753399209851,68.57435050115275,4.212966983035573,395.14732289327765,-101.28880125403779,14.1357421875,4761.76025390625,True
1599386161.5786874,0.0,10,0.5,0.5,-10.849046537780763,-0.1005,-0.001,-0.001,0.1252999850519346,10,1,100,0.3660705881975044,-10,-1,-100,19039.052576130838,-0.02836645035449558,0.008970711260111829,0.9995573374418166,69.90047074226402,4.293205863038255,405.1369675588346,-101.83459726473023,16.985671997070312,4761.76025390625,True
1599386161.6096127,0.0,10,0.5,0.5,-10.848689657592773,-0.1005,-0.001,-0.001,0.09893083644464362,10,1,100,0.3105461410493627,-10,-1,-100,19039.052576130838,-0.02836645035449558,0.008970711260111829,0.9995573374418166,69.90047074226402,4.293205863038255,405.1369675588346,-101.83459726473023,16.985671997070312,4761.76025390625,True
1599386161.6424942,0.0,10,0.5,0.5,-11.006422082519531,-0.1005,-0.001,-0.001,0.1344807984915351,10,1,100,0.3538654068412527,-10,-1,-100,19034.96827796439,-0.028757668235110924,0.009295361001754454,0.9995431920540134,70.64535733675373,4.338014491167817,411.0367639698853,-102.19839434310109,18.51715087890625,4761.76025390625,True
1599386161.6753576,0.0,10,0.5,0.5,-11.1325096282959,-0.1005,-0.001,-0.001,0.15346253937431098,10,1,100,0.3596810257634761,-10,-1,-100,19030.869429294602,-0.02916357368892641,0.009763685933942232,0.9995269663229072,71.29476867337705,4.376903744512363,416.41276336215043,-102.56214426963349,19.7542724609375,4761.76025390625,True
1599386161.7112622,0.0,10,0.5,0.5,-11.18447424621582,-0.1005,-0.001,-0.001,0.13602237840581727,10,1,100,0.3426677733497149,-10,-1,-100,19028.81454900559,-0.02937541016533375,0.010030465909189289,0.9995181214121449,71.58756726930969,4.394378809775852,418.9251846007123,-102.74400311141727,20.26220703125,4761.76025390625,True
1599386161.7441769,0.0,10,0.5,0.5,-11.26639142150879,-0.1005,-0.001,-0.001,0.1805955574784812,10,1,100,0.3694310130195289,-10,-1,-100,19024.693877861253,-0.029808595829878545,0.01067753830579599,0.9994985931907955,72.11515130789532,4.425763123514145,423.6294822508405,-103.10769161196967,21.05755615234375,4761.76025390625,True
1599386161.7760918,0.0,10,0.5,0.5,-11.318086827087402,-0.1005,-0.001,-0.001,0.20293034267616167,10,1,100,0.3749981842985591,-10,-1,-100,19020.55866051046,-0.03025008213805471,0.011467419049231488,0.9994765784304254,72.57276306173733,4.452862415119686,427.94572817061373,-103.47134506140746,21.558792114257812,4761.76025390625,True
1599386161.8092735,0.0,10,0.5,0.5,-11.339959388732911,-0.1005,-0.001,-0.001,0.22441771203064326,10,1,100,0.3819905147483116,-10,-1,-100,19016.40889768838,-0.030711992354056313,0.012378471193130743,0.9994516231296867,72.96704075028885,4.476099245865973,431.908701800667,-103.83496754263743,21.765777587890625,4761.76025390625,True
1599386161.8461797,0.0,10,0.5,0.5,-11.340197694396972,-0.1005,-0.001,-0.001,0.19060725857834793,10,1,100,0.3612025440727813,-10,-1,-100,19014.3285621095,-0.03093980275320554,0.012896000499515845,0.9994380529961371,73.14195861209858,4.486366507045876,433.7655138605675,-104.01676851053563,21.759185791015625,4761.76025390625,True
1599386161.8780944,0.0,10,0.5,0.5,-11.263879627990724,-0.1005,-0.001,-0.001,0.4072565588945425,10,1,100,0.43815913609193463,-10,-1,-100,19005.970862422488,-0.0318434963011673,0.01533218795460016,0.9993752627295927,73.69890092638958,4.5187832600822215,440.382882768629,-104.74391518813694,20.998626708984375,4761.76025390625,True
1599386161.921991,0.0,10,0.5,0.5,-11.265326475524903,-0.1005,-0.001,-0.001,0.16430013478273997,10,1,100,0.34819331522914543,-10,-1,-100,19005.970862422488,-0.0318434963011673,0.01533218795460016,0.9993752627295927,73.69890092638958,4.5187832600822215,440.382882768629,-104.74391518813694,20.998626708984375,4761.76025390625,True
1599386161.955895,0.0,10,0.5,0.5,-11.227801562500002,-0.1005,-0.001,-0.001,0.241618329990268,10,1,100,0.3734982516593903,-10,-1,-100,19003.87234842754,-0.03207038022694528,0.016029297477673607,0.9993570694874138,73.80212810008989,4.524709555627285,441.83052471558625,-104.92568992682483,20.624969482421875,4761.76025390625,True
1599386161.987812,0.0,10,0.5,0.5,-11.130409266662598,-0.1005,-0.001,-0.001,0.34260361810760215,10,1,100,0.3952942239567425,-10,-1,-100,18999.664414513274,-0.03247141633501714,0.017574664584972904,0.9993181366741642,73.96382869533896,4.533863305550573,444.4652784010016,-105.28922894683846,19.658172607421875,4761.76025390625,True
1599386162.0167036,0.0,10,0.5,0.5,-10.928428215026857,-0.1005,-0.001,-0.001,0.47013129966869127,10,1,100,0.42393272052351294,-10,-1,-100,18993.32524880173,-0.03309296844923502,0.020131359693451967,0.999249510280646,74.08267457649231,4.54014940352354,447.68747458410655,-105.83451906180635,17.657562255859375,4761.76025390625,True
1599386162.0496345,0.0,10,0.5,0.5,-10.930219154357912,-0.1005,-0.001,-0.001,0.21549855619673589,10,1,100,0.36217044857775627,-10,-1,-100,18993.32524880173,-0.03309296844923502,0.020131359693451967,0.999249510280646,74.08267457649231,4.54014940352354,447.68747458410655,-105.83451906180635,17.657562255859375,4761.76025390625,True
1599386162.0835621,0.0,10,0.5,0.5,-10.555259272766113,-0.1005,-0.001,-0.001,0.6611423550432076,10,1,100,0.4235883324445456,-10,-1,-100,18984.82213469909,-0.0336479332495841,0.024173484324979653,0.9991413609913371,73.97257313334421,4.532447672956221,450.36962807656323,-106.56156341453881,13.9659423828125,4761.76025390625,True
1599386162.111984,0.0,10,0.5,0.5,-10.445968507385254,-0.1005,-0.001,-0.001,0.37821851045548766,10,1,100,0.3837965276770242,-10,-1,-100,18982.68726808054,-0.03378721271799698,0.025263839088280837,0.9991096850152492,73.88573551675567,4.526983416076974,450.6784837202826,-106.74332733151024,12.85980224609375,4761.76025390625,True
1599386162.143926,0.0,10,0.5,0.5,-10.19946756591797,-0.1005,-0.001,-0.001,0.529457362445997,10,1,100,0.38061254655469795,-10,-1,-100,18978.40662880533,-0.03388166956036941,0.02761742714570559,0.9990441983143957,73.6330511015653,4.511372018565816,450.80867339968194,-107.10686370500179,10.42889404296875,4761.76025390625,True
1599386162.1758797,0.0,10,0.5,0.5,-10.200764785766603,-0.1005,-0.001,-0.001,0.2956224522987792,10,1,100,0.3714838300380864,-10,-1,-100,18978.40662880533,-0.03388166956036941,0.02761742714570559,0.9990441983143957,73.6330511015653,4.511372018565816,450.80867339968194,-107.10686370500179,10.42889404296875,4761.76025390625,True
1599386162.2133207,0.0,10,0.5,0.5,-9.923198513793945,-0.1005,-0.001,-0.001,0.5720548483278158,10,1,100,0.37553264755864463,-10,-1,-100,18974.111447598436,-0.03391580256800433,0.03011706581265484,0.9989708107262215,73.25772155997443,4.488507526482375,450.176603271356,-107.47041688387583,7.705413818359375,4761.76025390625,True
1599386162.245247,0.0,10,0.5,0.5,-9.454328131103516,-0.1005,-0.001,-0.001,0.7685469432669124,10,1,100,0.3501989149558655,-10,-1,-100,18967.641407461604,-0.03371464200013188,0.03416231557491135,0.998847465386664,72.43144388158674,4.438729768701897,447.5749356902996,-108.01579316690768,3.072265625,4761.76025390625,True
1599386162.2758756,0.0,10,0.5,0.5,-9.457168643188478,-0.1005,-0.001,-0.001,0.36590497980329234,10,1,100,0.37050208631300763,-10,-1,-100,18967.641407461604,-0.03371464200013188,0.03416231557491135,0.998847465386664,72.43144388158674,4.438729768701897,447.5749356902996,-108.01579316690768,3.072265625,4761.76025390625,True
1599386162.3103664,0.0,10,0.5,0.5,-9.283834759521485,-0.1005,-0.001,-0.001,0.5244680031367982,10,1,100,0.3500432681761083,-10,-1,-100,18965.47745539376,-0.03352715796091171,0.03558731304330937,0.9988040212321041,72.0789557594651,4.417629646101986,446.21945800715173,-108.1976012477187,1.3818359375,4761.76025390625,True
1599386162.3462787,0.0,10,0.5,0.5,-8.9182752532959,-0.1005,-0.001,-0.001,0.7066511112786102,10,1,100,0.31192561833148735,-10,-1,-100,18961.138641916797,-0.033009234070646015,0.03852260022636192,0.9987123708745522,71.24089269825504,4.367659932308375,442.6592653187314,-108.56124644433271,-2.2183837890625,4761.76025390625,True
1599386162.3764408,0.0,10,0.5,0.5,-8.524828369140625,-0.1005,-0.001,-0.001,0.752554433918094,10,1,100,0.3017749553222592,-10,-1,-100,18956.78528117994,-0.03244619153793748,0.041591626743556896,0.998607721399904,70.20630062958556,4.306227943259533,437.8371572795791,-108.92493666551478,-6.110595703125,4761.76025390625,True
1599386162.4103591,0.0,10,0.5,0.5,-7.878088714599611,-0.1005,-0.001,-0.001,0.9710372850327103,10,1,100,0.20295311253400908,-10,-1,-100,18950.227960179094,-0.031036542280046805,0.046348349253821475,0.9984430697664962,68.76648904726734,4.22223127001033,431.2202651303513,-109.47055691261363,-12.497344970703125,4761.76025390625,True
1599386162.4443035,0.0,10,0.5,0.5,-7.881829135131836,-0.1005,-0.001,-0.001,0.49758252049913665,10,1,100,0.3436568992261227,-10,-1,-100,18950.227960179094,-0.031036542280046805,0.046348349253821475,0.9984430697664962,68.76648904726734,4.22223127001033,431.2202651303513,-109.47055691261363,-12.497344970703125,4761.76025390625,True
1599386162.4802072,0.0,10,0.5,0.5,-7.409982919311524,-0.1005,-0.001,-0.001,0.8551467318316613,10,1,100,0.20444970841009474,-10,-1,-100,18945.838226971682,-0.029773522973026507,0.049579765256693935,0.9983262914532832,70.19138271829424,4.3136776606729805,441.7632228218104,-109.83424265845095,-17.12109375,4761.76025390625,True
1599386162.513119,0.0,10,0.5,0.5,-7.166006576538087,-0.1005,-0.001,-0.001,0.7091082721220999,10,1,100,0.24566518398240345,-10,-1,-100,18943.637905910728,-0.029003744423290262,0.05116982804548108,0.9982687170833434,70.88192439132008,4.358402141334068,446.92074240775514,-110.01604883683171,-19.543212890625,4761.76025390625,True
1599386162.550023,0.0,10,0.5,0.5,-6.651516491699219,-0.1005,-0.001,-0.001,0.9092485408871043,10,1,100,0.13835847020106506,-10,-1,-100,18939.226357514388,-0.027332864639278854,0.054413385386878725,0.9981443272399788,72.19039283262715,4.444025118751767,456.82239885200016,-110.37958679014615,-24.606414794921875,4761.76025390625,True
1599386162.5799396,0.0,10,0.5,0.5,-6.109554702758789,-0.1005,-0.001,-0.001,0.9312369856991327,10,1,100,0.07977413576558404,-10,-1,-100,18934.80027051433,-0.025287282647972042,0.05753988126864573,0.9980229032441449,73.53403209869347,4.532553505242974,467.004739373868,-110.74302100989433,-29.9639892578125,4761.76025390625,True
1599386162.6131985,0.0,10,0.5,0.5,-5.828571466064453,-0.1005,-0.001,-0.001,0.7927189560938782,10,1,100,0.1617185720441442,-10,-1,-100,18932.581776542705,-0.024180273312363814,0.05910164310502821,0.9979590723896572,74.17415442553528,4.575084398018921,471.9160654474707,-110.92469836964328,-32.752532958984375,4761.76025390625,True
1599386162.6471078,0.0,10,0.5,0.5,-4.933736239624023,-0.1005,-0.001,-0.001,1.1234568314499822,10,1,100,-0.14689902584153725,-10,-1,-100,18925.904498059535,-0.02037695427074811,0.06350546243449494,0.9977734392013192,76.00648980561725,4.697754591643948,486.1690417722982,-111.46957573066877,-41.560821533203125,4761.76025390625,True
1599386162.677028,0.0,10,0.5,0.5,-4.304850985717774,-0.1005,-0.001,-0.001,0.9862096975104678,10,1,100,-0.08335929293797167,-10,-1,-100,18921.434820620576,-0.017508980171757307,0.06623585319874985,0.9976503632858451,77.00134683627658,4.76558391145062,494.28074107859186,-111.83270793896989,-47.80120849609375,4761.76025390625,True
1599386162.710937,0.0,10,0.5,0.5,-3.978615731811524,-0.1005,-0.001,-0.001,0.8584739960996919,10,1,100,0.033402054008797644,-10,-1,-100,18919.194535641116,-0.015977288921189832,0.06753159910527236,0.9975891986990504,77.38888853437828,4.792600347077354,497.6457319053997,-112.01424505402082,-51.03192138671875,4761.76025390625,True
1599386162.7528245,0.0,10,0.5,0.5,-3.641810824584961,-0.1005,-0.001,-0.001,0.8577803883684993,10,1,100,0.012875414705908056,-10,-1,-100,18916.95062023576,-0.014413208247571993,0.0686796626114986,0.9975346426924645,77.69417492539803,4.814408932382035,500.4890232962628,-112.19576687070409,-54.3377685546875,4761.76025390625,True
1599386162.784741,0.0,10,0.5,0.5,-2.2238417175292966,-0.1005,-0.001,-0.001,1.1863661963628223,10,1,100,-0.5769318421230425,-10,-1,-100,18907.938657771214,-0.007644544694958475,0.0726901992231457,0.9973252708486364,77.95889048477079,4.840702768596271,505.7244739300331,-112.92177208511013,-68.29925537109375,4761.76025390625,True
1599386162.813662,0.0,10,0.5,0.5,-2.232223013305664,-0.1005,-0.001,-0.001,0.7879467201950459,10,1,100,0.09759531337980046,-10,-1,-100,18907.938657771214,-0.007644544694958475,0.0726901992231457,0.9973252708486364,77.95889048477079,4.840702768596271,505.7244739300331,-112.92177208511013,-68.29925537109375,4761.76025390625,True
1599386162.8475716,0.0,10,0.5,0.5,-1.854019595336914,-0.1005,-0.001,-0.001,0.8779361487875905,10,1,100,-0.10033864184082546,-10,-1,-100,18905.676592317177,-0.005865262355023756,0.07348727545219932,0.9972789073494532,77.75121984649392,4.829812605588738,505.25797226430836,-113.10327286114475,-71.9749755859375,4761.76025390625,True
1599386162.8814805,0.0,10,0.5,0.5,-0.6879558471679689,-0.1005,-0.001,-0.001,1.0028701723190505,10,1,100,-0.5136760899553613,-10,-1,-100,18898.868613434024,-0.0005111547741039271,0.07532736546761888,0.99715872694998,76.3783264979498,4.749594662765391,498.93604051203386,-113.64784389389223,-83.44784545898438,4761.76025390625,True
1599386162.914393,0.0,10,0.5,0.5,0.12042236022949218,-0.1005,-0.001,-0.001,0.909238556743493,10,1,100,-0.3820027124093979,-10,-1,-100,18894.31180548109,0.0031348016764369997,0.0761299653581491,0.9970929753002056,74.79270766242854,4.653962798883361,490.27999179641915,-114.0109903205026,-91.46722412109375,4761.76025390625,True
1599386162.947304,0.0,10,0.5,0.5,0.5354891494750977,-0.1005,-0.001,-0.001,0.8570170195930831,10,1,100,-0.204847996813989,-10,-1,-100,18892.027953205863,0.004812971867584662,0.07636796029900057,0.997068086913613,73.78662304630025,4.592860594535244,484.5258858297194,-114.19260499861213,-95.57496643066406,4761.76025390625,True
1599386162.978222,0.0,10,0.5,0.5,1.3842855644226075,-0.1005,-0.001,-0.001,0.8650980540765653,10,1,100,-0.40762771566819367,-10,-1,-100,18887.449349324335,0.008155675626229899,0.07664208663399359,0.9970253133754764,71.36000268916438,4.445027931131158,470.22009130159614,-114.55593256115235,-103.91606903076172,4761.76025390625,True
1599386163.0141253,0.0,10,0.5,0.5,1.3821799865722657,-0.1005,-0.001,-0.001,0.8389990829972133,10,1,100,-0.07621060279336778,-10,-1,-100,18887.449349324335,0.008155675626229899,0.07664208663399359,0.9970253133754764,71.36000268916438,4.445027931131158,470.22009130159614,-114.55593256115235,-103.91606903076172,4761.76025390625,True
1599386163.04604,0.0,10,0.5,0.5,2.650689456176758,-0.1005,-0.001,-0.001,0.8206516474782946,10,1,100,-0.5937822737204547,-10,-1,-100,18880.554183996515,0.012837541129387064,0.07646583155342593,0.9969895556838068,66.82512202705794,4.168324455204056,442.62707039725694,-115.10119821103464,-116.35841369628906,4761.76025390625,True
1599386163.077013,0.0,10,0.5,0.5,3.4575177482604977,-0.1005,-0.001,-0.001,0.7871003611924775,10,1,100,-0.43818400343707453,-10,-1,-100,18875.939228704432,0.01565305746599869,0.07599246593899503,0.9969855199111353,67.37834643831903,4.207693729745512,447.8270330923121,-115.46475730184952,-124.36568450927734,4761.76025390625,True
1599386163.1109216,0.0,10,0.5,0.5,3.456513269042969,-0.1005,-0.001,-0.001,0.835168202968317,10,1,100,-0.15963899634726914,-10,-1,-100,18875.939228704432,0.01565305746599869,0.07599246593899503,0.9969855199111353,67.37834643831903,4.207693729745512,447.8270330923121,-115.46475730184952,-124.36568450927734,4761.76025390625,True
1599386163.1468241,0.0,10,0.5,0.5,4.24549482421875,-0.1005,-0.001,-0.001,0.7634014772606341,10,1,100,-0.4354388143689566,-10,-1,-100,18871.309735680232,0.018139148900594978,0.0753370390991835,0.9969931302756956,69.33699514329321,4.335414456669737,462.4210604767174,-115.8281641953809,-132.0836639404297,4761.76025390625,True
1599386163.1827214,0.0,10,0.5,0.5,4.624609921264649,-0.1005,-0.001,-0.001,0.787966860934589,10,1,100,-0.31392998841217423,-10,-1,-100,18868.989539258182,0.019271166610988533,0.07496211196923076,0.997000152410502,70.16232771932579,4.389763635648396,468.72112318214084,-116.00981700342626,-135.8319854736328,4761.76025390625,True
1599386163.2136486,0.0,10,0.5,0.5,6.07397077331543,-0.1005,-0.001,-0.001,0.6235783815609572,10,1,100,-0.6171935120656636,-10,-1,-100,18859.672433511936,0.02303436344549984,0.07312548764177068,0.9970567090982408,72.57874392717181,4.551400064322113,488.14905968280556,-116.7361735652599,-150.08541870117188,4761.76025390625,True
1599386163.244565,0.0,10,0.5,0.5,6.066381097412109,-0.1005,-0.001,-0.001,0.8070206265243806,10,1,100,-0.2432283804364933,-10,-1,-100,18859.672433511936,0.02303436344549984,0.07312548764177068,0.9970567090982408,72.57874392717181,4.551400064322113,488.14905968280556,-116.7361735652599,-150.08541870117188,4761.76025390625,True
1599386163.2804332,0.0,10,0.5,0.5,6.750375233459473,-0.1005,-0.001,-0.001,0.694672529028332,10,1,100,-0.3977246824751155,-10,-1,-100,18854.992094030487,0.02442078477151544,0.07210687264427604,0.9970979010050143,73.19997424764813,4.594766803757683,493.98209810541834,-117.0992493310621,-156.7665252685547,4761.76025390625,True
1599386163.311416,0.0,10,0.5,0.5,7.077386814880372,-0.1005,-0.001,-0.001,0.7492323118994323,10,1,100,-0.3244533154444217,-10,-1,-100,18852.646478366223,0.024997239174065194,0.07168073075234066,0.9971143419249796,73.36142296942515,4.606875664718996,495.90112828663155,-117.28077556620158,-159.9938507080078,4761.76025390625,True
1599386163.3434644,0.0,10,0.5,0.5,7.712362734222412,-0.1005,-0.001,-0.001,0.6891149186689147,10,1,100,-0.3680726852380902,-10,-1,-100,18847.9443558763,0.02590251784400938,0.07075131759928711,0.9971576157395106,73.42562280240921,4.614439028242127,497.9970693823337,-117.64382196699563,-166.226318359375,4761.76025390625,True
1599386163.378148,0.0,10,0.5,0.5,8.314528131103517,-0.1005,-0.001,-0.001,0.6907286385067956,10,1,100,-0.3461518147802589,-10,-1,-100,18843.22771107254,0.026510084319598556,0.069926421975978,0.9971998350075101,73.19003040765152,4.602713063790561,498.05871853633687,-118.00687892186045,-172.15899658203125,4761.76025390625,True
1599386163.413421,0.0,10,0.5,0.5,8.603878590393068,-0.1005,-0.001,-0.001,0.7298725022978099,10,1,100,-0.30679331349793343,-10,-1,-100,18840.86394262663,0.026692183337394655,0.06953831508886751,0.9972221167238943,72.97679500174738,4.590726020872501,497.4362927371762,-118.18841705980586,-175.01321411132812,4761.76025390625,True
1599386163.4443402,0.0,10,0.5,0.5,-26.851283959198003,-0.1005,-0.001,-0.001,0.63703429185368,10,1,100,-0.29848819235946067,-10,-1,-100,18831.37255739642,0.026772191228794633,0.06834737432459329,0.9973023043188775,71.63947192765714,4.5119597268953875,491.5836432801473,-118.91467102525479,174.3205108642578,4761.76025390625,True
1599386163.4781027,0.0,10,0.5,0.5,-26.53181885375977,-0.1005,-0.001,-0.001,0.7553638591196626,10,1,100,-0.29159931659574245,-10,-1,-100,18831.37255739642,0.026772191228794633,0.06834737432459329,0.9973023043188775,71.63947192765714,4.5119597268953875,491.5836432801473,-118.91467102525479,174.3205108642578,4761.76025390625,True
1599386163.51042,0.0,10,0.5,0.5,-26.31083263092041,-0.1005,-0.001,-0.001,0.7313097925059145,10,1,100,-0.2754550773209442,-10,-1,-100,18828.99063196464,0.026617577196907195,0.0681350552324452,0.9973209708176393,71.21438665816854,4.486564618505894,489.4798683318085,-119.09626479916597,171.8414306640625,4761.76025390625,True
1599386163.5461726,0.0,10,0.5,0.5,-25.604375500488285,-0.1005,-0.001,-0.001,0.7105040749933926,10,1,100,-0.2022272247379809,-10,-1,-100,18821.82306191814,0.025804632680268114,0.06775910140468473,0.99736794870753,69.78891224524938,4.401181576518662,482.07706193053326,-119.64112760233901,164.5537109375,4761.76025390625,True
1599386163.5770876,0.0,10,0.5,0.5,-25.643127133178712,-0.1005,-0.001,-0.001,0.747562819145731,10,1,100,-0.2837987033253659,-10,-1,-100,18821.82306191814,0.025804632680268114,0.06775910140468473,0.99736794870753,69.78891224524938,4.401181576518662,482.07706193053326,-119.64112760233901,164.5537109375,4761.76025390625,True
1599386163.610566,0.0,10,0.5,0.5,-25.154177426147463,-0.1005,-0.001,-0.001,0.745558312740218,10,1,100,-0.1909760322109369,-10,-1,-100,18817.026517314254,0.024958271789014424,0.06774575715212287,0.9973903935055678,68.62463171384138,4.331115103251113,475.60754833962346,-120.0044446575721,159.42648315429688,4761.76025390625,True
1599386163.6442423,0.0,10,0.5,0.5,-24.356383198547366,-0.1005,-0.001,-0.001,0.7840879593843639,10,1,100,-0.09183652367486617,-10,-1,-100,18809.804446965805,0.023287095912985428,0.06808786017882447,0.9974075167453914,67.02801322890605,4.236237592482958,466.84875272431947,-120.54953748937835,151.20440673828125,4761.76025390625,True
1599386163.6801434,0.0,10,0.5,0.5,-23.802826083374026,-0.1005,-0.001,-0.001,0.8061849217505277,10,1,100,-0.10848494855037172,-10,-1,-100,18804.97156577045,0.021920749109337372,0.06860301065240333,0.9974031821123852,69.03246136739473,4.367685521751673,482.39332481318223,-120.91284703652222,145.363037109375,4761.76025390625,True
1599386163.7100701,0.0,10,0.5,0.5,-23.839826388549806,-0.1005,-0.001,-0.001,0.754455043697953,10,1,100,-0.24472145204171003,-10,-1,-100,18804.97156577045,0.021920749109337372,0.06860301065240333,0.9974031821123852,69.03246136739473,4.367685521751673,482.39332481318223,-120.91284703652222,145.363037109375,4761.76025390625,True
1599386163.7440383,0.0,10,0.5,0.5,-22.92731697998047,-0.1005,-0.001,-0.001,0.8860168683880298,10,1,100,0.024933053947968048,-10,-1,-100,18797.69500503759,0.019473516632349627,0.06980023034169819,0.9973708989108393,72.07564050928512,4.568462562967467,506.1369201919952,-121.4575528031246,136.05996704101562,4761.76025390625,True
1599386163.7769501,0.0,10,0.5,0.5,-22.967727368164066,-0.1005,-0.001,-0.001,0.7663210909838273,10,1,100,-0.21906832708030197,-10,-1,-100,18797.69500503759,0.019473516632349627,0.06980023034169819,0.9973708989108393,72.07564050928512,4.568462562967467,506.1369201919952,-121.4575528031246,136.05996704101562,4761.76025390625,True
1599386163.8243334,0.0,10,0.5,0.5,-22.29790978240967,-0.1005,-0.001,-0.001,0.8925153048527341,10,1,100,-0.020135398192093618,-10,-1,-100,18792.825813528267,0.017671670619362683,0.07094612968958179,0.9973235978054416,74.02765172354977,4.698032937062768,521.5395816043618,-121.82051646608426,129.49847412109375,4761.76025390625,True
1599386163.854257,0.0,10,0.5,0.5,-20.880522351074223,-0.1005,-0.001,-0.001,1.122841378444351,10,1,100,0.2489411201971973,-10,-1,-100,18783.043891925132,0.013595751822753209,0.07407936726088614,0.9971596676955006,77.62257486767369,4.9378093826407525,550.419519531031,-122.54606023684593,115.51358032226562,4761.76025390625,True
1599386163.881184,0.0,10,0.5,0.5,-20.88887445983887,-0.1005,-0.001,-0.001,0.8101120525167602,10,1,100,-0.1573485769263347,-10,-1,-100,18783.043891925132,0.013595751822753209,0.07407936726088614,0.9971596676955006,77.62257486767369,4.9378093826407525,550.419519531031,-122.54606023684593,115.51358032226562,4761.76025390625,True
1599386163.911106,0.0,10,0.5,0.5,-19.743094401550294,-0.1005,-0.001,-0.001,1.1644913628680547,10,1,100,0.21902071293278091,-10,-1,-100,18775.669370555785,0.010185311806631717,0.0772952516587559,0.9969562194471789,79.41319180126636,5.059337822629085,565.8480345969,-123.08997796020415,104.27342224121094,4761.76025390625,True
1599386163.9471827,0.0,10,0.5,0.5,-19.74830653076172,-0.1005,-0.001,-0.001,0.8438565381064851,10,1,100,-0.12046135659200463,-10,-1,-100,18775.669370555785,0.010185311806631717,0.0772952516587559,0.9969562194471789,79.41319180126636,5.059337822629085,565.8480345969,-123.08997796020415,104.27342224121094,4761.76025390625,True
1599386163.977099,0.0,10,0.5,0.5,-18.945893252563476,-0.1005,-0.001,-0.001,1.1241834486854392,10,1,100,0.12136605344992259,-10,-1,-100,18770.73489438265,0.008000310769870908,0.07983499675992219,0.9967759870301495,80.03799282582268,5.103596268859911,572.1421076667696,-123.45253953505443,96.42221069335938,4761.76025390625,True
1599386164.0111458,0.0,10,0.5,0.5,-18.539001443481446,-0.1005,-0.001,-0.001,1.0293321359393195,10,1,100,0.03641734422383272,-10,-1,-100,18768.262218019343,0.006800104261364731,0.08127089206639854,0.9966688520691144,80.14365948067392,5.1124357236988685,573.8227493703065,-123.6338203734937,92.39004516601562,4761.76025390625,True
1599386164.0440102,0.0,10,0.5,0.5,-17.266396771240235,-0.1005,-0.001,-0.001,1.412235162869245,10,1,100,0.28325799378702765,-10,-1,-100,18760.822432808578,0.003478747571100954,0.08604567178854546,0.9962851201748395,79.52569452955699,5.079371009158018,572.1669013353683,-124.17772520845598,79.86453247070312,4761.76025390625,True
1599386164.0800383,0.0,10,0.5,0.5,-16.388693943786624,-0.1005,-0.001,-0.001,1.3398173196182344,10,1,100,0.1847287339966535,-10,-1,-100,18755.844442810863,0.0013718183976265917,0.08971217963263697,0.9959667880706895,78.23778386940418,5.00203733494203,564.7282584723819,-124.54043026333359,71.15834045410156,4761.76025390625,True
1599386164.1089628,0.0,10,0.5,0.5,-16.39090997314453,-0.1005,-0.001,-0.001,0.9751577301381765,10,1,100,-0.024154013527310454,-10,-1,-100,18755.844442810863,0.0013718183976265917,0.08971217963263697,0.9959667880706895,78.23778386940418,5.00203733494203,564.7282584723819,-124.54043026333359,71.15834045410156,4761.76025390625,True
