Timestamp,Input Throttle,horizon,dT,dt,Input Roll,Roll P,Roll I,Roll D,Input Pitch,Pitch P,Pitch I,Pitch D,Input Yaw,Yaw P,Yaw I,Yaw D,Altitude,Direction X,Direction Y,Direction Z,Drag X,Drag Y,Drag Z,Vertical Velocity,Roll,Mass,Has Fuel
1599385252.0026793,0.0,10,0.5,0.5,-0.055518875122070314,-0.001,-0.03,-0.2505,-0.00016018636995897327,10,1,100,0.4982009600822823,-10,-1,-100,19349.72230220295,-0.04884949853672957,-0.00017569970442547975,0.9988061351545273,61.07696049053273,3.6863234488361836,233.73317464765705,-68.66499497653825,-33.923065185546875,4761.76025390625,True
1599385252.0205972,0.0,10,0.5,0.5,-0.22370140075683592,-0.001,-0.03,-0.2505,0.00011831155949495174,10,1,100,0.5048672843084631,-10,-1,-100,19346.964754850953,-0.04895392898297952,-0.00015849171738736796,0.9988010250883329,61.256785291331724,3.6985268189540212,235.71460136843845,-69.0299048874678,-33.92547607421875,4761.76025390625,True
1599385252.0385768,0.0,10,0.5,0.5,-0.3925289001464844,-0.001,-0.03,-0.2505,-0.0016183363160549645,10,1,100,0.4993196325817661,-10,-1,-100,19346.964754850953,-0.04895392898297952,-0.00015849171738736796,0.9988010250883329,61.256785291331724,3.6985268189540212,235.71460136843845,-69.0299048874678,-33.92547607421875,4761.76025390625,True
1599385252.0654838,0.0,10,0.5,0.5,-0.5598007507324219,-0.001,-0.03,-0.2505,0.011036547854840584,10,1,100,0.5093398562972894,-10,-1,-100,19344.192611434497,-0.0490005183540452,-4.330323245432899e-05,0.9987987521647516,61.43770707690684,3.7108113948866444,237.70857245256883,-69.39480105247901,-33.92926025390625,4761.76025390625,True
1599385252.1024525,0.0,10,0.5,0.5,-0.7255684814453124,-0.001,-0.03,-0.2505,0.01127189850809163,10,1,100,0.5088395592546495,-10,-1,-100,19342.80106651073,-0.048993778247031786,6.359248999840169e-05,0.9987990817221829,61.526955685920925,3.716886030552555,238.70398776817564,-69.57724399397367,-33.9427490234375,4761.76025390625,True
1599385252.1233847,0.0,10,0.5,0.5,-0.8971191711425781,-0.001,-0.03,-0.2505,0.0005886855118184026,10,1,100,0.5144129477806944,-10,-1,-100,19342.80106651073,-0.048993778247031786,6.359248999840169e-05,0.9987990817221829,61.526955685920925,3.716886030552555,238.70398776817564,-69.57724399397367,-33.9427490234375,4761.76025390625,True
1599385252.1423097,0.0,10,0.5,0.5,-1.0106897583007812,-0.001,-0.03,-0.2505,0.04810080984355852,10,1,100,0.509502108260361,-10,-1,-100,19338.604538898217,-0.048904594452986,0.000495463081659677,0.9988033315711976,61.78682496030104,3.7346552560389927,241.67179284941432,-70.12455194505837,-34.15985107421875,4761.76025390625,True
1599385252.167088,0.0,10,0.5,0.5,-1.232594268798828,-0.001,-0.03,-0.2505,0.004963296985596963,10,1,100,0.5233109471102383,-10,-1,-100,19338.604538898217,-0.048904594452986,0.000495463081659677,0.9988033315711976,61.78682496030104,3.7346552560389927,241.67179284941432,-70.12455194505837,-34.15985107421875,4761.76025390625,True
1599385252.200278,0.0,10,0.5,0.5,-1.3590065002441405,-0.001,-0.03,-0.2505,0.028596929350622646,10,1,100,0.5199206088176889,-10,-1,-100,19337.19839920348,-0.048829314473551017,0.0007098638639947653,0.9988068853093361,61.874058437138444,3.74061924773354,242.66745581874565,-70.30698073340096,-34.32330322265625,4761.76025390625,True
1599385252.2352278,0.0,10,0.5,0.5,-1.3467807006835937,-0.001,-0.03,-0.2505,0.10305708044812446,10,1,100,0.4902115621893487,-10,-1,-100,19332.958089447464,-0.04844640560064926,0.001581038799854867,0.9988245321880568,62.14488192622665,3.75905091983717,245.70252892877315,-70.85424389722074,-35.1988525390625,4761.76025390625,True
1599385252.2672586,0.0,10,0.5,0.5,-1.4936611480712891,-0.001,-0.03,-0.2505,0.1004700347325034,10,1,100,0.4901386952778837,-10,-1,-100,19330.11297467712,-0.04805360201190648,0.0023480601088585362,0.9988419984899548,62.33437823313253,3.771844100934356,247.77174385254028,-71.21906503194629,-36.140594482421875,4761.76025390625,True
1599385252.300202,0.0,10,0.5,0.5,-1.7229149169921874,-0.001,-0.03,-0.2505,0.024020279813464888,10,1,100,0.5293394644996794,-10,-1,-100,19330.11297467712,-0.04805360201190648,0.0023480601088585362,0.9988419984899548,62.33437823313253,3.771844100934356,247.77174385254028,-71.21906503194629,-36.140594482421875,4761.76025390625,True
1599385252.334316,0.0,10,0.5,0.5,-1.5701880340576173,-0.001,-0.03,-0.2505,0.07085552826723551,10,1,100,0.5019702969750155,-10,-1,-100,19328.684945209185,-0.04780560987711051,0.0027715564113235,0.9988528130507198,62.42997490636705,3.7782722520826804,248.81293635605206,-71.40146895709292,-36.721435546875,4761.76025390625,True
1599385252.370841,0.0,10,0.5,0.5,-0.9386324768066404,-0.001,-0.03,-0.2505,0.25680076390146245,10,1,100,0.38572909395198524,-10,-1,-100,19322.936348376097,-0.04652446819900105,0.004844300602849429,0.9989054042352906,62.788310851765836,3.8023150515392805,252.90227398686835,-72.13103915332609,-39.77777099609375,4761.76025390625,True
1599385252.400907,0.0,10,0.5,0.5,-1.4483695678710937,-0.001,-0.03,-0.2505,0.11500679773723549,10,1,100,0.4690574321578247,-10,-1,-100,19321.490079888026,-0.04611957524818649,0.005435134171984299,0.9989211400783644,62.86451036318753,3.807442771635915,253.87558309702777,-72.31342058484003,-40.72540283203125,4761.76025390625,True
1599385252.4339283,0.0,10,0.5,0.5,-1.4086228637695313,-0.001,-0.03,-0.2505,0.12504322409112223,10,1,100,0.461091051852777,-10,-1,-100,19320.04016376869,-0.04568168202012631,0.006058612618340436,0.9989376743025328,62.931872391471956,3.8119985881641716,254.81483695831292,-72.4957977689454,-41.74639892578125,4761.76025390625,True
1599385252.4673102,0.0,10,0.5,0.5,-0.7623792724609374,-0.001,-0.03,-0.2505,0.28074995597558566,10,1,100,0.3352212445232704,-10,-1,-100,19315.66853109363,-0.04414233728819146,0.008035476932042644,0.9989929354951466,63.05811539305157,3.820810499212999,257.3323814291964,-73.04290719588586,-45.23980712890625,4761.76025390625,True
1599385252.503214,0.0,10,0.5,0.5,-1.274658645629883,-0.001,-0.03,-0.2505,0.16184704417273954,10,1,100,0.42423994532472964,-10,-1,-100,19314.20402564539,-0.043556523227504675,0.008744836188245703,0.9990126911728263,63.06707176156648,3.821641215575801,258.03808213484257,-73.22527101775896,-46.550262451171875,4761.76025390625,True
1599385252.5342155,0.0,10,0.5,0.5,-0.8536771392822262,-0.001,-0.03,-0.2505,0.24857080252788089,10,1,100,0.34033746683575267,-10,-1,-100,19311.2640731032,-0.0422660770690037,0.010170606612471053,0.9990546218752662,63.01968838827082,3.8191769006873697,259.18197319938275,-73.58999280417427,-49.381591796875,4761.76025390625,True
1599385252.5673275,0.0,10,0.5,0.5,-1.5177502746582028,-0.001,-0.03,-0.2505,0.10693983438019343,10,1,100,0.46872575894539564,-10,-1,-100,19311.2640731032,-0.0422660770690037,0.010170606612471053,0.9990546218752662,63.01968838827082,3.8191769006873697,259.18197319938275,-73.58999280417427,-49.381591796875,4761.76025390625,True
1599385252.6003256,0.0,10,0.5,0.5,-0.27827450561523426,-0.001,-0.03,-0.2505,0.3555127141214127,10,1,100,0.22369994800052656,-10,-1,-100,19306.826790014864,-0.04004418817726093,0.012422551366652487,0.9991206850079559,62.744361403157825,3.8026568230653663,260.04891608836317,-74.1370720401535,-54.1407470703125,4761.76025390625,True
1599385252.6252613,0.0,10,0.5,0.5,-1.4164424438476562,-0.001,-0.03,-0.2505,0.1313256878290488,10,1,100,0.44508789579133884,-10,-1,-100,19306.826790014864,-0.04004418817726093,0.012422551366652487,0.9991206850079559,62.744361403157825,3.8026568230653663,260.04891608836317,-74.1370720401535,-54.1407470703125,4761.76025390625,True
1599385252.6442113,0.0,10,0.5,0.5,-0.020146697998046914,-0.001,-0.03,-0.2505,0.3796323654358804,10,1,100,0.1615003524582313,-10,-1,-100,19302.356681690202,-0.03747340088680963,0.014670726171025689,0.9991899289022039,62.15461039988674,3.7665603092554356,259.587342613038,-74.68416912340662,-59.4779052734375,4761.76025390625,True
1599385252.667153,0.0,10,0.5,0.5,-0.8215633392333984,-0.001,-0.03,-0.2505,0.23400044005326925,10,1,100,0.3159172864465165,-10,-1,-100,19300.85935063206,-0.03654950475810222,0.015379777426286951,0.9992134887741735,61.87825729843656,3.749595763822312,259.09172248064874,-74.86654367252105,-61.335845947265625,4761.76025390625,True
1599385252.7000575,0.0,10,0.5,0.5,-1.222303253173828,-0.001,-0.03,-0.2505,0.16414886220948677,10,1,100,0.40730940297316726,-10,-1,-100,19300.85935063206,-0.03654950475810222,0.015379777426286951,0.9992134887741735,61.87825729843656,3.749595763822312,259.09172248064874,-74.86654367252105,-61.335845947265625,4761.76025390625,True
1599385252.7344456,0.0,10,0.5,0.5,-0.6794766387939452,-0.001,-0.03,-0.2505,0.2507430126682143,10,1,100,0.2981414170343591,-10,-1,-100,19299.358372035786,-0.03556576858637677,0.016157956391135108,0.999236706966934,61.562617459090326,3.7302134385558365,258.4256404570948,-75.04892438781978,-63.24835205078125,4761.76025390625,True
1599385252.7701678,0.0,10,0.5,0.5,-0.10853858947753914,-0.001,-0.03,-0.2505,0.3267928097844801,10,1,100,0.172411822547935,-10,-1,-100,19296.34547146922,-0.033537662947144095,0.017547572384078763,0.9992833971739294,60.79943550622384,3.6833817371285087,256.51788693957445,-75.4137083307228,-67.16690063476562,4761.76025390625,True
1599385252.8010855,0.0,10,0.5,0.5,0.02121945190429697,-0.001,-0.03,-0.2505,0.34463340237820156,10,1,100,0.13036939159307032,-10,-1,-100,19293.31797833636,-0.03132136724310748,0.018964399496286793,0.9993294369254654,59.85022109792954,3.625252711147758,253.79026548393702,-75.77852895576117,-71.32424926757812,4761.76025390625,True
1599385252.8337197,0.0,10,0.5,0.5,0.7259082794189453,-0.001,-0.03,-0.2505,0.41305767745930816,10,1,100,-0.03535117999253634,-10,-1,-100,19288.749374092673,-0.027811125185009042,0.020865172496024115,0.9993954101819033,58.00891749590708,3.512946800960712,247.84212392264806,-76.32584734261323,-77.97149658203125,4761.76025390625,True
1599385252.867657,0.0,10,0.5,0.5,-0.8534574584960938,-0.001,-0.03,-0.2505,0.2240498340739312,10,1,100,0.3142275306289082,-10,-1,-100,19288.749374092673,-0.027811125185009042,0.020865172496024115,0.9993954101819033,58.00891749590708,3.512946800960712,247.84212392264806,-76.32584734261323,-77.97149658203125,4761.76025390625,True
1599385252.902677,0.0,10,0.5,0.5,0.3701026153564454,-0.001,-0.03,-0.2505,0.3509991452327649,10,1,100,0.04265279852355758,-10,-1,-100,19285.685391710373,-0.025355404849400395,0.02200953481030119,0.9994361829663548,56.526517224579685,3.42291978819282,242.71856236107365,-76.69079395744696,-82.49551391601562,4761.76025390625,True
1599385252.9332962,0.0,10,0.5,0.5,-0.11653019714355473,-0.001,-0.03,-0.2505,0.2937720735133671,10,1,100,0.15183823760220622,-10,-1,-100,19284.147925801342,-0.02412888015713285,0.02252090264088251,0.9994551546150546,55.723682576888656,3.3742936736197886,239.8681329307166,-76.87328855326582,-84.7283935546875,4761.76025390625,True
1599385252.9682405,0.0,10,0.5,0.5,0.5216275634765626,-0.001,-0.03,-0.2505,0.35045100234220056,10,1,100,-0.010274425572842805,-10,-1,-100,19281.06204319757,-0.021554574688043844,0.023491865156878348,0.9994916370743022,54.05107447072279,3.2732643947072346,233.82679495685193,-77.23831943060515,-89.12493896484375,4761.76025390625,True
1599385253.0014224,0.0,10,0.5,0.5,0.611175594329834,-0.001,-0.03,-0.2505,0.341675708287729,10,1,100,-0.03449205530816202,-10,-1,-100,19277.96155772684,-0.019008608378731633,0.02428676373548314,0.9995242998120462,52.2544219062481,3.1651204974316594,227.17506581415446,-77.60340424608852,-93.50641632080078,4761.76025390625,True
1599385253.03712,0.0,10,0.5,0.5,1.2505434226989744,-0.001,-0.03,-0.2505,0.3686345699592416,10,1,100,-0.21181703475880956,-10,-1,-100,19273.28344969335,-0.0150979945537868,0.025246382107311068,0.9995672417356151,53.7463969024255,3.257330818267471,235.39059246081413,-78.15097539229542,-100.02894592285156,4761.76025390625,True
1599385253.0680337,0.0,10,0.5,0.5,-0.26727094268798823,-0.001,-0.03,-0.2505,0.2736593932445512,10,1,100,0.1770991967152422,-10,-1,-100,19273.28344969335,-0.0150979945537868,0.025246382107311068,0.9995672417356151,53.7463969024255,3.257330818267471,235.39059246081413,-78.15097539229542,-100.02894592285156,4761.76025390625,True
1599385253.1020932,0.0,10,0.5,0.5,1.4112905387878418,-0.001,-0.03,-0.2505,0.34677388771711926,10,1,100,-0.24260145648229692,-10,-1,-100,19268.57249324117,-0.011301141137475162,0.025902797124592435,0.999600584888841,55.337401887685964,3.356386558037294,244.1382493637629,-78.69839469771257,-106.26441192626953,4761.76025390625,True
1599385253.13506,0.0,10,0.5,0.5,0.9466433296203614,-0.001,-0.03,-0.2505,0.31217555733278984,10,1,100,-0.1427327499065863,-10,-1,-100,19265.41361092881,-0.008777568565888924,0.02617741211431749,0.9996187760266753,56.293193631417225,3.4163748216246534,249.56114787410016,-79.06325997112314,-110.16120910644531,4761.76025390625,True
1599385253.171214,0.0,10,0.5,0.5,0.5624123573303222,-0.001,-0.03,-0.2505,0.2967816099486907,10,1,100,-0.02173301601133365,-10,-1,-100,19263.828697391902,-0.007603903625928475,0.026280559844559338,0.9996256863566003,56.70958323365431,3.4426927138957835,252.01436844030206,-79.24567000947026,-112.0514907836914,4761.76025390625,True
1599385253.2011404,0.0,10,0.5,0.5,1.0926297340393067,-0.001,-0.03,-0.2505,0.3007247258308505,10,1,100,-0.1608303915104049,-10,-1,-100,19260.64792704163,-0.005290784104662947,0.02640525393702744,0.9996373193154001,57.530651287218255,3.4946730173550526,256.89475129374176,-79.61044586179176,-115.63595581054688,4761.76025390625,True
1599385253.235262,0.0,10,0.5,0.5,0.3077146224975586,-0.001,-0.03,-0.2505,0.2888093247281408,10,1,100,0.06822952650811326,-10,-1,-100,19260.64792704163,-0.005290784104662947,0.02640525393702744,0.9996373193154001,57.530651287218255,3.4946730173550526,256.89475129374176,-79.61044586179176,-115.63595581054688,4761.76025390625,True
1599385253.268893,0.0,10,0.5,0.5,1.243915699005127,-0.001,-0.03,-0.2505,0.29056948924670584,10,1,100,-0.18266315345159792,-10,-1,-100,19257.45256728481,-0.0030281821238880616,0.026417259324353733,0.9996464167508502,58.19690791071824,3.537256455822422,261.11507782074693,-79.97516905537663,-118.9631118774414,4761.76025390625,True
1599385253.3040752,0.0,10,0.5,0.5,1.6536516036987305,-0.001,-0.03,-0.2505,0.27446915827479385,10,1,100,-0.3082864920262798,-10,-1,-100,19252.63217624859,0.0001515766656469018,0.026278264525193464,0.999654655287544,58.917228206784955,3.584039306756704,266.23711876347323,-80.52217272151518,-123.49784088134766,4761.76025390625,True
1599385253.3350642,0.0,10,0.5,0.5,0.6208206939697266,-0.001,-0.03,-0.2505,0.2886472781276523,10,1,100,0.0075187717918474666,-10,-1,-100,19252.63217624859,0.0001515766656469018,0.026278264525193464,0.999654655287544,58.917228206784955,3.584039306756704,266.23711876347323,-80.52217272151518,-123.49784088134766,4761.76025390625,True
1599385253.3680477,0.0,10,0.5,0.5,1.4160721778869627,-0.001,-0.03,-0.2505,0.2672804499416479,10,1,100,-0.2145846170343212,-10,-1,-100,19249.400350230164,0.002153280032208091,0.02608221017733005,0.9996574821894589,59.250071243432885,3.606113643785219,269.0080336405188,-80.88679844720835,-126.3021240234375,4761.76025390625,True
1599385253.4019563,0.0,10,0.5,0.5,1.431921699523926,-0.001,-0.03,-0.2505,0.2643608760760815,10,1,100,-0.218159084073968,-10,-1,-100,19246.153940028045,0.003989822543455057,0.0258766775277036,0.9996571806755549,59.48466927534217,3.622055218017776,271.3448986729448,-81.25139650775213,-128.84487915039062,4761.76025390625,True
1599385253.4368708,0.0,10,0.5,0.5,1.7310584335327148,-0.001,-0.03,-0.2505,0.22841863181010355,10,1,100,-0.3289782836542298,-10,-1,-100,19241.256981494138,0.00664950135250264,0.02536250899342485,0.9996562045370007,59.688954750512224,3.6366778393933012,274.19101874654984,-81.79825342753676,-132.22320556640625,4761.76025390625,True
1599385253.4672105,0.0,10,0.5,0.5,0.9626640472412109,-0.001,-0.03,-0.2505,0.27978145642486163,10,1,100,-0.06480546699846923,-10,-1,-100,19241.256981494138,0.00664950135250264,0.02536250899342485,0.9996562045370007,59.688954750512224,3.6366778393933012,274.19101874654984,-81.79825342753676,-132.22320556640625,4761.76025390625,True
1599385253.5012639,0.0,10,0.5,0.5,1.511909942626953,-0.001,-0.03,-0.2505,0.24125962987465982,10,1,100,-0.24031745063175225,-10,-1,-100,19237.97411463817,0.00823104023106122,0.025013051391260192,0.9996532384966363,59.75118495500985,3.6417233495477555,275.7546158144642,-82.16280405538565,-134.1439208984375,4761.76025390625,True
1599385253.5344462,0.0,10,0.5,0.5,1.311020294189453,-0.001,-0.03,-0.2505,0.2576380663353087,10,1,100,-0.16478810178462738,-10,-1,-100,19236.327213108074,0.008967777000361532,0.024845409819346673,0.999651081421203,59.766124142922344,3.6432059406333503,276.4626959025818,-82.34507450640484,-134.9947052001953,4761.76025390625,True
1599385253.5712924,0.0,10,0.5,0.5,1.5289922180175781,-0.001,-0.03,-0.2505,0.23039352669805663,10,1,100,-0.24756260429533816,-10,-1,-100,19233.022473882535,0.010377070848818254,0.024446748797375437,0.9996472742291836,59.77511849936555,3.644801573486404,277.7830337520164,-82.7096069766655,-136.47787475585938,4761.76025390625,True
1599385253.6013098,0.0,10,0.5,0.5,1.5194461441040037,-0.001,-0.03,-0.2505,0.22926918846689007,10,1,100,-0.24633330275462773,-10,-1,-100,19229.70315369591,0.011632828101632924,0.024075888889063393,0.9996424505214647,59.76583896480972,3.645172782576202,279.018857968996,-83.07412954884502,-137.6685791015625,4761.76025390625,True
1599385253.635306,0.0,10,0.5,0.5,1.3993032989501952,-0.001,-0.03,-0.2505,0.24360654541980223,10,1,100,-0.18706211336419498,-10,-1,-100,19228.038025793852,0.012222268418619125,0.023871211645111,0.9996403260219635,59.75830723977693,3.6451473484262404,279.6232582396267,-83.25638737914602,-138.15371704101562,4761.76025390625,True
1599385253.668794,0.0,10,0.5,0.5,1.6239921035766602,-0.001,-0.03,-0.2505,0.17846135682463818,10,1,100,-0.35132716445734413,-10,-1,-100,19221.341063764296,0.014240468542405234,0.023095100665998316,0.9996318449213792,59.73483797078646,3.6452847779801774,282.071883662776,-83.98539687200466,-139.35549926757812,4761.76025390625,True
1599385253.7036994,0.0,10,0.5,0.5,1.3705186309814452,-0.001,-0.03,-0.2505,0.255754138349987,10,1,100,-0.15091604126640903,-10,-1,-100,19221.341063764296,0.014240468542405234,0.023095100665998316,0.9996318449213792,59.73483797078646,3.6452847779801774,282.071883662776,-83.98539687200466,-139.35549926757812,4761.76025390625,True
1599385253.735576,0.0,10,0.5,0.5,1.4388751068115233,-0.001,-0.03,-0.2505,0.23306523502728296,10,1,100,-0.19953786905350923,-10,-1,-100,19219.657710679807,0.014671496805460512,0.0228915534626204,0.999630293639381,59.73542967555416,3.6456848526704544,282.71460628840407,-84.16764360471981,-139.47158813476562,4761.76025390625,True
1599385253.7678652,0.0,10,0.5,0.5,1.4441962661743166,-0.001,-0.03,-0.2505,0.21357624621421853,10,1,100,-0.24018912399512488,-10,-1,-100,19216.280069998582,0.015423186931105446,0.02253205167403542,0.9996271464662446,59.747461117835385,3.6471313672159895,284.05204011906426,-84.53212987293713,-139.4816131591797,4761.76025390625,True
1599385253.8018048,0.0,10,0.5,0.5,1.3919851913452148,-0.001,-0.03,-0.2505,0.2040472503088614,10,1,100,-0.23702843359809667,-10,-1,-100,19212.887850244995,0.016069831963920037,0.02212117777374527,0.9996261371105468,59.776607322426884,3.6496184226215305,285.4722348269841,-84.8966061331767,-139.19741821289062,4761.76025390625,True
1599385253.8373642,0.0,10,0.5,0.5,1.4204561462402343,-0.001,-0.03,-0.2505,0.2243380830867323,10,1,100,-0.20322690330975915,-10,-1,-100,19211.186273446772,0.016341840508756218,0.0219350648271164,0.9996258285877856,59.796904217441394,3.6512161398827816,286.2103890970954,-85.07884024361232,-138.94436645507812,4761.76025390625,True
1599385253.868755,0.0,10,0.5,0.5,1.3153054122924803,-0.001,-0.03,-0.2505,0.20233332871949608,10,1,100,-0.2264791951620925,-10,-1,-100,19207.77218582062,0.01679313202064878,0.02156862618735541,0.9996263227233101,59.84806392828484,3.655078176558588,287.73919600372705,-85.4433001788862,-138.2169647216797,4761.76025390625,True
1599385253.901782,0.0,10,0.5,0.5,1.093724868774414,-0.001,-0.03,-0.2505,0.1783385411402525,10,1,100,-0.23239644618771177,-10,-1,-100,19202.62372037652,0.01725007626349284,0.021020344612881377,0.9996302216226055,59.94376283857258,3.6621197516304984,290.1293004982616,-85.98996893310188,-136.57298278808594,4761.76025390625,True
1599385253.9353034,0.0,10,0.5,0.5,1.1375000534057618,-0.001,-0.03,-0.2505,0.19325433586438592,10,1,100,-0.20449923419188887,-10,-1,-100,19199.1731883561,0.01740562091573935,0.020660619864655737,0.9996350249702869,60.0099490522303,3.6670495281309807,291.7384515829214,-86.35440077788776,-135.10845947265625,4761.76025390625,True
1599385253.9706886,0.0,10,0.5,0.5,1.4966827850341797,-0.001,-0.03,-0.2505,0.22888528378450915,10,1,100,-0.18952204824864877,-10,-1,-100,19199.1731883561,0.01740562091573935,0.020660619864655737,0.9996350249702869,60.0099490522303,3.6670495281309807,291.7384515829214,-86.35440077788776,-135.10845947265625,4761.76025390625,True
1599385254.0013082,0.0,10,0.5,0.5,1.045042709350586,-0.001,-0.03,-0.2505,0.19099123328314727,10,1,100,-0.19467670499073814,-10,-1,-100,19195.70807945705,0.01744776929294278,0.020319047216261953,0.9996412914975669,60.06697330033677,3.671513613016089,293.3063429688437,-86.7188222408289,-133.3489990234375,4761.76025390625,True
1599385254.0353355,0.0,10,0.5,0.5,1.2187624816894531,-0.001,-0.03,-0.2505,0.20535037578563928,10,1,100,-0.1884911976016279,-10,-1,-100,19193.9700588712,0.01742693838618077,0.020141587970880927,0.9996452462011189,60.088168457112005,3.6733395218389844,294.0556609998098,-86.9010295969284,-132.35891723632812,4761.76025390625,True
1599385254.0682507,0.0,10,0.5,0.5,0.8922472229003906,-0.001,-0.03,-0.2505,0.18325475815841163,10,1,100,-0.1766558516264795,-10,-1,-100,19190.483085173182,0.01729751035312871,0.019782077144555304,0.9996546731543999,60.10714991185614,3.675652448305948,295.4411825502166,-87.26543866810533,-130.157958984375,4761.76025390625,True
1599385254.1041868,0.0,10,0.5,0.5,0.7880418968200681,-0.001,-0.03,-0.2505,0.17980502715028487,10,1,100,-0.1641800543103458,-10,-1,-100,19186.981535232277,0.017064044880618648,0.019426714726292735,0.999665654670228,60.08204273889179,3.675401916941975,296.61073559124884,-87.62984298799758,-127.66251373291016,4761.76025390625,True
1599385254.1361232,0.0,10,0.5,0.5,1.0361734733581542,-0.001,-0.03,-0.2505,0.19443214506650275,10,1,100,-0.17018931996145295,-10,-1,-100,19185.22529428359,0.016904941540665464,0.019239454815244875,0.9996719793661915,60.04743779915212,3.673979665967736,297.08637693481904,-87.81204451036295,-126.30458068847656,4761.76025390625,True
1599385254.1682537,0.0,10,0.5,0.5,0.6003572463989256,-0.001,-0.03,-0.2505,0.17052887168156383,10,1,100,-0.14302601037997836,-10,-1,-100,19181.701880043256,0.016512603772170304,0.018854535795300557,0.9996858708597451,59.92209638878887,3.6678035969857916,297.75734082411793,-88.17644934506144,-123.37297058105469,4761.76025390625,True
1599385254.2022662,0.0,10,0.5,0.5,0.4872032470703126,-0.001,-0.03,-0.2505,0.16387325495947358,10,1,100,-0.12881406308347068,-10,-1,-100,19178.16388945945,0.01602657831333062,0.018446904287906553,0.9997013856696205,59.707180613199284,3.656271999470192,297.9771361830826,-88.54086122272003,-120.1888427734375,4761.76025390625,True
1599385254.3693447,0.0,10,0.5,0.5,0.8058051414489746,-0.001,-0.03,-0.2505,0.18050015236004785,10,1,100,-0.1462300754391389,-10,-1,-100,19176.38942794851,0.01574376123917091,0.018230321732007632,0.9997098525830338,59.56132744029667,3.6481953892342975,297.89205593460343,-88.72307180014447,-118.49922943115234,4761.76025390625,True
1599385254.3912876,0.0,10,0.5,0.5,0.27537682723999035,-0.001,-0.03,-0.2505,0.151716933022859,10,1,100,-0.1055220069158636,-10,-1,-100,19172.829571852228,0.015117950835199873,0.017774299253471328,0.9997277238571473,59.176712395181895,3.6264074585136066,297.2469387530564,-89.08750666777323,-114.92286682128906,4761.76025390625,True
1599385254.4142268,0.0,10,0.5,0.5,1.1106988830566407,-0.001,-0.03,-0.2505,0.19703054881537102,10,1,100,-0.16787428030491347,-10,-1,-100,19172.829571852228,0.015117950835199873,0.017774299253471328,0.9997277238571473,59.176712395181895,3.6264074585136066,297.2469387530564,-89.08750666777323,-114.92286682128906,4761.76025390625,True
1599385254.44793,0.0,10,0.5,0.5,0.10196108627319334,-0.001,-0.03,-0.2505,0.14237724512270966,10,1,100,-0.09001034917407333,-10,-1,-100,19169.25513752608,0.014412176615901816,0.017280074965911846,0.9997468120351094,58.65962756165012,3.5965315852551267,295.91862014305116,-89.45196605530695,-111.15276336669922,4761.76025390625,True
1599385254.528713,0.0,10,0.5,0.5,0.49078088760375976,-0.001,-0.03,-0.2505,0.1627530107608893,10,1,100,-0.11904275381702749,-10,-1,-100,19167.462453327607,0.014037254270273204,0.017018777094159724,0.9997566287446016,58.34784398237953,3.5783197688531527,294.9775774961912,-89.6342072507287,-109.20841979980469,4761.76025390625,True
1599385254.5546432,0.0,10,0.5,0.5,-0.6111064186096192,-0.001,-0.03,-0.2505,0.09399565574837618,10,1,100,-0.019364828384712124,-10,-1,-100,19162.062529899995,0.01279333434678606,0.016159005629613785,0.9997875860068245,57.37648009015703,3.521325233126516,291.9333992037023,-90.18098055381054,-103.16669464111328,4761.76025390625,True
1599385254.576767,0.0,10,0.5,0.5,-0.22342029190063484,-0.001,-0.03,-0.2505,0.10967588777420592,10,1,100,-0.04431122583970461,-10,-1,-100,19158.44435384567,0.011893378189576172,0.015523236472547695,0.9998087700578832,56.621070242560556,3.4764899494749604,289.3200183134423,-90.54554197122125,-99.012451171875,4761.76025390625,True
1599385254.5991073,0.0,10,0.5,0.5,0.7312675094604492,-0.001,-0.03,-0.2505,0.17286245565544048,10,1,100,-0.13378977489158914,-10,-1,-100,19158.44435384567,0.011893378189576172,0.015523236472547695,0.9998087700578832,56.621070242560556,3.4764899494749604,289.3200183134423,-90.54554197122125,-99.012451171875,4761.76025390625,True
1599385254.6240025,0.0,10,0.5,0.5,0.11548704528808595,-0.001,-0.03,-0.2505,0.13505278768046913,10,1,100,-0.08104238051861921,-10,-1,-100,19156.629796894966,0.011418412389231981,0.015182890598541316,0.9998195335617235,56.241283762946274,3.4538493716441145,287.9909662319258,-90.72783650876761,-96.88957214355469,4761.76025390625,True
1599385254.6479657,0.0,10,0.5,0.5,0.03751938247680653,-0.001,-0.03,-0.2505,0.13114558741210103,10,1,100,-0.07722166751972438,-10,-1,-100,19154.811594099854,0.01095652262654998,0.014841303115365589,0.9998298306880886,55.82366372923986,3.428809845745979,286.4598816329497,-90.91014089328962,-94.7810287475586,4761.76025390625,True
1599385254.6738691,0.0,10,0.5,0.5,-1.105773265838623,-0.001,-0.03,-0.2505,0.039819284207119415,10,1,100,0.042222465421007174,-10,-1,-100,19149.335106819402,0.009455376229820402,0.013703807738953768,0.9998613911506967,54.41934749805971,3.343863403542397,281.03176465295167,-91.4571142518099,-88.43804931640625,4761.76025390625,True
1599385254.7048814,0.0,10,0.5,0.5,0.39295954132080074,-0.001,-0.03,-0.2505,0.1531161704489961,10,1,100,-0.10726333575101557,-10,-1,-100,19149.335106819402,0.009455376229820402,0.013703807738953768,0.9998613911506967,54.41934749805971,3.343863403542397,281.03176465295167,-91.4571142518099,-88.43804931640625,4761.76025390625,True
1599385254.7387908,0.0,10,0.5,0.5,-1.2960473251342775,-0.001,-0.03,-0.2505,0.01678364714285782,10,1,100,0.0623738351620699,-10,-1,-100,19143.825802988373,0.007918367925706334,0.0124681216102748,0.9998909167468741,56.910119917395946,3.497472551764182,295.756025673798,-92.00400195010783,-82.03823852539062,4761.76025390625,True
1599385254.770894,0.0,10,0.5,0.5,0.2084513931274414,-0.001,-0.03,-0.2505,0.139821642246435,10,1,100,-0.0906070369583876,-10,-1,-100,19143.825802988373,0.007918367925706334,0.0124681216102748,0.9998909167468741,56.910119917395946,3.497472551764182,295.756025673798,-92.00400195010783,-82.03823852539062,4761.76025390625,True
1599385254.8088455,0.0,10,0.5,0.5,-0.4086938781738281,-0.001,-0.03,-0.2505,0.0891611093372817,10,1,100,-0.030311587033190777,-10,-1,-100,19141.982077608583,0.00737613093428654,0.012011945814151258,0.999900647989688,57.6995326092823,3.5460194269536305,300.48783377295143,-92.18625782405145,-79.93167114257812,4761.76025390625,True
1599385254.8387663,0.0,10,0.5,0.5,-1.550697067260742,-0.001,-0.03,-0.2505,-0.020214852237717254,10,1,100,0.09269360896949692,-10,-1,-100,19136.42903490935,0.005771014726913192,0.010607465286338965,0.9999270858763758,59.905505710075495,3.68133412060997,313.93641760635916,-92.73290736477279,-73.64193725585938,4761.76025390625,True
1599385254.8737977,0.0,10,0.5,0.5,-0.5882986068725586,-0.001,-0.03,-0.2505,0.06389612627867097,10,1,100,-0.006702221690101456,-10,-1,-100,19134.57073305745,0.0052218005622245624,0.010100356920607022,0.99993535570504,60.577830178022666,3.7224765507221727,318.12050933743143,-92.91508580476061,-71.5560302734375,4761.76025390625,True
1599385254.9067092,0.0,10,0.5,0.5,-0.668824089050293,-0.001,-0.03,-0.2505,0.058970029258396006,10,1,100,-0.0017168874024239555,-10,-1,-100,19132.708788057556,0.004683258807735424,0.009599496505713612,0.9999429567499221,61.22284786092013,3.761910737194703,322.17553515705805,-93.09724575506863,-69.48574829101562,4761.76025390625,True
1599385254.941777,0.0,10,0.5,0.5,-1.254054817199707,-0.001,-0.03,-0.2505,-0.0024140787478996173,10,1,100,0.06276256349955847,-10,-1,-100,19128.97396989842,0.0036140532221653125,0.008591516728450401,0.9999565612863452,62.41134887259564,3.834489360740317,329.7911583909272,-93.46151319799442,-65.44894409179688,4761.76025390625,True
1599385254.9716978,0.0,10,0.5,0.5,-2.2204753341674803,-0.001,-0.03,-0.2505,-0.14030777898515331,10,1,100,0.19351821170481945,-10,-1,-100,19121.460629382753,0.001460455305387445,0.006427584541390713,0.9999782763776742,64.34145212675139,3.952252447932079,342.79675554694825,-94.18986181260645,-57.960601806640625,4761.76025390625,True
1599385255.0046122,0.0,10,0.5,0.5,-0.4551068725585937,-0.001,-0.03,-0.2505,0.07524406786341804,10,1,100,-0.02089197324085104,-10,-1,-100,19121.460629382753,0.001460455305387445,0.006427584541390713,0.9999782763776742,64.34145212675139,3.952252447932079,342.79675554694825,-94.18986181260645,-57.960601806640625,4761.76025390625,True
1599385255.0385368,0.0,10,0.5,0.5,-1.4019830627441405,-0.001,-0.03,-0.2505,-0.043495663531400885,10,1,100,0.0956600018546343,-10,-1,-100,19117.682111575734,0.00040816000535978984,0.005354747186162871,0.999985579940022,65.10610799432649,3.998980142083864,348.29087655286816,-94.55395744460995,-54.559234619140625,4761.76025390625,True
1599385255.0736518,0.0,10,0.5,0.5,-1.0523667755126953,-0.001,-0.03,-0.2505,0.007996651132144171,10,1,100,0.04830067669693085,-10,-1,-100,19115.787391744554,-0.00010970802393671912,0.00485514250612687,0.9999882077081682,65.44226978050065,4.01956622304592,350.8031211791267,-94.73598893304536,-52.96563720703125,4761.76025390625,True
1599385255.1045995,0.0,10,0.5,0.5,-1.8694521179199217,-0.001,-0.03,-0.2505,-0.12454748896124104,10,1,100,0.16864304651973758,-10,-1,-100,19110.081390212057,-0.0016672204344593856,0.003202930595339866,0.9999934807845622,66.30042741691987,4.072358125096925,357.57403408826764,-95.28202739998986,-48.476318359375,4761.76025390625,True
1599385255.137544,0.0,10,0.5,0.5,-1.1911918029785156,-0.001,-0.03,-0.2505,-0.01902397273002803,10,1,100,0.07012587453104785,-10,-1,-100,19108.172109508305,-0.0021788159819826616,0.002668647361285376,0.9999940655234798,66.54419751936291,4.087453066814015,359.6153868377077,-95.46402393110291,-47.10205078125,4761.76025390625,True
1599385255.1705842,0.0,10,0.5,0.5,-1.5821971893310547,-0.001,-0.03,-0.2505,-0.07977111705088284,10,1,100,0.13195808390562724,-10,-1,-100,19104.34262919007,-0.0031973275223033896,0.0016391824714579463,0.999993545067937,66.97754453883138,4.114456081385516,363.4207458591577,-95.82799600265241,-44.570159912109375,4761.76025390625,True
1599385255.206681,0.0,10,0.5,0.5,-1.035173858642578,-0.001,-0.03,-0.2505,0.022278543650372004,10,1,100,0.03100376409847611,-10,-1,-100,19104.34262919007,-0.0031973275223033896,0.0016391824714579463,0.999993545067937,66.97754453883138,4.114456081385516,363.4207458591577,-95.82799600265241,-44.570159912109375,4761.76025390625,True
1599385255.23757,0.0,10,0.5,0.5,-1.6788289489746093,-0.001,-0.03,-0.2505,-0.08953998684016977,10,1,100,0.14321347873601153,-10,-1,-100,19100.49859052035,-0.004209762084385959,0.0006303423528613386,0.9999909402448159,67.3537405192399,4.13812692591386,366.9348154027092,-96.1919437309616,-42.332794189453125,4761.76025390625,True
1599385255.2716045,0.0,10,0.5,0.5,-1.9044774627685546,-0.001,-0.03,-0.2505,-0.14872315837475164,10,1,100,0.20858248311892857,-10,-1,-100,19094.705238319235,-0.005716336252585612,-0.0008166600833110015,0.9999833281441025,67.84745579388925,4.169593135591134,371.85232501456204,-96.73782553225358,-39.531005859375,4761.76025390625,True
1599385255.3046443,0.0,10,0.5,0.5,-1.478011276245117,-0.001,-0.03,-0.2505,-0.05781877821101494,10,1,100,0.11369535161158667,-10,-1,-100,19092.76684267458,-0.00621485667408696,-0.0012971604994230124,0.9999798462624931,68.00063429086931,4.179449625409405,373.43680577325165,-96.91977638254059,-38.745208740234375,4761.76025390625,True
1599385255.3403835,0.0,10,0.5,0.5,-1.5179998168945312,-0.001,-0.03,-0.2505,-0.058176725279778546,10,1,100,0.11989439204668673,-10,-1,-100,19090.82480820245,-0.0067174344139713914,-0.001730210628294679,0.9999759409336186,68.15087362815575,4.18915399201464,375.00881783286536,-97.1017225512716,-38.032745361328125,4761.76025390625,True
1599385255.3713613,0.0,10,0.5,0.5,-1.702020050048828,-0.001,-0.03,-0.2505,-0.10518677927942208,10,1,100,0.1812790180103856,-10,-1,-100,19086.92982250743,-0.007724930877427811,-0.0025438405134750575,0.999966926612266,68.44838573489913,4.208453567060832,378.14738907910237,-97.46560100592592,-36.829132080078125,4761.76025390625,True
1599385255.4043248,0.0,10,0.5,0.5,-1.5770759277343749,-0.001,-0.03,-0.2505,-0.07106361745056539,10,1,100,0.13638920118899098,-10,-1,-100,19084.976871634834,-0.00822535379048207,-0.0029661129491043063,0.9999617721338124,68.5979537583649,4.218184177203525,379.7265922080832,-97.64753325201433,-36.338592529296875,4761.76025390625,True
1599385255.4374115,0.0,10,0.5,0.5,-1.695211685180664,-0.001,-0.03,-0.2505,-0.11565536969934023,10,1,100,0.19761152529950218,-10,-1,-100,19081.06005453167,-0.009229472434475548,-0.0037482663151604573,0.9999503824381548,68.90347970361508,4.238086282336426,382.9314149227334,-98.01138334193055,-35.57861328125,4761.76025390625,True
1599385255.4733927,0.0,10,0.5,0.5,-1.6606070556640624,-0.001,-0.03,-0.2505,-0.11330788241620249,10,1,100,0.20902696225685516,-10,-1,-100,19077.128684056457,-0.010239209490445541,-0.004431654766355251,0.9999377575754617,69.22266184603924,4.258872202402887,386.2272383009306,-98.37521355074821,-35.11309814453125,4761.76025390625,True
1599385255.5033464,0.0,10,0.5,0.5,-1.6106323547363282,-0.001,-0.03,-0.2505,-0.08256223246421038,10,1,100,0.16445614697770652,-10,-1,-100,19075.157541619497,-0.010744635408327399,-0.004766956265943644,0.9999309120823802,69.38837392698464,4.269650894460379,387.9151381651058,-98.55712071815603,-34.99114990234375,4761.76025390625,True
1599385255.5372486,0.0,10,0.5,0.5,-1.6146161041259768,-0.001,-0.03,-0.2505,-0.11575185305687109,10,1,100,0.22621068805670594,-10,-1,-100,19071.204342609388,-0.011758657245405424,-0.005367675872105097,0.9999164575280863,69.73400095715179,4.2920864002920736,391.38257021962824,-98.92091828612593,-34.968109130859375,4761.76025390625,True
1599385255.5703712,0.0,10,0.5,0.5,-1.5694182739257811,-0.001,-0.03,-0.2505,-0.11300180449568878,10,1,100,0.2372590697871919,-10,-1,-100,19067.236592217698,-0.012773152086005227,-0.005882414292292431,0.9999011170050175,70.09787962275873,4.315630033906134,394.96932478747124,-99.28469238507788,-35.239410400390625,4761.76025390625,True
1599385255.6073134,0.0,10,0.5,0.5,-1.417390396118164,-0.001,-0.03,-0.2505,-0.13347266058229806,10,1,100,0.3043571058182085,-10,-1,-100,19061.257685540826,-0.014297617368649181,-0.00653053631448177,0.9998764574851361,70.67181478145011,4.35259271268975,400.54114883296563,-99.8303068058715,-36.19873046875,4761.76025390625,True
1599385255.6381972,0.0,10,0.5,0.5,-1.5503128356933593,-0.001,-0.03,-0.2505,-0.08728690549808778,10,1,100,0.20832702395715005,-10,-1,-100,19059.257442033035,-0.014802692989483095,-0.006694673219132738,0.9998680221062918,70.8680686261773,4.365181297889337,402.43550766717834,-100.0121652040923,-36.66546630859375,4761.76025390625,True
1599385255.6712675,0.0,10,0.5,0.5,-1.383278854370117,-0.001,-0.03,-0.2505,-0.09935120832505498,10,1,100,0.26888889156463297,-10,-1,-100,19055.24604426464,-0.015804607953658865,-0.00694865723749722,0.9998509541576818,71.26154633439343,4.390339860936856,406.24359851206316,-100.3758621806174,-37.819305419921875,4761.76025390625,True
1599385255.705177,0.0,10,0.5,0.5,-1.672955871582031,-0.001,-0.03,-0.2505,-0.074474651149527,10,1,100,0.1696061125010247,-10,-1,-100,19055.24604426464,-0.015804607953658865,-0.00694865723749722,0.9998509541576818,71.26154633439343,4.390339860936856,406.24359851206316,-100.3758621806174,-37.819305419921875,4761.76025390625,True
1599385255.7411077,0.0,10,0.5,0.5,-1.3058598937988282,-0.001,-0.03,-0.2505,-0.09353916360677053,10,1,100,0.2796938823999061,-10,-1,-100,19051.22009932925,-0.016798060700852123,-0.007117966608268505,0.9998335660038895,71.64670000182963,4.414853014845416,410.0225521296775,-100.73953250800164,-39.267120361328125,4761.76025390625,True
1599385255.7731016,0.0,10,0.5,0.5,-0.9750653076171873,-0.001,-0.03,-0.2505,-0.08492063873140779,10,1,100,0.34135954301616855,-10,-1,-100,19045.153908528853,-0.01825400310671168,-0.007189759579503499,0.9998075308416962,72.18067595657295,4.448599621440875,415.4732155177268,-101.28499042883894,-41.989532470703125,4761.76025390625,True
1599385255.8049903,0.0,10,0.5,0.5,-1.6377967834472658,-0.001,-0.03,-0.2505,-0.07808549093434272,10,1,100,0.19666775549743654,-10,-1,-100,19045.153908528853,-0.01825400310671168,-0.007189759579503499,0.9998075308416962,72.18067595657295,4.448599621440875,415.4732155177268,-101.28499042883894,-41.989532470703125,4761.76025390625,True
1599385255.8393033,0.0,10,0.5,0.5,-1.0684157867431638,-0.001,-0.03,-0.2505,-0.07081260464847536,10,1,100,0.30121184826775094,-10,-1,-100,19041.091600291198,-0.019197117774063386,-0.007121135063438206,0.9997903580774206,72.48552765210357,4.467672806069959,418.8327800315523,-101.6486005308169,-44.17144775390625,4761.76025390625,True
1599385255.8743846,0.0,10,0.5,0.5,-0.9659170074462889,-0.001,-0.03,-0.2505,-0.0574858971642409,10,1,100,0.3049015613080695,-10,-1,-100,19037.014748316375,-0.020080353515326256,-0.006935457090978995,0.9997743139517231,72.7263940856703,4.482540880394606,421.8361253367572,-102.0121919263964,-46.642730712890625,4761.76025390625,True
1599385255.905362,0.0,10,0.5,0.5,-1.211766143798828,-0.001,-0.03,-0.2505,-0.06514938866588005,10,1,100,0.26723186695314444,-10,-1,-100,19034.970868677367,-0.020533278153002345,-0.006834901783104729,0.9997658068797447,72.81489307593311,4.487899727596562,423.1568128243931,-102.19398229537255,-47.987396240234375,4761.76025390625,True
1599385255.9392712,0.0,10,0.5,0.5,0.024895858764648615,-0.001,-0.03,-0.2505,-0.00010947269555239281,10,1,100,0.4013437124396416,-10,-1,-100,19026.758992501767,-0.02215717175888786,-0.00615135000576986,0.9997355753561807,72.89321535168382,4.491590502276698,426.8497185985371,-102.92112842346401,-54.091796875,4761.76025390625,True
1599385255.9727278,0.0,10,0.5,0.5,-1.4505773010253904,-0.001,-0.03,-0.2505,-0.06842673179816805,10,1,100,0.2397403072901142,-10,-1,-100,19026.758992501767,-0.02215717175888786,-0.00615135000576986,0.9997355753561807,72.89321535168382,4.491590502276698,426.8497185985371,-102.92112842346401,-54.091796875,4761.76025390625,True
1599385256.009755,0.0,10,0.5,0.5,-0.9691948547363283,-0.001,-0.03,-0.2505,-0.04414882051283894,10,1,100,0.28203646748072586,-10,-1,-100,19024.69693396322,-0.02253499641628487,-0.005931135651551744,0.9997284609164635,72.82612110958301,4.486986769564857,427.266943638178,-103.10291660543513,-55.7979736328125,4761.76025390625,True
1599385256.0386446,0.0,10,0.5,0.5,0.5123405761718749,-0.001,-0.03,-0.2505,0.05239683410339321,10,1,100,0.38950303275905473,-10,-1,-100,19016.41234081937,-0.02384932361784639,-0.004854178034465841,0.9997037794859941,72.12306250665218,4.441214750029519,426.35847008415055,-103.83011546466645,-63.1737060546875,4761.76025390625,True
1599385256.0735898,0.0,10,0.5,0.5,-1.2592171936035157,-0.001,-0.03,-0.2505,-0.05508947968489389,10,1,100,0.25887478416932136,-10,-1,-100,19016.41234081937,-0.02384932361784639,-0.004854178034465841,0.9997037794859941,72.12306250665218,4.441214750029519,426.35847008415055,-103.83011546466645,-63.1737060546875,4761.76025390625,True
1599385256.1062486,0.0,10,0.5,0.5,-0.16539492797851563,-0.001,-0.03,-0.2505,0.015434450696605553,10,1,100,0.3186167465862066,-10,-1,-100,19012.24822666368,-0.024386022128075353,-0.004215109384246576,0.999693730488317,71.47354435939421,4.399792251543885,424.11740350506045,-104.19376298708525,-67.23773193359375,4761.76025390625,True
1599385256.14222,0.0,10,0.5,0.5,-0.586490982055664,-0.001,-0.03,-0.2505,-0.011943038043146378,10,1,100,0.2886400764177545,-10,-1,-100,19010.160714434693,-0.024595840118550878,-0.00388572837276795,0.9996899248086257,71.05848258320805,4.373530473712481,422.4504798828641,-104.3756044415053,-69.31008911132812,4761.76025390625,True
1599385256.1841047,0.0,10,0.5,0.5,0.057462112426757805,-0.001,-0.03,-0.2505,0.03480758815546321,10,1,100,0.31587957697940616,-10,-1,-100,19005.974778458243,-0.025028450263169244,-0.0031642890616243257,0.9996817313286056,70.07682222387857,4.311795912522626,418.1871782871274,-104.73932933682411,-73.6087646484375,4761.76025390625,True
1599385256.2130282,0.0,10,0.5,0.5,0.18692890930175798,-0.001,-0.03,-0.2505,0.044049685084820454,10,1,100,0.3056124315273433,-10,-1,-100,19001.77429161116,-0.025323093315540727,-0.002428013212137614,0.999676370480354,68.84798981370137,4.23514984424395,412.40282218312933,-105.10312011417464,-78.05398559570312,4761.76025390625,True
1599385256.238959,0.0,10,0.5,0.5,0.31729867553710933,-0.001,-0.03,-0.2505,0.05617546896473201,10,1,100,0.30085486667447575,-10,-1,-100,18997.559250648017,-0.02554293391921581,-0.0016525348081312633,0.9996723601538189,67.39248358146065,4.145024558735586,405.2035048050194,-105.4669860655701,-82.62521362304688,4761.76025390625,True
1599385256.3167496,0.0,10,0.5,0.5,0.44275315856933606,-0.001,-0.03,-0.2505,0.0637626857247987,10,1,100,0.2905790336345144,-10,-1,-100,18993.329652763787,-0.0256448181169515,-0.0008832909857384958,0.9996707273401493,65.69995391286768,4.040934862550805,396.51067863157954,-105.83093495852508,-87.263916015625,4761.76025390625,True
1599385256.3426821,0.0,10,0.5,0.5,-0.6197254333496094,-0.001,-0.03,-0.2505,-0.012634890612474909,10,1,100,0.2807393784967519,-10,-1,-100,18993.329652763787,-0.0256448181169515,-0.0008832909857384958,0.9996707273401493,65.69995391286768,4.040934862550805,396.51067863157954,-105.83093495852508,-87.263916015625,4761.76025390625,True
1599385256.372601,0.0,10,0.5,0.5,1.772468086242676,-0.001,-0.03,-0.2505,0.15365165746697032,10,1,100,0.2721486337076853,-10,-1,-100,18984.826783661614,-0.025563549849452655,0.0006236157613291593,0.9996730045482257,67.83797785809965,4.1746023581705325,412.4822780906445,-106.55876398451359,-96.37992858886719,4761.76025390625,True
1599385256.4043043,0.0,10,0.5,0.5,-0.3893471984863281,-0.001,-0.03,-0.2505,0.0036164579014928695,10,1,100,0.2805783158008866,-10,-1,-100,18984.826783661614,-0.025563549849452655,0.0006236157613291593,0.9996730045482257,67.83797785809965,4.1746023581705325,412.4822780906445,-106.55876398451359,-96.37992858886719,4761.76025390625,True
1599385256.4411714,0.0,10,0.5,0.5,0.8520644302368166,-0.001,-0.03,-0.2505,0.08622594760993013,10,1,100,0.2599580485816366,-10,-1,-100,18980.553519597044,-0.025374534487248922,0.0013696313097733208,0.9996770764149946,69.32483053626741,4.268095783036245,423.0910114090836,-106.92253041371058,-100.91986083984375,4761.76025390625,True
1599385256.4711359,0.0,10,0.5,0.5,0.9638811378479004,-0.001,-0.03,-0.2505,0.08579519145742014,10,1,100,0.2490861952596529,-10,-1,-100,18976.26570805104,-0.02510248075425531,0.0020382532893867956,0.99968280518548,70.83227663743563,4.363348620398687,433.8923396506981,-107.28619621961795,-105.43608856201172,4761.76025390625,True
1599385256.5049875,0.0,10,0.5,0.5,-0.05283883666992188,-0.001,-0.03,-0.2505,0.019558329763435987,10,1,100,0.27636321442163203,-10,-1,-100,18976.26570805104,-0.02510248075425531,0.0020382532893867956,0.99968280518548,70.83227663743563,4.363348620398687,433.8923396506981,-107.28619621961795,-105.43608856201172,4761.76025390625,True
1599385256.5389912,0.0,10,0.5,0.5,1.1943829383850098,-0.001,-0.03,-0.2505,0.09091460752923479,10,1,100,0.23697900364978908,-10,-1,-100,18971.963352545863,-0.02474398189211519,0.002681561285746644,0.9996902243141089,72.23059782519587,4.452212388421163,444.089563206906,-107.64976383159653,-109.96429443359375,4761.76025390625,True
1599385256.574982,0.0,10,0.5,0.5,1.7859892959594725,-0.001,-0.03,-0.2505,0.1215343261827876,10,1,100,0.19872511101603144,-10,-1,-100,18965.48255842179,-0.02407056978292733,0.003539433406244831,0.9997039962316285,74.06189937560397,4.569322431259894,457.8553053130769,-108.19493886148202,-116.39314270019531,4761.76025390625,True
1599385256.6058557,0.0,10,0.5,0.5,1.334177101135254,-0.001,-0.03,-0.2505,0.0905892816899764,10,1,100,0.20741389080716333,-10,-1,-100,18961.14386001276,-0.023538504521341944,0.004032573614382733,0.9997147979073548,74.99900053080924,4.629781156634292,465.3388586208509,-108.55829067846139,-120.54263305664062,4761.76025390625,True
1599385256.6377797,0.0,10,0.5,0.5,0.40848202514648435,-0.001,-0.03,-0.2505,0.041843771718437575,10,1,100,0.26041997402591466,-10,-1,-100,18961.14386001276,-0.023538504521341944,0.004032573614382733,0.9997147979073548,74.99900053080924,4.629781156634292,465.3388586208509,-108.55829067846139,-120.54263305664062,4761.76025390625,True
1599385256.6717713,0.0,10,0.5,0.5,1.9549574127197265,-0.001,-0.03,-0.2505,0.10861057595908338,10,1,100,0.16550651359789942,-10,-1,-100,18954.608564900816,-0.022677569711628723,0.004635075594206676,0.9997320860641666,76.00308240678932,4.695161800714866,474.1364019926966,-109.10320482227648,-126.294677734375,4761.76025390625,True
1599385256.70775,0.0,10,0.5,0.5,1.07701318359375,-0.001,-0.03,-0.2505,0.06715428536148979,10,1,100,0.21708452761500957,-10,-1,-100,18952.422868494643,-0.022366490237868,0.0048009126008140045,0.9997383114358671,76.23787788483872,4.71060487511414,476.45943640176694,-109.28481951853477,-128.06744384765625,4761.76025390625,True
1599385256.7387125,0.0,10,0.5,0.5,1.1619251174926757,-0.001,-0.03,-0.2505,0.06707663940640915,10,1,100,0.2111719903901927,-10,-1,-100,18950.233539983747,-0.022032846795688628,0.004947170101011311,0.9997450070743387,76.42889756693964,4.723244123536111,478.51368451687165,-109.4664251817068,-129.7928009033203,4761.76025390625,True
1599385256.771822,0.0,10,0.5,0.5,1.6484803924560545,-0.001,-0.03,-0.2505,0.07902452218026994,10,1,100,0.17464314753071897,-10,-1,-100,18945.843987142434,-0.02140066391594286,0.005184818077007886,0.9997575352281498,76.69732070183062,4.741193715768548,481.9214319968723,-109.82961478262465,-133.04734802246094,4761.76025390625,True
1599385256.8053365,0.0,10,0.5,0.5,2.0214187240600587,-0.001,-0.03,-0.2505,0.07865387802826192,10,1,100,0.1233377535711354,-10,-1,-100,18939.232419832144,-0.0203631521443335,0.005394023847652668,0.9997780986506344,76.8622497315551,4.752680225613294,485.55554629414064,-110.37436278972405,-137.38858032226562,4761.76025390625,True
1599385256.8412073,0.0,10,0.5,0.5,1.029797508239746,-0.001,-0.03,-0.2505,0.05806887801961031,10,1,100,0.22661499787107933,-10,-1,-100,18939.232419832144,-0.0203631521443335,0.005394023847652668,0.9997780986506344,76.8622497315551,4.752680225613294,485.55554629414064,-110.37436278972405,-137.38858032226562,4761.76025390625,True
1599385256.8711643,0.0,10,0.5,0.5,1.760990280151367,-0.001,-0.03,-0.2505,0.06422071630378634,10,1,100,0.14987277942690122,-10,-1,-100,18934.806550579495,-0.019669804093577263,0.005446898949728572,0.9997916933535463,76.85210601629619,4.752468125721575,487.2245866657466,-110.73751458308517,-139.91476440429688,4761.76025390625,True
1599385256.905328,0.0,10,0.5,0.5,2.031915374755859,-0.001,-0.03,-0.2505,0.05377372542925814,10,1,100,0.10197645733937631,-10,-1,-100,18928.14051054546,-0.01860867946282004,0.005397480636698245,0.9998122745052826,76.72551542361579,4.744718668500653,489.0202124548361,-111.28223418422584,-143.15087890625,4761.76025390625,True
1599385256.93829,0.0,10,0.5,0.5,1.3015419006347655,-0.001,-0.03,-0.2505,0.0589013614553362,10,1,100,0.207542731383088,-10,-1,-100,18928.14051054546,-0.01860867946282004,0.005397480636698245,0.9998122745052826,76.72551542361579,4.744718668500653,489.0202124548361,-111.28223418422584,-143.15087890625,4761.76025390625,True
1599385256.9743629,0.0,10,0.5,0.5,2.0162991180419922,-0.001,-0.03,-0.2505,0.039213432073095175,10,1,100,0.09093193426668159,-10,-1,-100,18921.44178719155,-0.017553062966360455,0.0052172586359303125,0.9998323210382953,76.53036589056896,4.7322308543726095,490.37160702513444,-111.8269513359457,-145.72317504882812,4761.76025390625,True
1599385257.0058205,0.0,10,0.5,0.5,1.7861359634399414,-0.001,-0.03,-0.2505,0.03433134588546535,10,1,100,0.11751065691080134,-10,-1,-100,18916.95781475387,-0.01684047766775736,0.0050079608653250595,0.9998456474075852,76.39398780578499,4.723317243976905,491.2268389808693,-112.19009602352875,-147.06971740722656,4761.76025390625,True
1599385257.03896,0.0,10,0.5,0.5,1.5111522216796875,-0.001,-0.03,-0.2505,0.05529841147310249,10,1,100,0.18818547756672374,-10,-1,-100,18916.95781475387,-0.01684047766775736,0.0050079608653250595,0.9998456474075852,76.39398780578499,4.723317243976905,491.2268389808693,-112.19009602352875,-147.06971740722656,4761.76025390625,True
1599385257.0721283,0.0,10,0.5,0.5,1.832580192565918,-0.001,-0.03,-0.2505,0.02970321969392941,10,1,100,0.11104263540320312,-10,-1,-100,18912.4593165071,-0.016144202750425454,0.004775089078001203,0.9998582715774522,76.2689027677799,4.714987033643618,492.15031551141675,-112.55323967617727,-148.12109375,4761.76025390625,True
1599385257.1089995,0.0,10,0.5,0.5,1.88203498840332,-0.001,-0.03,-0.2505,8.059535910821813e-05,10,1,100,0.06396969845768824,-10,-1,-100,18905.68433337554,-0.015088643075205644,0.004294247305592969,0.9998769385730563,76.12897389920624,4.705290827499536,493.8369700819918,-113.09794911343357,-149.14630126953125,4761.76025390625,True
1599385257.1399524,0.0,10,0.5,0.5,1.752778854370117,-0.001,-0.03,-0.2505,0.00828769533796593,10,1,100,0.09243382641237202,-10,-1,-100,18901.149521273095,-0.014393546370812704,0.003932538031185475,0.9998886742870451,76.0776462490601,4.701354763049264,495.2308136417323,-113.461081110905,-149.46145629882812,4761.76025390625,True
1599385257.1729858,0.0,10,0.5,0.5,1.7100511474609374,-0.001,-0.03,-0.2505,0.04431247419706854,10,1,100,0.16134653627431403,-10,-1,-100,18901.149521273095,-0.014393546370812704,0.003932538031185475,0.9998886742870451,76.0776462490601,4.701354763049264,495.2308136417323,-113.461081110905,-149.46145629882812,4761.76025390625,True
1599385257.206781,0.0,10,0.5,0.5,1.7581010513305664,-0.001,-0.03,-0.2505,0.02339696273327082,10,1,100,0.12242745355250581,-10,-1,-100,18898.876668377896,-0.014045163442226739,0.003743725641347739,0.9998943533704965,76.06685154534806,4.700292894883913,496.02423776915623,-113.64264364605741,-149.5084991455078,4761.76025390625,True
1599385257.241797,0.0,10,0.5,0.5,1.7432959518432616,-0.001,-0.03,-0.2505,-0.003931943669871776,10,1,100,0.0800231601119136,-10,-1,-100,18894.32006874471,-0.01334807142191716,0.003325181749928847,0.999905381601502,76.07716492465632,4.700125470650391,497.81983861736654,-114.0057602160874,-149.38204956054688,4761.76025390625,True
1599385257.2737758,0.0,10,0.5,0.5,1.5083175811767577,-0.001,-0.03,-0.2505,-0.07217229078559939,10,1,100,-0.004757793420609502,-10,-1,-100,18885.16329769988,-0.011948397833195427,0.0023262044193021205,0.9999259095364114,76.22241522005594,4.707484447280747,502.2359306787303,-114.73194729186758,-148.24746704101562,4761.76025390625,True
1599385257.307872,0.0,10,0.5,0.5,1.6902366485595701,-0.001,-0.03,-0.2505,-0.0013928186016617522,10,1,100,0.09584835492287919,-10,-1,-100,18882.86502805329,-0.011596623448052498,0.002064285026056708,0.9999306261195999,76.2824972091891,4.710802618239649,503.4992800426036,-114.91348225982463,-147.77993774414062,4761.76025390625,True
1599385257.3410008,0.0,10,0.5,0.5,1.5228796539306637,-0.001,-0.03,-0.2505,-0.03406629624231564,10,1,100,0.05245061141008395,-10,-1,-100,18878.257596956566,-0.01088771855645925,0.0015320112114730008,0.9999395534362482,76.4272590176663,4.718986631118563,506.1933154844715,-115.27653564661944,-146.62429809570312,4761.76025390625,True
1599385257.3778915,0.0,10,0.5,0.5,1.8110311279296876,-0.001,-0.03,-0.2505,0.018813490250669865,10,1,100,0.12274582465827899,-10,-1,-100,18878.257596956566,-0.01088771855645925,0.0015320112114730008,0.9999395534362482,76.4272590176663,4.718986631118563,506.1933154844715,-115.27653564661944,-146.62429809570312,4761.76025390625,True
1599385257.4078279,0.0,10,0.5,0.5,1.6367272186279296,-0.001,-0.03,-0.2505,-0.01394159470428824,10,1,100,0.08296775490125691,-10,-1,-100,18875.94843588746,-0.01053151133967841,0.0012373976661132471,0.9999437764774168,76.510159181461,4.72374856513666,507.61272367687513,-115.45805356848831,-145.93655395507812,4761.76025390625,True
1599385257.4397538,0.0,10,0.5,0.5,0.9258837509155274,-0.001,-0.03,-0.2505,-0.11841139558479893,10,1,100,-0.04121460554137023,-10,-1,-100,18866.675490121474,-0.00908385849440899,2.30577908832721e-05,0.9999587406404287,76.87944265221444,4.745346996275546,513.5615053274648,-116.18406200175593,-142.45118713378906,4761.76025390625,True
1599385257.4737842,0.0,10,0.5,0.5,1.513579002380371,-0.001,-0.03,-0.2505,-0.03144153848534813,10,1,100,0.06238570536069554,-10,-1,-100,18864.348179001943,-0.00871509035652902,-0.0002863695861355982,0.9999619818735799,76.97296160442463,4.750898281099981,515.0620783140117,-116.36554786308302,-141.39630126953125,4761.76025390625,True
1599385257.5098171,0.0,10,0.5,0.5,1.7536324462890625,-0.001,-0.03,-0.2505,-0.0009206915451932009,10,1,100,0.09869467354726415,-10,-1,-100,18864.348179001943,-0.00871509035652902,-0.0002863695861355982,0.9999619818735799,76.97296160442463,4.750898281099981,515.0620783140117,-116.36554786308302,-141.39630126953125,4761.76025390625,True
1599385257.539959,0.0,10,0.5,0.5,1.1442128753662106,-0.001,-0.03,-0.2505,-0.06784962364220075,10,1,100,0.01610451264591206,-10,-1,-100,18859.682668426423,-0.007969432944711531,-0.0008909790528199204,0.9999678466305141,77.14861820826357,4.761425931884768,517.9933191448018,-116.7285006495496,-139.06936645507812,4761.76025390625,True
1599385257.5739322,0.0,10,0.5,0.5,0.6824206466674803,-0.001,-0.03,-0.2505,-0.1160678209056305,10,1,100,-0.035699134039501645,-10,-1,-100,18852.657182707102,-0.006826143719098704,-0.0018747579024785133,0.9999749442084703,77.34893321002791,4.773720727634437,521.9793656288814,-117.27288609105655,-135.04005432128906,4761.76025390625,True
1599385257.6078832,0.0,10,0.5,0.5,1.6487373504638672,-0.001,-0.03,-0.2505,-0.01820992990501196,10,1,100,0.07797759575149925,-10,-1,-100,18852.657182707102,-0.006826143719098704,-0.0018747579024785133,0.9999749442084703,77.34893321002791,4.773720727634437,521.9793656288814,-117.27288609105655,-135.04005432128906,4761.76025390625,True
1599385257.6427891,0.0,10,0.5,0.5,0.8414944076538085,-0.001,-0.03,-0.2505,-0.08907143212853777,10,1,100,-0.008254282070559657,-10,-1,-100,18847.95538024674,-0.0060468741517291655,-0.0025151343205816745,0.999978554476216,77.41025998976671,4.777793175109014,524.1559174763274,-117.63578588174698,-131.98788452148438,4761.76025390625,True
1599385257.6727092,0.0,10,0.5,0.5,0.7292387390136716,-0.001,-0.03,-0.2505,-0.09100947029311604,10,1,100,-0.017228845083333957,-10,-1,-100,18843.23906189471,-0.005261905562455567,-0.003110750120947407,0.9999813176172526,77.38793465290034,4.777010844838651,525.7677294235581,-117.99867314549621,-128.68988037109375,4761.76025390625,True
1599385257.7076979,0.0,10,0.5,0.5,0.6084105377197264,-0.001,-0.03,-0.2505,-0.10358010589898942,10,1,100,-0.028458511602166794,-10,-1,-100,18838.50822843553,-0.004451324252030183,-0.0037622768437583576,0.9999830153484379,77.26030666634047,4.770056406162501,526.6618827968647,-118.36155554221749,-125.13848876953125,4761.76025390625,True
1599385257.7406096,0.0,10,0.5,0.5,0.9617071990966797,-0.001,-0.03,-0.2505,-0.07050292140215564,10,1,100,0.007681642256030401,-10,-1,-100,18836.137368367403,-0.004048830272449289,-0.004049059198110523,0.9999836059121345,77.1490224389188,4.763772731968391,526.7832255833832,-118.54299768728492,-123.26226806640625,4761.76025390625,True
1599385257.776618,0.0,10,0.5,0.5,0.37397777175903313,-0.001,-0.03,-0.2505,-0.10481284029159191,10,1,100,-0.041934807635721126,-10,-1,-100,18831.384761525318,-0.0032377613656936702,-0.004616872913003526,0.999984100566526,76.81753192559644,4.74471509226813,526.2735465150702,-118.9058904900654,-119.32707977294922,4761.76025390625,True
1599385257.8078985,0.0,10,0.5,0.5,0.7758995742797851,-0.001,-0.03,-0.2505,-0.07849761286626415,10,1,100,-0.006182702285904146,-10,-1,-100,18829.003014596994,-0.0028307597692130036,-0.004889619740217926,0.9999840390815871,76.59207493504674,4.731605173143557,525.6041278593683,-119.08734415162216,-117.2814712524414,4761.76025390625,True
1599385257.84181,0.0,10,0.5,0.5,0.14846928024291994,-0.001,-0.03,-0.2505,-0.10997634730597104,10,1,100,-0.05623513149211991,-10,-1,-100,18824.22863275453,-0.002011085625617087,-0.005419556941542822,0.9999832918290005,76.01286221130157,4.69762720268008,523.3684734500476,-119.45027338532962,-113.03689575195312,4761.76025390625,True
1599385257.8741162,0.0,10,0.5,0.5,0.01526369857788068,-0.001,-0.03,-0.2505,-0.10985053702737414,10,1,100,-0.06363715170966094,-10,-1,-100,18819.439732794184,-0.0012047307701258006,-0.0058955077698914764,0.9999818956420694,75.24454475756295,4.652101584485781,519.8029402166575,-119.81324288702052,-108.61783599853516,4761.76025390625,True
1599385257.9110494,0.0,10,0.5,0.5,-0.7171960792541503,-0.001,-0.03,-0.2505,-0.13477516943990064,10,1,100,-0.11619265958119232,-10,-1,-100,18812.229156279704,-5.3286460333057166e-08,-0.0065502283369431565,0.9999785470242504,73.72113399669746,4.560847073222017,511.8193552018642,-120.3578004307074,-101.66722106933594,4761.76025390625,True
1599385257.9409447,0.0,10,0.5,0.5,0.9238144607543946,-0.001,-0.03,-0.2505,-0.0697706597781791,10,1,100,0.00359247974209061,-10,-1,-100,18812.229156279704,-5.3286460333057166e-08,-0.0065502283369431565,0.9999785470242504,73.72113399669746,4.560847073222017,511.8193552018642,-120.3578004307074,-101.66722106933594,4761.76025390625,True
1599385257.97409,0.0,10,0.5,0.5,-0.36656186676025393,-0.001,-0.03,-0.2505,-0.11154382832233627,10,1,100,-0.08198664300487288,-10,-1,-100,18807.403950525913,0.0007717332017551184,-0.006925733986949617,0.9999757190235207,72.60634764925422,4.493635571855763,505.75168402281304,-120.72091941067536,-96.93458557128906,4761.76025390625,True
1599385258.0079823,0.0,10,0.5,0.5,-0.45135083389282227,-0.001,-0.03,-0.2505,-0.10976113620798442,10,1,100,-0.0854201100975307,-10,-1,-100,18802.564218114945,0.0014983718851992506,-0.007246886831673776,0.9999726183815948,71.36085538862079,4.41798020292113,498.721850221592,-121.08410763803455,-92.30176544189453,4761.76025390625,True
