Timestamp,Input Throttle,horizon,dT,dt,Input Roll,Roll P,Roll I,Roll D,Input Pitch,Pitch P,Pitch I,Pitch D,Input Yaw,Yaw P,Yaw I,Yaw D,Altitude,Direction X,Direction Y,Direction Z,Drag X,Drag Y,Drag Z,Vertical Velocity,Roll,Mass,Has Fuel
1599385930.2115145,0.0,10,0.5,0.5,-2.8451570281982423,-0.05075,-0.02275,-0.37525,-0.00014804927748072083,10,1,100,0.4980662387543433,-10,-1,-100,19351.09416835627,-0.04884340680682693,-0.0001748606356711072,0.9988064332167976,60.98668303913776,3.6806912600551964,232.7546623149184,-68.48187444795953,-33.9219970703125,4761.76025390625,True
1599385930.2447562,0.0,10,0.5,0.5,-2.9730680877685547,-0.05075,-0.02275,-0.37525,-0.0008387110831997897,10,1,100,0.4989355451669671,-10,-1,-100,19349.720881466288,-0.04889447168335434,-0.00016642989624312182,0.9988039361856236,61.07636449619838,3.6867744610207955,233.74143193236753,-68.66433454056617,-33.923095703125,4761.76025390625,True
1599385930.2797496,0.0,10,0.5,0.5,-3.081138558959961,-0.05075,-0.02275,-0.37525,0.011906300432790047,10,1,100,0.5095750899501971,-10,-1,-100,19345.579126508674,-0.04899316791306012,-4.275054671209739e-05,0.9987991127700471,61.347009515705494,3.7051430528344445,236.72032966301907,-69.21169425641118,-33.9698486328125,4761.76025390625,True
1599385930.316652,0.0,10,0.5,0.5,-3.226151190185547,-0.05075,-0.02275,-0.37525,-0.00046590957498360655,10,1,100,0.5046047837709253,-10,-1,-100,19345.579126508674,-0.04899316791306012,-4.275054671209739e-05,0.9987991127700471,61.347009515705494,3.7051430528344445,236.72032966301907,-69.21169425641118,-33.9698486328125,4761.76025390625,True
1599385930.3485668,0.0,10,0.5,0.5,-3.233521273803711,-0.05075,-0.02275,-0.37525,0.023565235857566442,10,1,100,0.5077236780362189,-10,-1,-100,19342.799711967353,-0.04897698225373273,0.00017575327589900496,0.9987998920304826,61.53728090856135,3.7179946937079555,238.7548375161133,-69.57658308071856,-34.25177001953125,4761.76025390625,True
1599385930.379484,0.0,10,0.5,0.5,-3.2246164260864263,-0.05075,-0.02275,-0.37525,0.036556865634440036,10,1,100,0.5050374752603934,-10,-1,-100,19340.00570209336,-0.04889332346342421,0.0004923390641753135,0.9988038849158262,61.74115463137236,3.731658125086242,240.85108903428767,-69.94145617134095,-34.8187255859375,4761.76025390625,True
1599385930.4153879,0.0,10,0.5,0.5,-2.9671045242309573,-0.05075,-0.02275,-0.37525,0.08737456286743428,10,1,100,0.4847136772203867,-10,-1,-100,19335.787323219236,-0.048588059741449655,0.0012416758110317457,0.9988181309386318,62.06437350858749,3.7531376515550874,244.08117317153818,-70.48873346755393,-36.217315673828125,4761.76025390625,True
1599385930.4456575,0.0,10,0.5,0.5,-3.060863275909424,-0.05075,-0.02275,-0.37525,0.087231318695418,10,1,100,0.48236637769972013,-10,-1,-100,19332.956828782917,-0.0482450372169745,0.0019204600195092346,0.9988336839620728,62.28092715331057,3.767440020145178,246.25085746701683,-70.8535620346775,-37.51641845703125,4761.76025390625,True
1599385930.477784,0.0,10,0.5,0.5,-3.3440785865783695,-0.05075,-0.02275,-0.37525,0.06146600577348714,10,1,100,0.49725503816661953,-10,-1,-100,19331.536109360284,-0.04802469089240801,0.002301560582453481,0.9988434971924149,62.385659824388156,3.7743416668603103,247.32526750677965,-71.03596926573374,-38.276214599609375,4761.76025390625,True
1599385930.5111115,0.0,10,0.5,0.5,-3.746863700866699,-0.05075,-0.02275,-0.37525,0.023586105537307847,10,1,100,0.5240921397125091,-10,-1,-100,19331.536109360284,-0.04802469089240801,0.002301560582453481,0.9988434971924149,62.385659824388156,3.7743416668603103,247.32526750677965,-71.03596926573374,-38.276214599609375,4761.76025390625,True
1599385930.5484514,0.0,10,0.5,0.5,-3.123442478179932,-0.05075,-0.02275,-0.37525,0.11890821608094768,10,1,100,0.4706566913494866,-10,-1,-100,19328.6837261545,-0.04749525527920562,0.0031660328959570673,0.9988664460085065,62.579771109792006,3.7871260303264003,249.41989467401885,-71.40076990656674,-40.015869140625,4761.76025390625,True
1599385930.5793684,0.0,10,0.5,0.5,-1.9051865318298344,-0.05075,-0.02275,-0.37525,0.2666995684053407,10,1,100,0.36454430715525105,-10,-1,-100,19322.935186136165,-0.04605051773046277,0.005292437389789693,0.9989250922482784,62.852076011624256,3.8052040504011027,253.16833425318768,-72.13032089651803,-44.37548828125,4761.76025390625,True
1599385930.614229,0.0,10,0.5,0.5,-3.5173544212341312,-0.05075,-0.02275,-0.37525,0.05460500575068142,10,1,100,0.5087336666342462,-10,-1,-100,19322.935186136165,-0.04605051773046277,0.005292437389789693,0.9989250922482784,62.852076011624256,3.8052040504011027,253.16833425318768,-72.13032089651803,-44.37548828125,4761.76025390625,True
1599385930.6581118,0.0,10,0.5,0.5,-1.771961925506592,-0.05075,-0.02275,-0.37525,0.2522150842659898,10,1,100,0.34623349363328804,-10,-1,-100,19318.585481166723,-0.044575918566983695,0.007084042478168405,0.9989808826129143,62.88213902930481,3.8076811311285743,255.28917888922837,-72.67745133772492,-48.417083740234375,4761.76025390625,True
1599385930.692022,0.0,10,0.5,0.5,-2.6194202636718753,-0.05075,-0.02275,-0.37525,0.14840911527318634,10,1,100,0.43162007623849763,-10,-1,-100,19317.128284665057,-0.04401563121418287,0.00776260484673731,0.9990006837709422,62.844094004723864,3.805477472585607,255.80124383426318,-72.8598248446336,-49.91070556640625,4761.76025390625,True
1599385930.7239356,0.0,10,0.5,0.5,-2.4767027023315435,-0.05075,-0.02275,-0.37525,0.1575765677263179,10,1,100,0.42090363322612223,-10,-1,-100,19315.66744052281,-0.043413367185196484,0.008455923066309476,0.9990214096378215,62.77701868471112,3.8014531827219447,256.19422854091385,-73.04219802344117,-51.477783203125,4761.76025390625,True
1599385930.7538576,0.0,10,0.5,0.5,-1.597042527770996,-0.05075,-0.02275,-0.37525,0.232301021150761,10,1,100,0.3351564892231206,-10,-1,-100,19312.734809895745,-0.04209131671907087,0.009758285947958988,0.9990661123830658,62.54338536664118,3.7871923826119804,256.56851279256466,-73.40694709430039,-54.834136962890625,4761.76025390625,True
1599385930.787762,0.0,10,0.5,0.5,-2.0524884002685546,-0.05075,-0.02275,-0.37525,0.18058977581770574,10,1,100,0.3872554228462297,-10,-1,-100,19311.263023478095,-0.04136898545827801,0.010464407600851744,0.9990891367719479,62.36972469771325,3.77652875815009,256.51853693964955,-73.58932506584962,-56.622100830078125,4761.76025390625,True
1599385930.8156896,0.0,10,0.5,0.5,-1.0624876640319825,-0.05075,-0.02275,-0.37525,0.26582177064548007,10,1,100,0.2864136295722084,-10,-1,-100,19308.308506964706,-0.03980182805666494,0.011873405467750977,0.9991370460181856,61.89151894349171,3.7471130040898464,255.8673420210057,-73.9540935996944,-60.418975830078125,4761.76025390625,True
1599385930.8466043,0.0,10,0.5,0.5,-1.5809510780334475,-0.05075,-0.02275,-0.37525,0.20048014690733407,10,1,100,0.3504946722101442,-10,-1,-100,19306.825777114136,-0.03896716977266679,0.012551596181053228,0.9991616571472386,61.57998462692689,3.727951198918863,255.23442284058336,-74.13648671807695,-62.42822265625,4761.76025390625,True
1599385930.8806133,0.0,10,0.5,0.5,-0.47415530700683606,-0.05075,-0.02275,-0.37525,0.2851909738310272,10,1,100,0.23552495267130805,-10,-1,-100,19303.84937317588,-0.03717144435606063,0.013928913405544667,0.9992118239371597,60.79403979730402,3.6796769407143937,253.27130188922752,-74.50129702788131,-66.667236328125,4761.76025390625,True
1599385930.914487,0.0,10,0.5,0.5,-1.0540986419677734,-0.05075,-0.02275,-0.37525,0.22107700752824755,10,1,100,0.3100712157906296,-10,-1,-100,19302.355698912404,-0.03622604528834263,0.01458838129732108,0.9992371354057509,60.31248603656407,3.6501573326677743,251.9078323009848,-74.68371706490026,-68.89755249023438,4761.76025390625,True
1599385930.9498508,0.0,10,0.5,0.5,0.15907681808471663,-0.05075,-0.02275,-0.37525,0.2997343554192771,10,1,100,0.18255910606550743,-10,-1,-100,19299.35740377952,-0.034216321931499816,0.01589451350348397,0.9992880504408965,59.15517805176654,3.579398440354639,248.33614023799962,-75.04859343558185,-73.57904052734375,4761.76025390625,True
1599385930.9807994,0.0,10,0.5,0.5,0.5552868797302246,-0.05075,-0.02275,-0.37525,0.30281155996237463,10,1,100,0.14955196172302346,-10,-1,-100,19296.344512084383,-0.03209999410925555,0.017100242753920487,0.9993383671589633,57.72401761576007,3.492229247293167,243.56129993844007,-75.41352639803215,-78.4769287109375,4761.76025390625,True
1599385931.0126817,0.0,10,0.5,0.5,0.9705895462036132,-0.05075,-0.02275,-0.37525,0.31046082936036584,10,1,100,0.11037688044056723,-10,-1,-100,19293.31702120928,-0.029831264372336366,0.018256793430412012,0.9993882054334977,56.02748661294838,3.3893065988809483,237.6014867800774,-75.77852271887711,-83.60568237304688,4761.76025390625,True
1599385931.0456204,0.0,10,0.5,0.5,0.2385907188415527,-0.05075,-0.02275,-0.37525,0.25276493617926443,10,1,100,0.20963423148696597,-10,-1,-100,19291.797800252796,-0.02868401722723332,0.0187741548450455,0.9994122063821124,55.06685153175811,3.331202116087619,234.1171130106636,-75.96104639871241,-86.22518920898438,4761.76025390625,True
1599385931.0815847,0.0,10,0.5,0.5,1.5571793518066406,-0.05075,-0.02275,-0.37525,0.30801884260220713,10,1,100,0.06272072465533762,-10,-1,-100,19288.74840535666,-0.026318878260450262,0.019737411433303844,0.9994587291314355,52.97940977310753,3.205308068653279,226.37729706007065,-76.32614498886313,-91.44234466552734,4761.76025390625,True
1599385931.1125457,0.0,10,0.5,0.5,2.8641366788864135,-0.05075,-0.02275,-0.37525,0.3472544177854411,10,1,100,-0.10566730969868648,-10,-1,-100,19284.1469299054,-0.022652290195118736,0.020960714355672334,0.9995236476455253,53.850741915593886,3.259632316416824,231.8314811899084,-76.87378771433241,-98.91044616699219,4761.76025390625,True
1599385931.1455245,0.0,10,0.5,0.5,0.15793757610321046,-0.05075,-0.02275,-0.37525,0.22597375622407415,10,1,100,0.25911982730815025,-10,-1,-100,19284.1469299054,-0.022652290195118736,0.020960714355672334,0.9995236476455253,53.850741915593886,3.259632316416824,231.8314811899084,-76.87378771433241,-98.91044616699219,4761.76025390625,True
1599385931.1794345,0.0,10,0.5,0.5,2.249186426734924,-0.05075,-0.02275,-0.37525,0.2980036712893295,10,1,100,-0.011833493019051927,-10,-1,-100,19281.06102806155,-0.020204668681109213,0.021607270575458363,0.999562352843366,55.17766235201931,3.3415861080079368,238.72609770629634,-77.23878633286006,-103.61392211914062,4761.76025390625,True
1599385931.2150793,0.0,10,0.5,0.5,1.5349972391128541,-0.05075,-0.02275,-0.37525,0.2647226707729356,10,1,100,0.09984188430726444,-10,-1,-100,19279.512602787232,-0.019011845735968484,0.02188426197566535,0.999579726084664,55.775254512618126,3.378708877936054,241.90881223292294,-77.42125782464548,-105.8606185913086,4761.76025390625,True
1599385931.246013,0.0,10,0.5,0.5,2.618074577331543,-0.05075,-0.02275,-0.37525,0.2885217853568519,10,1,100,-0.05444313374268364,-10,-1,-100,19276.404805240105,-0.01654137889322292,0.022345195791552648,0.9996134627991703,56.87776124328588,3.447524625112482,247.90812193448778,-77.78614662721942,-110.17279052734375,4761.76025390625,True
1599385931.2794693,0.0,10,0.5,0.5,2.8368509403228757,-0.05075,-0.02275,-0.37525,0.2808128193489805,10,1,100,-0.07051540743401186,-10,-1,-100,19273.28241423634,-0.014167283517528627,0.022687093374565696,0.9996422279355488,57.852815515085474,3.508760097042245,253.39558187822004,-78.15096827093996,-114.2643814086914,4761.76025390625,True
1599385931.3123822,0.0,10,0.5,0.5,2.2208489164352416,-0.05075,-0.02275,-0.37525,0.260897276481232,10,1,100,0.032399993109672925,-10,-1,-100,19271.715747072943,-0.012962835943125467,0.022810683896806135,0.9996557595414892,58.29262666501738,3.536502364521497,255.94515574866304,-78.33335518627032,-116.20524597167969,4761.76025390625,True
1599385931.3492837,0.0,10,0.5,0.5,4.5740966764450075,-0.05075,-0.02275,-0.37525,0.2773606858045623,10,1,100,-0.3558686532669021,-10,-1,-100,19265.412606220576,-0.00835556605221385,0.02306751496437964,0.9996989918316989,59.531643917879656,3.6157480970990603,263.92950101090145,-79.06277416875491,-123.23746490478516,4761.76025390625,True
1599385931.3792038,0.0,10,0.5,0.5,2.025418827056885,-0.05075,-0.02275,-0.37525,0.2521586512006086,10,1,100,0.10271076599224746,-10,-1,-100,19265.412606220576,-0.00835556605221385,0.02306751496437964,0.9996989918316989,59.531643917879656,3.6157480970990603,263.92950101090145,-79.06277416875491,-123.23746490478516,4761.76025390625,True
1599385931.4131782,0.0,10,0.5,0.5,3.419580204582214,-0.05075,-0.02275,-0.37525,0.2493768003003914,10,1,100,-0.14627997938790072,-10,-1,-100,19262.239155521966,-0.006110494231644338,0.02303832235608736,0.9997159084276204,59.89514548695422,3.6396210351213445,266.82028902822805,-79.42742355464537,-126.31248474121094,4761.76025390625,True
1599385931.4461243,0.0,10,0.5,0.5,2.9525928997039794,-0.05075,-0.02275,-0.37525,0.2532637486048165,10,1,100,-0.03560312165094434,-10,-1,-100,19260.646960713086,-0.0050940443596705735,0.02304411868684117,0.9997214708637643,60.02510717929126,3.6483432524097434,268.04016660645357,-79.60973701595036,-127.73873901367188,4761.76025390625,True
1599385931.4831128,0.0,10,0.5,0.5,3.604416970062256,-0.05075,-0.02275,-0.37525,0.24095314718586425,10,1,100,-0.16356504769248634,-10,-1,-100,19257.451632674783,-0.003022670826439904,0.022935579516144004,0.9997323755152343,60.20542521864443,3.6608061942619803,270.131036366074,-79.97434573486903,-130.37123107910156,4761.76025390625,True
1599385931.51406,0.0,10,0.5,0.5,3.683770502471924,-0.05075,-0.02275,-0.37525,0.2371270600474057,10,1,100,-0.17165177602822895,-10,-1,-100,19254.24172099179,-0.001083933374422252,0.022800329600469255,0.9997394510864066,60.296476196206704,3.66765384038438,271.82726357012706,-80.3389352452601,-132.7083740234375,4761.76025390625,True
1599385931.547971,0.0,10,0.5,0.5,3.743005168914795,-0.05075,-0.02275,-0.37525,0.2292912008619487,10,1,100,-0.18335367233165878,-10,-1,-100,19251.01722601999,0.000767553607164351,0.02260505544905623,0.999744178442468,60.32050416672258,3.670248448507137,273.2240157928154,-80.7035099955977,-134.75076293945312,4761.76025390625,True
1599385931.5810657,0.0,10,0.5,0.5,3.7865627592086795,-0.05075,-0.02275,-0.37525,0.22547556858987122,10,1,100,-0.1905974802028531,-10,-1,-100,19247.77814842097,0.0024985951171238177,0.022392190660322418,0.9997461411877879,60.29768700670291,3.6698353575583176,274.40892681798204,-81.06807348562589,-136.497802734375,4761.76025390625,True
1599385931.6168835,0.0,10,0.5,0.5,3.190875478935242,-0.05075,-0.02275,-0.37525,0.24676674695012932,10,1,100,-0.019397326607941107,-10,-1,-100,19247.77814842097,0.0024985951171238177,0.022392190660322418,0.9997461411877879,60.29768700670291,3.6698353575583176,274.40892681798204,-81.06807348562589,-136.497802734375,4761.76025390625,True
1599385931.6478343,0.0,10,0.5,0.5,3.8599677429199217,-0.05075,-0.02275,-0.37525,0.22042025372595386,10,1,100,-0.19971264428104873,-10,-1,-100,19244.524488544674,0.004122674479029658,0.02215294517893377,0.9997460930531507,60.24663386589555,3.6675695013700387,275.4641541287822,-81.43262805336337,-137.94970703125,4761.76025390625,True
1599385931.6798217,0.0,10,0.5,0.5,3.8573213100433352,-0.05075,-0.02275,-0.37525,0.21689985422950242,10,1,100,-0.2049797666500563,-10,-1,-100,19241.256246880046,0.005631460911005803,0.021904043599265326,0.9997442170485455,60.18216551492551,3.6643774572157115,276.4560163540276,-81.79717482515437,-139.10630798339844,4761.76025390625,True
1599385931.7137318,0.0,10,0.5,0.5,3.6588294107437136,-0.05075,-0.02275,-0.37525,0.22395526179156425,10,1,100,-0.13615914021552908,-10,-1,-100,19239.61665779876,0.006364727402521852,0.021742967205917407,0.9997433338723365,60.148808939445864,3.662679771293287,276.9459206726151,-81.97944553464454,-139.57443237304688,4761.76025390625,True
1599385931.750324,0.0,10,0.5,0.5,4.002988462448121,-0.05075,-0.02275,-0.37525,0.1766376827767954,10,1,100,-0.3499487965609823,-10,-1,-100,19233.021848222823,0.00896149354935444,0.021167578446156365,0.9997357777213391,60.0266438265467,3.656419792556625,278.9519302635881,-82.70851012662735,-140.70742797851562,4761.76025390625,True
1599385931.780982,0.0,10,0.5,0.5,3.61058035736084,-0.05075,-0.02275,-0.37525,0.23398948436190647,10,1,100,-0.0917793806558235,-10,-1,-100,19233.021848222823,0.00896149354935444,0.021167578446156365,0.9997357777213391,60.0266438265467,3.656419792556625,278.9519302635881,-82.70851012662735,-140.70742797851562,4761.76025390625,True
1599385931.8131046,0.0,10,0.5,0.5,3.672006823730469,-0.05075,-0.02275,-0.37525,0.18541818732406706,10,1,100,-0.275955433508862,-10,-1,-100,19228.03746598796,0.010623043540828403,0.020727727146031175,0.9997287193400465,59.972743386777914,3.653935152569618,280.627341666762,-83.25528773701267,-140.78236389160156,4761.76025390625,True
1599385931.8459811,0.0,10,0.5,0.5,3.5316978462219235,-0.05075,-0.02275,-0.37525,0.19731164673851603,10,1,100,-0.21750155329312762,-10,-1,-100,19224.696319101262,0.011589739427145996,0.020437991824567004,0.9997239451119444,59.96214496442201,3.6538196603985442,281.86203161133386,-83.61979473656756,-140.46340942382812,4761.76025390625,True
1599385931.8820817,0.0,10,0.5,0.5,3.669028215789795,-0.05075,-0.02275,-0.37525,0.22604894510734289,10,1,100,-0.12209933194152521,-10,-1,-100,19224.696319101262,0.011589739427145996,0.020437991824567004,0.9997239451119444,59.96214496442201,3.6538196603985442,281.86203161133386,-83.61979473656756,-140.46340942382812,4761.76025390625,True
1599385931.912572,0.0,10,0.5,0.5,3.420090648651123,-0.05075,-0.02275,-0.37525,0.20008156953750864,10,1,100,-0.21482824217237229,-10,-1,-100,19221.340592131368,0.012422891169408258,0.020203894831772592,0.9997186976388006,59.97085353090013,3.6549032224748403,283.1878968274405,-83.98429156313618,-139.84854125976562,4761.76025390625,True
1599385931.945309,0.0,10,0.5,0.5,3.4804076705932623,-0.05075,-0.02275,-0.37525,0.20967404253907818,10,1,100,-0.17417289671785186,-10,-1,-100,19219.65726130607,0.012801685707285326,0.020080273043636077,0.9997164095269944,59.981712616570924,3.6558561852881386,283.8819267634434,-84.16653591360814,-139.4306182861328,4761.76025390625,True
1599385931.9792397,0.0,10,0.5,0.5,3.1938025165557864,-0.05075,-0.02275,-0.37525,0.19188505140963036,10,1,100,-0.21288632054856177,-10,-1,-100,19216.279665303882,0.013488618148734421,0.019808273241986706,0.9997128035048909,60.01234897397689,3.6583484539439164,285.31343419819166,-84.53101613522514,-138.37403869628906,4761.76025390625,True
1599385932.0152159,0.0,10,0.5,0.5,3.3189151336669926,-0.05075,-0.02275,-0.37525,0.20686540015589427,10,1,100,-0.1770586813777843,-10,-1,-100,19214.58540019067,0.0137788818815268,0.019699317203577812,0.999710997896796,60.02971082886647,3.6597455000681447,286.03959830802205,-84.71325209216387,-137.73475646972656,4761.76025390625,True
1599385932.0690382,0.0,10,0.5,0.5,2.1526923149108885,-0.05075,-0.02275,-0.37525,0.1662831504797952,10,1,100,-0.2481566381186334,-10,-1,-100,19207.771893461584,0.014681696317190752,0.019233341013783087,0.999707220333382,60.09001470872507,3.6650091726682485,288.9053060560082,-85.44216885202322,-134.44134521484375,4761.76025390625,True
1599385932.103945,0.0,10,0.5,0.5,2.487230701446533,-0.05075,-0.02275,-0.37525,0.1854607469140674,10,1,100,-0.19088624747425914,-10,-1,-100,19204.343273204984,0.014974235917468517,0.01898634955991048,0.9997076026464322,60.0941047341726,3.666224934209074,290.2151193238041,-85.80661319775902,-132.35299682617188,4761.76025390625,True
1599385932.1423707,0.0,10,0.5,0.5,3.2518771034240723,-0.05075,-0.02275,-0.37525,0.20994176941270362,10,1,100,-0.16223356168329406,-10,-1,-100,19204.343273204984,0.014974235917468517,0.01898634955991048,0.9997076026464322,60.0941047341726,3.666224934209074,290.2151193238041,-85.80661319775902,-132.35299682617188,4761.76025390625,True
1599385932.16734,0.0,10,0.5,0.5,2.217552138519287,-0.05075,-0.02275,-0.37525,0.18623630315827921,10,1,100,-0.18161427542770278,-10,-1,-100,19200.900075307232,0.01514495809481031,0.018772828256585026,0.9997090632596841,60.06158175911163,3.665344475522588,291.3482083399027,-86.17105114921642,-129.96961975097656,4761.76025390625,True
1599385932.1972592,0.0,10,0.5,0.5,1.9468215576171877,-0.05075,-0.02275,-0.37525,0.18050336582278156,10,1,100,-0.17333752265734798,-10,-1,-100,19197.442300112103,0.015220806035796005,0.018528377549502314,0.9997124718082715,59.975947784542214,3.6613711192648983,292.2219551021083,-86.53548618141008,-127.29240417480469,4761.76025390625,True
1599385932.2291372,0.0,10,0.5,0.5,2.30426823387146,-0.05075,-0.02275,-0.37525,0.19047825297585044,10,1,100,-0.16592016453875041,-10,-1,-100,19195.70794585487,0.01521902721142425,0.018398566439250533,0.9997148963398107,59.90696665501671,3.6578442081766287,292.5300438090671,-86.71770393402873,-125.84354400634766,4761.76025390625,True
1599385932.2620864,0.0,10,0.5,0.5,0.7750657125473024,-0.05075,-0.02275,-0.37525,0.16045494099244395,10,1,100,-0.14881327167637232,-10,-1,-100,19190.483016992337,0.015058593537988054,0.018009471162250053,0.9997244108798754,59.56401031111479,3.6391737591343807,292.7785513006808,-87.26436699489551,-121.0556869506836,4761.76025390625,True
1599385932.2919981,0.0,10,0.5,0.5,2.52895532913208,-0.05075,-0.02275,-0.37525,0.19914502632553976,10,1,100,-0.16512020925684984,-10,-1,-100,19190.483016992337,0.015058593537988054,0.018009471162250053,0.9997244108798754,59.56401031111479,3.6391737591343807,292.7785513006808,-87.26436699489551,-121.0556869506836,4761.76025390625,True
1599385932.3249183,0.0,10,0.5,0.5,1.74473672618866,-0.05075,-0.02275,-0.37525,0.18296439282833396,10,1,100,-0.1541905088059363,-10,-1,-100,19188.73408499558,0.014957180890406383,0.017864257041258533,0.9997285386844648,59.39497331821528,3.62967121635236,292.5875570650954,-87.44659391306936,-119.31292724609375,4761.76025390625,True
1599385932.3568933,0.0,10,0.5,0.5,-0.9100673677444453,-0.05075,-0.02275,-0.37525,0.12491878981219919,10,1,100,-0.09465561172941625,-10,-1,-100,19181.70190970658,0.014322426180325889,0.017206324191302042,0.9997493738513333,58.37005988936537,3.5705213653121066,290.0578557440289,-88.17555766468902,-111.64764404296875,4761.76025390625,True
1599385932.3848133,0.0,10,0.5,0.5,1.9069819734573366,-0.05075,-0.02275,-0.37525,0.19046277550662066,10,1,100,-0.15818543716734557,-10,-1,-100,19181.70190970658,0.014322426180325889,0.017206324191302042,0.9997493738513333,58.37005988936537,3.5705213653121066,290.0578557440289,-88.17555766468902,-111.64764404296875,4761.76025390625,True
1599385932.4147072,0.0,10,0.5,0.5,0.9633838106155395,-0.05075,-0.02275,-0.37525,0.16954666898912307,10,1,100,-0.13491918439159972,-10,-1,-100,19179.934753287816,0.014111241400670804,0.017018020510981592,0.9997556000563438,58.01268426998957,3.54955185374342,288.9089304111935,-88.35781790137025,-109.55435180664062,4761.76025390625,True
1599385932.4468992,0.0,10,0.5,0.5,-0.14384108562469478,-0.05075,-0.02275,-0.37525,0.14372733381271185,10,1,100,-0.10439567713060563,-10,-1,-100,19176.38950390357,0.013642553348172414,0.016613903508221926,0.9997689027712163,57.25777508758284,3.505087750984835,286.388384377192,-88.72236700146269,-105.23307037353516,4761.76025390625,True
1599385932.4802966,0.0,10,0.5,0.5,0.4813193332672119,-0.05075,-0.02275,-0.37525,0.15889584161361042,10,1,100,-0.1209150850680443,-10,-1,-100,19174.611410675687,0.013367860356759045,0.01638657670940466,0.9997763652003526,56.84861714851577,3.4808595976777608,284.95760414408466,-88.90465637248361,-103.03893280029297,4761.76025390625,True
1599385932.5161996,0.0,10,0.5,0.5,-0.7050297857284544,-0.05075,-0.02275,-0.37525,0.12717489834932305,10,1,100,-0.08305186534669237,-10,-1,-100,19171.04428608343,0.012775543910496465,0.01589371309130197,0.9997920660627201,55.948518078798635,3.4272269207281902,281.6589863574211,-89.2692679161298,-98.46514892578125,4761.76025390625,True
1599385932.5471234,0.0,10,0.5,0.5,-2.054526077079773,-0.05075,-0.02275,-0.37525,0.08474052454242222,10,1,100,-0.03405720236862124,-10,-1,-100,19165.666249939473,0.0117938913523892,0.015062283371562426,0.9998169991285418,54.41971869214694,3.3352427816736054,275.7353542047449,-89.81626931659774,-91.42236328125,4761.76025390625,True
1599385932.581124,0.0,10,0.5,0.5,0.5099710498809814,-0.05075,-0.02275,-0.37525,0.1675498682096078,10,1,100,-0.13187994459344424,-10,-1,-100,19165.666249939473,0.0117938913523892,0.015062283371562426,0.9998169991285418,54.41971869214694,3.3352427816736054,275.7353542047449,-89.81626931659774,-91.42236328125,4761.76025390625,True
1599385932.6130378,0.0,10,0.5,0.5,-1.5330119611740112,-0.05075,-0.02275,-0.37525,0.0989898983911294,10,1,100,-0.05367692425323106,-10,-1,-100,19162.062657649396,0.011085922714919625,0.014441690180295065,0.9998342562156467,54.28433947536032,3.327606952839157,276.22958185913035,-90.18097390050616,-86.78488159179688,4761.76025390625,True
1599385932.650655,0.0,10,0.5,0.5,-0.8239068382263183,-0.05075,-0.02275,-0.37525,0.1252649952146515,10,1,100,-0.08449205224804457,-10,-1,-100,19160.255391481332,0.010726063908830196,0.01411962250570399,0.9998427815478393,55.1776044639061,3.3825597157528646,281.3750540165953,-90.36329996406549,-84.54745483398438,4761.76025390625,True
1599385932.6805742,0.0,10,0.5,0.5,-1.9083421905517577,-0.05075,-0.02275,-0.37525,0.07922499782346878,10,1,100,-0.03601542014861768,-10,-1,-100,19156.629921334563,0.009962069354191904,0.013411692493006399,0.9998604320997283,56.808186229335,3.4826875065365566,290.92589557874186,-90.72789157940115,-80.21661376953125,4761.76025390625,True
1599385932.713539,0.0,10,0.5,0.5,-2.1305533737182616,-0.05075,-0.02275,-0.37525,0.06815901651797884,10,1,100,-0.0272814530131493,-10,-1,-100,19152.989869948826,0.009192093109494774,0.012670969589320768,0.9998774684699786,58.27994372586359,3.572836144080388,299.73097061262416,-91.0924049277067,-76.04794311523438,4761.76025390625,True
1599385932.7474475,0.0,10,0.5,0.5,-1.4951018745422364,-0.05075,-0.02275,-0.37525,0.09791844432686866,10,1,100,-0.059799026296283316,-10,-1,-100,19151.16437718703,0.008792392946953904,0.012272248433870994,0.9998860363784682,58.9470611106268,3.6136253085949352,303.80312483716585,-91.27463381407344,-74.05767822265625,4761.76025390625,True
1599385932.7832456,0.0,10,0.5,0.5,-3.933890521240234,-0.05075,-0.02275,-0.37525,-0.047389079304981735,10,1,100,0.07814567195081841,-10,-1,-100,19143.825966812554,0.007179821768264657,0.010593111506879024,0.9999181147213899,61.190515936500915,3.7504712500669677,318.02770130760257,-92.00338268707515,-66.76922607421875,4761.76025390625,True
1599385932.8141901,0.0,10,0.5,0.5,-1.2864040983200073,-0.05075,-0.02275,-0.37525,0.11992253419408101,10,1,100,-0.08246517276011547,-10,-1,-100,19143.825966812554,0.007179821768264657,0.010593111506879024,0.9999181147213899,61.190515936500915,3.7504712500669677,318.02770130760257,-92.00338268707515,-66.76922607421875,4761.76025390625,True
1599385932.8482604,0.0,10,0.5,0.5,-2.7339819511413577,-0.05075,-0.02275,-0.37525,0.01833082338402922,10,1,100,0.009033587400448503,-10,-1,-100,19140.134902775404,0.0063536403473399795,0.009674817286062667,0.9999330123387357,62.08194105773423,3.8047328959796998,324.01117591921604,-92.36766941965254,-63.564849853515625,4761.76025390625,True
1599385932.8801382,0.0,10,0.5,0.5,-2.246349819946289,-0.05075,-0.02275,-0.37525,0.06256148560227788,10,1,100,-0.028864551704460832,-10,-1,-100,19138.28390684421,0.005952932959783227,0.00924775482894573,0.9999395189809233,62.47858495399796,3.828866893890148,326.7608622793883,-92.54979379767533,-62.073272705078125,4761.76025390625,True
1599385932.9155781,0.0,10,0.5,0.5,-3.469313123321533,-0.05075,-0.02275,-0.37525,-0.04945982307515126,10,1,100,0.0671366126438939,-10,-1,-100,19132.7090662173,0.004721225621012596,0.007846426633174265,0.9999580709298393,63.50278780974872,3.891203264134666,334.18988540617124,-93.09610055116144,-58.045318603515625,4761.76025390625,True
1599385932.9472218,0.0,10,0.5,0.5,-3.0197131546020506,-0.05075,-0.02275,-0.37525,-0.01431642492811662,10,1,100,0.034641192134533615,-10,-1,-100,19128.974297247594,0.0039033342865165497,0.006898537217208146,0.999968586589454,64.07087765077209,3.9258312959832518,338.57400935058536,-93.46025650392086,-55.730865478515625,4761.76025390625,True
1599385932.980464,0.0,10,0.5,0.5,-3.0818188049316406,-0.05075,-0.02275,-0.37525,-0.020407812106300396,10,1,100,0.04304066765091066,-10,-1,-100,19125.224963111687,0.003089967467215264,0.005988300731040083,0.9999772959199655,64.56755602052803,3.956171885608917,342.60450004666166,-93.82437901500032,-53.712188720703125,4761.76025390625,True
1599385933.0132065,0.0,10,0.5,0.5,-2.3944605819702147,-0.05075,-0.02275,-0.37525,0.06980270433303955,10,1,100,-0.037532404635056395,-10,-1,-100,19125.224963111687,0.003089967467215264,0.005988300731040083,0.9999772959199655,64.56755602052803,3.956171885608917,342.60450004666166,-93.82437901500032,-53.712188720703125,4761.76025390625,True
1599385933.0491166,0.0,10,0.5,0.5,-2.837284516143799,-0.05075,-0.02275,-0.37525,0.01729540822575565,10,1,100,0.008106630751138023,-10,-1,-100,19123.344834321993,0.0026813145108743846,0.005517710213484744,0.9999811825361985,64.79396173310145,3.970030731048187,344.5114824292177,-94.00642892397974,-52.814239501953125,4761.76025390625,True
1599385933.0801334,0.0,10,0.5,0.5,-3.2236989311218265,-0.05075,-0.02275,-0.37525,-0.03836692596521906,10,1,100,0.05750431565763106,-10,-1,-100,19119.573654501582,0.001866660850140576,0.00459038239522179,0.9999877219079923,65.21130029927969,3.995635000849618,348.15142187299574,-94.37050797844272,-51.240264892578125,4761.76025390625,True
1599385933.1190805,0.0,10,0.5,0.5,-3.2290450088500977,-0.05075,-0.02275,-0.37525,-0.05264033213445081,10,1,100,0.06650552107121507,-10,-1,-100,19115.787912405794,0.001050533593074362,0.0036245823825703147,0.9999928793655093,65.59070754757609,4.018984308441225,351.60704592873833,-94.7345613757824,-49.963104248046875,4761.76025390625,True
1599385933.1480508,0.0,10,0.5,0.5,-3.3680671897888184,-0.05075,-0.02275,-0.37525,-0.10946161025387831,10,1,100,0.12016212301183116,-10,-1,-100,19110.08199664834,-0.00017361548719580593,0.0022363603237326407,0.9999974842719181,66.10877959995983,4.050969486650188,356.54796066639625,-95.28059734565042,-48.60150146484375,4761.76025390625,True
1599385933.1830153,0.0,10,0.5,0.5,-3.1276429267883303,-0.05075,-0.02275,-0.37525,-0.07202535464996651,10,1,100,0.08861495603251114,-10,-1,-100,19106.259852638585,-0.0009930009173971762,0.0013222669131731774,0.9999986327787597,66.43022822232733,4.07085304208732,359.732381046484,-95.64459403683813,-48.063507080078125,4761.76025390625,True
1599385933.2133305,0.0,10,0.5,0.5,-2.9610260887145996,-0.05075,-0.02275,-0.37525,0.018548731368690872,10,1,100,0.007411077138847838,-10,-1,-100,19106.259852638585,-0.0009930009173971762,0.0013222669131731774,0.9999986327787597,66.43022822232733,4.07085304208732,359.732381046484,-95.64459403683813,-48.063507080078125,4761.76025390625,True
1599385933.2473571,0.0,10,0.5,0.5,-3.060383840179443,-0.05075,-0.02275,-0.37525,-0.02982355732232125,10,1,100,0.053288774047242984,-10,-1,-100,19104.34332087671,-0.0014037564039487862,0.0008897238231783149,0.9999986189287847,66.58535714711864,4.080451212610836,361.29988161399297,-95.82658454333773,-47.90509033203125,4761.76025390625,True
1599385933.2802777,0.0,10,0.5,0.5,-3.037462480163574,-0.05075,-0.02275,-0.37525,-0.13054492294904643,10,1,100,0.1487726468774374,-10,-1,-100,19098.57188772352,-0.0026396375247020524,-0.0004128216708690651,0.9999964309396341,67.03094831962395,4.107993808534601,365.91626684713384,-96.37252598617681,-47.873504638671875,4761.76025390625,True
1599385933.316288,0.0,10,0.5,0.5,-2.8952278762817385,-0.05075,-0.02275,-0.37525,-0.09330099421675143,10,1,100,0.11689654296905663,-10,-1,-100,19094.70606839785,-0.0034674348973004524,-0.0012517260779930225,0.9999932050154433,67.30949828131612,4.125157885245091,368.9100298354824,-96.73646284231788,-48.221527099609375,4761.76025390625,True
1599385933.3465326,0.0,10,0.5,0.5,-3.0383145599365236,-0.05075,-0.02275,-0.37525,-0.010134556185259009,10,1,100,0.03477254594566821,-10,-1,-100,19094.70606839785,-0.0034674348973004524,-0.0012517260779930225,0.9999932050154433,67.30949828131612,4.125157885245091,368.9100298354824,-96.73646284231788,-48.221527099609375,4761.76025390625,True
1599385933.3814723,0.0,10,0.5,0.5,-2.7770805343627933,-0.05075,-0.02275,-0.37525,-0.09611420425424079,10,1,100,0.1267340343544011,-10,-1,-100,19090.825691869017,-0.004297487153412101,-0.002026777399702827,0.9999887118250578,67.56891958419324,4.141067182186755,371.81188987052974,-97.10038168985582,-48.86407470703125,4761.76025390625,True
1599385933.413303,0.0,10,0.5,0.5,-2.627769147491455,-0.05075,-0.02275,-0.37525,-0.10174511558251363,10,1,100,0.13584961280774677,-10,-1,-100,19086.93075941282,-0.005128604643394663,-0.002775700988229504,0.999982996304655,67.80275119334298,4.155299398221715,374.584965806382,-97.46428417716159,-49.801666259765625,4761.76025390625,True
1599385933.4493477,0.0,10,0.5,0.5,-2.735928914642334,-0.05075,-0.02275,-0.37525,-0.0698653025811577,10,1,100,0.09945206206641037,-10,-1,-100,19084.97783490061,-0.005546919840736175,-0.0031600276928928374,0.9999796227450141,67.9072765233795,4.161608045125125,375.9072443938461,-97.64622987119382,-50.38134765625,4761.76025390625,True
1599385933.4802644,0.0,10,0.5,0.5,-2.0239299789428715,-0.05075,-0.02275,-0.37525,-0.14421201402074169,10,1,100,0.1955394967765488,-10,-1,-100,19079.09722772357,-0.006794730832562617,-0.0041791269737871195,0.9999681827591566,68.15411367708806,4.176217909379495,379.51828780462864,-98.19204852057862,-52.56109619140625,4761.76025390625,True
1599385933.5142992,0.0,10,0.5,0.5,-2.4606425582885745,-0.05075,-0.02275,-0.37525,-0.07761133444033343,10,1,100,0.11697985236203585,-10,-1,-100,19077.129748078296,-0.007208906680140749,-0.004494287880871374,0.9999639158694282,68.20837667314063,4.1792879931212035,380.57001879670685,-98.37398346155548,-53.43487548828125,4761.76025390625,True
1599385933.5473282,0.0,10,0.5,0.5,-2.3726562156677247,-0.05075,-0.02275,-0.37525,-0.08126665298200436,10,1,100,0.12197752191198033,-10,-1,-100,19075.158629652928,-0.007625212714063324,-0.004808740187877664,0.9999593652488439,68.24538018326257,4.181256511071258,381.5268582979526,-98.55591688126907,-54.382415771484375,4761.76025390625,True
1599385933.5854297,0.0,10,0.5,0.5,-1.8127943473815917,-0.05075,-0.02275,-0.37525,-0.11190607146743486,10,1,100,0.17108614302068892,-10,-1,-100,19071.205476878793,-0.008444085471529684,-0.0053675724467499766,0.9999499420403896,68.25875956346614,4.181344706648547,383.1040203900304,-98.9197818576625,-56.49755859375,4761.76025390625,True
1599385933.6143832,0.0,10,0.5,0.5,-1.5605132743835448,-0.05075,-0.02275,-0.37525,-0.11469591422470352,10,1,100,0.17973820782322486,-10,-1,-100,19067.2377694482,-0.009260770086460719,-0.005895275528727314,0.9999397401162964,68.17485970762723,4.175299269026395,384.13557758236817,-99.2836493906583,-58.90704345703125,4761.76025390625,True
1599385933.6484513,0.0,10,0.5,0.5,-1.2879749160766603,-0.05075,-0.02275,-0.37525,-0.11361238733166762,10,1,100,0.1870884614506165,-10,-1,-100,19063.25550707325,-0.010064011921590893,-0.006360171309808332,0.9999291294311572,67.97228037107733,4.161830988397161,384.4942690422294,-99.64752652041415,-61.610321044921875,4761.76025390625,True
1599385933.6814985,0.0,10,0.5,0.5,-1.6492619384765626,-0.05075,-0.02275,-0.37525,-0.08978230267074873,10,1,100,0.15032934421631422,-10,-1,-100,19061.258917383035,-0.010454061090466222,-0.0065615226636628905,0.999923826612333,67.81928554019404,4.151884477830201,384.3780986291828,-99.82947116182996,-63.07196044921875,4761.76025390625,True
1599385933.718724,0.0,10,0.5,0.5,-0.8247900917053224,-0.05075,-0.02275,-0.37525,-0.11037704602201814,10,1,100,0.19630443932885344,-10,-1,-100,19057.254821291775,-0.011220255175745817,-0.006926967200737056,0.9999130577201155,67.3941275533386,4.124639305463974,383.4594915704098,-100.19337837438394,-66.21554565429688,4761.76025390625,True
1599385933.7486415,0.0,10,0.5,0.5,-1.248475933837891,-0.05075,-0.02275,-0.37525,-0.09194326262123663,10,1,100,0.16128786535872636,-10,-1,-100,19055.247314370703,-0.011592169337160355,-0.007087154940069162,0.9999076926621348,67.11547225766684,4.106963121045707,382.61745074214116,-100.37534327624138,-67.89739990234375,4761.76025390625,True
1599385933.780593,0.0,10,0.5,0.5,0.4951897010803221,-0.05075,-0.02275,-0.37525,-0.11977158388083946,10,1,100,0.2425466302687829,-10,-1,-100,19049.202955465764,-0.012663113196997934,-0.007481845392774885,0.9998918279262405,65.9752955923862,4.035433063726054,378.314143580213,-100.92129955495238,-73.3753662109375,4761.76025390625,True
1599385933.8145008,0.0,10,0.5,0.5,0.18830195083618162,-0.05075,-0.02275,-0.37525,-0.10170421218862714,10,1,100,0.20943332312165222,-10,-1,-100,19045.155182306655,-0.01332919919246158,-0.007672477136487355,0.999881725777343,64.93753306341101,3.971008803261118,373.80841247551854,-101.28533502055721,-77.3575439453125,4761.76025390625,True
1599385933.8506072,0.0,10,0.5,0.5,-1.2495983253479004,-0.05075,-0.02275,-0.37525,-0.08299037283365014,10,1,100,0.14347817041127753,-10,-1,-100,19045.155182306655,-0.01332919919246158,-0.007672477136487355,0.999881725777343,64.93753306341101,3.971008803261118,373.80841247551854,-101.28533502055721,-77.3575439453125,4761.76025390625,True
1599385933.8815203,0.0,10,0.5,0.5,1.4877755134582515,-0.05075,-0.02275,-0.37525,-0.1032916782911007,10,1,100,0.24296033125325214,-10,-1,-100,19039.05621566926,-0.014228018570559239,-0.007854145195868164,0.9998679292240541,62.92938194828925,3.847468660281953,364.35390396871395,-101.83151010131957,-83.65554809570312,4761.76025390625,True
1599385933.9143436,0.0,10,0.5,0.5,0.07981121292114246,-0.05075,-0.02275,-0.37525,-0.08963163361591998,10,1,100,0.18400858356244637,-10,-1,-100,19037.015943552135,-0.014503199566316608,-0.007892347202796355,0.9998636747366962,62.17147395230232,3.801122570085952,360.6600848953675,-102.01360422406756,-85.74185180664062,4761.76025390625,True
1599385933.9475017,0.0,10,0.5,0.5,0.26910952758789053,-0.05075,-0.02275,-0.37525,-0.08949741083157674,10,1,100,0.18732450215598634,-10,-1,-100,19034.972029697383,-0.014778000536860228,-0.007923560843095185,0.9998594040582397,62.36977049901961,3.81337578842123,362.5074231995259,-102.19569253158427,-87.8677978515625,4761.76025390625,True
1599385933.9847052,0.0,10,0.5,0.5,1.3906583526611327,-0.05075,-0.02275,-0.37525,-0.08927830236079595,10,1,100,0.21312674382051444,-10,-1,-100,19030.87327835278,-0.015257369770258865,-0.007948101088801235,0.9998520092277536,64.0873682364394,3.919064057200925,373.92381384824546,-102.55980002583867,-92.21855926513672,4761.76025390625,True
1599385934.014632,0.0,10,0.5,0.5,3.464165456199646,-0.05075,-0.02275,-0.37525,-0.08265107541142448,10,1,100,0.25395138812510376,-10,-1,-100,19022.63209475903,-0.016059571878073286,-0.007908719312831545,0.9998397583162634,67.14273121303928,4.108673496795051,394.75523437215327,-103.28774113240641,-100.75493621826172,4761.76025390625,True
1599385934.0476384,0.0,10,0.5,0.5,0.34661877441406264,-0.05075,-0.02275,-0.37525,-0.08672397267331028,10,1,100,0.1742917284224224,-10,-1,-100,19022.63209475903,-0.016059571878073286,-0.007908719312831545,0.9998397583162634,67.14273121303928,4.108673496795051,394.75523437215327,-103.28774113240641,-100.75493621826172,4761.76025390625,True
1599385934.0805998,0.0,10,0.5,0.5,2.1511309617996215,-0.05075,-0.02275,-0.37525,-0.0810357872694103,10,1,100,0.20735640584486226,-10,-1,-100,19018.489669527742,-0.016355760475820623,-0.007856116034512368,0.9998353717188195,68.51359572036854,4.194411980526273,404.3475537402622,-103.65157539098016,-104.80642700195312,4761.76025390625,True
1599385934.1055362,0.0,10,0.5,0.5,1.5337655920028688,-0.05075,-0.02275,-0.37525,-0.08322906816478168,10,1,100,0.19093241557938362,-10,-1,-100,19016.41300031729,-0.016471383297596887,-0.007827534734094272,0.9998336977879123,69.20138279206535,4.237502267054431,409.1803851486039,-103.83345915226451,-106.72893524169922,4761.76025390625,True
1599385934.1324298,0.0,10,0.5,0.5,1.6885175525665284,-0.05075,-0.02275,-0.37525,-0.0820464873042993,10,1,100,0.19251838717459513,-10,-1,-100,19014.332693744218,-0.016587450813622142,-0.007790486735581327,0.9998320682954355,69.83022605147043,4.2770122036126414,413.6792297801221,-104.01532194874632,-108.60755920410156,4761.76025390625,True
1599385934.1553917,0.0,10,0.5,0.5,2.6025218311309812,-0.05075,-0.02275,-0.37525,-0.07742417106819231,10,1,100,0.19974868668613557,-10,-1,-100,19010.161170665524,-0.016755734685912595,-0.0077146783987875915,0.9998298500706699,70.94629162954588,4.347380306406145,421.8763979926565,-104.37898886885723,-112.24104309082031,4761.76025390625,True
1599385934.1812994,0.0,10,0.5,0.5,2.051273988342285,-0.05075,-0.02275,-0.37525,-0.08075199748263417,10,1,100,0.18966119836200118,-10,-1,-100,19008.069954727194,-0.016813900552781376,-0.007675976331595212,0.9998291714765867,71.43322800629763,4.378190345969302,425.56986718679957,-104.56079550192848,-113.96136474609375,4761.76025390625,True
1599385934.2242193,0.0,10,0.5,0.5,2.1770854019165036,-0.05075,-0.02275,-0.37525,-0.08029794756998893,10,1,100,0.1887686712108626,-10,-1,-100,19005.97510278388,-0.016856313928576987,-0.0076368268793637955,0.9998287571159152,71.87223653240859,4.406034328244546,428.9880079428283,-104.74258622490643,-115.6102294921875,4761.76025390625,True
1599385934.2536898,0.0,10,0.5,0.5,2.2976024284362793,-0.05075,-0.02275,-0.37525,-0.07998577782671973,10,1,100,0.1876153392176549,-10,-1,-100,19003.876615399262,-0.016882247511759964,-0.007598630852690453,0.9998286105768909,72.26589163352537,4.431059302132176,432.14463781094923,-104.92436232939224,-117.1860580444336,4761.76025390625,True
1599385934.2816064,0.0,10,0.5,0.5,3.0213891950607303,-0.05075,-0.02275,-0.37525,-0.0760087660756978,10,1,100,0.18548655570450961,-10,-1,-100,18999.66873538762,-0.016884557967284167,-0.007528047930696675,0.9998291054958355,72.92930566515642,4.473365303449365,437.7404319871131,-105.28787571210243,-120.11661529541016,4761.76025390625,True
1599385934.3148804,0.0,10,0.5,0.5,3.1076050714492798,-0.05075,-0.02275,-0.37525,-0.0761654534808238,10,1,100,0.17883926868910227,-10,-1,-100,18995.446315858862,-0.016824749237441535,-0.007465687935438116,0.9998305813070273,73.44905066209864,4.5066307316442495,442.50030500467517,-105.6513450706606,-122.75144958496094,4761.76025390625,True
1599385934.3494534,0.0,10,0.5,0.5,3.6163089340209957,-0.05075,-0.02275,-0.37525,-0.07497539976000092,10,1,100,0.16221494976861456,-10,-1,-100,18989.085429034312,-0.016618551877071647,-0.00739858111626594,0.9998345286751079,74.01308685387627,4.542840013652472,448.37821298125823,-106.1964835992645,-126.14906311035156,4761.76025390625,True
1599385934.3845334,0.0,10,0.5,0.5,3.206618925666809,-0.05075,-0.02275,-0.37525,-0.07894512493642347,10,1,100,0.15975987258257635,-10,-1,-100,18984.826667671325,-0.016408272684135947,-0.0073741270897101354,0.999838182326114,74.2780528410368,4.559864023303567,451.64325694505146,-106.5598748562235,-128.04458618164062,4761.76025390625,True
1599385934.4144192,0.0,10,0.5,0.5,2.5481907052993775,-0.05075,-0.02275,-0.37525,-0.0813423286975237,10,1,100,0.1807930430969778,-10,-1,-100,18984.826667671325,-0.016408272684135947,-0.0073741270897101354,0.999838182326114,74.2780528410368,4.559864023303567,451.64325694505146,-106.5598748562235,-128.04458618164062,4761.76025390625,True
1599385934.4483597,0.0,10,0.5,0.5,2.953209201812744,-0.05075,-0.02275,-0.37525,-0.08055187726320687,10,1,100,0.1671203142668296,-10,-1,-100,18982.691836395417,-0.016284032522601383,-0.007367353356347604,0.9998402634367779,74.38478358564758,4.566712493116768,453.12363571221806,-106.7415619859583,-128.88150024414062,4761.76025390625,True
1599385934.4812777,0.0,10,0.5,0.5,3.303960652542114,-0.05075,-0.02275,-0.37525,-0.0812767725295738,10,1,100,0.14750809564834516,-10,-1,-100,18978.411272773053,-0.015993069859484666,-0.007368170040602488,0.9998449538737105,74.55810232337184,4.577796572622924,455.84676529883836,-107.10492125621961,-130.33380126953125,4761.76025390625,True
1599385934.518097,0.0,10,0.5,0.5,3.293072231292724,-0.05075,-0.02275,-0.37525,-0.08398402819886534,10,1,100,0.1377450873327138,-10,-1,-100,18974.11617534072,-0.015640497058169573,-0.007393838903607928,0.999850341800232,74.69031184579116,4.5861855744576205,458.3263331675946,-107.46826311680837,-131.49090576171875,4761.76025390625,True
1599385934.7346525,0.0,10,0.5,0.5,3.0980459617614753,-0.05075,-0.02275,-0.37525,-0.08339077967065084,10,1,100,0.15165427082052818,-10,-1,-100,18971.96317664988,-0.015447490182767448,-0.007412037553745457,0.999853207599173,74.74480569044785,4.58961359821642,459.49732734072546,-107.64992797329552,-131.958740234375,4761.76025390625,True
1599385934.7586136,0.0,10,0.5,0.5,3.1275722434997557,-0.05075,-0.02275,-0.37525,-0.08416671310355797,10,1,100,0.1480450830621872,-10,-1,-100,18969.806544773397,-0.015240499338004062,-0.007435840075374747,0.9998562073929939,74.79344913334656,4.592652455710892,460.6337599597772,-107.831589012122,-132.35284423828125,4761.76025390625,True
1599385934.7855492,0.0,10,0.5,0.5,3.150635779380799,-0.05075,-0.02275,-0.37525,-0.0846834174849183,10,1,100,0.14464173724901247,-10,-1,-100,18967.646279687295,-0.0150228788337119,-0.007462324035574937,0.9998593035180179,74.83732703491253,4.595373201579168,461.7421323571522,-108.01324646872719,-132.6731414794922,4761.76025390625,True
1599385934.8206158,0.0,10,0.5,0.5,3.2376760471343995,-0.05075,-0.02275,-0.37525,-0.08942500316537173,10,1,100,0.11395142759891982,-10,-1,-100,18963.31485056749,-0.01454773163220325,-0.007529565436392979,0.9998658255729599,74.9153328476206,4.60015705805963,463.90219718836573,-108.3765505956092,-133.09254455566406,4761.76025390625,True
1599385934.8515656,0.0,10,0.5,0.5,3.1363547557830813,-0.05075,-0.02275,-0.37525,-0.09745571481139184,10,1,100,0.07260702364359789,-10,-1,-100,18956.790459869197,-0.013741991429060857,-0.007663642381645059,0.9998762054659615,75.01719205488259,4.606321187934273,467.05634536062644,-108.9214801320603,-133.16891479492188,4761.76025390625,True
1599385934.9283595,0.0,10,0.5,0.5,3.1236669860839843,-0.05075,-0.02275,-0.37525,-0.08407452641272174,10,1,100,0.15289338791303608,-10,-1,-100,18956.790459869197,-0.013741991429060857,-0.007663642381645059,0.9998762054659615,75.01719205488259,4.606321187934273,467.05634536062644,-108.9214801320603,-133.16891479492188,4761.76025390625,True
1599385934.9552546,0.0,10,0.5,0.5,3.0000352523803713,-0.05075,-0.02275,-0.37525,-0.09475198105221218,10,1,100,0.08798259460393046,-10,-1,-100,18952.422702083713,-0.013154317200119055,-0.0077604469553750315,0.999883362898919,75.07848257824398,4.610020687416761,469.12274386248185,-109.2847487914891,-132.85133361816406,4761.76025390625,True
1599385934.9822185,0.0,10,0.5,0.5,2.6918834789276125,-0.05075,-0.02275,-0.37525,-0.10225822945650831,10,1,100,0.040752529058121656,-10,-1,-100,18945.843821652466,-0.012193661810195535,-0.00791633853529073,0.9998943175135325,75.16018070432115,4.615022417974238,472.1648334785878,-109.82962521945558,-131.8225555419922,4761.76025390625,True
1599385935.007116,0.0,10,0.5,0.5,2.875861511993408,-0.05075,-0.02275,-0.37525,-0.09347267965461434,10,1,100,0.09826692762487396,-10,-1,-100,18943.643596580136,-0.011846915416064998,-0.007977690441397836,0.9998979983230019,75.18248230385917,4.616426139745637,473.14948033740734,-110.0112436577187,-131.33250427246094,4761.76025390625,True
1599385935.0350673,0.0,10,0.5,0.5,2.5502285778045657,-0.05075,-0.02275,-0.37525,-0.09735190538722108,10,1,100,0.055999004180241285,-10,-1,-100,18939.2322498929,-0.011151206803216412,-0.008068176480518179,0.99990527307096,75.21377466183316,4.618500840871582,475.0368579744142,-110.37447069970901,-130.131103515625,4761.76025390625,True
1599385935.0588992,0.0,10,0.5,0.5,2.997960661697388,-0.05075,-0.02275,-0.37525,-0.08837073523287779,10,1,100,0.12512093643960456,-10,-1,-100,18939.2322498929,-0.011151206803216412,-0.008068176480518179,0.99990527307096,75.21377466183316,4.618500840871582,475.0368579744142,-110.37447069970901,-130.131103515625,4761.76025390625,True
1599385935.0828042,0.0,10,0.5,0.5,2.690943413162232,-0.05075,-0.02275,-0.37525,-0.09439503382888519,10,1,100,0.08394507435443524,-10,-1,-100,18937.021128072636,-0.010780786496423556,-0.008122346341457544,0.9999088969163281,75.22125099277598,4.619087259984931,475.9297131275682,-110.55607954202117,-129.420166015625,4761.76025390625,True
1599385935.1153452,0.0,10,0.5,0.5,2.616853815078735,-0.05075,-0.02275,-0.37525,-0.09483148894085953,10,1,100,0.0787728420685745,-10,-1,-100,18934.806374136242,-0.010401074753869116,-0.00817493534672393,0.999912490209039,75.22136716543292,4.6192611890751305,476.7763141269699,-110.73768564277012,-128.6356658935547,4761.76025390625,True
1599385935.1523445,0.0,10,0.5,0.5,1.7114057598114014,-0.05075,-0.02275,-0.37525,-0.10460207712121058,10,1,100,-0.013724050035746546,-10,-1,-100,18928.140320457052,-0.009219203063398382,-0.008310919233777338,0.9999229644909479,75.16073263916708,4.616312861211671,478.9290356941434,-111.28249028236353,-125.8407211303711,4761.76025390625,True
1599385935.1825767,0.0,10,0.5,0.5,2.7437108839035034,-0.05075,-0.02275,-0.37525,-0.09108182379560827,10,1,100,0.10393026615444634,-10,-1,-100,18928.140320457052,-0.009219203063398382,-0.008310919233777338,0.9999229644909479,75.16073263916708,4.616312861211671,478.9290356941434,-111.28249028236353,-125.8407211303711,4761.76025390625,True
1599385935.2155926,0.0,10,0.5,0.5,1.254431684112549,-0.05075,-0.02275,-0.37525,-0.10142035390348828,10,1,100,-0.03253306528800552,-10,-1,-100,18921.44157885469,-0.007982738948799422,-0.008404317437619763,0.9999328194070254,74.96770525049493,4.60571025343492,480.23219946115876,-111.82728426906053,-122.38389587402344,4761.76025390625,True
1599385935.2487342,0.0,10,0.5,0.5,1.388827942657471,-0.05075,-0.02275,-0.37525,-0.09691221018388294,10,1,100,-0.004387394132518874,-10,-1,-100,18916.957591503975,-0.007119786084650484,-0.00844756842997467,0.9999389717546415,74.73776956541076,4.592711176315357,480.4446458249929,-112.19048290122768,-119.71196746826172,4761.76025390625,True
1599385935.2842524,0.0,10,0.5,0.5,2.3615770189285277,-0.05075,-0.02275,-0.37525,-0.09265582309585224,10,1,100,0.08130443917082811,-10,-1,-100,18916.957591503975,-0.007119786084650484,-0.00844756842997467,0.9999389717546415,74.73776956541076,4.592711176315357,480.4446458249929,-112.19048290122768,-119.71196746826172,4761.76025390625,True
1599385935.3152063,0.0,10,0.5,0.5,1.070429972076416,-0.05075,-0.02275,-0.37525,-0.09198882632119898,10,1,100,-0.012205896833198393,-10,-1,-100,18912.459075879888,-0.006274304735273466,-0.008441021886664473,0.9999446895951785,74.40243365253562,4.573465047378007,479.96854045247795,-112.55369159966239,-116.74578094482422,4761.76025390625,True
1599385935.3511162,0.0,10,0.5,0.5,0.7615977613449096,-0.05075,-0.02275,-0.37525,-0.08951423691793614,10,1,100,-0.0237096138619768,-10,-1,-100,18907.946031226544,-0.005406172090742547,-0.008412153005948025,0.999950003242727,73.94087274904352,4.546665275264377,478.66222530376,-112.91691865788478,-113.48590087890625,4761.76025390625,True
1599385935.3830314,0.0,10,0.5,0.5,1.2057673303604128,-0.05075,-0.02275,-0.37525,-0.09013169325002007,10,1,100,0.012922234534118678,-10,-1,-100,18905.68406025076,-0.004955200158144829,-0.008391209102383446,0.9999525156732157,73.65499864607314,4.529940602508599,477.6448369549162,-113.098542016892,-111.74591827392578,4761.76025390625,True
1599385935.4181929,0.0,10,0.5,0.5,0.24052130088806156,-0.05075,-0.02275,-0.37525,-0.08341976648477878,10,1,100,-0.03954097268337502,-10,-1,-100,18901.149220315274,-0.004073920159847025,-0.008310858007984484,0.9999571654894537,72.95501547007214,4.4886845928388555,474.7580695595506,-113.4618155510393,-108.04557037353516,4761.76025390625,True
1599385935.4492435,0.0,10,0.5,0.5,0.7498646997451782,-0.05075,-0.02275,-0.37525,-0.08543244428818464,10,1,100,0.0004060132556872667,-10,-1,-100,18898.876350920997,-0.003642008093873749,-0.008255937255228638,0.999959286809759,72.53501616965966,4.463765872612991,472.84742529567575,-113.64346856770167,-106.09584045410156,4761.76025390625,True
1599385935.482247,0.0,10,0.5,0.5,-0.30951884326934787,-0.05075,-0.02275,-0.37525,-0.07644243828352507,10,1,100,-0.053783626499042975,-10,-1,-100,18894.319711882737,-0.002762872278545946,-0.008124208332764142,0.9999631812100576,71.55046707036342,4.4049933378762285,468.0540411086227,-114.0068143895225,-102.0119400024414,4761.76025390625,True
1599385935.5163128,0.0,10,0.5,0.5,-0.642291696357727,-0.05075,-0.02275,-0.37525,-0.0708793878735365,10,1,100,-0.06033874061836634,-10,-1,-100,18889.74853702425,-0.0019099353460585056,-0.007954051318524715,0.9999665420475808,70.4591855235652,4.339489709727055,462.51800457307445,-114.37021994055843,-97.76065826416016,4761.76025390625,True
1599385935.5528305,0.0,10,0.5,0.5,-0.990659969139099,-0.05075,-0.02275,-0.37525,-0.06524924074966394,10,1,100,-0.07003034828683358,-10,-1,-100,18885.16282427369,-0.0010530773992814394,-0.007748504393467534,0.9999694253864243,69.26381842729022,4.267289518108137,456.2491030424727,-114.7336878551318,-93.34803009033203,4761.76025390625,True
1599385935.5837173,0.0,10,0.5,0.5,-1.2958452640533444,-0.05075,-0.02275,-0.37525,-0.0596501910558556,10,1,100,-0.07396418265863337,-10,-1,-100,18880.56257088785,-0.00024465319114912485,-0.007511339294421069,0.999971759564649,68.02496513443853,4.192006118214814,449.64020642928733,-115.09722111273939,-88.89974975585938,4761.76025390625,True
1599385935.6173277,0.0,10,0.5,0.5,-0.6218146089553833,-0.05075,-0.02275,-0.37525,-0.06900844985417484,10,1,100,-0.03743418495984734,-10,-1,-100,18878.25699066429,0.0001519368981699233,-0.00738166085630496,0.9999727436276359,67.36855839681058,4.151907785531695,446.07020784564276,-115.27901237017035,-86.72817993164062,4761.76025390625,True
1599385935.6494439,0.0,10,0.5,0.5,-2.4918061710357664,-0.05075,-0.02275,-0.37525,-0.034917183149917444,10,1,100,-0.1229150612045578,-10,-1,-100,18871.318431676016,0.0012829615607002254,-0.006954819767591312,0.9999749919331153,66.27926695675322,4.085088786034166,441.12760696081625,-115.82445826248107,-80.601806640625,4761.76025390625,True
1599385935.6859846,0.0,10,0.5,0.5,-0.2751121351242066,-0.05075,-0.02275,-0.37525,-0.07745267180937496,10,1,100,-0.01056832158112495,-10,-1,-100,18871.318431676016,0.0012829615607002254,-0.006954819767591312,0.9999749919331153,66.27926695675322,4.085088786034166,441.12760696081625,-115.82445826248107,-80.601806640625,4761.76025390625,True
1599385935.7165587,0.0,10,0.5,0.5,-3.462825366020202,-0.05075,-0.02275,-0.37525,-0.007577010384814231,10,1,100,-0.16068580016539935,-10,-1,-100,18862.016121963505,0.0026415848808741356,-0.006320911330311993,0.999976533779304,69.12692355483047,4.259568637570905,463.23633446062735,-116.55146564408543,-73.29452514648438,4761.76025390625,True
1599385935.7497568,0.0,10,0.5,0.5,-0.8082449047088623,-0.05075,-0.02275,-0.37525,-0.07076082433553894,10,1,100,-0.025583146651910228,-10,-1,-100,18862.016121963505,0.0026415848808741356,-0.006320911330311993,0.999976533779304,69.12692355483047,4.259568637570905,463.23633446062735,-116.55146564408543,-73.29452514648438,4761.76025390625,True
1599385935.7837012,0.0,10,0.5,0.5,-1.6065295457839968,-0.05075,-0.02275,-0.37525,-0.05071448831024798,10,1,100,-0.062417195066191686,-10,-1,-100,18859.681458699284,0.0029703348618760387,-0.006140480954334505,0.9999767355316113,69.7152546212745,4.295396499601588,467.9741526927359,-116.73316149838958,-71.606201171875,4761.76025390625,True
1599385935.8196683,0.0,10,0.5,0.5,-2.441254102897644,-0.05075,-0.02275,-0.37525,-0.031224072486208898,10,1,100,-0.09485438286035498,-10,-1,-100,18855.001231978764,0.003558070785501299,-0.005801190883500882,0.9999768428901833,70.78271864800472,4.360198442424266,476.75394144048,-117.09649338337101,-68.34375,4761.76025390625,True
1599385935.8495867,0.0,10,0.5,0.5,-3.1879415813446044,-0.05075,-0.02275,-0.37525,-0.0036488118692151947,10,1,100,-0.12791783695439748,-10,-1,-100,18847.953646903974,0.004387206714139152,-0.005244173011178794,0.9999766252601491,72.10478393710363,4.440058299913134,488.123781451109,-117.641356878608,-63.89697265625,4761.76025390625,True
1599385935.8851519,0.0,10,0.5,0.5,-1.5963282678604127,-0.05075,-0.02275,-0.37525,-0.05907961127068938,10,1,100,-0.04563395829663197,-10,-1,-100,18847.953646903974,0.004387206714139152,-0.005244173011178794,0.9999766252601491,72.10478393710363,4.440058299913134,488.123781451109,-117.641356878608,-63.89697265625,4761.76025390625,True
1599385935.9186418,0.0,10,0.5,0.5,-2.7777572799682617,-0.05075,-0.02275,-0.37525,-0.019552744902225007,10,1,100,-0.09929630372284343,-10,-1,-100,18843.23709733889,0.004870100505183419,-0.004887114527267563,0.9999761988330856,72.80875641572099,4.482384091909408,494.5480820146569,-118.00452213167827,-61.28094482421875,4761.76025390625,True
1599385935.9527135,0.0,10,0.5,0.5,-3.2943745307922363,-0.05075,-0.02275,-0.37525,0.0036758392105061544,10,1,100,-0.12246382440849146,-10,-1,-100,18836.135039169923,0.0055150589090056145,-0.004353732617929935,0.9999753142640682,73.63974666259966,4.532169585913317,502.70825800763316,-118.5491752016108,-57.911346435546875,4761.76025390625,True
1599385935.984591,0.0,10,0.5,0.5,-2.095491031646729,-0.05075,-0.02275,-0.37525,-0.049359558899419065,10,1,100,-0.05850429622735548,-10,-1,-100,18836.135039169923,0.0055150589090056145,-0.004353732617929935,0.9999753142640682,73.63974666259966,4.532169585913317,502.70825800763316,-118.5491752016108,-57.911346435546875,4761.76025390625,True
1599385936.0177944,0.0,10,0.5,0.5,-3.297863049316406,-0.05075,-0.02275,-0.37525,0.007078688943463585,10,1,100,-0.11831081233829414,-10,-1,-100,18829.00030567986,0.006054907148788416,-0.0038430222622216036,0.9999742843090075,74.25952527134811,4.569210820628791,509.47611056337354,-119.0937350043217,-55.210052490234375,4761.76025390625,True
1599385936.0507324,0.0,10,0.5,0.5,-2.3419687370300295,-0.05075,-0.02275,-0.37525,-0.043681166876832635,10,1,100,-0.06480318291882285,-10,-1,-100,18829.00030567986,0.006054907148788416,-0.0038430222622216036,0.9999742843090075,74.25952527134811,4.569210820628791,509.47611056337354,-119.0937350043217,-55.210052490234375,4761.76025390625,True
1599385936.0866323,0.0,10,0.5,0.5,-2.992196788787842,-0.05075,-0.02275,-0.37525,-0.006755962329186849,10,1,100,-0.098874090093324,-10,-1,-100,18824.22566609003,0.006361539648313049,-0.0035095912109412695,0.9999736064431076,74.5846395515073,4.588641775844142,513.4056630382736,-119.45673232411536,-53.7802734375,4761.76025390625,True
1599385936.1167095,0.0,10,0.5,0.5,-2.9825022415161135,-0.05075,-0.02275,-0.37525,-0.0074090142636517795,10,1,100,-0.09696037842541881,-10,-1,-100,18819.43650749803,0.00661951731020227,-0.0032149646547446203,0.9999729226298322,74.85662134466051,4.604921539220042,516.9836051232994,-119.81970075385416,-52.647796630859375,4761.76025390625,True
1599385936.151662,0.0,10,0.5,0.5,-3.0875779777526855,-0.05075,-0.02275,-0.37525,0.012572253478741642,10,1,100,-0.10586447718586985,-10,-1,-100,18812.2255486293,0.0069316713711526385,-0.0027681340026346262,0.9999721442951027,75.19011894110032,4.624947327841096,521.8582065979851,-120.36410607270473,-51.50482177734375,4761.76025390625,True
1599385936.1845753,0.0,10,0.5,0.5,-2.8635994834899905,-0.05075,-0.02275,-0.37525,-0.0027847388532751365,10,1,100,-0.09195981171326337,-10,-1,-100,18807.400096867583,0.0070859748308241405,-0.0025042906645355717,0.9999717583456869,75.37552374514385,4.636122167418906,524.8645692661543,-120.72701508421022,-51.11370849609375,4761.76025390625,True
1599385936.2195249,0.0,10,0.5,0.5,-2.78623066482544,-0.05075,-0.02275,-0.37525,-0.0025818520739821597,10,1,100,-0.08955373444570469,-10,-1,-100,18802.56012945331,0.007201923847987077,-0.0022650794613125343,0.9999715004478487,75.53810093030121,4.645941970549605,527.7209172689351,-121.08990410161732,-51.019073486328125,4761.76025390625,True
