Timestamp,Input Throttle,horizon,dT,dt,Input Roll,Roll P,Roll I,Roll D,Input Pitch,Pitch P,Pitch I,Pitch D,Input Yaw,Yaw P,Yaw I,Yaw D,Altitude,Direction X,Direction Y,Direction Z,Drag X,Drag Y,Drag Z,Vertical Velocity,Roll,Mass,Has Fuel
1599384902.0533602,0.0,10,0.5,0.5,-0.05579234313964844,-0.001,-0.0155,-0.12575,-0.00017304861840232596,10,1,100,0.4980744633657893,-10,-1,-100,19351.0941646985,-0.04884259351167799,-0.00017663367654116244,0.9988064726760623,60.98676810651399,3.680695023918054,232.75497664934028,-68.48187369125748,-33.923675537109375,4761.76025390625,True
1599384902.085622,0.0,10,0.5,0.5,-0.1428437713623047,-0.001,-0.0155,-0.12575,-0.000838359667832125,10,1,100,0.49887821359767937,-10,-1,-100,19349.720877888845,-0.04889321186740282,-0.00016803694503903866,0.9988039975875518,61.076464747967556,3.686779025854669,233.74180404874951,-68.664333678755,-33.92486572265625,4761.76025390625,True
1599384902.1045713,0.0,10,0.5,0.5,-0.2295888427734375,-0.001,-0.0155,-0.12575,0.00023805153633388917,10,1,100,0.5104861406654578,-10,-1,-100,19346.963356918655,-0.049000306789707564,-0.00015028341732192688,0.9987987521765377,61.256618807942196,3.699004088706572,235.72459191414336,-69.02924344078616,-33.927398681640625,4761.76025390625,True
1599384902.122524,0.0,10,0.5,0.5,-0.3152378402709961,-0.001,-0.0155,-0.12575,0.021722965151703445,10,1,100,0.5030433512278141,-10,-1,-100,19344.191240147105,-0.048985458354379015,6.1310171121827e-05,0.9987994899432391,61.43621607801777,3.7112104734527858,237.71354350546025,-69.39413972318833,-33.93988037109375,4761.76025390625,True
1599384902.149611,0.0,10,0.5,0.5,-0.4037005981445313,-0.001,-0.0155,-0.12575,0.0005697373244402399,10,1,100,0.5094267405961068,-10,-1,-100,19344.191240147105,-0.048985458354379015,6.1310171121827e-05,0.9987994899432391,61.43621607801777,3.7112104734527858,237.71354350546025,-69.39413972318833,-33.93988037109375,4761.76025390625,True
1599384902.1828551,0.0,10,0.5,0.5,-0.48816461486816404,-0.001,-0.0155,-0.12575,0.013041075029585927,10,1,100,0.5132949433353889,-10,-1,-100,19342.799708291655,-0.048976091598959416,0.0001746302319221316,0.9987999359010655,61.52305538241195,3.71714071949427,238.69964768373922,-69.5765826927937,-33.95904541015625,4761.76025390625,True
1599384902.2037976,0.0,10,0.5,0.5,-0.5732914916992187,-0.001,-0.0155,-0.12575,0.017451329237751945,10,1,100,0.5161198448226724,-10,-1,-100,19341.404527626233,-0.04894873356973603,0.00031758293433126124,0.9988012418008894,61.607668606869325,3.7229406004726275,239.67910144117198,-69.75902226537633,-33.99176025390625,4761.76025390625,True
1599384902.250716,0.0,10,0.5,0.5,-0.6341204452514648,-0.001,-0.0155,-0.12575,0.07393613436214766,10,1,100,0.49896591454979095,-10,-1,-100,19337.197094103554,-0.04872341896471609,0.0009607494531664936,0.9988118468484827,61.85095673293958,3.739725279374918,242.58784192547415,-70.30632010661549,-34.229217529296875,4761.76025390625,True
1599384902.2840204,0.0,10,0.5,0.5,-0.7504254104614257,-0.001,-0.0155,-0.12575,0.009715557423941076,10,1,100,0.5263697169482567,-10,-1,-100,19337.197094103554,-0.04872341896471609,0.0009607494531664936,0.9988118468484827,61.85095673293958,3.739725279374918,242.58784192547415,-70.30632010661549,-34.229217529296875,4761.76025390625,True
1599384902.3171442,0.0,10,0.5,0.5,-0.7958372863769531,-0.001,-0.0155,-0.12575,0.07794065451825276,10,1,100,0.5008621215009317,-10,-1,-100,19334.37389566272,-0.04844723771613612,0.0015801041999755393,0.9988244933062032,62.00883322247326,3.7506668452360876,244.519390029857,-70.67116743595335,-34.552947998046875,4761.76025390625,True
1599384902.3361216,0.0,10,0.5,0.5,-0.8598183181762696,-0.001,-0.0155,-0.12575,0.09873356891111759,10,1,100,0.48965111559875907,-10,-1,-100,19331.536103768973,-0.04805020267493809,0.00233074400591892,0.9988422025802054,62.165647454529726,3.7615447784211056,246.45403708205149,-71.0359999398638,-35.047393798828125,4761.76025390625,True
1599384902.354091,0.0,10,0.5,0.5,-0.8796148239135743,-0.001,-0.0155,-0.12575,0.0729177314144903,10,1,100,0.5039389203959533,-10,-1,-100,19330.111735399696,-0.047819871218220504,0.0027761749634595085,0.9988521175675832,62.24373404884275,3.7669608592158035,247.42279894276083,-71.21841037738322,-35.368011474609375,4761.76025390625,True
1599384902.383869,0.0,10,0.5,0.5,-0.8702804138183593,-0.001,-0.0155,-0.12575,0.08143935473273686,10,1,100,0.4982807085214648,-10,-1,-100,19328.68371896702,-0.04756001645929933,0.0032559049442000138,0.9988630756602156,62.32183064176663,3.772372707782766,248.39339596202734,-71.40081688686645,-35.742095947265625,4761.76025390625,True
1599384902.4180758,0.0,10,0.5,0.5,-0.7275053146362305,-0.001,-0.0155,-0.12575,0.2105513047849208,10,1,100,0.41567904333491945,-10,-1,-100,19324.377781651565,-0.046574169986157314,0.004862671574109852,0.9989029988518718,62.55365654051567,3.788409146145816,251.3060152103873,-71.94801158000432,-37.21746826171875,4761.76025390625,True
1599384902.4511297,0.0,10,0.5,0.5,-0.8297207382202149,-0.001,-0.0155,-0.12575,0.11696294696610163,10,1,100,0.47128642225002054,-10,-1,-100,19322.935173573438,-0.04618565962650024,0.0054682003834904515,0.9989179063513834,62.62840714849911,3.79357639493273,252.270241953064,-72.13040131944464,-37.834686279296875,4761.76025390625,True
1599384902.487152,0.0,10,0.5,0.5,-0.7213509338378905,-0.001,-0.0155,-0.12575,0.19664296906182263,10,1,100,0.41221659897874047,-10,-1,-100,19320.03901411686,-0.045298015268643875,0.006738129601786306,0.9989507932937394,62.76905354297033,3.803318815179412,254.16793778276002,-72.49516805777154,-39.25439453125,4761.76025390625,True
1599384902.5176635,0.0,10,0.5,0.5,-0.6817456359863281,-0.001,-0.0155,-0.12575,0.22452169378226317,10,1,100,0.3888891737103853,-10,-1,-100,19317.128264700994,-0.04428234205572606,0.00814008684372303,0.9989858923769827,62.88869062318198,3.8116938680769112,255.9865273511786,-72.8599179503681,-40.910614013671875,4761.76025390625,True
1599384902.5509603,0.0,10,0.5,0.5,-0.8792910125732423,-0.001,-0.0155,-0.12575,0.08510821997952996,10,1,100,0.489989855850766,-10,-1,-100,19317.128264700994,-0.04428234205572606,0.00814008684372303,0.9989858923769827,62.88869062318198,3.8116938680769112,255.9865273511786,-72.8599179503681,-40.910614013671875,4761.76025390625,True
1599384902.5844624,0.0,10,0.5,0.5,-0.5009351303100584,-0.001,-0.0155,-0.12575,0.3274120534219839,10,1,100,0.2901254629171631,-10,-1,-100,19312.734785314533,-0.04246943037170148,0.010336322295572105,0.9990442972788071,63.005533134885525,3.8202291963512125,258.46790050103215,-73.40701405820397,-43.81396484375,4761.76025390625,True
1599384902.620667,0.0,10,0.5,0.5,-0.8511751388549804,-0.001,-0.0155,-0.12575,0.10872606552131692,10,1,100,0.4707912324603197,-10,-1,-100,19312.734785314533,-0.04246943037170148,0.010336322295572105,0.9990442972788071,63.005533134885525,3.8202291963512125,258.46790050103215,-73.40701405820397,-43.81396484375,4761.76025390625,True
1599384902.6505194,0.0,10,0.5,0.5,-0.555296156311035,-0.001,-0.0155,-0.12575,0.28781002459616367,10,1,100,0.31780553012611457,-10,-1,-100,19309.787562981248,-0.04108408562988546,0.011956398088892897,0.9990841518374196,63.02397018720307,3.8221258303346026,259.88169178512356,-73.77172841408331,-46.035064697265625,4761.76025390625,True
1599384902.684757,0.0,10,0.5,0.5,-0.3480853042602539,-0.001,-0.0155,-0.12575,0.38942468486553594,10,1,100,0.19381931858938511,-10,-1,-100,19305.339376718854,-0.03870386677521432,0.01434421330883066,0.9991477639674711,62.93099755434003,3.8173221243107034,261.5036019804944,-74.31878275663959,-49.73907470703125,4761.76025390625,True
1599384902.717803,0.0,10,0.5,0.5,-0.7915894149780273,-0.001,-0.0155,-0.12575,0.15179996670629667,10,1,100,0.43092960361219873,-10,-1,-100,19305.339376718854,-0.03870386677521432,0.01434421330883066,0.9991477639674711,62.93099755434003,3.8173221243107034,261.5036019804944,-74.31878275663959,-49.73907470703125,4761.76025390625,True
1599384902.7377496,0.0,10,0.5,0.5,-0.4271840377807617,-0.001,-0.0155,-0.12575,0.32910274742259366,10,1,100,0.23432216420943683,-10,-1,-100,19302.35568422021,-0.03692457746217474,0.015945976489556424,0.99919082332307,62.7697552789176,3.8078602238863666,262.16780551850445,-74.68348016779356,-52.442901611328125,4761.76025390625,True
1599384902.757696,0.0,10,0.5,0.5,-0.3834936660766602,-0.001,-0.0155,-0.12575,0.33909220108216037,10,1,100,0.20064607552983832,-10,-1,-100,19299.357403783244,-0.03500966781916422,0.01748286231901641,0.999234042997098,62.51602192338845,3.792595539033459,262.43764462321496,-75.04817889875753,-55.283905029296875,4761.76025390625,True
1599384902.7846246,0.0,10,0.5,0.5,-0.7137035568237305,-0.001,-0.0155,-0.12575,0.18660508432971445,10,1,100,0.39101944065015737,-10,-1,-100,19299.357403783244,-0.03500966781916422,0.01748286231901641,0.999234042997098,62.51602192338845,3.792595539033459,262.43764462321496,-75.04817889875753,-55.283905029296875,4761.76025390625,True
1599384902.8178246,0.0,10,0.5,0.5,-0.3087934844970703,-0.001,-0.0155,-0.12575,0.36276315854876157,10,1,100,0.16122306517630466,-10,-1,-100,19296.34453520435,-0.0329299629034469,0.019074531418537537,0.9992756275394397,62.16196404236227,3.7710654709366382,262.2742805022082,-75.4128840415558,-58.282440185546875,4761.76025390625,True
1599384902.835774,0.0,10,0.5,0.5,-0.4623946350097656,-0.001,-0.0155,-0.12575,0.2853738287930498,10,1,100,0.2492572403469538,-10,-1,-100,19294.832630286575,-0.03184995309903004,0.019808023561618624,0.9992963637931301,61.943394818418,3.757719974342147,262.01160603773843,-75.59524095894187,-59.833038330078125,4761.76025390625,True
1599384902.8557222,0.0,10,0.5,0.5,-0.42599449615478524,-0.001,-0.0155,-0.12575,0.29890340961631845,10,1,100,0.2308766886629589,-10,-1,-100,19293.317078148015,-0.030712332251484484,0.020587223574887605,0.9993162256629039,61.696551607669946,3.7426242472183717,261.62464473293227,-75.77760162701593,-61.42718505859375,4761.76025390625,True
1599384902.885103,0.0,10,0.5,0.5,-0.1781536224365235,-0.001,-0.0155,-0.12575,0.3811632475857783,10,1,100,0.08474869134613722,-10,-1,-100,19290.27503181342,-0.02836038341276307,0.022034084930964207,0.9993548857907966,61.106318098708,3.7064905778898094,260.42433475012285,-76.14233756008404,-64.74871826171875,4761.76025390625,True
1599384902.9180977,0.0,10,0.5,0.5,-0.5633875549316407,-0.001,-0.0155,-0.12575,0.2376468882416572,10,1,100,0.3185326705223849,-10,-1,-100,19290.27503181342,-0.02836038341276307,0.022034084930964207,0.9993548857907966,61.106318098708,3.7064905778898094,260.42433475012285,-76.14233756008404,-64.74871826171875,4761.76025390625,True
1599384902.9514458,0.0,10,0.5,0.5,-0.09645023956298826,-0.001,-0.0155,-0.12575,0.39134041388417207,10,1,100,0.04432472411528235,-10,-1,-100,19287.218395387987,-0.025879150901986794,0.023422137266948823,0.9993906508640354,60.38468798093368,3.6623153986877943,258.6372784543154,-76.50709817674847,-68.20379638671875,4761.76025390625,True
1599384902.986155,0.0,10,0.5,0.5,-0.2785749160766601,-0.001,-0.0155,-0.12575,0.3232706299388367,10,1,100,0.15227600134765687,-10,-1,-100,19285.684605338378,-0.024616519063278337,0.024056934151106227,0.9994074699082736,59.97333782238742,3.6371544147403063,257.51569000333086,-76.68948957540135,-69.96893310546875,4761.76025390625,True
1599384903.0171597,0.0,10,0.5,0.5,-0.013676765441894556,-0.001,-0.0155,-0.12575,0.39844543456896886,10,1,100,-0.01429933171967468,-10,-1,-100,19282.606081467588,-0.02196715740721485,0.02530859979621209,0.9994383016333732,59.05668386375428,3.581159186941153,254.8416943536209,-77.05429746297463,-73.56268310546875,4761.76025390625,True
1599384903.0513577,0.0,10,0.5,0.5,0.03251630859375004,-0.001,-0.0155,-0.12575,0.3921347542472182,10,1,100,-0.045153778785522125,-10,-1,-100,19279.51296409045,-0.01929174949206303,0.02638059635855909,0.9994658035857465,58.00754317748805,3.5172196013511527,251.55523772058035,-77.41914288359686,-77.2342529296875,4761.76025390625,True
1599384903.0855012,0.0,10,0.5,0.5,0.07829525299072265,-0.001,-0.0155,-0.12575,0.395245214015105,10,1,100,-0.08696837065213672,-10,-1,-100,19276.40525175212,-0.01649371684161679,0.027375326745819387,0.9994891439081808,56.83711917677743,3.4460817854544965,247.6965122987801,-77.78402906525093,-80.9696044921875,4761.76025390625,True
1599384903.1197891,0.0,10,0.5,0.5,-0.11253652801513678,-0.001,-0.0155,-0.12575,0.34286864450231874,10,1,100,0.03886330012531036,-10,-1,-100,19274.845921983477,-0.015110807758258404,0.02779448331646087,0.9994994398127814,56.20473051633655,3.4077300514396,245.5426500760478,-77.9664883258311,-82.85580444335938,4761.76025390625,True
1599384903.1517367,0.0,10,0.5,0.5,0.1669938751220703,-0.001,-0.0155,-0.12575,0.38358701137766066,10,1,100,-0.13144704450282932,-10,-1,-100,19271.716313824756,-0.012321541054172411,0.02853777448691267,0.9995167707714485,54.8604142632074,3.32639041415321,240.8457553194042,-78.3314398846884,-86.63198852539062,4761.76025390625,True
1599384903.1846108,0.0,10,0.5,0.5,-0.027463670349121033,-0.001,-0.0155,-0.12575,0.34487699421031237,10,1,100,-0.007768667430913284,-10,-1,-100,19270.14603492862,-0.010927946034788798,0.028853648348597234,0.9995239101554481,54.153413259515276,3.2837105224411824,238.32263084829216,-78.5139322902441,-88.5164794921875,4761.76025390625,True
1599384903.2176356,0.0,10,0.5,0.5,0.2545151439666748,-0.001,-0.0155,-0.12575,0.3717224581831954,10,1,100,-0.1789792527142934,-10,-1,-100,19266.9945271241,-0.00812256741115178,0.029377341145542402,0.9995353899316771,52.6802257176605,3.19498107521383,232.96953578277765,-78.87894972738414,-92.2795181274414,4761.76025390625,True
1599384903.253633,0.0,10,0.5,0.5,0.29871612586975105,-0.001,-0.0155,-0.12575,0.35977385577697807,10,1,100,-0.1996162736126335,-10,-1,-100,19263.828417462297,-0.005403011941498319,0.02973812616069551,0.9995431212881266,51.612270164641856,3.131135061065948,229.35426296454474,-79.24400068909532,-96.0249252319336,4761.76025390625,True
1599384903.2755687,0.0,10,0.5,0.5,0.11265967216491701,-0.001,-0.0155,-0.12575,0.338894318518369,10,1,100,-0.08139985883367516,-10,-1,-100,19262.239887207048,-0.004026253804777761,0.02986929488918395,0.9995457040591603,52.149862369299576,3.164341489981106,232.3027847121124,-79.42651208687701,-97.89041137695312,4761.76025390625,True
1599384903.2945185,0.0,10,0.5,0.5,0.3957471523284912,-0.001,-0.0155,-0.12575,0.34289886977392736,10,1,100,-0.2392003633073597,-10,-1,-100,19259.05187689117,-0.0013599717280866764,0.030019083146840122,0.9995484005909477,53.13934595981262,3.2258046379713328,237.85071466634037,-79.79149096194413,-101.61157989501953,4761.76025390625,True
1599384903.3184607,0.0,10,0.5,0.5,0.20978284072875977,-0.001,-0.0155,-0.12575,0.3316673354332411,10,1,100,-0.11663880518786877,-10,-1,-100,19257.45239762729,-7.141722975850901e-05,0.030047729297070645,0.9995484624887726,53.58884726077395,3.2538999243863462,240.43750585550202,-79.9739587837997,-103.44926452636719,4761.76025390625,True
1599384903.351507,0.0,10,0.5,0.5,0.25541208610534666,-0.001,-0.0155,-0.12575,0.32877693846409006,10,1,100,-0.13018862621099123,-10,-1,-100,19255.84926924738,0.001203270923315978,0.03004318661619624,0.9995478773310608,54.006298759260886,3.280110746664281,242.88969326108275,-80.15641270460894,-105.2669677734375,4761.76025390625,True
1599384903.3744044,0.0,10,0.5,0.5,0.29906749839782715,-0.001,-0.0155,-0.12575,0.3252718765509297,10,1,100,-0.14555618565603648,-10,-1,-100,19254.242491970886,0.0024831515843246692,0.030003863079592925,0.9995466983380568,54.3919991231397,3.3044456691925777,245.20757469307412,-80.33885300705424,-107.07194519042969,4761.76025390625,True
1599384903.3933923,0.0,10,0.5,0.5,0.5620943809509278,-0.001,-0.0155,-0.12575,0.3124338798169418,10,1,100,-0.2870304291434178,-10,-1,-100,19251.01799237402,0.004915557245648817,0.029849015770250228,0.9995423320472785,55.18863055048239,3.3547725636098322,249.98203050140526,-80.70369169632765,-110.61864471435547,4761.76025390625,True
1599384903.418325,0.0,10,0.5,0.5,0.3804263935089111,-0.001,-0.0155,-0.12575,0.31473863183561324,10,1,100,-0.1764194826158442,-10,-1,-100,19249.40027034364,0.0061030752738710945,0.029727330023332253,0.9995394130907923,55.5495669036638,3.3777086948882014,252.21213741513284,-80.88609086783565,-112.36457824707031,4761.76025390625,True
1599384903.4514527,0.0,10,0.5,0.5,0.4197128036499024,-0.001,-0.0155,-0.12575,0.3107657470589045,10,1,100,-0.1868737621702277,-10,-1,-100,19247.77890075685,0.007260926371542066,0.02957950806858545,0.9995360582043289,55.89483201954783,3.399709984712711,254.37851271207762,-81.06847716258804,-114.09201049804688,4761.76025390625,True
1599384903.485483,0.0,10,0.5,0.5,0.4584761745452881,-0.001,-0.0155,-0.12575,0.30684898161651664,10,1,100,-0.19698931248052798,-10,-1,-100,19246.15388356161,0.008388942488239924,0.029408857642321207,0.9995322629790909,56.26189997702167,3.4230475022616056,256.6515995886589,-81.25085021675126,-115.79888153076172,4761.76025390625,True
1599384903.5215876,0.0,10,0.5,0.5,1.105911669921875,-0.001,-0.0155,-0.12575,0.2282662032249722,10,1,100,-0.5458241015685518,-10,-1,-100,19239.617345312145,0.012570626577038746,0.0285393033453426,0.9995136254759228,57.4258001509352,3.4978188114365207,264.4197742087922,-81.98022508053242,-122.3126449584961,4761.76025390625,True
1599384903.5515294,0.0,10,0.5,0.5,0.5240418479919433,-0.001,-0.0155,-0.12575,0.2861903444047061,10,1,100,-0.23580894872856772,-10,-1,-100,19237.97409421485,0.013537498324202786,0.028276472379555405,0.9995084678225046,57.64549789363264,3.512122562683767,266.0481714798856,-82.16254348990333,-123.86286163330078,4761.76025390625,True
1599384903.5854757,0.0,10,0.5,0.5,0.36935939903259274,-0.001,-0.0155,-0.12575,0.31231415873246277,10,1,100,-0.14087814922506176,-10,-1,-100,19237.97409421485,0.013537498324202786,0.028276472379555405,0.9995084678225046,57.64549789363264,3.512122562683767,266.0481714798856,-82.16254348990333,-123.86286163330078,4761.76025390625,True
1599384903.6184618,0.0,10,0.5,0.5,1.133915618133545,-0.001,-0.0155,-0.12575,0.18981593777301353,10,1,100,-0.5239930412789119,-10,-1,-100,19231.364629690303,0.017006817824644797,0.02716443638062158,0.9994862988273538,58.27548735113089,3.5538327923661797,271.44932726842023,-82.8917390243068,-129.6227569580078,4761.76025390625,True
1599384903.65446,0.0,10,0.5,0.5,0.4501776943206787,-0.001,-0.0155,-0.12575,0.30073120837475115,10,1,100,-0.17876891474015116,-10,-1,-100,19231.364629690303,0.017006817824644797,0.02716443638062158,0.9994862988273538,58.27548735113089,3.5538327923661797,271.44932726842023,-82.8917390243068,-129.6227569580078,4761.76025390625,True
1599384903.6853034,0.0,10,0.5,0.5,0.9821083400726318,-0.001,-0.0155,-0.12575,0.20174315343655713,10,1,100,-0.42356509339257586,-10,-1,-100,19226.369251591386,0.01921787076975654,0.026267162017761247,0.9994702144849588,58.534518237775465,3.5716777814110072,274.5344054887717,-83.43857334375726,-133.5216064453125,4761.76025390625,True
1599384903.7195492,0.0,10,0.5,0.5,0.8349663875579834,-0.001,-0.0155,-0.12575,0.21694216099187208,10,1,100,-0.34935965622905757,-10,-1,-100,19223.02077227272,0.02053811063729393,0.025593027848447292,0.9994614464485355,58.63109694530151,3.5787181415109064,276.2420281976849,-83.8031085178165,-135.90536499023438,4761.76025390625,True
1599384903.7515602,0.0,10,0.5,0.5,0.7156024658203125,-0.001,-0.0155,-0.12575,0.25358920565713894,10,1,100,-0.2823809723247642,-10,-1,-100,19221.341064827167,0.02111522925102376,0.02531720263504776,0.9994564454464299,58.66126492037065,3.581070522334832,277.01194034242616,-83.98537116506118,-137.0193634033203,4761.76025390625,True
1599384903.78837,0.0,10,0.5,0.5,0.6137320823669434,-0.001,-0.0155,-0.12575,0.28073071425826357,10,1,100,-0.2261703263494966,-10,-1,-100,19221.341064827167,0.02111522925102376,0.02531720263504776,0.9994564454464299,58.66126492037065,3.581070522334832,277.01194034242616,-83.98537116506118,-137.0193634033203,4761.76025390625,True
1599384903.818969,0.0,10,0.5,0.5,0.9066627250671387,-0.001,-0.0155,-0.12575,0.21758069248934886,10,1,100,-0.3439471805414933,-10,-1,-100,19217.970714103314,0.022173333104696928,0.024746986351179025,0.9994478125272789,58.69305627391629,3.583916979557279,278.4186109020316,-84.34988863937868,-139.05007934570312,4761.76025390625,True
1599384903.8518414,0.0,10,0.5,0.5,0.9152404460906982,-0.001,-0.0155,-0.12575,0.20967548869519564,10,1,100,-0.34046571262925684,-10,-1,-100,19214.585783020826,0.023091064726455425,0.02416098048707073,0.9994413688414655,58.70009839977581,3.5851148384138645,279.7092024257736,-84.7143972599225,-140.84811401367188,4761.76025390625,True
1599384903.886065,0.0,10,0.5,0.5,0.82212647857666,-0.001,-0.0155,-0.12575,0.23618380652019352,10,1,100,-0.2940696895358028,-10,-1,-100,19212.88784993696,0.023494020137977734,0.023873212884343416,0.999438892941602,58.698315409809496,3.5853442308535968,280.32948733749635,-84.89664866805148,-141.67066955566406,4761.76025390625,True
1599384903.9210036,0.0,10,0.5,0.5,0.9353515590667724,-0.001,-0.0155,-0.12575,0.20685921207795788,10,1,100,-0.33064012309188184,-10,-1,-100,19209.481048740912,0.02418375034276803,0.023349021713748454,0.9994348249907893,58.69055031250461,3.585465479071275,281.550244699175,-85.26114639536571,-143.16226196289062,4761.76025390625,True
1599384903.9521728,0.0,10,0.5,0.5,1.0007829902648926,-0.001,-0.0155,-0.12575,0.17998700528470557,10,1,100,-0.3473562512836631,-10,-1,-100,19204.34351029643,0.024953064192485795,0.022632670997510564,0.999432392306215,58.689158743786656,3.586104529554536,283.4314728822073,-85.8078807850479,-144.92230224609375,4761.76025390625,True
1599384903.9853578,0.0,10,0.5,0.5,0.8031722198486329,-0.001,-0.0155,-0.12575,0.2511689003701834,10,1,100,-0.27121949094867065,-10,-1,-100,19204.34351029643,0.024953064192485795,0.022632670997510564,0.999432392306215,58.689158743786656,3.586104529554536,283.4314728822073,-85.8078807850479,-144.92230224609375,4761.76025390625,True
1599384904.0185158,0.0,10,0.5,0.5,0.9352804321289062,-0.001,-0.0155,-0.12575,0.20391998961287927,10,1,100,-0.3089361425701745,-10,-1,-100,19200.900260411203,0.025288718983255975,0.022207255231883355,0.9994334987918164,58.70951279026883,3.587745693944792,284.78962849975284,-86.17236163636849,-145.77748107910156,4761.76025390625,True
1599384904.0545373,0.0,10,0.5,0.5,0.919472174835205,-0.001,-0.0155,-0.12575,0.2071770876987064,10,1,100,-0.2982039735037313,-10,-1,-100,19197.442431451404,0.02549077557588529,0.021853814433716937,0.9994361566179386,58.75623277625313,3.5909498943775104,286.2777833007153,-86.5368343320063,-146.351318359375,4761.76025390625,True
1599384904.0858886,0.0,10,0.5,0.5,0.8870929908752441,-0.001,-0.0155,-0.12575,0.22216069317426806,10,1,100,-0.28343581882085067,-10,-1,-100,19195.708050024114,0.02553570501303249,0.02167211849735687,0.9994389661451688,58.791766727830165,3.593283421319568,287.082304484505,-86.71906707537133,-146.5374298095703,4761.76025390625,True
1599384904.1193013,0.0,10,0.5,0.5,0.901560196685791,-0.001,-0.0155,-0.12575,0.20698901488961485,10,1,100,-0.27864066031551105,-10,-1,-100,19192.228353339597,0.02552893899151594,0.02137232973820332,0.9994455947151547,58.88845752328739,3.5995009162831373,288.819792697664,-87.08352450305084,-146.71981811523438,4761.76025390625,True
1599384904.1526418,0.0,10,0.5,0.5,0.864566635131836,-0.001,-0.0155,-0.12575,0.19743240003746604,10,1,100,-0.2513827272634812,-10,-1,-100,19186.981474816334,0.025270976208081993,0.021016502433859507,0.9994596962293867,59.102197780270885,3.6130135712949354,291.77419670666075,-87.63018746399275,-146.4902801513672,4761.76025390625,True
1599384904.187996,0.0,10,0.5,0.5,0.8434895179748535,-0.001,-0.0155,-0.12575,0.21243860366552908,10,1,100,-0.2404877754735865,-10,-1,-100,19183.46533435257,0.02493460353132174,0.020832834448272358,0.9994719898804502,59.291080545921965,3.62487030416689,293.98225421794007,-87.99461114043922,-146.00527954101562,4761.76025390625,True
1599384904.2190068,0.0,10,0.5,0.5,0.8180012710571289,-0.001,-0.0155,-0.12575,0.21418348688900707,10,1,100,-0.22429480386024347,-10,-1,-100,19179.93461747223,0.024479925411595785,0.02068475171435093,0.9994863052080094,59.514340087364246,3.6388562218771954,296.3702474511104,-88.35901822659817,-145.25994873046875,4761.76025390625,True
1599384904.252839,0.0,10,0.5,0.5,0.8579939178466796,-0.001,-0.0155,-0.12575,0.2216892649854974,10,1,100,-0.2393564084168538,-10,-1,-100,19178.163793065934,0.024202609066656267,0.020621263994544992,0.9994943707623538,59.637158787538084,3.646548552202455,297.62391771466895,-88.541215106691,-144.79212951660156,4761.76025390625,True
1599384904.2856395,0.0,10,0.5,0.5,0.7771241325378417,-0.001,-0.0155,-0.12575,0.21620753821092586,10,1,100,-0.19626003106148565,-10,-1,-100,19174.611212732154,0.023558700905549824,0.0205161937856064,0.9995119175898776,59.90187873648272,3.6631410747143858,300.2352966621328,-88.90559466558877,-143.6700439453125,4761.76025390625,True
1599384904.3214784,0.0,10,0.5,0.5,0.9162853927612304,-0.001,-0.0155,-0.12575,0.22650291138359455,10,1,100,-0.2605114108434363,-10,-1,-100,19174.611212732154,0.023558700905549824,0.0205161937856064,0.9995119175898776,59.90187873648272,3.6631410747143858,300.2352966621328,-88.90559466558877,-143.6700439453125,4761.76025390625,True
1599384904.35295,0.0,10,0.5,0.5,0.7405408531188965,-0.001,-0.0155,-0.12575,0.21760913278446864,10,1,100,-0.1755455804144537,-10,-1,-100,19171.04405785119,0.02278755186827447,0.020437265323079715,0.9995314130461157,60.186359302106524,3.681011777366139,302.95817635476124,-89.26995456543796,-142.29881286621094,4761.76025390625,True
1599384904.3863387,0.0,10,0.5,0.5,0.5894742347717286,-0.001,-0.0155,-0.12575,0.21453437292719396,10,1,100,-0.10099321004176137,-10,-1,-100,19165.665999954217,0.021411032255649654,0.020339168894724598,0.9995638478388558,60.632278063559866,3.7091660317775967,307.16398533937746,-89.81645653204433,-139.78909301757812,4761.76025390625,True
1599384904.420229,0.0,10,0.5,0.5,0.8949000564575196,-0.001,-0.0155,-0.12575,0.22419255120880646,10,1,100,-0.23823719697221934,-10,-1,-100,19165.665999954217,0.021411032255649654,0.020339168894724598,0.9995638478388558,60.632278063559866,3.7091660317775967,307.16398533937746,-89.81645653204433,-139.78909301757812,4761.76025390625,True
1599384904.4554017,0.0,10,0.5,0.5,0.6348701271057129,-0.001,-0.0155,-0.12575,0.2163483930866565,10,1,100,-0.12183041930937175,-10,-1,-100,19162.062412202475,0.02035653852485775,0.020269070138707445,0.9995873029080543,60.92750712638588,3.727956959130514,309.9743553577691,-90.1807663753566,-137.82009887695312,4761.76025390625,True
1599384904.4856184,0.0,10,0.5,0.5,0.7342406547546387,-0.001,-0.0155,-0.12575,0.21817623755489138,10,1,100,-0.1650966273961239,-10,-1,-100,19160.255153672653,0.019795939207168912,0.020222963728038983,0.9995994960627784,61.06976963973188,3.7370771296146237,311.35733119449174,-90.36291431331126,-136.75946044921875,4761.76025390625,True
1599384904.5191505,0.0,10,0.5,0.5,0.5648449378967285,-0.001,-0.0155,-0.12575,0.21428184669702677,10,1,100,-0.08541967398945129,-10,-1,-100,19156.62970853888,0.01856694483011923,0.02014636665481963,0.9996246257822407,61.33509890528066,3.754258319544625,314.03487072847764,-90.72719703751716,-134.48973083496094,4761.76025390625,True
1599384904.5524178,0.0,10,0.5,0.5,0.5184481498718262,-0.001,-0.0155,-0.12575,0.20890382117993306,10,1,100,-0.06348332678151869,-10,-1,-100,19152.989692436066,0.01725604465700304,0.02002846587245887,0.9996504836579589,61.56567223980573,3.769479992822256,316.54614897457776,-91.09146441499313,-132.01268005371094,4761.76025390625,True
1599384904.5884912,0.0,10,0.5,0.5,0.64280288772583,-0.001,-0.0155,-0.12575,0.2139604071403799,10,1,100,-0.1165566566625276,-10,-1,-100,19151.164220367675,0.016553369208319853,0.019967848929809417,0.9996635788989061,61.66359155346648,3.7760948201751128,317.7164529410524,-91.27359339569293,-130.69827270507812,4761.76025390625,True
1599384904.620387,0.0,10,0.5,0.5,0.060284359741210936,-0.001,-0.0155,-0.12575,0.1797947183772834,10,1,100,0.14434083014566562,-10,-1,-100,19143.825907477178,0.013549731865677322,0.019602739461431522,0.9997160283660433,61.89732248854884,3.793347502467015,321.6014718941609,-92.00208961933093,-124.97077941894531,4761.76025390625,True
1599384904.6531863,0.0,10,0.5,0.5,0.751532780456543,-0.001,-0.0155,-0.12575,0.21621431978265535,10,1,100,-0.1550220072146002,-10,-1,-100,19143.825907477178,0.013549731865677322,0.019602739461431522,0.9997160283660433,61.89732248854884,3.793347502467015,321.6014718941609,-92.00208961933093,-124.97077941894531,4761.76025390625,True
1599384904.6863048,0.0,10,0.5,0.5,0.12395804290771484,-0.001,-0.0155,-0.12575,0.1708103551825973,10,1,100,0.11412747260625014,-10,-1,-100,19138.283927141572,0.011112017475524021,0.019190806559907517,0.9997540877691893,61.858137144650335,3.793609072881141,323.41126575917565,-92.54845957123786,-120.2481689453125,4761.76025390625,True
1599384904.7222087,0.0,10,0.5,0.5,0.2605005493164062,-0.001,-0.0155,-0.12575,0.1763521623504452,10,1,100,0.06630860391686405,-10,-1,-100,19134.57106088521,0.009341244594736122,0.018867835313469014,0.9997783484052878,61.707479411686215,3.7863238206307326,323.9649101033138,-92.91271646181109,-116.90972900390625,4761.76025390625,True
1599384904.7532966,0.0,10,0.5,0.5,0.20730975189208983,-0.001,-0.0155,-0.12575,0.16110760986214973,10,1,100,0.07742441091275887,-10,-1,-100,19130.843623894732,0.007641370810112545,0.018436975824614284,0.9998008238517234,61.438671471916116,3.7718786853202513,323.8912371509638,-93.27698942961108,-113.457763671875,4761.76025390625,True
1599384904.7863047,0.0,10,0.5,0.5,0.3786638931274414,-0.001,-0.0155,-0.12575,0.17829444476085016,10,1,100,0.006204576248314622,-10,-1,-100,19128.97444102168,0.00675600192235473,0.018203258600252816,0.9998114811374981,61.26080088630963,3.762002626712003,323.621222013552,-93.45913405489667,-111.70693969726562,4761.76025390625,True
1599384904.8072476,0.0,10,0.5,0.5,0.5583546112060548,-0.001,-0.0155,-0.12575,0.20145958604315153,10,1,100,-0.08097225886721661,-10,-1,-100,19128.97444102168,0.00675600192235473,0.018203258600252816,0.9998114811374981,61.26080088630963,3.762002626712003,323.621222013552,-93.45913405489667,-111.70693969726562,4761.76025390625,True
1599384904.8281896,0.0,10,0.5,0.5,-0.16000966339111333,-0.001,-0.0155,-0.12575,0.11171470807562282,10,1,100,0.21494586553500028,-10,-1,-100,19123.345033882186,0.004077691643502589,0.017389232168845997,0.9998404807945308,60.61559531024406,3.7254725700135674,322.1981631989385,-94.00560824886452,-106.34573364257812,4761.76025390625,True
1599384904.854133,0.0,10,0.5,0.5,0.23819732589721673,-0.001,-0.0155,-0.12575,0.15869422410685163,10,1,100,0.04786962473219332,-10,-1,-100,19121.46127814299,0.0031749110820139944,0.01707880113556549,0.9998491058611761,60.381784819444924,3.712097654526369,321.61574018264855,-94.18778026511839,-104.51266479492188,4761.76025390625,True
1599384904.8862364,0.0,10,0.5,0.5,0.18936730995178228,-0.001,-0.0155,-0.12575,0.1531314168815312,10,1,100,0.060617308283792956,-10,-1,-100,19119.57387886441,0.0022511144788961743,0.01674870164393202,0.999857196542009,60.115125338907184,3.6966637597750314,320.8534487302005,-94.36996022192922,-102.64510345458984,4761.76025390625,True
1599384904.9204702,0.0,10,0.5,0.5,0.38073073616027836,-0.001,-0.0155,-0.12575,0.18581945131629052,10,1,100,-0.030332126555046697,-10,-1,-100,19119.57387886441,0.0022511144788961743,0.01674870164393202,0.999857196542009,60.115125338907184,3.6966637597750314,320.8534487302005,-94.36996022192922,-102.64510345458984,4761.76025390625,True
1599384904.9560735,0.0,10,0.5,0.5,-0.13053169441223145,-0.001,-0.0155,-0.12575,0.10785474340142975,10,1,100,0.1638922233011635,-10,-1,-100,19115.788148706662,0.0004957100414640644,0.01604252615181283,0.9998711875167836,59.572001507974655,3.6650337050879145,319.26046909419347,-94.73434415715244,-98.88449096679688,4761.76025390625,True
1599384904.9870782,0.0,10,0.5,0.5,-0.42651925354003906,-0.001,-0.0155,-0.12575,0.045776140069156146,10,1,100,0.2874124683962465,-10,-1,-100,19110.082222741563,-0.002211156200862051,0.01483943404987437,0.9998874446583149,58.58633032303148,3.6065291723538007,315.9081507412428,-95.2809827840692,-93.13734436035156,4761.76025390625,True
1599384905.0202448,0.0,10,0.5,0.5,-0.23629927139282225,-0.001,-0.0155,-0.12575,0.0705989523989636,10,1,100,0.2073393181811889,-10,-1,-100,19106.26004905498,-0.003931893988588554,0.013975331680664959,0.9998946096034711,57.766039501563064,3.5570151150210907,312.7558454821717,-95.64545566988663,-89.267822265625,4761.76025390625,True
1599384905.0535307,0.0,10,0.5,0.5,-0.03478017120361329,-0.001,-0.0155,-0.12575,0.10799462037058233,10,1,100,0.1278769020341241,-10,-1,-100,19104.343495257082,-0.004761748977381763,0.01353419242079185,0.9998970703938447,58.31426666843917,3.591118014666485,316.36601485572356,-95.82768432441348,-87.35675048828125,4761.76025390625,True
1599384905.089301,0.0,10,0.5,0.5,0.165080534362793,-0.001,-0.0155,-0.12575,0.151618268017511,10,1,100,0.04613171513355262,-10,-1,-100,19104.343495257082,-0.004761748977381763,0.01353419242079185,0.9998970703938447,58.31426666843917,3.591118014666485,316.36601485572356,-95.82768432441348,-87.35675048828125,4761.76025390625,True
1599384905.120829,0.0,10,0.5,0.5,-0.8156438873291015,-0.001,-0.0155,-0.12575,-0.05880111786599415,10,1,100,0.405780209573058,-10,-1,-100,19096.64084255905,-0.008020810062377506,0.011625533518377676,0.9999002518133278,61.63527573875721,3.796148919231574,337.09966087809426,-96.55639245233073,-79.91705322265625,4761.76025390625,True
1599384905.153818,0.0,10,0.5,0.5,-0.16372530212402345,-0.001,-0.0155,-0.12575,0.07477753473566034,10,1,100,0.1684563577913307,-10,-1,-100,19094.706071994617,-0.008812669839826358,0.011110720198999719,0.9998994393172513,62.401872687287124,3.8432945989876153,341.98036258937947,-96.7385184276885,-78.06814575195312,4761.76025390625,True
1599384905.1868236,0.0,10,0.5,0.5,-0.44194322052001955,-0.001,-0.0155,-0.12575,0.01683220526197786,10,1,100,0.2524780421633725,-10,-1,-100,19090.825605245074,-0.01028465734863176,0.010121640106140686,0.9998958836922887,63.87492247676177,3.9336898447097655,351.46178016003086,-97.10270979639462,-74.38461303710938,4761.76025390625,True
1599384905.2228196,0.0,10,0.5,0.5,-0.4808330993652344,-0.001,-0.0155,-0.12575,-0.0005466310164804061,10,1,100,0.2669460149741412,-10,-1,-100,19086.93057283596,-0.01174211886543398,0.009070811656491422,0.9998899154509173,65.23084157787257,4.016667816504167,360.36126039554506,-97.46682259139513,-70.791748046875,4761.76025390625,True
1599384905.254263,0.0,10,0.5,0.5,-0.5214168674468994,-0.001,-0.0155,-0.12575,-0.007863855319065138,10,1,100,0.27132762868780286,-10,-1,-100,19083.020978654968,-0.013094195611428987,0.008055972744957176,0.9998818146883272,66.46973095909179,4.092308408692857,368.6715017996869,-97.83086079716975,-67.29656982421875,4761.76025390625,True
1599384905.2876158,0.0,10,0.5,0.5,-0.13668843307495118,-0.001,-0.0155,-0.12575,0.09275076294446201,10,1,100,0.13765448509733474,-10,-1,-100,19083.020978654968,-0.013094195611428987,0.008055972744957176,0.9998818146883272,66.46973095909179,4.092308408692857,368.6715017996869,-97.83086079716975,-67.29656982421875,4761.76025390625,True
1599384905.3199675,0.0,10,0.5,0.5,-0.8180922920227051,-0.001,-0.0155,-0.12575,-0.07196132125491866,10,1,100,0.34681221408494195,-10,-1,-100,19077.1292887053,-0.014983275051631877,0.006565850664423584,0.9998661865838746,68.09259822657258,4.19119183489309,379.92560086236045,-98.37678937648373,-62.306884765625,4761.76025390625,True
1599384905.3558583,0.0,10,0.5,0.5,-0.44188109130859377,-0.001,-0.0155,-0.12575,0.01943610695650559,10,1,100,0.2258349099306719,-10,-1,-100,19075.158113930607,-0.015589215306004076,0.0060496013780291305,0.9998601795697787,68.57168408502048,4.220359257665445,383.35499128541784,-98.55873422766936,-60.70172119140625,4761.76025390625,True
1599384905.3872688,0.0,10,0.5,0.5,-0.284309228515625,-0.001,-0.0155,-0.12575,0.07026846256568733,10,1,100,0.16640661662519346,-10,-1,-100,19075.158113930607,-0.015589215306004076,0.0060496013780291305,0.9998601795697787,68.57168408502048,4.220359257665445,383.35499128541784,-98.55873422766936,-60.70172119140625,4761.76025390625,True
1599384905.420132,0.0,10,0.5,0.5,-1.1024982040405273,-0.001,-0.0155,-0.12575,-0.13762624103941196,10,1,100,0.4094180159094968,-10,-1,-100,19067.23703140649,-0.01778856669374445,0.004166453700748921,0.9998330898497718,70.22205960984417,4.320945918943514,395.68025779707796,-99.28637585524572,-54.572540283203125,4761.76025390625,True
1599384905.4543827,0.0,10,0.5,0.5,-0.5664665847778321,-0.001,-0.0155,-0.12575,-0.002060902623647172,10,1,100,0.24726014630046914,-10,-1,-100,19065.247666259413,-0.018301972033684208,0.0036954295603829953,0.9998256756155258,70.56834026560468,4.342115399725553,398.41022857856865,-99.46825569604106,-53.121673583984375,4761.76025390625,True
1599384905.4894187,0.0,10,0.5,0.5,-0.7807608367919922,-0.001,-0.0155,-0.12575,-0.047590692665080626,10,1,100,0.3027389471383439,-10,-1,-100,19061.258023755392,-0.019263710384908934,0.002860527799635481,0.9998103454370303,71.19162599610628,4.38035132891334,403.5009731239355,-99.83198381400186,-50.319244384765625,4761.76025390625,True
1599384905.5203238,0.0,10,0.5,0.5,-0.8022939804077149,-0.001,-0.0155,-0.12575,-0.055992066825115074,10,1,100,0.307832320649651,-10,-1,-100,19057.253833453287,-0.020174820426538675,0.0020326502451368496,0.9997944013414647,71.72215543577704,4.4131122006189205,408.09234581445594,-100.19567470786767,-47.7083740234375,4761.76025390625,True
1599384905.5543983,0.0,10,0.5,0.5,-0.5153252029418945,-0.001,-0.0155,-0.12575,0.02598678963864768,10,1,100,0.21771033279446758,-10,-1,-100,19057.253833453287,-0.020174820426538675,0.0020326502451368496,0.9997944013414647,71.72215543577704,4.4131122006189205,408.09234581445594,-100.19567470786767,-47.7083740234375,4761.76025390625,True
1599384905.587538,0.0,10,0.5,0.5,-0.7072133346557616,-0.001,-0.0155,-0.12575,-0.015455615935719636,10,1,100,0.2657332411897266,-10,-1,-100,19055.246283294633,-0.020603726228712753,0.001662299432107469,0.9997863387874882,71.95624555034122,4.427665842134663,410.21949126777156,-100.37750786037041,-46.47674560546875,4761.76025390625,True
1599384905.622697,0.0,10,0.5,0.5,-1.1419888305664063,-0.001,-0.0155,-0.12575,-0.1266868780127897,10,1,100,0.3972283197645764,-10,-1,-100,19047.179718392785,-0.022182223553535746,0.00032023601348271343,0.9997538929192107,72.71659410203524,4.475654054352549,417.77180847012613,-101.10477234390953,-42.079254150390625,4761.76025390625,True
1599384905.6426456,0.0,10,0.5,0.5,-0.870949967956543,-0.001,-0.0155,-0.12575,-0.053418572494224596,10,1,100,0.3183069815173293,-10,-1,-100,19043.12461920618,-0.022891492566634305,-0.00022671364716058697,0.9997379297440875,73.01367072691832,4.494879803826046,421.09614633215375,-101.46837035731583,-40.1632080078125,4761.76025390625,True
1599384905.6875699,0.0,10,0.5,0.5,-0.6643298645019531,-0.001,-0.0155,-0.12575,0.0005971371389470255,10,1,100,0.24817090195897365,-10,-1,-100,19043.12461920618,-0.022891492566634305,-0.00022671364716058697,0.9997379297440875,73.01367072691832,4.494879803826046,421.09614633215375,-101.46837035731583,-40.1632080078125,4761.76025390625,True
1599384905.7213564,0.0,10,0.5,0.5,-0.8062855850219728,-0.001,-0.0155,-0.12575,-0.023176746724428668,10,1,100,0.28595970336930004,-10,-1,-100,19041.09161585779,-0.0232283886910367,-0.00043713412316837534,0.9997300890103171,73.14617677097243,4.503585601829271,422.67121242674455,-101.65016208442343,-39.294403076171875,4761.76025390625,True
1599384905.7569904,0.0,10,0.5,0.5,-0.9241962066650392,-0.001,-0.0155,-0.12575,-0.04546787517502751,10,1,100,0.3233914685918941,-10,-1,-100,19037.014701986103,-0.02386800196671243,-0.0008251750549979929,0.9997147781083591,73.387432614931,4.519679205413815,425.69360547561433,-102.0137322238734,-37.76397705078125,4761.76025390625,True
1599384905.78822,0.0,10,0.5,0.5,-0.9944760269165038,-0.001,-0.0155,-0.12575,-0.05661865133201139,10,1,100,0.356102877826213,-10,-1,-100,19030.87206441944,-0.024741318269208747,-0.0012747723864922741,0.9996930739610356,73.71039796579976,4.541738419771411,430.0233999614296,-102.55905637437016,-35.896697998046875,4761.76025390625,True
1599384905.8211308,0.0,10,0.5,0.5,-0.7863643981933593,-0.001,-0.0155,-0.12575,-0.012155938377270787,10,1,100,0.2694151822001336,-10,-1,-100,19030.87206441944,-0.024741318269208747,-0.0012747723864922741,0.9996930739610356,73.71039796579976,4.541738419771411,430.0233999614296,-102.55905637437016,-35.896697998046875,4761.76025390625,True
1599384905.853527,0.0,10,0.5,0.5,-0.9282050476074218,-0.001,-0.0155,-0.12575,-0.028572606298177677,10,1,100,0.3280590708078895,-10,-1,-100,19026.758796120877,-0.025269464885748074,-0.0014202554583313115,0.99967966720286,73.91223857990244,4.555791423050682,432.84513185755475,-102.92258582110443,-34.954010009765625,4761.76025390625,True
1599384905.8902602,0.0,10,0.5,0.5,-0.8760535430908203,-0.001,-0.0155,-0.12575,-0.0179813013298777,10,1,100,0.302890245819207,-10,-1,-100,19024.696709170938,-0.025516159178651066,-0.0014530892005609202,0.9996733537273786,74.01276818899069,4.56283771411272,434.25769733335966,-103.10434450505743,-34.586181640625,4761.76025390625,True
1599384905.9211893,0.0,10,0.5,0.5,-0.9170102890014649,-0.001,-0.0155,-0.12575,-0.016074953370406955,10,1,100,0.3299453521705198,-10,-1,-100,19020.561629967997,-0.02598152646743653,-0.0014624387670965596,0.9996613534368899,74.21847452245939,4.577288754797654,437.1181191183094,-103.46784928880089,-34.05859375,4761.76025390625,True
1599384905.9544632,0.0,10,0.5,0.5,-0.9074580551147462,-0.001,-0.0155,-0.12575,0.006063736904942742,10,1,100,0.35111270286244783,-10,-1,-100,19014.33174977114,-0.026592129190587455,-0.0012668368812628673,0.9996455640823038,74.5460431466489,4.600274615324897,441.5413845255291,-104.01307251715345,-33.76239013671875,4761.76025390625,True
1599384905.987335,0.0,10,0.5,0.5,-0.8831015899658203,-0.001,-0.0155,-0.12575,-0.013655158967901046,10,1,100,0.29049342111106036,-10,-1,-100,19014.33174977114,-0.026592129190587455,-0.0012668368812628673,0.9996455640823038,74.5460431466489,4.600274615324897,441.5413845255291,-104.01307251715345,-33.76239013671875,4761.76025390625,True
1599384906.0235548,0.0,10,0.5,0.5,-0.8259576873779297,-0.001,-0.0155,-0.12575,0.05448411236463216,10,1,100,0.3611486749188776,-10,-1,-100,19005.97435829381,-0.027231085464636744,-0.0006464433934815633,0.9996289562109317,75.03000667131465,4.6339743078118625,447.7596982325123,-104.73996675775574,-34.29150390625,4761.76025390625,True
1599384906.0564678,0.0,10,0.5,0.5,-0.9015948852539062,-0.001,-0.0155,-0.12575,-0.007597209388130334,10,1,100,0.2976870068037488,-10,-1,-100,19005.97435829381,-0.027231085464636744,-0.0006464433934815633,0.9996289562109317,75.03000667131465,4.6339743078118625,447.7596982325123,-104.73996675775574,-34.29150390625,4761.76025390625,True
1599384906.087302,0.0,10,0.5,0.5,-0.8255662673950195,-0.001,-0.0155,-0.12575,0.04163849891380208,10,1,100,0.32668399183094343,-10,-1,-100,19001.773857002147,-0.027491055604180695,-0.00019865576412734758,0.9996220297680796,75.2897657656156,4.651929926254741,450.9933748442848,-105.10338057067966,-34.9525146484375,4761.76025390625,True
1599384906.1212182,0.0,10,0.5,0.5,-0.8591170425415039,-0.001,-0.0155,-0.12575,0.026304717614643324,10,1,100,0.3104214652048697,-10,-1,-100,18999.668155385414,-0.0275762572584041,6.845632411970472e-05,0.9996197003607671,75.42337416443313,4.661129266249811,452.6373514819091,-105.2850785176535,-35.37799072265625,4761.76025390625,True
1599384906.1561518,0.0,10,0.5,0.5,-0.7041099960327148,-0.001,-0.0155,-0.12575,0.10235949942760592,10,1,100,0.3242106411454447,-10,-1,-100,18993.32924778876,-0.027776492235349518,0.0010014714856343104,0.9996136571365776,75.82441937290679,4.6886651096461565,457.5900238422652,-105.8301356178249,-37.029388427734375,4761.76025390625,True
1599384906.1871407,0.0,10,0.5,0.5,-0.9100175872802734,-0.001,-0.0155,-0.12575,0.009285607663358007,10,1,100,0.30449066084751697,-10,-1,-100,18993.32924778876,-0.027776492235349518,0.0010014714856343104,0.9996136571365776,75.82441937290679,4.6886651096461565,457.5900238422652,-105.8301356178249,-37.029388427734375,4761.76025390625,True
1599384906.2203448,0.0,10,0.5,0.5,-0.5201683807373048,-0.001,-0.0155,-0.12575,0.17822638732239615,10,1,100,0.304308565420115,-10,-1,-100,18984.826503142016,-0.02777255770660077,0.0025350951853128703,0.9996110535257378,76.32729565536317,4.723090444072233,464.04498478896693,-106.556791967513,-40.079742431640625,4761.76025390625,True
1599384906.25413,0.0,10,0.5,0.5,-0.8952353775024414,-0.001,-0.0155,-0.12575,0.025262835793127547,10,1,100,0.30492765814778466,-10,-1,-100,18984.826503142016,-0.02777255770660077,0.0025350951853128703,0.9996110535257378,76.32729565536317,4.723090444072233,464.04498478896693,-106.556791967513,-40.079742431640625,4761.76025390625,True
1599384906.2901366,0.0,10,0.5,0.5,-0.7708806854248047,-0.001,-0.0155,-0.12575,0.07416944496305584,10,1,100,0.30136402019936503,-10,-1,-100,18982.691734167165,-0.027738532787761352,0.0029760666014463917,0.9996107826681172,76.43789099479476,4.730676913975046,465.57418230828205,-106.73844120476619,-40.987213134765625,4761.76025390625,True
1599384906.32108,0.0,10,0.5,0.5,-0.6211282928466797,-0.001,-0.0155,-0.12575,0.1303276811874695,10,1,100,0.2866497476650942,-10,-1,-100,18978.41129786847,-0.027572792744325624,0.0038836219422599817,0.9996122541170092,76.63406768337745,4.744170367773463,468.487745125509,-107.10172328354646,-42.98065185546875,4761.76025390625,True
1599384906.3551183,0.0,10,0.5,0.5,-0.5758086990356446,-0.001,-0.0155,-0.12575,0.15016170974741733,10,1,100,0.2787406456205125,-10,-1,-100,18974.116330942605,-0.027349327537566276,0.004884299367341386,0.9996140044551862,76.78297681167362,4.7545348846261595,471.1210140999962,-107.46498590661312,-45.20318603515625,4761.76025390625,True
1599384906.3881388,0.0,10,0.5,0.5,-0.36031267547607426,-0.001,-0.0155,-0.12575,0.2236501443950663,10,1,100,0.2425350920468084,-10,-1,-100,18967.646636680467,-0.026816928460685077,0.006457054848065997,0.9996195070078534,76.88975174286243,4.762414245404746,474.3661724629158,-108.00985121737065,-48.97491455078125,4761.76025390625,True
1599384906.4233463,0.0,10,0.5,0.5,-0.4627094024658202,-0.001,-0.0155,-0.12575,0.1870759541267245,10,1,100,0.2433590920501783,-10,-1,-100,18963.315345467185,-0.02634079671537276,0.007547882193338401,0.9996245254608327,76.85919657992503,4.761035488593204,475.90527989748676,-108.37308334436246,-51.729461669921875,4761.76025390625,True
1599384906.4553173,0.0,10,0.5,0.5,-0.41629269714355455,-0.001,-0.0155,-0.12575,0.19796324196808285,10,1,100,0.22665997706470198,-10,-1,-100,18958.96952491661,-0.02575718522784706,0.008631476453091603,0.9996309644180585,76.7313288526133,4.753358960351177,476.83985878310557,-108.73631355562304,-54.623321533203125,4761.76025390625,True
1599384906.4884586,0.0,10,0.5,0.5,-0.7503653121948242,-0.001,-0.0155,-0.12575,0.09046011800565985,10,1,100,0.28483921861421646,-10,-1,-100,18958.96952491661,-0.02575718522784706,0.008631476453091603,0.9996309644180585,76.7313288526133,4.753358960351177,476.83985878310557,-108.73631355562304,-54.623321533203125,4761.76025390625,True
1599384906.5217655,0.0,10,0.5,0.5,-0.533816830444336,-0.001,-0.0155,-0.12575,0.1519701610975705,10,1,100,0.2487043911992841,-10,-1,-100,18956.791166301584,-0.025430522530445403,0.00918372229486583,0.9996344070552191,76.6281707483998,4.746994013290001,477.0614690243648,-108.91792997116885,-56.11663818359375,4761.76025390625,True
1599384906.5577624,0.0,10,0.5,0.5,-0.0977904388427735,-0.001,-0.0155,-0.12575,0.27927182651271215,10,1,100,0.15568563456452517,-10,-1,-100,18950.234295729315,-0.024290064081314185,0.01083561342678984,0.9996462285571786,76.14769111737425,4.716962462160801,476.64507142879813,-109.46279611820479,-60.8048095703125,4761.76025390625,True
1599384906.577678,0.0,10,0.5,0.5,-0.23006866912841795,-0.001,-0.0155,-0.12575,0.2350657722376628,10,1,100,0.17141115199786966,-10,-1,-100,18945.84488548746,-0.023399408825702833,0.011927913491273513,0.9996550367733624,75.66627736975536,4.686732359660468,475.3403425981339,-109.82606436568544,-64.158935546875,4761.76025390625,True
1599384906.719337,0.0,10,0.5,0.5,-0.6145272613525391,-0.001,-0.0155,-0.12575,0.12677504761989158,10,1,100,0.2600393626709151,-10,-1,-100,18945.84488548746,-0.023399408825702833,0.011927913491273513,0.9996550367733624,75.66627736975536,4.686732359660468,475.3403425981339,-109.82606436568544,-64.158935546875,4761.76025390625,True
1599384906.7412713,0.0,10,0.5,0.5,0.0811402969360352,-0.001,-0.0155,-0.12575,0.29266352525810513,10,1,100,0.09527564274832187,-10,-1,-100,18939.233523228322,-0.021905501484553856,0.013427852518084702,0.9996698663966334,74.68071908825871,4.624892809865444,471.6835846500663,-110.37102460905263,-69.36407470703125,4761.76025390625,True
1599384906.777643,0.0,10,0.5,0.5,-0.30661443023681645,-0.001,-0.0155,-0.12575,0.20053201918622418,10,1,100,0.18317484997181685,-10,-1,-100,18937.022469284595,-0.021351639686686352,0.013945197732190662,0.9996747665830622,74.28649638975988,4.600206319514165,470.03546079963166,-110.55269733734895,-71.14630126953125,4761.76025390625,True
1599384906.8348923,0.0,10,0.5,0.5,-0.49051759185791016,-0.001,-0.0155,-0.12575,0.1497035876121132,10,1,100,0.23796126097347925,-10,-1,-100,18937.022469284595,-0.021351639686686352,0.013945197732190662,0.9996747665830622,74.28649638975988,4.600206319514165,470.03546079963166,-110.55269733734895,-71.14630126953125,4761.76025390625,True
1599384906.855836,0.0,10,0.5,0.5,0.4802113616943359,-0.001,-0.0155,-0.12575,0.3500013677159762,10,1,100,-0.02421805511133368,-10,-1,-100,18928.14191390935,-0.018973159802982597,0.015759279239603848,0.9996957858893569,72.33396217280874,4.478506425343617,460.9666430962256,-111.27951145518782,-78.53378295898438,4761.76025390625,True
1599384906.8907423,0.0,10,0.5,0.5,-0.4072177627563477,-0.001,-0.0155,-0.12575,0.16941435667928406,10,1,100,0.21289316956780283,-10,-1,-100,18928.14191390935,-0.018973159802982597,0.015759279239603848,0.9996957858893569,72.33396217280874,4.478506425343617,460.9666430962256,-111.27951145518782,-78.53378295898438,4761.76025390625,True
1599384906.9215515,0.0,10,0.5,0.5,0.11695366668701174,-0.001,-0.0155,-0.12575,0.26254545537876595,10,1,100,0.06650935364193358,-10,-1,-100,18923.679828514694,-0.017648565135860935,0.01659944577070231,0.9997064501886295,71.13820982252003,4.404428335267566,454.9658390675648,-111.64300451087142,-82.37686157226562,4761.76025390625,True
1599384906.954426,0.0,10,0.5,0.5,0.40579165344238277,-0.001,-0.0155,-0.12575,0.29160763459390654,10,1,100,-0.02183221773365851,-10,-1,-100,18916.959434107295,-0.015648654444237665,0.01762019154700436,0.999722285669341,69.08947541513149,4.278228938410806,444.22608500559943,-112.18836843171613,-88.1290283203125,4761.76025390625,True
1599384906.988426,0.0,10,0.5,0.5,-0.02548688507080077,-0.001,-0.0155,-0.12575,0.22342558712170638,10,1,100,0.10150847748562003,-10,-1,-100,18914.712030102964,-0.014960725470288323,0.017920635940029732,0.9997274766159565,68.35569547356695,4.233233264436472,440.2881188290536,-112.37019096264052,-90.041748046875,4761.76025390625,True
1599384907.0103664,0.0,10,0.5,0.5,-0.22069413604736327,-0.001,-0.0155,-0.12575,0.19408965007049306,10,1,100,0.16936844101945164,-10,-1,-100,18914.712030102964,-0.014960725470288323,0.017920635940029732,0.9997274766159565,68.35569547356695,4.233233264436472,440.2881188290536,-112.37019096264052,-90.041748046875,4761.76025390625,True
1599384907.0293167,0.0,10,0.5,0.5,0.3002390998840332,-0.001,-0.0155,-0.12575,0.2511954197758394,10,1,100,0.01845820802855408,-10,-1,-100,18910.206311608665,-0.013596485791603267,0.018434331371488557,0.9997376210791534,66.81632858362192,4.13915413102709,431.898433227229,-112.73388946689323,-93.83515930175781,4761.76025390625,True
1599384907.055371,0.0,10,0.5,0.5,0.10742323608398438,-0.001,-0.0155,-0.12575,0.22596318987577318,10,1,100,0.07585083115719614,-10,-1,-100,18907.947996539297,-0.01288693076945369,0.018666028384741237,0.9997427201033692,66.86702541357208,4.1431253475631,432.98966058732765,-112.91574253934544,-95.71450805664062,4761.76025390625,True
1599384907.0883405,0.0,10,0.5,0.5,0.3890871837615967,-0.001,-0.0155,-0.12575,0.24563489969839353,10,1,100,-0.01169075035078021,-10,-1,-100,18903.42045721342,-0.01145424689080438,0.019050733780752352,0.9997529043571612,68.07107587659469,4.219794770902855,442.3408266413224,-113.27938612735429,-99.47899627685547,4761.76025390625,True
1599384907.1222093,0.0,10,0.5,0.5,-0.04038153266906738,-0.001,-0.0155,-0.12575,0.2076749137021382,10,1,100,0.1305878982345626,-10,-1,-100,18903.42045721342,-0.01145424689080438,0.019050733780752352,0.9997529043571612,68.07107587659469,4.219794770902855,442.3408266413224,-113.27938612735429,-99.47899627685547,4761.76025390625,True
1599384907.1580884,0.0,10,0.5,0.5,0.9435073558807373,-0.001,-0.0155,-0.12575,0.25963725266172333,10,1,100,-0.17358230081805573,-10,-1,-100,18894.321751708165,-0.008698060892867742,0.01951847728397716,0.999771660321105,70.11141569193573,4.3517189599138435,458.79940811414787,-114.00643518232617,-106.89495849609375,4761.76025390625,True
1599384907.1895123,0.0,10,0.5,0.5,0.054909928894042975,-0.001,-0.0155,-0.12575,0.21323882214367976,10,1,100,0.10100878908459655,-10,-1,-100,18894.321751708165,-0.008698060892867742,0.01951847728397716,0.999771660321105,70.11141569193573,4.3517189599138435,458.79940811414787,-114.00643518232617,-106.89495849609375,4761.76025390625,True
1599384907.2224822,0.0,10,0.5,0.5,0.782823860168457,-0.001,-0.0155,-0.12575,0.2266174569402098,10,1,100,-0.12400969838816771,-10,-1,-100,18887.459560937015,-0.006661779278488171,0.019636683783905276,0.9997849875582328,71.50756453915751,4.443151552170752,470.3801405099418,-114.55152328351552,-112.29104614257812,4761.76025390625,True
1599384907.25535,0.0,10,0.5,0.5,0.15063282470703124,-0.001,-0.0155,-0.12575,0.21510053074871854,10,1,100,0.07851978446405208,-10,-1,-100,18887.459560937015,-0.006661779278488171,0.019636683783905276,0.9997849875582328,71.50756453915751,4.443151552170752,470.3801405099418,-114.55152328351552,-112.29104614257812,4761.76025390625,True
1599384907.2906053,0.0,10,0.5,0.5,0.630559158706665,-0.001,-0.0155,-0.12575,0.21052855539484702,10,1,100,-0.07206086578618781,-10,-1,-100,18882.86660054,-0.005301034162727581,0.019593287196836534,0.9997939798446618,72.37956317914794,4.500640027870681,477.7638889902245,-114.91482490919137,-115.78197479248047,4761.76025390625,True
1599384907.3216345,0.0,10,0.5,0.5,0.4471141410827637,-0.001,-0.0155,-0.12575,0.21143086184055887,10,1,100,-0.004260875321552671,-10,-1,-100,18880.564671574743,-0.004689138235630601,0.019560517947865234,0.9997976785931334,72.78465503493813,4.52747764700861,481.26573939482256,-115.0964496297631,-117.48329162597656,4761.76025390625,True
1599384907.3549604,0.0,10,0.5,0.5,0.6909110877990723,-0.001,-0.0155,-0.12575,0.19885676975430716,10,1,100,-0.08064985615185502,-10,-1,-100,18875.949917206308,-0.003447761737298468,0.01941492699164555,0.9998055678725299,73.48546885889047,4.574314774716559,487.57042630881773,-115.4596525858522,-120.7590560913086,4761.76025390625,True
1599384907.388953,0.0,10,0.5,0.5,0.7171876033782959,-0.001,-0.0155,-0.12575,0.1919524061325077,10,1,100,-0.08472906940657235,-10,-1,-100,18871.320636365446,-0.002291380003821194,0.019218913184320244,0.9998126739313179,74.05753070310884,4.613020783909735,493.04867810510996,-115.82280099539997,-123.88703918457031,4761.76025390625,True
1599384907.4244773,0.0,10,0.5,0.5,0.5582995323181152,-0.001,-0.0155,-0.12575,0.19710401991868365,10,1,100,-0.03252078139792878,-10,-1,-100,18869.000549102784,-0.0017243770014346437,0.01908704904408104,0.9998163386756318,74.29798833574625,4.629469551336493,495.4932990217045,-116.00435736270855,-125.39227294921875,4761.76025390625,True
1599384907.4557085,0.0,10,0.5,0.5,0.7762920192718505,-0.001,-0.0155,-0.12575,0.17804506166732523,10,1,100,-0.09407634265460006,-10,-1,-100,18864.3494820724,-0.0006581690513765585,0.018793876282248205,0.9998231628782099,74.69867096184787,4.657203088855991,499.8615833731947,-116.36743951569399,-128.28860473632812,4761.76025390625,True
1599384907.4881954,0.0,10,0.5,0.5,0.7990506378173827,-0.001,-0.0155,-0.12575,0.17072076829790706,10,1,100,-0.09692510165373158,-10,-1,-100,18859.68389289826,0.00032719409608705286,0.018461004611313194,0.999829527595962,75.00060068541181,4.678531630104509,503.5846766907383,-116.73048701912293,-130.9893341064453,4761.76025390625,True
1599384907.5222766,0.0,10,0.5,0.5,0.6589291465759277,-0.001,-0.0155,-0.12575,0.18262749100054115,10,1,100,-0.051303729084409756,-10,-1,-100,18857.345652774908,0.0008000342477065423,0.018267598273825916,0.9998328134235785,75.11862017722396,4.687042221820454,505.22977095391883,-116.91199991086982,-132.26861572265625,4761.76025390625,True
1599384907.544218,0.0,10,0.5,0.5,1.1229672309875487,-0.001,-0.0155,-0.12575,0.11131868839383716,10,1,100,-0.1885393447708279,-10,-1,-100,18847.956392006832,0.002468850805291175,0.017444649651513038,0.9998447824408732,75.41843372013959,4.709668089235881,510.6713292478432,-117.63799570757104,-136.88856506347656,4761.76025390625,True
1599384907.5631695,0.0,10,0.5,0.5,0.5801347557067872,-0.001,-0.0155,-0.12575,0.1933943472118858,10,1,100,-0.022570752020742508,-10,-1,-100,18847.956392006832,0.002468850805291175,0.017444649651513038,0.9998447824408732,75.41843372013959,4.709668089235881,510.6713292478432,-117.63799570757104,-136.88856506347656,4761.76025390625,True
1599384907.5891263,0.0,10,0.5,0.5,0.7473453102111816,-0.001,-0.0155,-0.12575,0.16760277814194713,10,1,100,-0.0643859435272155,-10,-1,-100,18845.60000238556,0.0028406883370920392,0.017212173600088497,0.9998478242061299,75.45911558484798,4.713025076188455,511.80389790336216,-117.8194835382727,-137.906982421875,4761.76025390625,True
1599384907.622223,0.0,10,0.5,0.5,0.7762963939666748,-0.001,-0.0155,-0.12575,0.164475712951354,10,1,100,-0.06659504818468182,-10,-1,-100,18843.239982861793,0.00319140366061541,0.016974568518512385,0.9998508283570532,75.48977472452887,4.715696832092101,512.8695066997007,-118.00096789059302,-138.87521362304688,4761.76025390625,True
1599384907.6553435,0.0,10,0.5,0.5,0.8021888469696046,-0.001,-0.0155,-0.12575,0.16523081010462273,10,1,100,-0.06770514473683731,-10,-1,-100,18840.87633384776,0.003513163430750573,0.0167677792815905,0.9998532388609204,75.51206863702984,4.717789389156973,513.8791110658576,-118.18244906990228,-139.7784881591797,4761.76025390625,True
1599384907.6913903,0.0,10,0.5,0.5,1.0214884590148925,-0.001,-0.0155,-0.12575,0.10294464247705573,10,1,100,-0.1324210761169424,-10,-1,-100,18833.763609570102,0.004387670847812541,0.016015957676601866,0.999862109215182,75.54635938846602,4.721725595113154,516.6896263404204,-118.72687618439147,-142.17222595214844,4761.76025390625,True
1599384907.7223241,0.0,10,0.5,0.5,0.7488179710388184,-0.001,-0.0155,-0.12575,0.17780650742514742,10,1,100,-0.04563823949590894,-10,-1,-100,18833.763609570102,0.004387670847812541,0.016015957676601866,0.999862109215182,75.54635938846602,4.721725595113154,516.6896263404204,-118.72687618439147,-142.17222595214844,4761.76025390625,True
1599384907.7563014,0.0,10,0.5,0.5,1.0742006660461425,-0.001,-0.0155,-0.12575,0.06783639189870075,10,1,100,-0.1446975541411483,-10,-1,-100,18824.22916545719,0.0052826536647244925,0.015019021254877332,0.9998732532530332,75.56722575140732,4.724829132367308,520.2736024123197,-119.45274485746314,-144.53414916992188,4761.76025390625,True
1599384907.7893248,0.0,10,0.5,0.5,0.802369415283203,-0.001,-0.0155,-0.12575,0.16715254856841708,10,1,100,-0.05579335472156328,-10,-1,-100,18824.22916545719,0.0052826536647244925,0.015019021254877332,0.9998732532530332,75.56722575140732,4.724829132367308,520.2736024123197,-119.45274485746314,-144.53414916992188,4761.76025390625,True
