Timestamp,Input Throttle,horizon,dT,dt,Input Roll,Roll P,Roll I,Roll D,Input Pitch,Pitch P,Pitch I,Pitch D,Input Yaw,Yaw P,Yaw I,Yaw D,Altitude,Direction X,Direction Y,Direction Z,Drag X,Drag Y,Drag Z,Vertical Velocity,Roll,Mass,Has Fuel
1599386566.553143,0.0,10,0.5,0.5,-5.63487565612793,-0.1005,-0.0155,-0.2505,0.0007421334318772231,10,1,100,0.5037432966049162,-10,-1,-100,19348.345350514748,-0.048896314176871514,-0.00016798944040794187,0.9988038457272101,61.16619172472298,3.6923823843580843,234.7202383134023,-68.84745155743978,-33.923370361328125,4761.76025390625,True
1599386566.5830986,0.0,10,0.5,0.5,-5.7222022994995125,-0.1005,-0.0155,-0.2505,-0.0007476009661556697,10,1,100,0.4996793807758866,-10,-1,-100,19346.964752379106,-0.048949283336775916,-0.00015936132784462784,0.9988012526347687,61.25622387858905,3.698493165465771,235.712442665069,-69.02990487507276,-33.924560546875,4761.76025390625,True
1599386566.6190007,0.0,10,0.5,0.5,-5.808539015197755,-0.1005,-0.0155,-0.2505,0.00040826285240440417,10,1,100,0.5115141072406575,-10,-1,-100,19344.192608831218,-0.04906052619242622,-0.00014086486232030111,0.9987957974114692,61.43711336625327,3.71077578759423,237.7062767030315,-69.39480106755528,-33.92706298828125,4761.76025390625,True
1599386566.6529014,0.0,10,0.5,0.5,-5.8805041610717765,-0.1005,-0.0155,-0.2505,0.010326017955470366,10,1,100,0.504472379611854,-10,-1,-100,19342.801063834224,-0.04905303987712608,-3.376042466820417e-05,0.998796174471572,61.527985221733886,3.716948579686823,238.70798440502293,-69.57724404105743,-33.971435546875,4761.76025390625,True
1599386566.6828253,0.0,10,0.5,0.5,-5.879466508483887,-0.1005,-0.0155,-0.2505,0.02376520911101104,10,1,100,0.5087894039853721,-10,-1,-100,19340.00702766166,-0.049040886139451456,0.0001858124022701339,0.9987967545804344,61.71887728443448,3.729850892146312,240.75336322794553,-69.9421189845009,-34.25347900390625,4761.76025390625,True
1599386566.7187014,0.0,10,0.5,0.5,-5.699568501281738,-0.1005,-0.0155,-0.2505,0.06061952062294202,10,1,100,0.4982910042489924,-10,-1,-100,19335.788608624134,-0.04888981466565339,0.0007202943383204773,0.9988039182932876,62.02985419863186,3.750667962240499,243.93465509850938,-70.4894015656557,-35.213470458984375,4761.76025390625,True
1599386566.7560282,0.0,10,0.5,0.5,-6.024965481567383,-0.1005,-0.0155,-0.2505,0.007243356451739727,10,1,100,0.5182871330953643,-10,-1,-100,19335.788608624134,-0.04888981466565339,0.0007202943383204773,0.9988039182932876,62.02985419863186,3.750667962240499,243.93465509850938,-70.4894015656557,-35.213470458984375,4761.76025390625,True
1599386566.7894847,0.0,10,0.5,0.5,-5.756849385070802,-0.1005,-0.0155,-0.2505,0.0663827146278422,10,1,100,0.49778413780840636,-10,-1,-100,19332.958087241277,-0.04865897851334863,0.0012572700541592994,0.9988146590244101,62.2475076729485,3.7651205840626276,246.10805909578505,-70.8542346239834,-36.219268798828125,4761.76025390625,True
1599386566.83134,0.0,10,0.5,0.5,-5.369467056274415,-0.1005,-0.0155,-0.2505,0.13047935669769214,10,1,100,0.4642563121554103,-10,-1,-100,19328.684944084147,-0.04810009361575948,0.0023269835691439923,0.9988398100504525,62.56871127752924,3.7863391231021644,249.36537169141192,-71.40144945264541,-38.278228759765625,4761.76025390625,True
1599386566.8712883,0.0,10,0.5,0.5,-5.672965971374512,-0.1005,-0.0155,-0.2505,0.06995179769913695,10,1,100,0.4975512444677973,-10,-1,-100,19327.253266937565,-0.047850970281140354,0.002747084424989444,0.9988507086498539,62.668914192003975,3.792944163313778,250.42848471036828,-71.58384511355196,-39.11138916015625,4761.76025390625,True
1599386566.9071598,0.0,10,0.5,0.5,-4.928566294860841,-0.1005,-0.0155,-0.2505,0.18482177827246493,10,1,100,0.42292323761261724,-10,-1,-100,19322.93634914665,-0.046902557214365745,0.00417076949512921,0.9988907622000375,62.92399201798039,3.8097900518177497,253.4478718068644,-72.1310050957043,-42.051513671875,4761.76025390625,True
1599386566.94808,0.0,10,0.5,0.5,-5.65246886291504,-0.1005,-0.0155,-0.2505,0.04288714715204209,10,1,100,0.5175651685938275,-10,-1,-100,19322.93634914665,-0.046902557214365745,0.00417076949512921,0.9988907622000375,62.92399201798039,3.8097900518177497,253.4478718068644,-72.1310050957043,-42.051513671875,4761.76025390625,True
1599386566.982954,0.0,10,0.5,0.5,-3.903017654418946,-0.1005,-0.0155,-0.2505,0.29157809720418526,10,1,100,0.3246314796084002,-10,-1,-100,19317.129393324372,-0.04515047524733678,0.006427659831218717,0.9989595185862308,63.07484683435415,3.8201410965708984,256.7304542312893,-72.86050021018552,-46.99981689453125,4761.76025390625,True
1599386567.0258384,0.0,10,0.5,0.5,-5.1223048431396485,-0.1005,-0.0155,-0.2505,0.06654591606458844,10,1,100,0.49944867121678793,-10,-1,-100,19317.129393324372,-0.04515047524733678,0.006427659831218717,0.9989595185862308,63.07484683435415,3.8201410965708984,256.7304542312893,-72.86050021018552,-46.99981689453125,4761.76025390625,True
1599386567.0727131,0.0,10,0.5,0.5,-2.952460797119141,-0.1005,-0.0155,-0.2505,0.34551013016203136,10,1,100,0.24007173217402042,-10,-1,-100,19311.264079316985,-0.04279605086024779,0.008957824122781028,0.9990436704257488,62.85380965652782,3.8070291302625536,258.49904990387705,-73.58996722559323,-53.124176025390625,4761.76025390625,True
1599386567.1165957,0.0,10,0.5,0.5,-3.227717030334473,-0.1005,-0.0155,-0.2505,0.2413193237703095,10,1,100,0.31913895616169874,-10,-1,-100,19308.309538239148,-0.04138013512212688,0.010302809773621557,0.9990903545365869,62.54134703623995,3.7878654919908046,258.5428751737818,-73.95470655890094,-56.62744140625,4761.76025390625,True
1599386567.1604795,0.0,10,0.5,0.5,-4.072093353271485,-0.1005,-0.0155,-0.2505,0.10777901022978674,10,1,100,0.45997956201943696,-10,-1,-100,19308.309538239148,-0.04138013512212688,0.010302809773621557,0.9990903545365869,62.54134703623995,3.7878654919908046,258.5428751737818,-73.95470655890094,-56.62744140625,4761.76025390625,True
1599386567.20536,0.0,10,0.5,0.5,-2.7052666580200198,-0.1005,-0.0155,-0.2505,0.24284310329628017,10,1,100,0.2886672766235143,-10,-1,-100,19305.34040723287,-0.03982957769083988,0.011521953787466678,0.9991400549081638,62.05774877521522,3.758110106392747,257.86351437490697,-74.31946130415331,-60.426971435546875,4761.76025390625,True
1599386567.2552266,0.0,10,0.5,0.5,-0.6426789382934572,-0.1005,-0.0155,-0.2505,0.40200516738495395,10,1,100,0.04660493496620988,-10,-1,-100,19299.358370855334,-0.03622744001171485,0.014067862852010816,0.9992445485590474,60.460247029177744,3.6599896317068095,253.8016050288335,-75.04905867556255,-68.90802001953125,4761.76025390625,True
1599386567.2951186,0.0,10,0.5,0.5,-1.9106315795898436,-0.1005,-0.0155,-0.2505,0.21195634912745404,10,1,100,0.2983494972606003,-10,-1,-100,19297.85374102206,-0.035252149645735684,0.014643935581725609,0.999271154940456,59.90876053861023,3.626227989089906,252.1257482599053,-75.23148430357769,-71.21307373046875,4761.76025390625,True
1599386567.3390012,0.0,10,0.5,0.5,-1.603379522705078,-0.1005,-0.0155,-0.2505,0.21865073263095425,10,1,100,0.2831406231563516,-10,-1,-100,19296.345462443656,-0.034238713021748184,0.015217680775901117,0.9992978198327149,59.28972803917791,3.5884005333776745,250.15358021571882,-75.41392305710912,-73.59173583984375,4761.76025390625,True
1599386567.3878691,0.0,10,0.5,0.5,-0.40827602233886706,-0.1005,-0.0155,-0.2505,0.2803180841044457,10,1,100,0.1530881454549426,-10,-1,-100,19293.31795770768,-0.03214662433374003,0.016289836955564435,0.9993504068923506,57.83575516322175,3.4998193466608045,245.25532847135722,-75.77884478146011,-78.55490112304688,4761.76025390625,True
1599386567.429757,0.0,10,0.5,0.5,1.1949714492797852,-0.1005,-0.0155,-0.2505,0.3425429859476961,10,1,100,-0.01584004341588996,-10,-1,-100,19288.749327131314,-0.028722429202980158,0.017819187983414787,0.9994285860431907,55.098787556844016,3.333929569120408,235.4186199371318,-76.3263519393851,-86.50344848632812,4761.76025390625,True
1599386567.4706848,0.0,10,0.5,0.5,1.244251402282715,-0.1005,-0.0155,-0.2505,0.28510673573793827,10,1,100,0.0648499597952038,-10,-1,-100,19285.685320083518,-0.02635800460970327,0.01867700343577895,0.9994780763656872,52.86881058697649,3.199417489677414,227.02392474233028,-76.69144697681797,-92.14208221435547,4761.76025390625,True
1599386567.5165584,0.0,10,0.5,0.5,1.9133957759857179,-0.1005,-0.0155,-0.2505,0.28127890320925963,10,1,100,0.03687620579124301,-10,-1,-100,19282.606709100655,-0.023971304916358852,0.019410901420754235,0.9995241835226604,53.679617008732265,3.249523234126521,231.6565648322062,-77.05653459986144,-97.87328338623047,4761.76025390625,True
1599386567.5594122,0.0,10,0.5,0.5,1.5281219665527344,-0.1005,-0.0155,-0.2505,0.2442168817076934,10,1,100,0.142115290035519,-10,-1,-100,19281.061928020208,-0.022775410275488153,0.019731651141355736,0.9995458681971624,54.53759118643364,3.3021888052302244,235.94376722165654,-77.23904483876414,-100.66824340820312,4761.76025390625,True
1599386567.599304,0.0,10,0.5,0.5,4.575593869781494,-0.1005,-0.0155,-0.2505,0.32179600031099814,10,1,100,-0.27324949560959316,-10,-1,-100,19274.846310721943,-0.017929103209601623,0.02071993483705284,0.9996245452961064,57.38903929017426,3.4787177499437254,250.73843217536364,-77.96886947631576,-111.15071105957031,4761.76025390625,True
1599386567.6571825,0.0,10,0.5,0.5,3.7201458084106447,-0.1005,-0.0155,-0.2505,0.25711164688140914,10,1,100,-0.0582950453241903,-10,-1,-100,19271.716611763928,-0.015498819999492553,0.021020864870087187,0.9996588967336494,58.54005154854303,3.5506337955701768,257.01972408439315,-78.33366133460987,-115.95384216308594,4761.76025390625,True
1599386567.7040255,0.0,10,0.5,0.5,2.6030281166076663,-0.1005,-0.0155,-0.2505,0.22796853468623643,10,1,100,0.18230019991758187,-10,-1,-100,19271.716611763928,-0.015498819999492553,0.021020864870087187,0.9996588967336494,58.54005154854303,3.5506337955701768,257.01972408439315,-78.33366133460987,-115.95384216308594,4761.76025390625,True
1599386567.7508967,0.0,10,0.5,0.5,5.737111425781251,-0.1005,-0.0155,-0.2505,0.26874667036586863,10,1,100,-0.313293162551282,-10,-1,-100,19265.413447403815,-0.011012269995241266,0.021385254283521955,0.9997106585451517,60.11769727846603,3.6503518699602804,266.51599142091453,-79.06305317568854,-124.67510223388672,4761.76025390625,True
1599386567.7957802,0.0,10,0.5,0.5,5.01095616569519,-0.1005,-0.0155,-0.2505,0.23193511597090072,10,1,100,-0.11400742962569115,-10,-1,-100,19262.239986119093,-0.008767312908564098,0.021375738420597677,0.9997330703899604,60.55686923784928,3.6786943652884365,269.75630371223605,-79.42768001718059,-128.59434509277344,4761.76025390625,True
1599386567.8486366,0.0,10,0.5,0.5,5.385909737777711,-0.1005,-0.0155,-0.2505,0.2379356499539496,10,1,100,-0.11049033738321355,-10,-1,-100,19259.051940576523,-0.006781572213892091,0.021416039710835416,0.9997476499204245,60.80626380894268,3.6952425285794783,272.1657568633532,-79.7922769956665,-132.21676635742188,4761.76025390625,True
1599386567.885546,0.0,10,0.5,0.5,5.158748295211792,-0.1005,-0.0155,-0.2505,0.23026322490033835,10,1,100,-0.026704683460849907,-10,-1,-100,19257.45244914235,-0.005761100301775252,0.021378267744423012,0.9997548596488846,60.87466136957554,3.699991076084242,273.12189848915693,-79.97456724842374,-133.9178466796875,4761.76025390625,True
1599386567.9264727,0.0,10,0.5,0.5,5.3772769435882575,-0.1005,-0.0155,-0.2505,0.2291563643493113,10,1,100,-0.03574072501937124,-10,-1,-100,19255.84931182221,-0.004772126666501755,0.021330631697437846,0.9997610869395083,60.91052734551403,3.702693997527751,273.9332509832957,-80.15685359676297,-135.54507446289062,4761.76025390625,True
1599386567.9712124,0.0,10,0.5,0.5,7.062395331573486,-0.1005,-0.0155,-0.2505,0.20321150626157916,10,1,100,-0.3435027248900733,-10,-1,-100,19249.40030704171,-0.0010948468882860123,0.021049051464597714,0.9997778446948762,60.800984059631595,3.697496861544812,276.03870116250755,-80.88597616496479,-141.3156280517578,4761.76025390625,True
1599386568.0170898,0.0,10,0.5,0.5,5.684207291793824,-0.1005,-0.0155,-0.2505,0.2315333445499768,10,1,100,0.021937607128693658,-10,-1,-100,19249.40030704171,-0.0010948468882860123,0.021049051464597714,0.9997778446948762,60.800984059631595,3.697496861544812,276.03870116250755,-80.88597616496479,-141.3156280517578,4761.76025390625,True
1599386568.0657215,0.0,10,0.5,0.5,6.9940169818878175,-0.1005,-0.0155,-0.2505,0.20308441122199897,10,1,100,-0.25317222771405445,-10,-1,-100,19244.525274592685,0.0013864420072051504,0.02078922716132224,0.9997829193442922,60.54525024592268,3.6824985893435946,276.81960997128533,-81.4328104460945,-144.86778259277344,4761.76025390625,True
1599386568.1145902,0.0,10,0.5,0.5,6.520049942398071,-0.1005,-0.0155,-0.2505,0.2217211537278477,10,1,100,-0.09079576991054311,-10,-1,-100,19242.892972663394,0.002148449981968098,0.020722385188102918,0.9997829599041939,60.444037761213316,3.676447998132392,277.00344619514505,-81.61508892745488,-145.9036407470703,4761.76025390625,True
1599386568.159798,0.0,10,0.5,0.5,7.502888695144653,-0.1005,-0.0155,-0.2505,0.1800627569836405,10,1,100,-0.33305971494582753,-10,-1,-100,19236.327309402754,0.005027541032090218,0.020283178405394363,0.9997816344107077,60.02820040185458,3.6512948449130898,277.66818912279956,-82.34420780667573,-149.31076049804688,4761.76025390625,True
1599386568.2136958,0.0,10,0.5,0.5,6.701108420944214,-0.1005,-0.0155,-0.2505,0.22390966660802672,10,1,100,-0.04720324603677387,-10,-1,-100,19236.327309402754,0.005027541032090218,0.020283178405394363,0.9997816344107077,60.02820040185458,3.6512948449130898,277.66818912279956,-82.34420780667573,-149.31076049804688,4761.76025390625,True
1599386568.2585697,0.0,10,0.5,0.5,7.18156783065796,-0.1005,-0.0155,-0.2505,0.2010453945181907,10,1,100,-0.18858383825161126,-10,-1,-100,19233.022603890975,0.0062982374967457105,0.020076323273557788,0.9997786122178499,59.84146866525594,3.6398877850703903,278.0867757636674,-82.70876907300702,-150.57080078125,4761.76025390625,True
1599386568.306408,0.0,10,0.5,0.5,7.237965855407715,-0.1005,-0.0155,-0.2505,0.2104026698655761,10,1,100,-0.18791063568829133,-10,-1,-100,19229.703316037776,0.0074336001227611505,0.01997452057972535,0.9997728542608191,59.686434589177765,3.6303612240733774,278.646048616876,-83.07333004054075,-151.53369140625,4761.76025390625,True
1599386568.3632536,0.0,10,0.5,0.5,7.339821166992188,-0.1005,-0.0155,-0.2505,0.19322602307978887,10,1,100,-0.24584687364828217,-10,-1,-100,19224.697042695945,0.00897951815301451,0.01972713181376244,0.999765076667585,59.53423200592915,3.6209084555979416,279.85141426818035,-83.62016558491443,-152.42576599121094,4761.76025390625,True
1599386568.418107,0.0,10,0.5,0.5,7.1973970451354985,-0.1005,-0.0155,-0.2505,0.21256083723570657,10,1,100,-0.1427172800783866,-10,-1,-100,19223.020993497455,0.009433955858559613,0.01967950500605965,0.9997618304174126,59.50631062222825,3.6191385773604936,280.3588111051574,-83.80244139464673,-152.57492065429688,4761.76025390625,True
1599386568.4576716,0.0,10,0.5,0.5,7.1879725440979,-0.1005,-0.0155,-0.2505,0.20341566076839623,10,1,100,-0.23144122993094574,-10,-1,-100,19217.97097421612,0.010640747787237462,0.01955457096452827,0.9997521659095926,59.50025920772566,3.6185551202979913,282.2468602304723,-84.34925572146363,-152.57931518554688,4761.76025390625,True
1599386568.5055418,0.0,10,0.5,0.5,7.075597579956055,-0.1005,-0.0155,-0.2505,0.2119303991747389,10,1,100,-0.18538510736831484,-10,-1,-100,19214.586067747558,0.01130847061303384,0.019519759894557467,0.9997455163520628,59.56263198598466,3.6222174744872633,283.8223958335748,-84.7137843018171,-152.21255493164062,4761.76025390625,True
1599386568.5519454,0.0,10,0.5,0.5,7.081218590545654,-0.1005,-0.0155,-0.2505,0.21224573779143124,10,1,100,-0.15278074975909312,-10,-1,-100,19212.888146847952,0.011607812369581878,0.01949237044707216,0.9997426199709336,59.61351588028033,3.6252544063267513,284.7054063170447,-84.8960432803947,-151.918701171875,4761.76025390625,True
1599386568.6017995,0.0,10,0.5,0.5,6.700442939758301,-0.1005,-0.0155,-0.2505,0.21760878854319482,10,1,100,-0.20209017202695947,-10,-1,-100,19207.772513729404,0.012318916559458536,0.019517404916841775,0.9997336221214695,59.83702171210292,3.6387239805270837,287.7022624599469,-85.44279484138062,-150.593017578125,4761.76025390625,True
1599386568.6506956,0.0,10,0.5,0.5,6.3414586051940915,-0.1005,-0.0155,-0.2505,0.2212988284390951,10,1,100,-0.18422778762235856,-10,-1,-100,19202.624077002052,0.012793743722415953,0.01957480477956894,0.9997265361784725,60.14971514167426,3.657731689130822,291.14601880787814,-85.98950291188251,-148.60345458984375,4761.76025390625,True
1599386568.691135,0.0,10,0.5,0.5,6.243671698760987,-0.1005,-0.0155,-0.2505,0.22383487159601514,10,1,100,-0.15601186069974904,-10,-1,-100,19199.17356326047,0.012961836168816859,0.01965068538677093,0.9997228822863677,60.39085224633913,3.6724853605953145,293.61231702688536,-86.35394786722657,-146.9080810546875,4761.76025390625,True
1599386568.7349813,0.0,10,0.5,0.5,6.6646386161804205,-0.1005,-0.0155,-0.2505,0.21618356157395374,10,1,100,-0.13999604557333115,-10,-1,-100,19199.17356326047,0.012961836168816859,0.01965068538677093,0.9997228822863677,60.39085224633913,3.6724853605953145,293.61231702688536,-86.35394786722657,-146.9080810546875,4761.76025390625,True
1599386568.7823713,0.0,10,0.5,0.5,5.960485540008545,-0.1005,-0.0155,-0.2505,0.22463558901398512,10,1,100,-0.14759091461643636,-10,-1,-100,19195.708472265862,0.013024822615870478,0.019727908943395565,0.9997205427540969,60.644823112693565,3.6881229282927213,296.1519722388144,-86.7183702656855,-144.91812133789062,4761.76025390625,True
1599386568.8292437,0.0,10,0.5,0.5,5.207196280670166,-0.1005,-0.0155,-0.2505,0.22964921783630515,10,1,100,-0.13022208989330797,-10,-1,-100,19190.48350556742,0.012919101686169774,0.019843914812926626,0.9997196186214011,61.01530822726073,3.7111981202848843,299.9311174210618,-87.26496204191852,-141.3810272216797,4761.76025390625,True
1599386568.869137,0.0,10,0.5,0.5,4.602220009613037,-0.1005,-0.0155,-0.2505,0.229536336572558,10,1,100,-0.103013232177118,-10,-1,-100,19185.2257454911,0.012572057058537266,0.01994824233464883,0.999721966853322,61.31569361047672,3.730407498632295,303.38832381745726,-87.81150876817897,-137.181884765625,4761.76025390625,True
1599386568.9309683,0.0,10,0.5,0.5,5.630245989227295,-0.1005,-0.0155,-0.2505,0.21913045813319645,10,1,100,-0.13803150506036657,-10,-1,-100,19185.2257454911,0.012572057058537266,0.01994824233464883,0.999721966853322,61.31569361047672,3.730407498632295,303.38832381745726,-87.81150876817897,-137.181884765625,4761.76025390625,True
1599386568.9768898,0.0,10,0.5,0.5,4.4948406959533695,-0.1005,-0.0155,-0.2505,0.2241874690447619,10,1,100,-0.09848814740205511,-10,-1,-100,19181.702354493435,0.012210816253215072,0.01999385727805386,0.9997255331527625,61.44098959746536,3.738922478722689,305.33215095683727,-88.17585378788935,-134.01510620117188,4761.76025390625,True
1599386569.017772,0.0,10,0.5,0.5,2.72773014755249,-0.1005,-0.0155,-0.2505,0.2196845460958145,10,1,100,-0.023431715055631075,-10,-1,-100,19174.611852189526,0.01119926400373633,0.019993958747628462,0.9997373745636263,61.39879098726059,3.7388599941669125,307.77109819439437,-88.90452321160089,-126.80091094970703,4761.76025390625,True
1599386569.0566697,0.0,10,0.5,0.5,4.495953483200074,-0.1005,-0.0155,-0.2505,0.21972455796841012,10,1,100,-0.12454608516692074,-10,-1,-100,19174.611852189526,0.01119926400373633,0.019993958747628462,0.9997373745636263,61.39879098726059,3.7388599941669125,307.77109819439437,-88.90452321160089,-126.80091094970703,4761.76025390625,True
1599386569.0955315,0.0,10,0.5,0.5,3.038630626678467,-0.1005,-0.0155,-0.2505,0.21240873116528536,10,1,100,-0.05431003971150361,-10,-1,-100,19171.04474089772,0.010561772365555921,0.019927018000481158,0.9997456491118661,61.175853540414195,3.726896376017962,307.9750053205875,-89.26886349161579,-122.75405883789062,4761.76025390625,True
1599386569.1414056,0.0,10,0.5,0.5,1.6888964645385742,-0.1005,-0.0155,-0.2505,0.19667016754850708,10,1,100,0.002315764309474652,-10,-1,-100,19165.66674724256,0.009469483540980166,0.019722764730902977,0.999760642070309,60.5027294964049,3.6886572960122916,306.5498459673372,-89.81541042682294,-116.13467407226562,4761.76025390625,True
1599386569.1892848,0.0,10,0.5,0.5,3.299353567504883,-0.1005,-0.0155,-0.2505,0.21710270244073834,10,1,100,-0.10656388288531721,-10,-1,-100,19165.66674724256,0.009469483540980166,0.019722764730902977,0.999760642070309,60.5027294964049,3.6886572960122916,306.5498459673372,-89.81541042682294,-116.13467407226562,4761.76025390625,True
1599386569.2391481,0.0,10,0.5,0.5,0.6971946578979493,-0.1005,-0.0155,-0.2505,0.1785462544899032,10,1,100,0.027898087468249302,-10,-1,-100,19160.255957611836,0.008250276858336686,0.019372186041037083,0.9997783010946739,59.33368745655157,3.6203368298887293,302.55681644557967,-90.36203709817791,-108.85700988769531,4761.76025390625,True
1599386569.2810364,0.0,10,0.5,0.5,0.6330930793762208,-0.1005,-0.0155,-0.2505,0.17846740318060048,10,1,100,0.004329181277095404,-10,-1,-100,19156.63054174278,0.00736051042654177,0.019053084695531117,0.9997913796637005,58.42067845689226,3.5665176328020967,299.1709290983116,-90.72651433782355,-103.63973999023438,4761.76025390625,True
1599386569.3318956,0.0,10,0.5,0.5,-0.05226025543212898,-0.1005,-0.0155,-0.2505,0.16641043088530758,10,1,100,0.020136979836536978,-10,-1,-100,19152.99054497748,0.006412977857332948,0.018654102660675208,0.9998054301557509,57.26787424619065,3.4977938427272752,294.51429791395486,-91.09104877940456,-98.1303939819336,4761.76025390625,True
1599386569.377782,0.0,10,0.5,0.5,-1.7875787815093993,-0.1005,-0.0155,-0.2505,0.12575224795769213,10,1,100,0.08149068115111142,-10,-1,-100,19147.503205844318,0.0049994228544662555,0.017922948365713308,0.9998268718598247,55.20262885620246,3.373354155318917,285.6992779120063,-91.63796689326661,-89.42703247070312,4761.76025390625,True
1599386569.4236517,0.0,10,0.5,0.5,-0.7333677120208741,-0.1005,-0.0155,-0.2505,0.16756184281470138,10,1,100,-0.005657905068667687,-10,-1,-100,19145.666800346808,0.004513516939498228,0.01764019104532888,0.9998342121695583,55.93071387335894,3.418167846306574,290.0779622716132,-91.82027284835068,-86.42999267578125,4761.76025390625,True
1599386569.4635446,0.0,10,0.5,0.5,-2.1580386547088626,-0.1005,-0.0155,-0.2505,0.12919131412514356,10,1,100,0.05111159356629708,-10,-1,-100,19141.98305305827,0.003562695483130993,0.017036455644376804,0.9998485217171508,58.23324259146072,3.5591885918763295,303.2912971931026,-92.18480150488944,-80.44232177734375,4761.76025390625,True
1599386569.500483,0.0,10,0.5,0.5,-1.7529795204162597,-0.1005,-0.0155,-0.2505,0.1538002195645199,10,1,100,0.008213864910802511,-10,-1,-100,19140.13571243838,0.0030952340274112804,0.01671401124123584,0.9998555202400712,59.281647117993465,3.6232736584163954,309.39879241775895,-92.36702478316161,-77.52780151367188,4761.76025390625,True
1599386569.5393405,0.0,10,0.5,0.5,-3.085509044265747,-0.1005,-0.0155,-0.2505,0.10657968906213441,10,1,100,0.06702712684246034,-10,-1,-100,19136.430099829566,0.0021429703500840387,0.015994584186091818,0.9998697819990323,61.13715410605606,3.7365072668844195,320.4174236127392,-92.73139429136077,-71.86898803710938,4761.76025390625,True
1599386569.58223,0.0,10,0.5,0.5,-3.641506880569458,-0.1005,-0.0155,-0.2505,0.0957873977722444,10,1,100,0.07173352371833011,-10,-1,-100,19132.709915377083,0.0012421441282017955,0.015246022791338605,0.9998830010891328,62.68438809403532,3.830782891358885,329.89401065339547,-93.0956700288556,-66.47109985351562,4761.76025390625,True
1599386569.6181655,0.0,10,0.5,0.5,-5.846064674758911,-0.1005,-0.0155,-0.2505,-0.01231590343228639,10,1,100,0.1732650679783114,-10,-1,-100,19125.22584360186,-0.0004923234400430025,0.0135868249141941,0.9999075736318739,64.91419289758637,3.9667397425453212,344.4597978481679,-93.8239937656573,-56.557281494140625,4761.76025390625,True
1599386569.6540687,0.0,10,0.5,0.5,-5.0383329120635985,-0.1005,-0.0155,-0.2505,0.056592322133556486,10,1,100,0.09032420856733409,-10,-1,-100,19121.46196116379,-0.0013060481374557312,0.012710479749040129,0.9999183656393215,65.65636337072077,4.012287467367485,349.82943278417576,-94.18806988425472,-52.046356201171875,4761.76025390625,True
1599386569.6915154,0.0,10,0.5,0.5,-5.4757056789398195,-0.1005,-0.0155,-0.2505,0.0524283679706742,10,1,100,0.09485598019841367,-10,-1,-100,19117.68351709016,-0.002078308218117306,0.011882004294048495,0.999927246657929,66.19373761464459,4.04563432085384,354.13618584391014,-94.55210668068797,-47.831817626953125,4761.76025390625,True
1599386569.7274222,0.0,10,0.5,0.5,-5.881212475204468,-0.1005,-0.0155,-0.2505,0.03792037175453422,10,1,100,0.1001655012692374,-10,-1,-100,19113.890512272366,-0.002820050466049263,0.011003473078819813,0.9999354833665883,66.55885780449715,4.06878571224598,357.54189187523434,-94.91611587277231,-43.9151611328125,4761.76025390625,True
1599386569.7633598,0.0,10,0.5,0.5,-4.9841236343383795,-0.1005,-0.0155,-0.2505,0.1250084303192169,10,1,100,0.026914579308379902,-10,-1,-100,19113.890512272366,-0.002820050466049263,0.011003473078819813,0.9999354833665883,66.55885780449715,4.06878571224598,357.54189187523434,-94.91611587277231,-43.9151611328125,4761.76025390625,True
1599386569.7972314,0.0,10,0.5,0.5,-6.325338879394532,-0.1005,-0.0155,-0.2505,0.031081244506972333,10,1,100,0.10502655176620716,-10,-1,-100,19110.082947651972,-0.003523050694465406,0.010155880003514766,0.9999422214383982,66.78324755770166,4.083655337740767,360.2056780017995,-95.28010716916826,-40.295013427734375,4761.76025390625,True
1599386569.8331404,0.0,10,0.5,0.5,-6.656576933288575,-0.1005,-0.0155,-0.2505,0.023957953143377148,10,1,100,0.10973998435087914,-10,-1,-100,19106.260823892895,-0.004197685227764405,0.009327387569060961,0.999947688271674,66.8971657575028,4.09205791467724,362.28249853577057,-95.64408836060123,-36.971435546875,4761.76025390625,True
1599386569.8697288,0.0,10,0.5,0.5,-6.435489109802246,-0.1005,-0.0155,-0.2505,0.05817355637764252,10,1,100,0.07823282187157256,-10,-1,-100,19104.344302289188,-0.004517505707578076,0.008892271810846565,0.9999502585850079,66.92164803969844,4.094367030463647,363.147172139639,-95.82607717665712,-35.42132568359375,4761.76025390625,True
1599386569.9055269,0.0,10,0.5,0.5,-7.122904873657227,-0.1005,-0.0155,-0.2505,0.012723684200136032,10,1,100,0.11661150958665795,-10,-1,-100,19100.500339560793,-0.005150228086877653,0.008090642046701955,0.9999540072732972,66.92217477031394,4.096178932997306,364.61557563085773,-96.19005389881812,-32.54254150390625,4761.76025390625,True
1599386569.9404325,0.0,10,0.5,0.5,-7.369093379211426,-0.1005,-0.0155,-0.2505,0.005060473695773546,10,1,100,0.12088207592550854,-10,-1,-100,19096.641818184755,-0.0057576233998332185,0.007299407567566641,0.9999567832771316,66.87898787062257,4.095483551730094,365.84675371009644,-96.55403162922015,-29.960296630859375,4761.76025390625,True
1599386569.9793308,0.0,10,0.5,0.5,-7.192967366027833,-0.1005,-0.0155,-0.2505,0.03964744606067107,10,1,100,0.09292273799061466,-10,-1,-100,19094.707097655046,-0.006049261732631938,0.00690175471278249,0.99995788522036,66.84799397719962,4.094608844376322,366.4108228863379,-96.73602146729361,-28.780426025390625,4761.76025390625,True
1599386570.0162303,0.0,10,0.5,0.5,-8.337404914855957,-0.1005,-0.0155,-0.2505,-0.08447371212802836,10,1,100,0.1890488625233076,-10,-1,-100,19086.931817368953,-0.007183209587025629,0.005417955288719095,0.9999595228110577,66.71913926027841,4.0910204482517525,368.6380710899442,-97.46398760202659,-24.800537109375,4761.76025390625,True
1599386570.0541294,0.0,10,0.5,0.5,-7.382673760986329,-0.1005,-0.0155,-0.2505,0.063176977832279,10,1,100,0.07624179322889552,-10,-1,-100,19086.931817368953,-0.007183209587025629,0.005417955288719095,0.9999595228110577,66.71913926027841,4.0910204482517525,368.6380710899442,-97.46398760202659,-24.800537109375,4761.76025390625,True
1599386570.0890715,0.0,10,0.5,0.5,-7.960971885681152,-0.1005,-0.0155,-0.2505,-0.01573770107039392,10,1,100,0.13569910041005856,-10,-1,-100,19083.02233826113,-0.007719089741973558,0.004706425525063277,0.9999591317710601,66.68131005265744,4.090929126254966,369.89773039065807,-97.82797258289044,-23.254669189453125,4761.76025390625,True
1599386570.12494,0.0,10,0.5,0.5,-8.225350857543946,-0.1005,-0.0155,-0.2505,-0.04899643546847591,10,1,100,0.1721730466574271,-10,-1,-100,19077.130820567138,-0.008533381176651459,0.0037629527431697484,0.9999565098504768,66.69638804896132,4.095233725781438,372.1880667814226,-98.37394626103412,-21.48944091796875,4761.76025390625,True
1599386570.4731786,0.0,10,0.5,0.5,-8.101266134643556,-0.1005,-0.0155,-0.2505,-0.020791924916444347,10,1,100,0.1489371786661378,-10,-1,-100,19073.1849433342,-0.009057217016700918,0.003168237146771964,0.9999539634869667,66.76874801771385,4.101939902159732,374.0665671015231,-98.7379216474373,-20.68218994140625,4761.76025390625,True
1599386570.5130758,0.0,10,0.5,0.5,-8.10925573272705,-0.1005,-0.0155,-0.2505,-0.019819344854523205,10,1,100,0.15576628256427835,-10,-1,-100,19069.224507206818,-0.009590483119163308,0.0026427806441157546,0.9999505179477672,66.89978299363177,4.112256478782025,376.2797357575174,-99.10188711503967,-20.169921875,4761.76025390625,True
1599386570.5499752,0.0,10,0.5,0.5,-8.083134901428224,-0.1005,-0.0155,-0.2505,-0.021774964220860105,10,1,100,0.1605190529582793,-10,-1,-100,19065.24951307662,-0.0101135749450824,0.0021533914719388154,0.9999465378243974,67.09418610326014,4.126476556155388,378.8578559139835,-99.46583854091703,-19.95294189453125,4761.76025390625,True
1599386570.5998385,0.0,10,0.5,0.5,-8.05201830596924,-0.1005,-0.0155,-0.2505,0.0020655011583334063,10,1,100,0.13758659941574208,-10,-1,-100,19063.25655676145,-0.01037554878258805,0.0019313499828060006,0.9999443073865183,67.21591027242408,4.135099355460932,380.2893500269935,-99.6478076357097,-19.955047607421875,4761.76025390625,True
1599386570.653696,0.0,10,0.5,0.5,-7.992972143554689,-0.1005,-0.0155,-0.2505,-0.02037317278388301,10,1,100,0.1696347005280034,-10,-1,-100,19059.259726595483,-0.01090030289889037,0.0015311054950868342,0.9999394177212314,67.5087870215969,4.155399062568962,383.442027844102,-100.01173011233898,-20.18035888671875,4761.76025390625,True
1599386570.702565,0.0,10,0.5,0.5,-7.882001820373535,-0.1005,-0.0155,-0.2505,-0.019372111593977476,10,1,100,0.175045312594176,-10,-1,-100,19055.248340170365,-0.011421864314767634,0.0011815913371344422,0.999934070255378,67.86631477395818,4.179699652779849,386.97736548279363,-100.37562792140642,-20.70050048828125,4761.76025390625,True
1599386570.752431,0.0,10,0.5,0.5,-7.738862435913086,-0.1005,-0.0155,-0.2505,-0.01681726743057441,10,1,100,0.180556267186509,-10,-1,-100,19051.22239869146,-0.011941226459511687,0.0008922771980956119,0.9999283029057855,68.28504163112848,4.207793191353695,390.8797816732417,-100.73949688996339,-21.51519775390625,4761.76025390625,True
1599386570.7973115,0.0,10,0.5,0.5,-7.766302185058594,-0.1005,-0.0155,-0.2505,-0.0015596848261366647,10,1,100,0.15761572790832173,-10,-1,-100,19049.20397024136,-0.012200498036865954,0.0007720838936375852,0.9999252730750001,68.5155951004227,4.22315399788544,392.9597870883907,-100.92141938025922,-22.032958984375,4761.76025390625,True
1599386570.856156,0.0,10,0.5,0.5,-7.200069256591798,-0.1005,-0.0155,-0.2505,-0.02007088540379536,10,1,100,0.21640275314684856,-10,-1,-100,19043.126855707378,-0.012966065801674767,0.0004987571310561923,0.99991581264572,69.27945697311839,4.273709375266594,399.6479927901623,-101.46713305707837,-24.02789306640625,4761.76025390625,True
1599386570.9010432,0.0,10,0.5,0.5,-6.765979493713379,-0.1005,-0.0155,-0.2505,-0.008926041545030593,10,1,100,0.2224161960110606,-10,-1,-100,19037.01700181095,-0.013711934181121342,0.0003554201714200668,0.9999059238435956,70.12232533948573,4.329125753994545,406.846600180012,-102.01275859975674,-26.6849365234375,4761.76025390625,True
1599386570.9389396,0.0,10,0.5,0.5,-7.42351586151123,-0.1005,-0.0155,-0.2505,0.005066901161406995,10,1,100,0.14834721336685008,-10,-1,-100,19037.01700181095,-0.013711934181121342,0.0003554201714200668,0.9999059238435956,70.12232533948573,4.329125753994545,406.846600180012,-102.01275859975674,-26.6849365234375,4761.76025390625,True
1599386570.9768398,0.0,10,0.5,0.5,-5.809753413391114,-0.1005,-0.0155,-0.2505,0.012727239192105354,10,1,100,0.25123858322289305,-10,-1,-100,19028.81961177569,-0.014643078709663169,0.00042761671440400814,0.9998926929375211,71.28157567896339,4.4049950962568465,416.74030540296565,-102.74011125680201,-31.25604248046875,4761.76025390625,True
1599386571.0137403,0.0,10,0.5,0.5,-6.937631968688965,-0.1005,-0.0155,-0.2505,0.005286068500740043,10,1,100,0.15862938992776035,-10,-1,-100,19028.81961177569,-0.014643078709663169,0.00042761671440400814,0.9998926929375211,71.28157567896339,4.4049950962568465,416.74030540296565,-102.74011125680201,-31.25604248046875,4761.76025390625,True
1599386571.0486467,0.0,10,0.5,0.5,-5.963067301940918,-0.1005,-0.0155,-0.2505,0.01668392276908741,10,1,100,0.2078069985502851,-10,-1,-100,19024.699098811136,-0.015086030148263775,0.0005328024575321976,0.9998860574164973,71.83190396114553,4.440922285229659,421.5541745774847,-103.10372407411569,-33.982666015625,4761.76025390625,True
1599386571.0855472,0.0,10,0.5,0.5,-5.564434661865234,-0.1005,-0.0155,-0.2505,0.028874106533117318,10,1,100,0.2064133390947605,-10,-1,-100,19020.56404223747,-0.015471761387063488,0.0007405171196174362,0.9998800309206988,72.33286138954855,4.473582963005628,426.1018948917045,-103.467297031781,-37.002349853515625,4761.76025390625,True
1599386571.1214519,0.0,10,0.5,0.5,-4.511501856994629,-0.1005,-0.0155,-0.2505,0.04943654284649582,10,1,100,0.22841542678953533,-10,-1,-100,19014.33419202175,-0.016018289257299204,0.0011169985865215207,0.9998710750508925,72.92868315330017,4.512397254325955,432.04407811492047,-104.01259247698539,-42.08294677734375,4761.76025390625,True
1599386571.158353,0.0,10,0.5,0.5,-5.105145610046387,-0.1005,-0.0155,-0.2505,0.02923440837975957,10,1,100,0.19133642085695168,-10,-1,-100,19012.25030498125,-0.01617387233545134,0.0012756574183281888,0.9998683806140825,73.07145196092797,4.521700788473945,433.7025426256732,-104.19434395880575,-43.923126220703125,4761.76025390625,True
1599386571.1912646,0.0,10,0.5,0.5,-4.859713720703125,-0.1005,-0.0155,-0.2505,0.03182162684292332,10,1,100,0.19205970589931493,-10,-1,-100,19010.162783062435,-0.016318038956087546,0.001443064360344619,0.9998658105815398,73.17924800245679,4.528738853861649,435.15645954107174,-104.37609046920743,-45.836700439453125,4761.76025390625,True
1599386571.2401345,0.0,10,0.5,0.5,-3.881618733215333,-0.1005,-0.0155,-0.2505,0.055868908091939215,10,1,100,0.20518733122336866,-10,-1,-100,19005.976834708592,-0.016564698349685294,0.0018132541549263298,0.9998611517995654,73.27232828911939,4.534911620596243,437.34121141311437,-104.73957424967098,-49.88385009765625,4761.76025390625,True
1599386571.274043,0.0,10,0.5,0.5,-3.3318107528686527,-0.1005,-0.0155,-0.2505,0.06392948054602612,10,1,100,0.20333984207618738,-10,-1,-100,19001.77634695347,-0.01676886732202886,0.002221873265925157,0.9998569239485849,73.17130665492776,4.528635823105914,438.3690010701419,-105.10305666420545,-54.22442626953125,4761.76025390625,True
1599386571.3074634,0.0,10,0.5,0.5,-2.7499896255493166,-0.1005,-0.0155,-0.2505,0.07199897196367339,10,1,100,0.1988241862889483,-10,-1,-100,18997.561319753993,-0.016910645032329107,0.002665007422362243,0.9998534531720282,72.84000646893365,4.507704115078369,438.00994068385194,-105.46655298137918,-58.858184814453125,4761.76025390625,True
1599386571.336386,0.0,10,0.5,0.5,-2.1314570739746097,-0.1005,-0.0155,-0.2505,0.07883962374174061,10,1,100,0.19292633607558357,-10,-1,-100,18993.331751546822,-0.016983009120797643,0.0031279447741502575,0.9998508855637889,72.24046959011882,4.469855887992903,436.0201387656545,-105.83008033196481,-63.785308837890625,4761.76025390625,True
1599386571.3687472,0.0,10,0.5,0.5,-2.4119768661499026,-0.1005,-0.0155,-0.2505,0.058868731730687046,10,1,100,0.18741957439741141,-10,-1,-100,18991.211514279945,-0.016996605976502807,0.0033647885047118327,0.9998498855246213,71.82796397935012,4.443881493503256,434.33479739745337,-106.01186138017873,-66.35882568359375,4761.76025390625,True
1599386571.3997018,0.0,10,0.5,0.5,-1.1184149795532228,-0.1005,-0.0155,-0.2505,0.08809227065508063,10,1,100,0.1837594800053018,-10,-1,-100,18986.960131660104,-0.016973553598791196,0.0038430993665438356,0.9998485530646567,70.75441751745974,4.37652885824945,429.4308485647569,-106.37547015386694,-71.725830078125,4761.76025390625,True
1599386571.4319355,0.0,10,0.5,0.5,-1.4238228347778321,-0.1005,-0.0155,-0.2505,0.06664597777949324,10,1,100,0.18229051936340573,-10,-1,-100,18984.828985303175,-0.01693752677371747,0.004079951763059397,0.9998482255724619,70.08472416420388,4.334674811769607,426.1540713260605,-106.55730262804552,-74.51934814453125,4761.76025390625,True
1599386571.461858,0.0,10,0.5,0.5,-0.02724192199707054,-0.1005,-0.0155,-0.2505,0.09527101308906731,10,1,100,0.17268217464244323,-10,-1,-100,18980.55578127096,-0.016816094012199283,0.004552463867575633,0.9998482355112236,68.45946309723477,4.233535666630899,417.8135263971173,-106.92103530775861,-80.32620239257812,4761.76025390625,True
1599386571.4958043,0.0,10,0.5,0.5,1.827756544494629,-0.1005,-0.0155,-0.2505,0.1214575511278769,10,1,100,0.15184281254501436,-10,-1,-100,18974.118688148912,-0.016515526569247124,0.005216956612687704,0.9998499991227893,65.25897394721675,4.0357714351041825,400.49125828650017,-107.46683412796585,-89.58642578125,4761.76025390625,True
1599386571.529716,0.0,10,0.5,0.5,-0.4211513000488281,-0.1005,-0.0155,-0.2505,0.055402406536105744,10,1,100,0.18193372226360988,-10,-1,-100,18974.118688148912,-0.016515526569247124,0.005216956612687704,0.9998499991227893,65.25897394721675,4.0357714351041825,400.49125828650017,-107.46683412796585,-89.58642578125,4761.76025390625,True
1599386571.5586462,0.0,10,0.5,0.5,3.001413864135742,-0.1005,-0.0155,-0.2505,0.11962062004046706,10,1,100,0.1359992339107366,-10,-1,-100,18967.648844082723,-0.01609776077729995,0.00579732774249795,0.9998536158303389,67.19631647667052,4.157637553712942,414.66011453747495,-108.01263843660811,-99.14412689208984,4761.76025390625,True
1599386571.5915182,0.0,10,0.5,0.5,0.6835631649017334,-0.1005,-0.0155,-0.2505,0.06198191441819967,10,1,100,0.17772911934821556,-10,-1,-100,18967.648844082723,-0.01609776077729995,0.00579732774249795,0.9998536158303389,67.19631647667052,4.157637553712942,414.66011453747495,-108.01263843660811,-99.14412689208984,4761.76025390625,True
1599386571.6204667,0.0,10,0.5,0.5,2.9299285690307615,-0.1005,-0.0155,-0.2505,0.09984952751560171,10,1,100,0.14006136120220392,-10,-1,-100,18963.317427129834,-0.01575593670919505,0.00613832835749563,0.9998570254708378,69.23221363451535,4.285868480595405,428.78825626096733,-108.37634334602403,-105.34566497802734,4761.76025390625,True
1599386571.6583698,0.0,10,0.5,0.5,2.5194703769683837,-0.1005,-0.0155,-0.2505,0.08191696201639881,10,1,100,0.15470447938010481,-10,-1,-100,18961.1462641384,-0.015579356547374365,0.006282148029377918,0.9998588991781325,70.16617573971247,4.344977018422312,435.3650483939634,-108.55814749806814,-108.39686584472656,4761.76025390625,True
1599386571.6902866,0.0,10,0.5,0.5,3.9022011188507078,-0.1005,-0.0155,-0.2505,0.09610782467085269,10,1,100,0.12923491967690678,-10,-1,-100,18956.793032139773,-0.015188563723484145,0.0065390335704430085,0.9998632649377525,71.8512779093467,4.4520655514487,447.4417209008241,-108.92166709229818,-114.31683349609375,4761.76025390625,True
1599386571.7221665,0.0,10,0.5,0.5,4.480015118789673,-0.1005,-0.0155,-0.2505,0.09237699114139705,10,1,100,0.12337536644352218,-10,-1,-100,18952.425262678764,-0.01478167252896501,0.006735763534720102,0.9998680571189635,73.27100944034999,4.542713449603336,457.9336471477906,-109.28507763473033,-119.97618103027344,4761.76025390625,True
1599386571.7590702,0.0,10,0.5,0.5,5.924741585922241,-0.1005,-0.0155,-0.2505,0.09385621102205978,10,1,100,0.09185063003307387,-10,-1,-100,18945.846358567476,-0.014127175549370654,0.006925426715552415,0.999876223027533,74.69506937964556,4.634383658356629,469.35508407174757,-109.83004110497474,-127.91807556152344,4761.76025390625,True
1599386571.8009586,0.0,10,0.5,0.5,4.018065033340455,-0.1005,-0.0155,-0.2505,0.07517444043407776,10,1,100,0.15701929287007482,-10,-1,-100,18945.846358567476,-0.014127175549370654,0.006925426715552415,0.999876223027533,74.69506937964556,4.634383658356629,469.35508407174757,-109.83004110497474,-127.91807556152344,4761.76025390625,True
1599386571.861796,0.0,10,0.5,0.5,6.645703423690796,-0.1005,-0.0155,-0.2505,0.0823651516865053,10,1,100,0.08422529052185149,-10,-1,-100,18939.234761685366,-0.013467856362989377,0.006988639578894505,0.9998848812547484,75.39352897917175,4.6799144351754896,476.28772484079445,-110.37489068175788,-135.19406127929688,4761.76025390625,True
1599386571.9052098,0.0,10,0.5,0.5,5.693044222640992,-0.1005,-0.0155,-0.2505,0.07561902131063489,10,1,100,0.12602151695300967,-10,-1,-100,18937.023631817545,-0.01325121158856807,0.0069831667394555765,0.9998878140940233,75.49128799631914,4.6864283519521575,477.7546504599048,-110.55649405986452,-137.47122192382812,4761.76025390625,True
1599386571.9550757,0.0,10,0.5,0.5,6.717519135665894,-0.1005,-0.0155,-0.2505,0.06846106322362722,10,1,100,0.09768173523551765,-10,-1,-100,18932.59047572955,-0.012799594973463026,0.006911513439059419,0.9998941950779078,75.51742645135185,4.688541201475475,479.62046907233224,-110.91969389703308,-141.80364990234375,4761.76025390625,True
1599386572.0014706,0.0,10,0.5,0.5,8.427819512176514,-0.1005,-0.0155,-0.2505,0.04491055977975013,10,1,100,0.0507983667469729,-10,-1,-100,18923.68057930318,-0.011965820306020614,0.006631265693121701,0.9999064183510932,75.03525049507783,4.658272520414683,479.9437986284807,-111.64611266610224,-149.57986450195312,4761.76025390625,True
1599386572.0603137,0.0,10,0.5,0.5,6.558053148269654,-0.1005,-0.0155,-0.2505,0.07301872816858429,10,1,100,0.13376263944408623,-10,-1,-100,18923.68057930318,-0.011965820306020614,0.006631265693121701,0.9999064183510932,75.03525049507783,4.658272520414683,479.9437986284807,-111.64611266610224,-149.57986450195312,4761.76025390625,True
1599386572.113694,0.0,10,0.5,0.5,8.400982856750488,-0.1005,-0.0155,-0.2505,0.0359321530647447,10,1,100,0.06888260324288545,-10,-1,-100,18916.960017929203,-0.011379447355467129,0.006293666885508954,0.9999154453927684,74.36055688252388,4.615399045760768,478.1519404549935,-112.19097963015146,-154.63504028320312,4761.76025390625,True
1599386572.1545854,0.0,10,0.5,0.5,8.259501880645752,-0.1005,-0.0155,-0.2505,0.03763092652489744,10,1,100,0.08659508985422176,-10,-1,-100,18912.46148026269,-0.011011221741605116,0.006002191801993181,0.9999213602525597,73.82808714810959,4.581529918313593,476.402112298752,-112.55425910187242,-157.63552856445312,4761.76025390625,True
1599386572.190489,0.0,10,0.5,0.5,8.960128157806396,-0.1005,-0.0155,-0.2505,0.011184582622994953,10,1,100,0.06640889884074708,-10,-1,-100,18905.68642565969,-0.010496757939773406,0.005497281183114682,0.9999297965219096,72.97937521857857,4.527601174641696,473.41299193386885,-113.09923463168775,-161.58169555664062,4761.76025390625,True
1599386572.2273917,0.0,10,0.5,0.5,8.829847326660156,-0.1005,-0.0155,-0.2505,0.018523552035215586,10,1,100,0.08248074238003639,-10,-1,-100,18901.15155550139,-0.01017906661991011,0.005106115326383148,0.9999351549920731,72.41800881185178,4.491996325919943,471.4202896164093,-113.4625882281903,-163.84307861328125,4761.76025390625,True
1599386572.258341,0.0,10,0.5,0.5,8.67699578781128,-0.1005,-0.0155,-0.2505,0.03519334571628639,10,1,100,0.09678846673369679,-10,-1,-100,18898.878670025268,-0.010023915740458082,0.004903707500445279,0.9999377354445518,72.14701236178556,4.474831402348917,470.4784244179867,-113.64427513977765,-164.86285400390625,4761.76025390625,True
1599386572.301226,0.0,10,0.5,0.5,8.47880645904541,-0.1005,-0.0155,-0.2505,0.055231956388562604,10,1,100,0.11189322869800836,-10,-1,-100,18898.878670025268,-0.010023915740458082,0.004903707500445279,0.9999377354445518,72.14701236178556,4.474831402348917,470.4784244179867,-113.64427513977765,-164.86285400390625,4761.76025390625,True
1599386572.3401232,0.0,10,0.5,0.5,9.443184887695313,-0.1005,-0.0155,-0.2505,-0.018862108224982792,10,1,100,0.06405487648876965,-10,-1,-100,18892.038209520397,-0.009592152484576394,0.004232020487666184,0.9999450387962853,71.40099818068853,4.427666253297034,468.05807227115525,-114.1893714357092,-167.47935485839844,4761.76025390625,True
1599386572.3760226,0.0,10,0.5,0.5,9.519628806304933,-0.1005,-0.0155,-0.2505,-0.03598735212596955,10,1,100,0.06522350967950688,-10,-1,-100,18885.165041564265,-0.009213590789239737,0.0034682129371778445,0.9999515394476828,70.79638677057288,4.389540992208312,466.52273106025336,-114.73450935391301,-169.4319610595703,4761.76025390625,True
1599386572.4118986,0.0,10,0.5,0.5,9.073324835205078,-0.1005,-0.0155,-0.2505,0.04004907287267624,10,1,100,0.1027210787947503,-10,-1,-100,18885.165041564265,-0.009213590789239737,0.0034682129371778445,0.9999515394476828,70.79638677057288,4.389540992208312,466.52273106025336,-114.73450935391301,-169.4319610595703,4761.76025390625,True
1599386572.4507937,0.0,10,0.5,0.5,9.431481708526613,-0.1005,-0.0155,-0.2505,-0.018916670898232395,10,1,100,0.07467055798388025,-10,-1,-100,18880.564757763874,-0.0089610880814289,0.0029350362235840786,0.9999555412430909,70.49296126486246,4.370435662488568,466.1371591351272,-115.09794972553848,-170.36468505859375,4761.76025390625,True
1599386572.486736,0.0,10,0.5,0.5,9.453988990020752,-0.1005,-0.0155,-0.2505,-0.02886347589200184,10,1,100,0.07331108580732565,-10,-1,-100,18875.94993626862,-0.008721912902018182,0.0023632648289823306,0.9999591707738259,70.27944571511107,4.356986064230974,466.3357848737137,-115.461395407249,-171.002685546875,4761.76025390625,True
1599386572.52064,0.0,10,0.5,0.5,9.46156039352417,-0.1005,-0.0155,-0.2505,-0.07372254564198946,10,1,100,0.06111275884617595,-10,-1,-100,18869.00044555997,-0.00839600297968294,0.0014392360198504238,0.9999637172086018,70.14119939541894,4.3481876283034815,467.8320014546287,-116.00656143869769,-171.4073028564453,4761.76025390625,True
1599386572.554551,0.0,10,0.5,0.5,9.381550007629395,-0.1005,-0.0155,-0.2505,0.018224039692986947,10,1,100,0.09344222920350796,-10,-1,-100,18869.00044555997,-0.00839600297968294,0.0014392360198504238,0.9999637172086018,70.14119939541894,4.3481876283034815,467.8320014546287,-116.00656143869769,-171.4073028564453,4761.76025390625,True
1599386572.594442,0.0,10,0.5,0.5,9.362218495941164,-0.1005,-0.0155,-0.2505,-0.05327580145802353,10,1,100,0.06900906042430849,-10,-1,-100,18864.349279915565,-0.008175793040744846,0.0007929265958987506,0.9999662632687008,70.17672325042366,4.350251306366881,469.6803271835539,-116.3699948205545,-171.308837890625,4761.76025390625,True
1599386572.628354,0.0,10,0.5,0.5,9.260543146514895,-0.1005,-0.0155,-0.2505,-0.06236011407761523,10,1,100,0.06491176855225256,-10,-1,-100,18859.683577318443,-0.00794017523703622,0.00012670899461047263,0.9999684682838932,70.31567516497529,4.35869697924522,472.2260101670963,-116.7334124468268,-170.91592407226562,4761.76025390625,True
1599386572.6622264,0.0,10,0.5,0.5,8.967990941619874,-0.1005,-0.0155,-0.2505,-0.11379867710614157,10,1,100,0.05316438411049757,-10,-1,-100,18852.657768670935,-0.007621077139197352,-0.000942223944541988,0.9999705152639635,70.71565198174693,4.383107240835831,477.3514051268663,-117.27849531732092,-169.77529907226562,4761.76025390625,True
1599386572.6971352,0.0,10,0.5,0.5,9.261331793975831,-0.1005,-0.0155,-0.2505,-0.007489976335394244,10,1,100,0.08483391003425825,-10,-1,-100,18852.657768670935,-0.007621077139197352,-0.000942223944541988,0.9999705152639635,70.71565198174693,4.383107240835831,477.3514051268663,-117.27849531732092,-169.77529907226562,4761.76025390625,True
1599386572.7320402,0.0,10,0.5,0.5,8.868949696350098,-0.1005,-0.0155,-0.2505,-0.08886441883831589,10,1,100,0.058744804833162675,-10,-1,-100,18847.955728131114,-0.007385695342228646,-0.0016772877450847228,0.9999713186937574,71.10655767924803,4.406945070431982,481.6263772269176,-117.641845726493,-168.6472625732422,4761.76025390625,True
1599386572.7649894,0.0,10,0.5,0.5,8.651207008361816,-0.1005,-0.0155,-0.2505,-0.0984081772174483,10,1,100,0.053225827168810455,-10,-1,-100,18843.23915448389,-0.007123201089351176,-0.002427611275677265,0.99997168295394,71.58914712969997,4.436319964591658,486.5431680434693,-118.00515832071494,-167.22532653808594,4761.76025390625,True
1599386572.7988963,0.0,10,0.5,0.5,8.062195614624024,-0.1005,-0.0155,-0.2505,-0.15448468633600396,10,1,100,0.037504156179659714,-10,-1,-100,18836.137048711535,-0.006743546022924731,-0.003614150182554759,0.9999707308244051,72.46569548713332,4.489519136800156,495.0037819847172,-118.55004334464546,-164.54217529296875,4761.76025390625,True
1599386572.8357985,0.0,10,0.5,0.5,8.72530011138916,-0.1005,-0.0155,-0.2505,-0.03648571428886842,10,1,100,0.07524790861645375,-10,-1,-100,18836.137048711535,-0.006743546022924731,-0.003614150182554759,0.9999707308244051,72.46569548713332,4.489519136800156,495.0037819847172,-118.55004334464546,-164.54217529296875,4761.76025390625,True
1599386572.8706706,0.0,10,0.5,0.5,7.958597889709472,-0.1005,-0.0155,-0.2505,-0.12513340792790686,10,1,100,0.04251440051511999,-10,-1,-100,18831.384150918806,-0.0064477671918936,-0.004414604292899166,0.9999694683174962,73.13730190684376,4.530153853417861,501.2760861416606,-118.91323625484843,-162.38636779785156,4761.76025390625,True
1599386572.9006228,0.0,10,0.5,0.5,7.624931945800781,-0.1005,-0.0155,-0.2505,-0.13370049703262715,10,1,100,0.03489062421234024,-10,-1,-100,18826.616726982058,-0.00611134141164711,-0.0052148508029708565,0.9999677278978822,73.86105169276449,4.573828238901933,507.9378707374695,-119.27637267457763,-159.93704223632812,4761.76025390625,True
1599386572.9384878,0.0,10,0.5,0.5,7.752346683502198,-0.1005,-0.0155,-0.2505,-0.10063987017227655,10,1,100,0.05108676957034271,-10,-1,-100,18824.227568431408,-0.00595481444337581,-0.005635747307193914,0.9999663887037578,74.2366343159177,4.596447559267478,511.37558505153567,-119.45791847225138,-158.60267639160156,4761.76025390625,True
1599386572.9754286,0.0,10,0.5,0.5,6.507296992492676,-0.1005,-0.0155,-0.2505,-0.1946568253020919,10,1,100,0.004783532409292142,-10,-1,-100,18817.038310944452,-0.00539359775129905,-0.006867235835937659,0.9999618743608532,75.3930524736885,4.665924494057357,521.9451887393587,-120.00246182640794,-154.15933227539062,4761.76025390625,True
1599386573.010815,0.0,10,0.5,0.5,7.023075061035157,-0.1005,-0.0155,-0.2505,-0.11712268285164333,10,1,100,0.038173184510622626,-10,-1,-100,18814.634631809313,-0.005189258120773851,-0.007275556889945577,0.9999600681387718,75.77895487404726,4.689058144019627,525.4887368595924,-120.18394418180176,-152.53167724609375,4761.76025390625,True
1599386573.0437279,0.0,10,0.5,0.5,5.535959797668458,-0.1005,-0.0155,-0.2505,-0.2108010118356966,10,1,100,-0.014747206923193777,-10,-1,-100,18807.401820283034,-0.004524611097278452,-0.008492621445311984,0.9999537005658836,76.89271078976655,4.755709752562242,535.8648993923292,-120.72829543700178,-147.20941162109375,4761.76025390625,True
1599386573.0806286,0.0,10,0.5,0.5,5.4602939361572265,-0.1005,-0.0155,-0.2505,-0.17642519429428888,10,1,100,-0.0027502666990087757,-10,-1,-100,18802.561803516932,-0.004032264592540607,-0.009279672338449766,0.9999488129517163,77.56206218658964,4.795712169509112,542.3122514937937,-121.09111947277536,-143.2951202392578,4761.76025390625,True
1599386573.1205287,0.0,10,0.5,0.5,5.675951721191406,-0.1005,-0.0155,-0.2505,-0.1390750558847202,10,1,100,0.016769381425615716,-10,-1,-100,18800.13635314058,-0.0037651767809570497,-0.009648715178857702,0.9999463614310546,77.86268791640586,4.813676472597515,545.3086371785042,-121.27251028705024,-141.2279510498047,4761.76025390625,True
1599386573.1524444,0.0,10,0.5,0.5,3.822681210327149,-0.1005,-0.0155,-0.2505,-0.22001541515515527,10,1,100,-0.050612517361424726,-10,-1,-100,18792.838237923454,-0.0029128597126428977,-0.010713465478138708,0.9999383665535307,78.57504410454325,4.856301591585057,553.0044118097254,-121.81661002691565,-134.58749389648438,4761.76025390625,True
1599386573.2222648,0.0,10,0.5,0.5,3.7574449890136723,-0.1005,-0.0155,-0.2505,-0.1869392016923952,10,1,100,-0.033187502793228824,-10,-1,-100,18787.95469242672,-0.0022999176796229784,-0.011374273523009454,0.9999326658733031,78.84483417685946,4.872549281474175,556.7137566440622,-122.17929684277314,-129.79478454589844,4761.76025390625,True
1599386573.2631612,0.0,10,0.5,0.5,4.024410774993897,-0.1005,-0.0155,-0.2505,-0.15356140911621027,10,1,100,-0.007293493596538702,-10,-1,-100,18785.507479648455,-0.001982137395341418,-0.011664518973708038,0.9999300026144119,78.90356188739678,4.876150309300303,558.0346281904956,-122.36063172278816,-127.28837585449219,4761.76025390625,True
1599386573.302052,0.0,10,0.5,0.5,2.7614395057678225,-0.1005,-0.0155,-0.2505,-0.18578192496723206,10,1,100,-0.04767850897290214,-10,-1,-100,18780.602174284868,-0.0013301693878426523,-0.012214701423278941,0.999924513010127,78.8431855276769,4.87275610467837,559.4197021916982,-122.72329558944465,-122.056396484375,4761.76025390625,True
1599386573.3429456,0.0,10,0.5,0.5,2.0743275932312013,-0.1005,-0.0155,-0.2505,-0.18641214823035807,10,1,100,-0.05694645031705383,-10,-1,-100,18775.682362125604,-0.0006575637070094901,-0.012714233088353354,0.9999189546592996,78.51048687727474,4.85304497962319,558.8658000562026,-123.08596842259524,-116.53215789794922,4761.76025390625,True
1599386573.3928642,0.0,10,0.5,0.5,1.3512288204193121,-0.1005,-0.0155,-0.2505,-0.18258241489103644,10,1,100,-0.06454598886159321,-10,-1,-100,18770.748042222927,1.8167034392500438e-05,-0.01312710203917157,0.9999138357188644,77.86489037831193,4.814419600103408,556.0653650717754,-123.44867316433057,-110.71531677246094,4761.76025390625,True
1599386573.4317572,0.0,10,0.5,0.5,2.741009298324585,-0.1005,-0.0155,-0.2505,-0.1419215064295382,10,1,100,0.002485908800036685,-10,-1,-100,18770.748042222927,1.8167034392500438e-05,-0.01312710203917157,0.9999138357188644,77.86489037831193,4.814419600103408,556.0653650717754,-123.44867316433057,-110.71531677246094,4761.76025390625,True
1599386573.4666972,0.0,10,0.5,0.5,0.5319479221343995,-0.1005,-0.0155,-0.2505,-0.18040660220557656,10,1,100,-0.07204544496883421,-10,-1,-100,18765.799212524435,0.0006909907730593574,-0.013471646959727168,0.9999090144907906,76.86744395500172,4.754293273965376,550.7184490014238,-123.81143423564268,-104.60635375976562,4761.76025390625,True
1599386573.5031707,0.0,10,0.5,0.5,-0.2505348918914796,-0.1005,-0.0155,-0.2505,-0.1763467545468656,10,1,100,-0.0777182508028683,-10,-1,-100,18760.835869807284,0.0013494782231837756,-0.013743435521958143,0.9999046438978964,75.49254713949772,4.670823460929241,542.6169385373745,-124.17427667254289,-98.20537567138672,4761.76025390625,True
1599386573.5390413,0.0,10,0.5,0.5,-3.4927957649230956,-0.1005,-0.0155,-0.2505,-0.18827098060308547,10,1,100,-0.15208983343459387,-10,-1,-100,18750.86563096021,0.002619315981025548,-0.014094860121603294,0.9998972317703175,72.06522758989846,4.460798118288061,521.3328844241335,-124.90026057867068,-84.59906005859375,4761.76025390625,True
1599386573.5769396,0.0,10,0.5,0.5,-0.17218848495483402,-0.1005,-0.0155,-0.2505,-0.15357313513284498,10,1,100,-0.025744506926614903,-10,-1,-100,18750.86563096021,0.002619315981025548,-0.014094860121603294,0.9998972317703175,72.06522758989846,4.460798118288061,521.3328844241335,-124.90026057867068,-84.59906005859375,4761.76025390625,True
1599386573.6198602,0.0,10,0.5,0.5,-3.895301721954346,-0.1005,-0.0155,-0.2505,-0.16475208330262742,10,1,100,-0.11707227911998333,-10,-1,-100,18743.349825960933,0.0034445392048801076,-0.014193412928016349,0.999893335400892,71.03366129647017,4.3965831592064335,516.3512457904876,-125.4449846345217,-74.212646484375,4761.76025390625,True
1599386573.6557593,0.0,10,0.5,0.5,-4.888586268615723,-0.1005,-0.0155,-0.2505,-0.15234488488235023,10,1,100,-0.11443026999005355,-10,-1,-100,18735.801347886212,0.00416550163730807,-0.01416765082147569,0.9998909571879877,74.51899938695766,4.610355096045411,544.2854490193226,-125.98941183540124,-64.2156982421875,4761.76025390625,True
1599386573.6946273,0.0,10,0.5,0.5,-2.4821133842468264,-0.1005,-0.0155,-0.2505,-0.15517140872119284,10,1,100,-0.04294879065052223,-10,-1,-100,18735.801347886212,0.00416550163730807,-0.01416765082147569,0.9998909571879877,74.51899938695766,4.610355096045411,544.2854490193226,-125.98941183540124,-64.2156982421875,4761.76025390625,True
1599386573.7285337,0.0,10,0.5,0.5,-5.925204698944093,-0.1005,-0.0155,-0.2505,-0.14377748853931133,10,1,100,-0.10163744822026116,-10,-1,-100,18728.220217404072,0.004694038823373742,-0.014062294320369316,0.9998901029002998,77.08735679594496,4.7668176350667695,565.7267954488251,-126.53351522284672,-54.6617431640625,4761.76025390625,True
1599386573.7644684,0.0,10,0.5,0.5,-3.6278380947113043,-0.1005,-0.0155,-0.2505,-0.15444794477315035,10,1,100,-0.04931888986673234,-10,-1,-100,18728.220217404072,0.004694038823373742,-0.014062294320369316,0.9998901029002998,77.08735679594496,4.7668176350667695,565.7267954488251,-126.53351522284672,-54.6617431640625,4761.76025390625,True
1599386573.8023355,0.0,10,0.5,0.5,-7.827970248794555,-0.1005,-0.0155,-0.2505,-0.12810637253667764,10,1,100,-0.102155987855361,-10,-1,-100,18718.06127796683,0.005170125285280383,-0.013821975307054838,0.9998911054725638,79.1144901428793,4.889897355584774,584.2669130464336,-127.25863717265526,-42.943084716796875,4761.76025390625,True
1599386573.8412323,0.0,10,0.5,0.5,-4.997493267440796,-0.1005,-0.0155,-0.2505,-0.1522077611949137,10,1,100,-0.055062537489785665,-10,-1,-100,18718.06127796683,0.005170125285280383,-0.013821975307054838,0.9998911054725638,79.1144901428793,4.889897355584774,584.2669130464336,-127.25863717265526,-42.943084716796875,4761.76025390625,True
1599386573.8771365,0.0,10,0.5,0.5,-7.902635238265992,-0.1005,-0.0155,-0.2505,-0.1269955116262676,10,1,100,-0.07386097269948902,-10,-1,-100,18710.404011432664,0.005336948210357485,-0.013592454557933212,0.9998933753970423,79.75196759855972,4.929027147316597,591.7448589478964,-127.8023337526527,-34.938629150390625,4761.76025390625,True
1599386573.9140706,0.0,10,0.5,0.5,-7.737321528625489,-0.1005,-0.0155,-0.2505,-0.13247315376560925,10,1,100,-0.059541150273721435,-10,-1,-100,18705.281044750824,0.005354800238386806,-0.013433733333602135,0.9998954249935984,79.83985131400871,4.934992035252333,594.2483251087549,-128.1647727328013,-29.976409912109375,4761.76025390625,True
1599386573.9509377,0.0,10,0.5,0.5,-7.410486941528321,-0.1005,-0.0155,-0.2505,-0.13886060058840344,10,1,100,-0.05596990571767805,-10,-1,-100,18702.71412487584,0.0053360766913063745,-0.013348110034224741,0.9998966717836691,79.79964420314292,4.932961297750225,594.8754556075694,-128.34599162345353,-27.60736083984375,4761.76025390625,True
1599386573.9848828,0.0,10,0.5,0.5,-9.242428002929687,-0.1005,-0.0155,-0.2505,-0.12149522669053793,10,1,100,-0.04091462808705619,-10,-1,-100,18694.99161836016,0.005179719342127347,-0.01311308249943504,0.9999006038476524,79.40738152889223,4.910651513582671,594.7224874852878,-128.88966811521465,-20.9490966796875,4761.76025390625,True
1599386574.0213187,0.0,10,0.5,0.5,-7.657091333007813,-0.1005,-0.0155,-0.2505,-0.1448899471266499,10,1,100,-0.056723881018683704,-10,-1,-100,18694.99161836016,0.005179719342127347,-0.01311308249943504,0.9999006038476524,79.40738152889223,4.910651513582671,594.7224874852878,-128.88966811521465,-20.9490966796875,4761.76025390625,True
1599386574.0552285,0.0,10,0.5,0.5,-10.473176110839844,-0.1005,-0.0155,-0.2505,-0.11090379534043096,10,1,100,-0.007384172562203556,-10,-1,-100,18684.644195902278,0.004730254521882237,-0.012805076181671269,0.9999068230170948,78.43870695862027,4.854055498492086,591.1320356774866,-129.61466370062067,-13.11712646484375,4761.76025390625,True
