Timestamp,Input Throttle,horizon,dT,dt,Input Roll,Roll P,Roll I,Roll D,Input Pitch,Pitch P,Pitch I,Pitch D,Input Yaw,Yaw P,Yaw I,Yaw D,Altitude,Direction X,Direction Y,Direction Z,Drag X,Drag Y,Drag Z,Vertical Velocity,Roll,Mass,Has Fuel
1599385638.855002,0.0,10,0.5,0.5,-2.8448566894531253,-0.05075,-0.00825,-0.5,-0.00020856675443479034,10,1,100,0.49804775242400107,-10,-1,-100,19351.094168336713,-0.048842806422801935,-0.00017666354450864336,0.9988064622591991,60.98670882667334,3.680692047719731,232.75474510568634,-68.48187324740418,-33.92236328125,4761.76025390625,True
1599385638.888089,0.0,10,0.5,0.5,-2.8902544372558596,-0.05075,-0.00825,-0.5,0.0011130059796963772,10,1,100,0.5107159385368252,-10,-1,-100,19346.963360599126,-0.04900102091067944,-0.0001503243828792463,0.9987987171358857,61.25651030845326,3.698998355881895,235.7241721460068,-69.02924318259258,-33.9259033203125,4761.76025390625,True
1599385638.9232733,0.0,10,0.5,0.5,-2.9382855865478517,-0.05075,-0.00825,-0.5,-0.001535942621531252,10,1,100,0.4997945918401425,-10,-1,-100,19346.963360599126,-0.04900102091067944,-0.0001503243828792463,0.9987987171358857,61.25651030845326,3.698998355881895,235.7241721460068,-69.02924318259258,-33.9259033203125,4761.76025390625,True
1599385638.954273,0.0,10,0.5,0.5,-2.9601085296630862,-0.05075,-0.00825,-0.5,0.010085447863687962,10,1,100,0.5037313126078052,-10,-1,-100,19345.579126587138,-0.048992262898648484,-4.453871993827233e-05,0.998799157084332,61.34700535817848,3.7051418212302942,236.72029625454218,-69.2116929564304,-33.97027587890625,4761.76025390625,True
1599385638.9874601,0.0,10,0.5,0.5,-2.8732511276245116,-0.05075,-0.00825,-0.5,0.02375754384390824,10,1,100,0.5075068500016024,-10,-1,-100,19342.799712048727,-0.04897408571592882,0.0001759623359372868,0.9988000340236004,61.537274983105064,3.717993271846932,238.7547967893084,-69.57658171413517,-34.252197265625,4761.76025390625,True
1599385639.02042,0.0,10,0.5,0.5,-2.924079360961914,-0.05075,-0.00825,-0.5,0.01717054952925697,10,1,100,0.5112717131353217,-10,-1,-100,19341.404531625798,-0.04894726513674845,0.00031637610902193145,0.9988013141470081,61.63756233108394,3.724727844544027,239.79535083189114,-69.75902027871263,-34.499359130859375,4761.76025390625,True
1599385639.057376,0.0,10,0.5,0.5,-2.146998027801514,-0.05075,-0.00825,-0.5,0.10466450367244193,10,1,100,0.4793349789717569,-10,-1,-100,19335.78732339968,-0.04858805133133685,0.0012391369621196336,0.998818134500677,62.06467036528992,3.7531544111817916,244.08232363936008,-70.48873220295147,-36.21783447265625,4761.76025390625,True
1599385639.0872967,0.0,10,0.5,0.5,-3.05060598526001,-0.05075,-0.00825,-0.5,0.012512332058883682,10,1,100,0.5201151646460508,-10,-1,-100,19335.78732339968,-0.04858805133133685,0.0012391369621196336,0.998818134500677,62.06467036528992,3.7531544111817916,244.08232363936008,-70.48873220295147,-36.21783447265625,4761.76025390625,True
1599385639.1212745,0.0,10,0.5,0.5,-2.3794954139709477,-0.05075,-0.00825,-0.5,0.08780527082255797,10,1,100,0.48776040511632957,-10,-1,-100,19332.956829045084,-0.048249746198038165,0.0019224917354602002,0.9988334525922488,62.28121717503263,3.767456176166698,246.25198611970825,-70.85356072625521,-37.516937255859375,4761.76025390625,True
1599385639.154582,0.0,10,0.5,0.5,-1.6958400985717779,-0.05075,-0.00825,-0.5,0.15781398748675982,10,1,100,0.4443185398101039,-10,-1,-100,19328.683726553805,-0.04750340662298455,0.00317841850659395,0.998866019051108,62.58007319923066,3.78714277491659,249.4210811927846,-71.40076851388993,-40.016265869140625,4761.76025390625,True
1599385639.1902206,0.0,10,0.5,0.5,-2.4470503578186036,-0.05075,-0.00825,-0.5,0.08518513879557318,10,1,100,0.4891468733054375,-10,-1,-100,19327.252063177526,-0.04718926148959977,0.0036570183845169406,0.9988792718925552,62.665818405556415,3.7927972733002493,250.42645689405876,-71.583162160975,-40.996185302734375,4761.76025390625,True
1599385639.2201405,0.0,10,0.5,0.5,-2.931174171447754,-0.05075,-0.00825,-0.5,0.03770851919617669,10,1,100,0.5203960321505957,-10,-1,-100,19327.252063177526,-0.04718926148959977,0.0036570183845169406,0.9988792718925552,62.665818405556415,3.7927972733002493,250.42645689405876,-71.583162160975,-40.996185302734375,4761.76025390625,True
1599385639.2540486,0.0,10,0.5,0.5,-1.7245085319519045,-0.05075,-0.00825,-0.5,0.15094078484921875,10,1,100,0.4394510391630817,-10,-1,-100,19324.377793404856,-0.046455044971005166,0.004682941397028781,0.9989094047292847,62.80433300353665,3.8019834217381865,252.31053980822176,-71.94793725908048,-43.176544189453125,4761.76025390625,True
1599385639.2880955,0.0,10,0.5,0.5,-1.4446525024414063,-0.05075,-0.00825,-0.5,0.17596569930461317,10,1,100,0.41708688435854546,-10,-1,-100,19321.488932969864,-0.045586579434004904,0.005838704025470487,0.9989433283779466,62.882693650358846,3.8073320147627845,253.9580773193994,-72.3126986006285,-45.6502685546875,4761.76025390625,True
1599385639.3230748,0.0,10,0.5,0.5,-0.32493878021240263,-0.05075,-0.00825,-0.5,0.27057219203117755,10,1,100,0.32926703371340227,-10,-1,-100,19317.128285636194,-0.04400179910674395,0.007744107946344979,0.99900143666938,62.84216905273514,3.805356866618066,255.79338744430987,-72.85982360047798,-49.91162109375,4761.76025390625,True
1599385639.3539932,0.0,10,0.5,0.5,-0.6755159561157229,-0.05075,-0.00825,-0.5,0.226918285879678,10,1,100,0.34966877312937633,-10,-1,-100,19314.202949983417,-0.04275108033720574,0.009072559504298696,0.9990445604646685,62.675515231552914,3.795275908608015,256.44512256271133,-73.22457061741123,-53.12030029296875,4761.76025390625,True
1599385639.3899395,0.0,10,0.5,0.5,-2.2644932792663575,-0.05075,-0.00825,-0.5,0.09494874842383398,10,1,100,0.4741210316032429,-10,-1,-100,19314.202949983417,-0.04275108033720574,0.009072559504298696,0.9990445604646685,62.675515231552914,3.795275908608015,256.44512256271133,-73.22457061741123,-53.12030029296875,4761.76025390625,True
1599385639.4218767,0.0,10,0.5,0.5,-0.37706088333129895,-0.05075,-0.00825,-0.5,0.24182231943952393,10,1,100,0.3194585890562178,-10,-1,-100,19311.263024404878,-0.041350364469500175,0.01040065249303935,0.9990905733645766,62.36977810176011,3.7765271591730825,256.5187305501102,-73.58932383259474,-56.522003173828125,4761.76025390625,True
1599385639.4575183,0.0,10,0.5,0.5,-1.0923570404052736,-0.05075,-0.00825,-0.5,0.1850751659761446,10,1,100,0.37540600429280635,-10,-1,-100,19309.78759001824,-0.04059217898906577,0.011083797891744752,0.9991143200000762,62.1633736652578,3.7638278678178962,256.3303329342947,-73.77170524429627,-58.28106689453125,4761.76025390625,True
1599385639.4874337,0.0,10,0.5,0.5,1.1212763954162595,-0.05075,-0.00825,-0.5,0.3429342474676336,10,1,100,0.17361237438389665,-10,-1,-100,19305.3394004663,-0.03807539334150711,0.013131593262166577,0.9991885836418901,61.29997790873515,3.710685968045694,254.72609587955688,-74.31888071355401,-63.866241455078125,4761.76025390625,True
1599385639.521478,0.0,10,0.5,0.5,-0.5808756752014161,-0.05075,-0.00825,-0.5,0.21099097223810198,10,1,100,0.3243609894852819,-10,-1,-100,19303.84937470348,-0.037166419265813176,0.013784692756140155,0.9992140108728343,60.92332851225808,3.687534098899783,253.8096683803095,-74.50128663211594,-65.8104248046875,4761.76025390625,True
1599385639.5543551,0.0,10,0.5,0.5,1.839301852416992,-0.05075,-0.00825,-0.5,0.3585538512748897,10,1,100,0.0902899715478403,-10,-1,-100,19299.357406435767,-0.03422127252686357,0.015710693310658184,0.9992907878202123,59.50271266013428,3.6004618459514894,249.79437392902807,-75.0485609951088,-71.9326171875,4761.76025390625,True
1599385639.591515,0.0,10,0.5,0.5,-1.1962717826843263,-0.05075,-0.00825,-0.5,0.1671591633157009,10,1,100,0.38350784654652725,-10,-1,-100,19299.357406435767,-0.03422127252686357,0.015710693310658184,0.9992907878202123,59.50271266013428,3.6004618459514894,249.79437392902807,-75.0485609951088,-71.9326171875,4761.76025390625,True
1599385639.621454,0.0,10,0.5,0.5,1.125969319152832,-0.05075,-0.00825,-0.5,0.3047138273479827,10,1,100,0.1459803819640852,-10,-1,-100,19296.34451655473,-0.03207305355106332,0.01695116502739381,0.9993417719880043,58.33443106982525,3.529135907449855,246.13565060392364,-75.41346651235956,-76.10604858398438,4761.76025390625,True
1599385639.6543322,0.0,10,0.5,0.5,0.20610012130737299,-0.05075,-0.00825,-0.5,0.24161327966051777,10,1,100,0.24111840180921756,-10,-1,-100,19294.83259763301,-0.030997303322457873,0.017495123008174768,0.999366343168342,57.68037214564017,3.4893144340425195,243.99238502516383,-75.59593793265545,-78.1790771484375,4761.76025390625,True
1599385639.6882415,0.0,10,0.5,0.5,1.425403751373291,-0.05075,-0.00825,-0.5,0.30787447931115797,10,1,100,0.09478657759092268,-10,-1,-100,19291.79781073879,-0.028700881526999594,0.018583140246561613,0.9994152922074736,56.305024708327544,3.405800874095944,239.37908292345318,-75.96091875432045,-82.23263549804688,4761.76025390625,True
1599385639.7254126,0.0,10,0.5,0.5,2.6487350036621096,-0.05075,-0.00825,-0.5,0.3537268718491742,10,1,100,-0.06861484722990047,-10,-1,-100,19287.218253179803,-0.02514053075894841,0.019980440776584108,0.9994842348429173,54.05974807422864,3.270111037854855,231.5700394233193,-76.50848347096311,-88.09027099609375,4761.76025390625,True
1599385639.7553346,0.0,10,0.5,0.5,-0.25123251953125003,-0.05075,-0.00825,-0.5,0.21508760697415322,10,1,100,0.2856591746173924,-10,-1,-100,19287.218253179803,-0.02514053075894841,0.019980440776584108,0.9994842348429173,54.05974807422864,3.270111037854855,231.5700394233193,-76.50848347096311,-88.09027099609375,4761.76025390625,True
1599385639.7872536,0.0,10,0.5,0.5,1.8268878509521485,-0.05075,-0.00825,-0.5,0.30367197880615493,10,1,100,0.01313823506946521,-10,-1,-100,19284.146960707032,-0.02267780388461321,0.020777044349344537,0.9995269039095828,52.50395616038992,3.176530158154802,226.03096061589423,-76.87358464535602,-91.81623840332031,4761.76025390625,True
1599385639.8217566,0.0,10,0.5,0.5,1.9039554122924804,-0.05075,-0.00825,-0.5,0.2971694637846257,10,1,100,-0.008250364052722059,-10,-1,-100,19281.061063842033,-0.02026080525692901,0.021433303600333208,0.9995649620045296,52.73227296469175,3.1912611530262702,228.14437228321333,-77.238686732071,-95.28856658935547,4761.76025390625,True
1599385639.8575172,0.0,10,0.5,0.5,2.051004316902161,-0.05075,-0.00825,-0.5,0.29579698097075946,10,1,100,-0.0553890342839288,-10,-1,-100,19277.960564547684,-0.017651195491554746,0.02200987879352579,0.9996019210331746,53.71699542810049,3.2521161419068685,233.55640263818265,-77.60373258039527,-98.66085815429688,4761.76025390625,True
1599385639.8895185,0.0,10,0.5,0.5,1.2987151906967163,-0.05075,-0.00825,-0.5,0.2637233015583095,10,1,100,0.06823240098321247,-10,-1,-100,19276.404839825118,-0.01642039531980148,0.02223498171446279,0.9996179151084172,54.16818974902732,3.280170569123398,236.09877137893966,-77.78623467238539,-100.30725860595703,4761.76025390625,True
1599385639.9225461,0.0,10,0.5,0.5,3.0031238540649414,-0.05075,-0.00825,-0.5,0.2996287930614942,10,1,100,-0.22054267464470836,-10,-1,-100,19271.715767640504,-0.012692440728142016,0.022760103121340098,0.9996603821569947,55.285106063074046,3.3503723464898045,242.74433618203275,-78.33366322121645,-104.8541488647461,4761.76025390625,True
1599385639.9552238,0.0,10,0.5,0.5,2.228080012321472,-0.05075,-0.00825,-0.5,0.27090795054202577,10,1,100,-0.12310855723590713,-10,-1,-100,19268.571474067518,-0.010208727468348625,0.022969979095769137,0.9996840310537208,55.90384626905187,3.389767877042841,246.65881141503175,-78.69855571026848,-107.5254898071289,4761.76025390625,True
1599385639.9911282,0.0,10,0.5,0.5,0.9183305801391602,-0.05075,-0.00825,-0.5,0.2505222345059594,10,1,100,0.12307633613516059,-10,-1,-100,19268.571474067518,-0.010208727468348625,0.022969979095769137,0.9996840310537208,55.90384626905187,3.389767877042841,246.65881141503175,-78.69855571026848,-107.5254898071289,4761.76025390625,True
1599385640.022177,0.0,10,0.5,0.5,2.2519214269638064,-0.05075,-0.00825,-0.5,0.2650042051788355,10,1,100,-0.1353066383382452,-10,-1,-100,19265.412585929036,-0.007878690042094126,0.023096656232715652,0.9997021910119475,56.41401359350203,3.422685623070128,250.11808459358895,-79.06340441667474,-109.90293884277344,4761.76025390625,True
1599385640.0552015,0.0,10,0.5,0.5,1.6799787324905395,-0.05075,-0.00825,-0.5,0.2554796226279374,10,1,100,-0.03314184543229856,-10,-1,-100,19263.82766970375,-0.006708174309630374,0.02312112695585327,0.9997101649406808,56.66617996544333,3.43899216115359,251.84283757816146,-79.24581346757404,-110.98138427734375,4761.76025390625,True
1599385640.0881119,0.0,10,0.5,0.5,2.2281059320449828,-0.05075,-0.00825,-0.5,0.24962939115015065,10,1,100,-0.17307175752571674,-10,-1,-100,19260.646893091034,-0.004388735676040724,0.023087333976017345,0.9997238188665135,57.093026071543036,3.466927907106754,254.96232596804364,-79.61060350069678,-112.92140197753906,4761.76025390625,True
1599385640.1247785,0.0,10,0.5,0.5,2.1886573060989383,-0.05075,-0.00825,-0.5,0.24323891447954232,10,1,100,-0.18129479449531072,-10,-1,-100,19257.451525941957,-0.002224265486765558,0.022995693394434216,0.9997330897436344,57.41178116799925,3.4883070478425595,257.6148944085357,-79.97536064833477,-114.5738296508789,4761.76025390625,True
1599385640.1548922,0.0,10,0.5,0.5,1.775843093109131,-0.05075,-0.00825,-0.5,0.24309942331857376,10,1,100,-0.08614246857478741,-10,-1,-100,19255.848371297703,-0.0011401805852454805,0.022909098719672484,0.9997369019817591,57.535999337029864,3.4968553637367186,258.7881129773811,-80.15772844540457,-115.29035186767578,4761.76025390625,True
1599385640.1889467,0.0,10,0.5,0.5,2.1017846351623537,-0.05075,-0.00825,-0.5,0.22823280300461807,10,1,100,-0.20846542968772167,-10,-1,-100,19252.63112010993,0.0009399956765524616,0.022693883562381004,0.9997420187513302,57.72122482376919,3.510089503038629,260.85683511488503,-80.52244574587013,-116.50270080566406,4761.76025390625,True
1599385640.222205,0.0,10,0.5,0.5,2.015846350860596,-0.05075,-0.00825,-0.5,0.22011686847364342,10,1,100,-0.21962005826539543,-10,-1,-100,19249.39928136184,0.002915569636922073,0.02242383037386275,0.9997443029520381,57.834079766500224,3.5188874521413065,262.60491184768074,-80.88714176685339,-117.42057037353516,4761.76025390625,True
1599385640.2572718,0.0,10,0.5,0.5,1.7630857913970948,-0.05075,-0.00825,-0.5,0.2284950224984031,10,1,100,-0.1311974460516011,-10,-1,-100,19247.777891549747,0.003890125885353841,0.02225432083119906,0.9997447734921839,57.86735242706061,3.5218632245764,263.3754174622562,-81.06948312755644,-117.769287109375,4761.76025390625,True
1599385640.288189,0.0,10,0.5,0.5,1.8617441621780395,-0.05075,-0.00825,-0.5,0.20563094236525492,10,1,100,-0.23857498074267458,-10,-1,-100,19244.52417190117,0.0057371704569256655,0.021892825775103576,0.9997438617239564,57.89143920004838,3.5252015770907765,264.7245465775615,-81.43415464262888,-118.24565887451172,4761.76025390625,True
1599385640.3213227,0.0,10,0.5,0.5,1.7324788103103639,-0.05075,-0.00825,-0.5,0.19820044336242792,10,1,100,-0.2458139575407441,-10,-1,-100,19241.255865473417,0.007467614494768616,0.02149762314528259,0.9997410099285019,57.86602186137075,3.5254889212979723,265.8475178528906,-81.79881375472566,-118.4273681640625,4761.76025390625,True
1599385640.356153,0.0,10,0.5,0.5,1.6399790321350098,-0.05075,-0.00825,-0.5,0.21256367862278128,10,1,100,-0.16753122459036043,-10,-1,-100,19239.616242733435,0.008313014827837703,0.021270261398676254,0.99973920087416,57.83673826665601,3.5246106251918645,266.33238578439403,-81.98113962441708,-118.40805053710938,4761.76025390625,True
1599385640.3920574,0.0,10,0.5,0.5,1.2081533306121828,-0.05075,-0.00825,-0.5,0.13083944832094968,10,1,100,-0.4201192418773931,-10,-1,-100,19233.02128667524,0.011363095556082687,0.02032228171250297,0.9997289057166353,57.6126476016835,3.514511848008066,267.769473250616,-82.71042654606003,-117.59370422363281,4761.76025390625,True
1599385640.422974,0.0,10,0.5,0.5,1.407388716506958,-0.05075,-0.00825,-0.5,0.19602018254819592,10,1,100,-0.19465556732823958,-10,-1,-100,19231.36343145871,0.012069798022344265,0.02005557853190527,0.9997260093372834,57.53073869944038,3.5103948691053546,268.0054489073218,-82.89274585182741,-117.20624542236328,4761.76025390625,True
1599385640.4568834,0.0,10,0.5,0.5,1.6046531129837036,-0.05075,-0.00825,-0.5,0.22238732506355474,10,1,100,-0.1256311740719203,-10,-1,-100,19231.36343145871,0.012069798022344265,0.02005557853190527,0.9997260093372834,57.53073869944038,3.5103948691053546,268.0054489073218,-82.89274585182741,-117.20624542236328,4761.76025390625,True
1599385640.4887981,0.0,10,0.5,0.5,0.34739685649871843,-0.05075,-0.00825,-0.5,0.10374162475989537,10,1,100,-0.401150841659626,-10,-1,-100,19224.695547654876,0.01456152766995149,0.018979654088110667,0.9997138263736343,57.089141761789016,3.4869264725808926,268.3974981343465,-83.62202419258766,-114.91949462890625,4761.76025390625,True
1599385640.526255,0.0,10,0.5,0.5,1.490466296005249,-0.05075,-0.00825,-0.5,0.2109411246761996,10,1,100,-0.1535480477244232,-10,-1,-100,19224.695547654876,0.01456152766995149,0.018979654088110667,0.9997138263736343,57.089141761789016,3.4869264725808926,268.3974981343465,-83.62202419258766,-114.91949462890625,4761.76025390625,True
1599385640.5561466,0.0,10,0.5,0.5,1.0731269153594971,-0.05075,-0.00825,-0.5,0.17751807123465158,10,1,100,-0.21757897764797132,-10,-1,-100,19223.019460545154,0.015131243821989746,0.018679184719982294,0.9997110250060246,56.94713903202712,3.4791173184632194,268.3410902431245,-83.80434601042853,-114.16410064697266,4761.76025390625,True
1599385640.5890589,0.0,10,0.5,0.5,-0.5584243686676025,-0.05075,-0.00825,-0.5,0.072856088312498,10,1,100,-0.3780661724031196,-10,-1,-100,19216.27864726016,0.017097036935993994,0.017457962400258632,0.9997014108606831,56.2376192422312,3.4391539485346305,267.4140517693787,-84.53365501762053,-110.5207748413086,4761.76025390625,True
1599385640.6229658,0.0,10,0.5,0.5,1.257258511543274,-0.05075,-0.00825,-0.5,0.19449868444177013,10,1,100,-0.18280755210775892,-10,-1,-100,19216.27864726016,0.017097036935993994,0.017457962400258632,0.9997014108606831,56.2376192422312,3.4391539485346305,267.4140517693787,-84.53365501762053,-110.5207748413086,4761.76025390625,True
1599385640.6599004,0.0,10,0.5,0.5,0.025240670585632285,-0.05075,-0.00825,-0.5,0.12232877290672266,10,1,100,-0.27472910639511605,-10,-1,-100,19212.886360639357,0.017922360278170815,0.016805903989371696,0.9996981297337509,55.7872077655886,3.4132488844441973,266.4720674748455,-84.89832837810513,-108.29536437988281,4761.76025390625,True
1599385640.692783,0.0,10,0.5,0.5,0.49415632839202894,-0.05075,-0.00825,-0.5,0.1532539598460294,10,1,100,-0.23161208923825863,-10,-1,-100,19211.18474725075,0.018271177028011582,0.01649852687815537,0.9996969354263631,55.53061503051843,3.398347707330551,265.84389953402746,-85.08067155994999,-107.14160919189453,4761.76025390625,True
1599385640.724814,0.0,10,0.5,0.5,-0.2930255516052245,-0.05075,-0.00825,-0.5,0.10386352846990321,10,1,100,-0.27392207801921337,-10,-1,-100,19207.770579114323,0.018963866551148074,0.015774427159558038,0.9996957233144584,55.07342097889423,3.371902823407014,264.8409578932581,-85.44536988724647,-104.68175506591797,4761.76025390625,True
1599385640.7591043,0.0,10,0.5,0.5,0.2171929838180543,-0.05075,-0.00825,-0.5,0.13774232816822074,10,1,100,-0.23694374542169638,-10,-1,-100,19206.058024556492,0.019250507847662853,0.01542827818950239,0.9996956467744142,54.820912828872125,3.3571759229439615,264.2172195217497,-85.6277257384058,-103.39431762695312,4761.76025390625,True
1599385640.7970927,0.0,10,0.5,0.5,-0.5951808280944824,-0.05075,-0.00825,-0.5,0.09126371257151242,10,1,100,-0.2647264480816315,-10,-1,-100,19202.621973712696,0.019757132950652682,0.014695271075247545,0.999696806389615,54.317736124595505,3.327737566419917,262.96303379409056,-85.99245154804797,-100.77117156982422,4761.76025390625,True
1599385640.8319662,0.0,10,0.5,0.5,-0.7454864547729492,-0.05075,-0.00825,-0.5,0.08156886257920891,10,1,100,-0.2584604417048389,-10,-1,-100,19199.171333216014,0.02015374904546504,0.013945638978228253,0.9996996276646807,53.819600457400234,3.2984609661189417,261.71257276236395,-86.35719489773585,-98.14144897460938,4761.76025390625,True
1599385640.861887,0.0,10,0.5,0.5,-0.8947280368804931,-0.05075,-0.00825,-0.5,0.0680437084210343,10,1,100,-0.25306112715679874,-10,-1,-100,19195.706102405093,0.020460140616334534,0.013145775684145385,0.9997042418773774,53.30464856928443,3.2679898039424145,260.35932595266786,-86.72195612094053,-95.5082015991211,4761.76025390625,True
1599385640.896826,0.0,10,0.5,0.5,-1.6767387468338013,-0.05075,-0.00825,-0.5,0.012535366401971532,10,1,100,-0.2506994090464293,-10,-1,-100,19190.480897721136,0.02071184586798855,0.011919309469718538,0.9997144339772762,52.50267219063942,3.220131999506208,258.1439022211304,-87.26913193775151,-91.72677612304688,4761.76025390625,True
1599385640.9307013,0.0,10,0.5,0.5,0.19546319847106935,-0.05075,-0.00825,-0.5,0.13450600031962984,10,1,100,-0.22608694408562768,-10,-1,-100,19190.480897721136,0.02071184586798855,0.011919309469718538,0.9997144339772762,52.50267219063942,3.220131999506208,258.1439022211304,-87.26913193775151,-91.72677612304688,4761.76025390625,True
1599385640.9626467,0.0,10,0.5,0.5,-1.625408687019348,-0.05075,-0.00825,-0.5,-0.006842814082428594,10,1,100,-0.2300427687339175,-10,-1,-100,19185.22286111035,0.02074452172030755,0.010639355386909407,0.9997281975294818,51.801893748206794,3.178072069922858,256.3787899497739,-87.81634222901194,-88.44876098632812,4761.76025390625,True
1599385640.99656,0.0,10,0.5,0.5,-0.004610530090332035,-0.05075,-0.00825,-0.5,0.1204707334971496,10,1,100,-0.22713993198044855,-10,-1,-100,19185.22286111035,0.02074452172030755,0.010639355386909407,0.9997281975294818,51.801893748206794,3.178072069922858,256.3787899497739,-87.81634222901194,-88.44876098632812,4761.76025390625,True
1599385641.03047,0.0,10,0.5,0.5,-1.5431771083831787,-0.05075,-0.00825,-0.5,-0.02760021311717767,10,1,100,-0.20786013477643805,-10,-1,-100,19179.93199318659,0.020566685235323696,0.00929886182550867,0.9997452388619719,52.8375686903249,3.2422092913185696,263.2199146685298,-88.36350880525274,-85.68490600585938,4761.76025390625,True
1599385641.0633843,0.0,10,0.5,0.5,-0.6272761510848999,-0.05075,-0.00825,-0.5,0.056830012203716244,10,1,100,-0.21410115017096176,-10,-1,-100,19178.161075636744,0.02045966538146376,0.008854323968109442,0.9997514706363507,53.16550329130119,3.262468474283357,265.4291820864767,-88.54587996250939,-84.87088012695312,4761.76025390625,True
1599385641.0982552,0.0,10,0.5,0.5,-1.4980142726898193,-0.05075,-0.00825,-0.5,-0.05654814977716058,10,1,100,-0.17616877673902703,-10,-1,-100,19172.826439592172,0.02001617502963685,0.007425779082639854,0.999772079297176,54.05875708421543,3.317537495801964,271.645400725914,-89.09294474001764,-82.58053588867188,4761.76025390625,True
1599385641.1301692,0.0,10,0.5,0.5,-0.3700135234832764,-0.05075,-0.00825,-0.5,0.08550608885911204,10,1,100,-0.22059437863991535,-10,-1,-100,19172.826439592172,0.02001617502963685,0.007425779082639854,0.999772079297176,54.05875708421543,3.317537495801964,271.645400725914,-89.09294474001764,-82.58053588867188,4761.76025390625,True
1599385641.1580975,0.0,10,0.5,0.5,-1.1077625200271606,-0.05075,-0.00825,-0.5,-0.02385290472551417,10,1,100,-0.17650007856647043,-10,-1,-100,19169.251781251398,0.01961508226344282,0.006438215042772895,0.9997868762565657,54.59576382399872,3.350544497517623,275.5272857702443,-89.45761581238294,-81.26824951171875,4761.76025390625,True
1599385641.1940188,0.0,10,0.5,0.5,-0.7794040246963501,-0.05075,-0.00825,-0.5,0.021632143398875994,10,1,100,-0.19158409093614015,-10,-1,-100,19167.458982328768,0.01938806955824708,0.005960754920329621,0.9997942649163297,54.8428175746207,3.3657012096754544,277.3686977625753,-89.63994070271312,-80.6983642578125,4761.76025390625,True
1599385641.2239609,0.0,10,0.5,0.5,-1.032705598449707,-0.05075,-0.00825,-0.5,-0.04252519753398945,10,1,100,-0.1569529723877518,-10,-1,-100,19163.8624455292,0.018867840631318415,0.004949983546685882,0.9998097330256386,55.281393247169426,3.3925542860772357,280.78600344700436,-90.0045709115735,-79.74325561523438,4761.76025390625,True
1599385641.256899,0.0,10,0.5,0.5,-1.1042576980590821,-0.05075,-0.00825,-0.5,-0.10939870337139355,10,1,100,-0.10806327601627289,-10,-1,-100,19158.440294942237,0.017952129826403155,0.00342949526841793,0.9998329658482461,55.82327944708802,3.425607929019153,285.3560677572219,-90.55147334684402,-78.76419067382812,4761.76025390625,True
1599385641.290823,0.0,10,0.5,0.5,-0.7314414245605468,-0.05075,-0.00825,-0.5,-0.01384273637888045,10,1,100,-0.16205162567324627,-10,-1,-100,19156.625619443133,0.01761297746976321,0.002923641819198366,0.9998406049681932,55.96986470909836,3.4345138442858025,286.71324690854846,-90.73376453547795,-78.57168579101562,4761.76025390625,True
1599385641.326798,0.0,10,0.5,0.5,-0.7096433792114258,-0.05075,-0.00825,-0.5,-0.019996999731337367,10,1,100,-0.15629456279118292,-10,-1,-100,19154.80729825271,0.017255167068663178,0.002414841483583437,0.999848202353758,56.0982782741827,3.442295653099313,287.98052580994624,-90.91605163736136,-78.4512939453125,4761.76025390625,True
1599385641.3567123,0.0,10,0.5,0.5,-0.6693934257507325,-0.05075,-0.00825,-0.5,-0.07883624096126148,10,1,100,-0.10874521090187486,-10,-1,-100,19151.15971903666,0.016500790191080025,0.0014248703617553964,0.9998628374269755,56.29797745401029,3.4543342096893204,290.2295931842312,-91.28061553059051,-78.4300537109375,4761.76025390625,True
1599385641.390472,0.0,10,0.5,0.5,-0.6160334564208985,-0.05075,-0.00825,-0.5,-0.03763015089671253,10,1,100,-0.13866423553468682,-10,-1,-100,19149.330461065285,0.016090680430888397,0.0009066556074655804,0.9998701255557546,56.368527445919646,3.4585495300311426,291.2063602098871,-91.46289334983206,-78.51852416992188,4761.76025390625,True
1599385641.4238133,0.0,10,0.5,0.5,-0.47664287109375003,-0.05075,-0.00825,-0.5,-0.09837340276303608,10,1,100,-0.08430341718972553,-10,-1,-100,19145.6610085679,0.015227635922987794,-0.00010943494216388112,0.9998840468415278,56.46074970583067,3.463978033430301,292.9116552708098,-91.82744302896138,-78.8614501953125,4761.76025390625,True
1599385641.4605367,0.0,10,0.5,0.5,-0.5138227806091309,-0.05075,-0.00825,-0.5,-0.05129050203817177,10,1,100,-0.12097492871869014,-10,-1,-100,19143.82081417204,0.01478078060162024,-0.0005982770588511672,0.99989057930824,56.483789939355376,3.465278363135012,293.6462507531347,-92.00971567341836,-79.11083984375,4761.76025390625,True
1599385641.490426,0.0,10,0.5,0.5,-0.2852447967529297,-0.05075,-0.00825,-0.5,-0.11206906279888748,10,1,100,-0.060781834780566146,-10,-1,-100,19140.12948898063,0.01383209799587408,-0.0015879167571720327,0.9999030710950962,56.485033646016504,3.4651407628574424,294.8836739624686,-92.37425859982804,-79.75747680664062,4761.76025390625,True
1599385641.5234601,0.0,10,0.5,0.5,0.09094777297973633,-0.05075,-0.00825,-0.5,-0.17235783175130584,10,1,100,0.011881227855387477,-10,-1,-100,19134.565160806873,0.012314343225112144,-0.003028372444485764,0.9999195897227294,56.38114200761484,3.4585058287379136,296.186433208256,-92.92107252847562,-81.02984619140625,4761.76025390625,True
1599385641.5563335,0.0,10,0.5,0.5,0.020106591033935528,-0.05075,-0.00825,-0.5,-0.1319123350157531,10,1,100,-0.02087994613336265,-10,-1,-100,19130.837381333695,0.011238825675529146,-0.00396201934684339,0.9999289930790739,56.24563936382652,3.450082664533094,296.7031769784747,-93.28561858784802,-82.05584716796875,4761.76025390625,True
1599385641.592499,0.0,10,0.5,0.5,-0.49098600921630864,-0.05075,-0.00825,-0.5,-0.039438845069343455,10,1,100,-0.1276687995960836,-10,-1,-100,19130.837381333695,0.011238825675529146,-0.00396201934684339,0.9999289930790739,56.24563936382652,3.450082664533094,296.7031769784747,-93.28561858784802,-82.05584716796875,4761.76025390625,True
1599385641.6235068,0.0,10,0.5,0.5,0.09856543045043942,-0.05075,-0.00825,-0.5,-0.13544887399012986,10,1,100,-0.007527724123999088,-10,-1,-100,19127.095019896165,0.0101527370841019,-0.004828118232836665,0.9999368036051232,56.06926050274405,3.439222067411326,296.9986618861915,-93.65017014131023,-83.12136840820312,4761.76025390625,True
1599385641.6564183,0.0,10,0.5,0.5,0.15321749343872065,-0.05075,-0.00825,-0.5,-0.1431396230131839,10,1,100,0.009641414448197022,-10,-1,-100,19123.338076193235,0.00901608277795322,-0.0056783497020837384,0.9999432316866803,55.884473306405454,3.4279255472252776,297.242887066417,-94.0147275937243,-84.18112182617188,4761.76025390625,True
1599385641.6894047,0.0,10,0.5,0.5,0.5395080474853515,-0.05075,-0.00825,-0.5,-0.19031708148117343,10,1,100,0.09049444466688679,-10,-1,-100,19117.67531912157,0.007255223210639706,-0.006872815940939467,0.999950061821692,56.21059365649188,3.4481583363346293,300.8249457398872,-94.56155777228383,-85.83602905273438,4761.76025390625,True
1599385641.7254283,0.0,10,0.5,0.5,-0.28183563613891605,-0.05075,-0.00825,-0.5,-0.07170022622587006,10,1,100,-0.08466695536642065,-10,-1,-100,19117.67531912157,0.007255223210639706,-0.006872815940939467,0.999950061821692,56.21059365649188,3.4481583363346293,300.8249457398872,-94.56155777228383,-85.83602905273438,4761.76025390625,True
1599385641.7563465,0.0,10,0.5,0.5,0.02314049911499022,-0.05075,-0.00825,-0.5,-0.11314162401180443,10,1,100,-0.018749925098344687,-10,-1,-100,19115.780442460324,0.0066640097147665145,-0.007242483673949411,0.999951567529525,56.566218513907714,3.4700991728927053,303.3484615593331,-94.74381927901157,-86.37881469726562,4761.76025390625,True
1599385641.790324,0.0,10,0.5,0.5,0.6077227340698242,-0.05075,-0.00825,-0.5,-0.1919881657158776,10,1,100,0.12178749695599736,-10,-1,-100,19110.073943678057,0.004856715087304341,-0.00828884740242113,0.9999538525988588,57.5969275277771,3.5338528834322913,310.7724118175442,-95.29055215881382,-87.9217529296875,4761.76025390625,True
1599385641.8240502,0.0,10,0.5,0.5,0.12918384552001952,-0.05075,-0.00825,-0.5,-0.12514665771482134,10,1,100,0.01111196967413497,-10,-1,-100,19108.164487904636,0.004228883006277765,-0.008625445655255299,0.9999538580533441,57.930170134233364,3.5545187711217316,313.2068841247204,-95.47277927838883,-88.4404296875,4761.76025390625,True
1599385641.8590522,0.0,10,0.5,0.5,0.7258241035461426,-0.05075,-0.00825,-0.5,-0.19030179003229225,10,1,100,0.15026572927460363,-10,-1,-100,19102.414255164214,0.0024018225862398866,-0.009517365698083294,0.9999518243387694,58.93827384828362,3.6171800442205813,320.60152915497116,-96.0194088320828,-89.98162841796875,4761.76025390625,True
1599385641.890074,0.0,10,0.5,0.5,-0.03739004135131836,-0.05075,-0.00825,-0.5,-0.10175868507485246,10,1,100,-0.031449060665297,-10,-1,-100,19102.414255164214,0.0024018225862398866,-0.009517365698083294,0.9999518243387694,58.93827384828362,3.6171800442205813,320.60152915497116,-96.0194088320828,-89.98162841796875,4761.76025390625,True
1599385641.923203,0.0,10,0.5,0.5,0.4904518898010254,-0.05075,-0.00825,-0.5,-0.16328936699777605,10,1,100,0.10763311361455172,-10,-1,-100,19098.562547255075,0.0011454728228678884,-0.010071685218881472,0.9999486232046444,59.57956046138633,3.657186008965613,325.4015579486446,-96.38378550987883,-90.92816162109375,4761.76025390625,True
1599385641.9561136,0.0,10,0.5,0.5,0.2610376853942871,-0.05075,-0.00825,-0.5,-0.13505334501057115,10,1,100,0.048283126606534915,-10,-1,-100,19096.631227796664,0.0005520577861050077,-0.010313366705294282,0.9999466634273066,59.89143734087315,3.676685261056475,327.7646160451994,-96.56596138226203,-91.35763549804688,4761.76025390625,True
1599385641.991251,0.0,10,0.5,0.5,0.46481356277465824,-0.05075,-0.00825,-0.5,-0.16272598712351025,10,1,100,0.12498552475229815,-10,-1,-100,19092.75765940454,-0.0006759770674609162,-0.010779660031721322,0.9999416692910666,60.47134812591226,3.71305318192378,332.2713067498938,-96.93028922464738,-92.10519409179688,4761.76025390625,True
1599385642.022384,0.0,10,0.5,0.5,0.4495428607940674,-0.05075,-0.00825,-0.5,-0.16051345894755387,10,1,100,0.13290120986574144,-10,-1,-100,19088.869518595748,-0.0018555221991472276,-0.011178811608392084,0.9999357935429616,61.01242820235768,3.747110020291947,336.5905142054863,-97.29458684556315,-92.74427032470703,4761.76025390625,True
1599385642.0612779,0.0,10,0.5,0.5,0.42989510250091556,-0.05075,-0.00825,-0.5,-0.16038074678547645,10,1,100,0.14697097470074894,-10,-1,-100,19084.966806960292,-0.0030474604124441362,-0.011536555662376206,0.9999288079000841,61.51202969211625,3.7786834412167587,340.70504566545407,-97.65885582166968,-93.27843475341797,4761.76025390625,True
1599385642.1061578,0.0,10,0.5,0.5,0.49069151649475096,-0.05075,-0.00825,-0.5,-0.17157947179984495,10,1,100,0.21482902743896498,-10,-1,-100,19079.085420810035,-0.004738565918858668,-0.01195934435729109,0.9999172566145542,62.19650628567236,3.822158037096789,346.55873830268985,-98.20520899664032,-93.86261749267578,4761.76025390625,True
1599385642.1420612,0.0,10,0.5,0.5,0.3304527853012085,-0.05075,-0.00825,-0.5,-0.15365910226993804,10,1,100,0.1663412270738229,-10,-1,-100,19075.14628600492,-0.005824770398067292,-0.012176497210866064,0.9999088983329849,62.5990372849597,3.8478911844039483,350.1870993555988,-98.56941375678458,-94.09081268310547,4761.76025390625,True
1599385642.172979,0.0,10,0.5,0.5,0.2214446643829346,-0.05075,-0.00825,-0.5,-0.1323325818932851,10,1,100,0.0587889277014977,-10,-1,-100,19075.14628600492,-0.005824770398067292,-0.012176497210866064,0.9999088983329849,62.5990372849597,3.8478911844039483,350.1870993555988,-98.56941375678458,-94.09081268310547,4761.76025390625,True
1599385642.214868,0.0,10,0.5,0.5,0.27568431911468505,-0.05075,-0.00825,-0.5,-0.1571787971115354,10,1,100,0.22617164462644457,-10,-1,-100,19069.210270054173,-0.007337291776108313,-0.01239914366598142,0.9998962073064097,63.1168195019578,3.881261533288654,355.18144216951265,-99.1156800127209,-94.18083190917969,4761.76025390625,True
1599385642.2587523,0.0,10,0.5,0.5,0.1926453947067261,-0.05075,-0.00825,-0.5,-0.144856501357352,10,1,100,0.1832225871582785,-10,-1,-100,19065.23471810331,-0.008313011493378325,-0.012486908865622898,0.9998874791429747,63.40610280055683,3.9000947254023255,358.215947862168,-99.47983338117719,-94.1054916381836,4761.76025390625,True
1599385642.2930746,0.0,10,0.5,0.5,0.15038165206909182,-0.05075,-0.00825,-0.5,-0.1399123962827537,10,1,100,0.1818819686525463,-10,-1,-100,19061.244600498467,-0.009178101218953844,-0.012519049416284674,0.9998795106710244,63.66317348214842,3.916956339475053,361.08193730085475,-99.84396944778082,-93.95417785644531,4761.76025390625,True
1599385642.326981,0.0,10,0.5,0.5,0.22853500633239748,-0.05075,-0.00825,-0.5,-0.13694307763631636,10,1,100,0.09640535349917653,-10,-1,-100,19061.244600498467,-0.009178101218953844,-0.012519049416284674,0.9998795106710244,63.66317348214842,3.916956339475053,361.08193730085475,-99.84396944778082,-93.95417785644531,4761.76025390625,True
1599385642.3549068,0.0,10,0.5,0.5,0.10541043777465822,-0.05075,-0.00825,-0.5,-0.1355230400702903,10,1,100,0.18874131055871904,-10,-1,-100,19057.23991787329,-0.010008673411308722,-0.012504134817765356,0.9998717283076891,63.88599032696285,3.9317134724870937,363.76567288751954,-100.20808995055955,-93.72673034667969,4761.76025390625,True
1599385642.4087608,0.0,10,0.5,0.5,0.06475415420532227,-0.05075,-0.00825,-0.5,-0.1305055919962415,10,1,100,0.1916625431867388,-10,-1,-100,19053.22067079635,-0.010781811431573475,-0.012443395223178218,0.9998644480416201,64.07727661721174,3.9445262178619895,366.28045500800863,-100.57219616603174,-93.4439926147461,4761.76025390625,True
1599385642.4396815,0.0,10,0.5,0.5,-0.078276025390625,-0.05075,-0.00825,-0.5,-0.11695645421556478,10,1,100,0.2318611197893391,-10,-1,-100,19047.16449335101,-0.011841990974353775,-0.012263853808624863,0.9998546720096496,64.31422495593647,3.960648142208154,369.78380995127327,-101.11833124764674,-92.92655944824219,4761.76025390625,True
1599385642.4676392,0.0,10,0.5,0.5,-0.032881311607360825,-0.05075,-0.00825,-0.5,-0.11572491994696635,10,1,100,0.19620194499109897,-10,-1,-100,19043.108837725013,-0.01247362121456831,-0.012088777394637965,0.9998491237356255,64.44173551251868,3.969499090010848,371.9541281262366,-101.48240679375611,-92.53975677490234,4761.76025390625,True
1599385642.4985552,0.0,10,0.5,0.5,0.15942866497039795,-0.05075,-0.00825,-0.5,-0.13324550464939086,10,1,100,0.13381242649921643,-10,-1,-100,19043.108837725013,-0.01247362121456831,-0.012088777394637965,0.9998491237356255,64.44173551251868,3.969499090010848,371.9541281262366,-101.48240679375611,-92.53975677490234,4761.76025390625,True
1599385642.5314357,0.0,10,0.5,0.5,-0.1728169481277466,-0.05075,-0.00825,-0.5,-0.09596756555443375,10,1,100,0.22570254052261546,-10,-1,-100,19036.998048921232,-0.013302941477675119,-0.011749966784516744,0.9998424726068623,64.59466571194682,3.980370381523755,375.00029787786366,-102.02850053653496,-91.9388198852539,4761.76025390625,True
1599385642.5633848,0.0,10,0.5,0.5,-0.09381966571807861,-0.05075,-0.00825,-0.5,-0.09881372458318603,10,1,100,0.19793607548710984,-10,-1,-100,19032.9059872831,-0.013797648242831613,-0.0114682190668737,0.9998390394730552,64.67972270890776,3.986544276747828,376.93999706170774,-102.39255067195019,-91.5399169921875,4761.76025390625,True
1599385642.5923066,0.0,10,0.5,0.5,0.10345302600860597,-0.05075,-0.00825,-0.5,-0.1268954038875797,10,1,100,0.14911143461813267,-10,-1,-100,19032.9059872831,-0.013797648242831613,-0.0114682190668737,0.9998390394730552,64.67972270890776,3.986544276747828,376.93999706170774,-102.39255067195019,-91.5399169921875,4761.76025390625,True
1599385642.625202,0.0,10,0.5,0.5,-0.20947310333251953,-0.05075,-0.00825,-0.5,-0.07422301296286787,10,1,100,0.21485664545539987,-10,-1,-100,19026.7405915414,-0.014390345944307267,-0.010990305231011546,0.9998360521278138,64.7830197569362,3.9942547520505696,379.7168070436844,-102.93860814331154,-90.97557830810547,4761.76025390625,True
1599385642.6622539,0.0,10,0.5,0.5,-0.029434115791320797,-0.05075,-0.00825,-0.5,-0.10139752037344675,10,1,100,0.17638612986600397,-10,-1,-100,19024.6781789338,-0.014574691672358486,-0.010804268851401462,0.9998354095236087,64.81541621327325,3.9966856257387717,380.63264869629614,-103.12062269773034,-90.79460144042969,4761.76025390625,True
1599385642.6942017,0.0,10,0.5,0.5,0.058447667503356934,-0.05075,-0.00825,-0.5,-0.11982968027796677,10,1,100,0.15849121610622252,-10,-1,-100,19024.6781789338,-0.014574691672358486,-0.010804268851401462,0.9998354095236087,64.81541621327325,3.9966856257387717,380.63264869629614,-103.12062269773034,-90.79460144042969,4761.76025390625,True
1599385642.726096,0.0,10,0.5,0.5,-0.14490567264556886,-0.05075,-0.00825,-0.5,-0.07735083618988746,10,1,100,0.1924842499670111,-10,-1,-100,19020.542433229974,-0.014879568327219246,-0.010419642874206526,0.9998350011320716,64.86799048203129,4.000772250885856,382.3954391845519,-103.48464502547853,-90.42976379394531,4761.76025390625,True
1599385642.760004,0.0,10,0.5,0.5,-0.15567632217407226,-0.05075,-0.00825,-0.5,-0.06881096994127607,10,1,100,0.19068404832571545,-10,-1,-100,19016.39212658815,-0.01513663821953939,-0.009994187522086456,0.9998354856671092,64.91199215055872,4.004300691244686,384.11112375334466,-103.84865854507794,-90.08350372314453,4761.76025390625,True
1599385642.80591,0.0,10,0.5,0.5,-0.2714648420333862,-0.05075,-0.00825,-0.5,-0.03339824739038866,10,1,100,0.19714510892611264,-10,-1,-100,19010.139366735355,-0.015426079902338416,-0.009287539420866086,0.999837875693031,64.95694532153023,4.008238795288445,386.5654029222262,-104.3946628731186,-89.56317138671875,4761.76025390625,True
1599385642.836799,0.0,10,0.5,0.5,-0.1864183811187744,-0.05075,-0.00825,-0.5,-0.04846710462877917,10,1,100,0.18187707377726953,-10,-1,-100,19005.952660249895,-0.01554772433199553,-0.008784668247354547,0.9998405362215919,64.9759018939068,4.0101459794332825,388.13899860809613,-104.75865554101335,-89.24966430664062,4761.76025390625,True
1599385642.8866637,0.0,10,0.5,0.5,-0.1068198335647583,-0.05075,-0.00825,-0.5,-0.07028004675005153,10,1,100,0.17438904079841785,-10,-1,-100,19003.853847294115,-0.01558744251086023,-0.008528815844489519,0.999842133007137,64.98576385730401,4.011112590298332,388.9288534870832,-104.94064869512805,-89.114501953125,4761.76025390625,True
1599385642.9255624,0.0,10,0.5,0.5,-0.1614065944671631,-0.05075,-0.00825,-0.5,-0.03676437226008376,10,1,100,0.17512833197362412,-10,-1,-100,18999.64530176064,-0.01562819395593621,-0.007994463120103447,0.9998459121850211,65.01453707439245,4.013587150236577,390.5644551031098,-105.30462834021566,-88.89691162109375,4761.76025390625,True
1599385642.9594722,0.0,10,0.5,0.5,-0.10235729179382325,-0.05075,-0.00825,-0.5,-0.05950279891007275,10,1,100,0.17129033132730714,-10,-1,-100,18997.53556944267,-0.015628685676754125,-0.007718558845613072,0.9998480724756955,65.03339567052659,4.015093846490763,391.4100810157114,-105.48661455563156,-88.810546875,4761.76025390625,True
1599385642.9883943,0.0,10,0.5,0.5,-0.1400187816619873,-0.05075,-0.00825,-0.5,-0.023732486395245056,10,1,100,0.1672647268195519,-10,-1,-100,18993.305185572477,-0.01559087171157816,-0.007145960900688171,0.9998529191646532,65.07681912202304,4.018450246056969,393.1379090116176,-105.8505792466621,-88.6678466796875,4761.76025390625,True
1599385643.0213377,0.0,10,0.5,0.5,-0.1454334177017212,-0.05075,-0.00825,-0.5,0.01611562005439525,10,1,100,0.1540571267263905,-10,-1,-100,18986.932313220925,-0.015435334900782843,-0.006266656659696371,0.999861230096862,65.14916675128677,4.023915926378232,395.77916067569413,-106.39650646212598,-88.53192138671875,4761.76025390625,True
1599385643.0542157,0.0,10,0.5,0.5,-0.09335498409271241,-0.05075,-0.00825,-0.5,-0.038569841091200374,10,1,100,0.16135908046642955,-10,-1,-100,18984.800743796863,-0.015359536794761614,-0.005968554825747154,0.9998642212734399,65.17559635723845,4.025879471058983,396.67527453312937,-106.57847663779897,-88.5064697265625,4761.76025390625,True
1599385643.105083,0.0,10,0.5,0.5,-0.09342496662139893,-0.05075,-0.00825,-0.5,-0.001959342373744531,10,1,100,0.14850793653666022,-10,-1,-100,18980.526686527533,-0.015173087348905864,-0.0053691265465670435,0.9998704665607587,65.23253881005576,4.03006080720822,398.49501071829195,-106.9424084470519,-88.48666381835938,4761.76025390625,True
1599385643.1379926,0.0,10,0.5,0.5,-0.07697340526580812,-0.05075,-0.00825,-0.5,0.007642390368448708,10,1,100,0.14133860017232755,-10,-1,-100,18976.238072311273,-0.014938145232068807,-0.004741494646317586,0.9998771774800866,65.2961415400077,4.0346602732058585,400.3591663457415,-107.3063281658307,-88.50146484375,4761.76025390625,True
1599385643.169909,0.0,10,0.5,0.5,-0.07547691345214845,-0.05075,-0.00825,-0.5,-0.020825820378212945,10,1,100,0.15028458362410374,-10,-1,-100,18974.088306455058,-0.014806069059948966,-0.004434497282765702,0.9998805506423462,65.32892691843296,4.037024751088879,401.2987400257045,-107.48828343328826,-88.51998901367188,4761.76025390625,True
1599385643.417247,0.0,10,0.5,0.5,-0.07154850692749024,-0.05075,-0.00825,-0.5,-0.017054008092284766,10,1,100,0.14766862485141707,-10,-1,-100,18971.934901661356,-0.014662782015399585,-0.004125531424335643,0.9998839846772403,65.36253230773006,4.039443095567014,402.2443465020242,-107.6702356047783,-88.54550170898438,4761.76025390625,True
1599385643.449202,0.0,10,0.5,0.5,-0.06733870010375977,-0.05075,-0.00825,-0.5,-0.013444436296929617,10,1,100,0.1450854044620567,-10,-1,-100,18969.777857877663,-0.014509841737102869,-0.0038160746610987413,0.9998874446991247,65.39706410180351,4.041922439153118,403.1966647326008,-107.85218444284867,-88.57736206054688,4761.76025390625,True
1599385643.4834197,0.0,10,0.5,0.5,-0.038919879150390635,-0.05075,-0.00825,-0.5,0.02518292652494397,10,1,100,0.12292654183719244,-10,-1,-100,18965.45285373414,-0.014170340551855959,-0.0031878767972148806,0.9998945138814244,65.46826417882677,4.047025742457922,405.117582389311,-108.21607248524015,-88.65869140625,4761.76025390625,True
1599385643.5113802,0.0,10,0.5,0.5,-0.02273623809814454,-0.05075,-0.00825,-0.5,0.03230946193721768,10,1,100,0.11488000465127474,-10,-1,-100,18961.113294434268,-0.013789878093945043,-0.0025563707684115086,0.9999016472786952,65.5410402167831,4.052246045515816,407.05245563195206,-108.57994733639713,-88.76226806640625,4761.76025390625,True
1599385643.5924132,0.0,10,0.5,0.5,-0.006006376647949216,-0.05075,-0.00825,-0.5,0.03939799215965062,10,1,100,0.10658295120978947,-10,-1,-100,18956.7591803557,-0.013370247016905989,-0.0019225260930019633,0.9999087660322459,65.61450255388965,4.057531139419561,408.9958199565585,-108.94380884729264,-88.88674926757812,4761.76025390625,True
1599385643.6209385,0.0,10,0.5,0.5,-0.030198958587646485,-0.05075,-0.00825,-0.5,0.010613026608197379,10,1,100,0.12408888628003918,-10,-1,-100,18954.57666559925,-0.013149927833595185,-0.0016127337429225753,0.9999122353926099,65.65146651797846,4.06019724901756,409.9705426867118,-109.12573455229928,-88.95550537109375,4761.76025390625,True
1599385643.6458724,0.0,10,0.5,0.5,0.058131455230712885,-0.05075,-0.00825,-0.5,0.0821167081280996,10,1,100,0.06741069441631431,-10,-1,-100,18948.007290743873,-0.012436459020067125,-0.0006853017044119969,0.9999224294157103,65.76251266407962,4.068244743714798,412.9020243660393,-109.67149103486123,-89.17767333984375,4761.76025390625,True
1599385643.6797802,0.0,10,0.5,0.5,-0.05239878616333008,-0.05075,-0.00825,-0.5,-0.010098170410824732,10,1,100,0.1384652679916508,-10,-1,-100,18948.007290743873,-0.012436459020067125,-0.0006853017044119969,0.9999224294157103,65.76251266407962,4.068244743714798,412.9020243660393,-109.67149103486123,-89.17767333984375,4761.76025390625,True
1599385643.7067423,0.0,10,0.5,0.5,0.03345283660888672,-0.05075,-0.00825,-0.5,0.057725361933426284,10,1,100,0.0813095423385553,-10,-1,-100,18943.609516436,-0.011919349358065202,-7.298216022985582e-05,0.9999289593688567,65.8354050760197,4.073573546809252,414.8544545940806,-110.03531123768744,-89.33251953125,4761.76025390625,True
1599385643.73663,0.0,10,0.5,0.5,-0.001047250366210943,-0.05075,-0.00825,-0.5,0.028587630219506763,10,1,100,0.10432050768652482,-10,-1,-100,18941.40517200157,-0.011661184619294088,0.00021453939845819697,0.9999319830599085,65.87118891934496,4.076207416270992,415.8280476134008,-110.21721614056817,-89.40921020507812,4761.76025390625,True
1599385643.76256,0.0,10,0.5,0.5,0.0427400146484375,-0.05075,-0.00825,-0.5,0.06494591353192569,10,1,100,0.06895861315653296,-10,-1,-100,18936.985569212353,-0.011107876619630109,0.0008022260849409406,0.9999379838321535,65.94021780490108,4.081338331847539,417.7622191203534,-110.5810157661982,-89.5570068359375,4761.76025390625,True
1599385643.8064415,0.0,10,0.5,0.5,0.08900983963012696,-0.05075,-0.00825,-0.5,0.09849990370224888,10,1,100,0.029446957884344274,-10,-1,-100,18930.328880906454,-0.010248904213275475,0.0016370432037379398,0.9999461385754616,66.0376987937645,4.088708474553264,420.63229424104213,-111.12668951774123,-89.773681640625,4761.76025390625,True
1599385643.8413496,0.0,10,0.5,0.5,-0.018340599060058596,-0.05075,-0.00825,-0.5,0.01556350360903263,10,1,100,0.11491810476742488,-10,-1,-100,18930.328880906454,-0.010248904213275475,0.0016370432037379398,0.9999461385754616,66.0376987937645,4.088708474553264,420.63229424104213,-111.12668951774123,-89.773681640625,4761.76025390625,True
1599385643.8752599,0.0,10,0.5,0.5,0.057440122985839843,-0.05075,-0.00825,-0.5,0.07407742472650627,10,1,100,0.04955955128210314,-10,-1,-100,18925.87290010648,-0.009658300487353078,0.0021646016502595614,0.9999510146659144,66.09853168911748,4.093395971623629,422.5238300983782,-111.49045505597056,-89.90960693359375,4761.76025390625,True
1599385643.9086845,0.0,10,0.5,0.5,0.0245265625,-0.05075,-0.00825,-0.5,0.04925176661005913,10,1,100,0.07592388787492899,-10,-1,-100,18923.639453322394,-0.009364819776091672,0.002414220643839997,0.9999532347511279,66.12762534668208,4.09566663206742,423.4624658027832,-111.67233272749944,-89.97152709960938,4761.76025390625,True
1599385643.9453266,0.0,10,0.5,0.5,0.08377257270812988,-0.05075,-0.00825,-0.5,0.10557412270988681,10,1,100,0.003358366423230244,-10,-1,-100,18916.917288349243,-0.008441973868330236,0.0031492259236962426,0.9999594069027443,66.20844608914425,4.102110013706608,426.24195438005427,-112.21794586388971,-90.1336898803711,4761.76025390625,True
1599385643.9802349,0.0,10,0.5,0.5,0.0552119592666626,-0.05075,-0.00825,-0.5,0.08263363198515,10,1,100,0.026670432123794566,-10,-1,-100,18912.4176585644,-0.007819230871247938,0.0036045335718255687,0.9999629327961671,66.25766484194004,4.106140307322665,428.0688827998175,-112.58167160202842,-90.22728729248047,4761.76025390625,True
1599385644.016138,0.0,10,0.5,0.5,0.03328877868652344,-0.05075,-0.00825,-0.5,0.06194265241023844,10,1,100,0.053377085090963644,-10,-1,-100,18910.16238789237,-0.007500086108282677,0.0038264499510109987,0.9999645528663208,66.28101899335769,4.108083987906656,428.97535638878804,-112.76352961438317,-90.27088165283203,4761.76025390625,True
1599385644.0500474,0.0,10,0.5,0.5,0.03410465602874756,-0.05075,-0.00825,-0.5,0.06247716601896012,10,1,100,0.051378539779297155,-10,-1,-100,18907.903480112785,-0.0071962735235825475,0.004028949736117566,0.9999659900273596,66.30354576000742,4.109980378486092,429.8771957918131,-112.94538438806696,-90.310302734375,4761.76025390625,True
1599385644.0839598,0.0,10,0.5,0.5,0.0674344690322876,-0.05075,-0.00825,-0.5,0.107759221649707,10,1,100,-0.0228893796705366,-10,-1,-100,18901.104935013107,-0.006249211065978926,0.004620966472042737,0.9999697965588346,66.36790484312567,4.115490739808707,432.5659622898365,-113.49092960472765,-90.40514373779297,4761.76025390625,True
1599385644.1125233,0.0,10,0.5,0.5,0.03504640121459961,-0.05075,-0.00825,-0.5,0.06936273717335714,10,1,100,0.036201932574293286,-10,-1,-100,18898.831479463377,-0.005930358919068009,0.004806098712122817,0.9999708657047266,66.38829290108231,4.117267497811992,433.45663044787193,-113.67277168207025,-90.43094635009766,4761.76025390625,True
1599385644.1464574,0.0,10,0.5,0.5,0.03575749073028564,-0.05075,-0.00825,-0.5,0.07074807162958179,10,1,100,0.0325780614607359,-10,-1,-100,18896.554387306212,-0.005612255882389893,0.004983354813954767,0.9999718339826921,66.40822010334185,4.119018311627412,434.3449435494169,-113.85461070298979,-90.45435333251953,4761.76025390625,True
1599385644.1783724,0.0,10,0.5,0.5,0.05371783714294434,-0.05075,-0.00825,-0.5,0.10646215641599792,10,1,100,-0.03945633615354953,-10,-1,-100,18889.701290295692,-0.0046724282783079975,0.00546612812130558,0.9999741445944218,66.46563598831786,4.124137825093648,436.998214297104,-114.40010885745444,-90.50719451904297,4761.76025390625,True
1599385644.2102523,0.0,10,0.5,0.5,0.02790239200592041,-0.05075,-0.00825,-0.5,0.058567734172673386,10,1,100,0.053968776661143275,-10,-1,-100,18889.701290295692,-0.0046724282783079975,0.00546612812130558,0.9999741445944218,66.46563598831786,4.124137825093648,436.998214297104,-114.40010885745444,-90.50719451904297,4761.76025390625,True
1599385644.2421672,0.0,10,0.5,0.5,0.03995900039672852,-0.05075,-0.00825,-0.5,0.09107453234943294,10,1,100,-0.01614169671981048,-10,-1,-100,18885.11437633133,-0.004039592949580277,0.00575864308066608,0.9999752595532907,66.50322491662595,4.12751739001631,438.76566576149577,-114.76375873945875,-90.52819061279297,4761.76025390625,True
1599385644.272087,0.0,10,0.5,0.5,0.0347565752029419,-0.05075,-0.00825,-0.5,0.08926426796899731,10,1,100,-0.01863937324466411,-10,-1,-100,18880.51291664585,-0.003446423070353236,0.006005068438047277,0.9999760303732659,66.54081529558911,4.130902579200108,440.5356178277575,-115.12739622450611,-90.53697204589844,4761.76025390625,True
1599385644.30799,0.0,10,0.5,0.5,0.03066074943542481,-0.05075,-0.00825,-0.5,0.07850531428924172,10,1,100,0.005322469295302196,-10,-1,-100,18878.20673220372,-0.003129554067599235,0.00612868659992845,0.9999763222656315,66.56069108506131,4.132663813177981,441.42869360564237,-115.30921034934585,-90.53690338134766,4761.76025390625,True
1599385644.340416,0.0,10,0.5,0.5,0.02729066963195801,-0.05075,-0.00825,-0.5,0.08974077074701389,10,1,100,-0.02965875189022265,-10,-1,-100,18873.583455222077,-0.0025277435786850524,0.006340912575774625,0.999976701398641,66.60006112325729,4.13616468805045,443.2142590535594,-115.6728292442904,-90.53025817871094,4761.76025390625,True
1599385644.3673422,0.0,10,0.5,0.5,0.015650033378601075,-0.05075,-0.00825,-0.5,0.09707424017074491,10,1,100,-0.06557389170732636,-10,-1,-100,18866.621268775547,-0.001658662174543578,0.006598227309828008,0.9999768558502534,66.66241713312345,4.141623888108732,445.91953296196095,-116.21823442970665,-90.50270080566406,4761.76025390625,True
1599385644.3972614,0.0,10,0.5,0.5,0.02958744831085205,-0.05075,-0.00825,-0.5,0.07159969452277766,10,1,100,0.020780487571917198,-10,-1,-100,18866.621268775547,-0.001658662174543578,0.006598227309828008,0.9999768558502534,66.66241713312345,4.141623888108732,445.91953296196095,-116.21823442970665,-90.50270080566406,4761.76025390625,True
1599385644.4306824,0.0,10,0.5,0.5,0.0046204723358154315,-0.05075,-0.00825,-0.5,0.09215869993111273,10,1,100,-0.07017089436230244,-10,-1,-100,18859.62635925482,-0.000836004655951977,0.006783329849142158,0.9999766434934232,66.73119229149296,4.14748184161253,448.6740328431384,-116.76361129643414,-90.45722198486328,4761.76025390625,True
1599385644.460603,0.0,10,0.5,0.5,0.027381560134887697,-0.05075,-0.00825,-0.5,0.07384616911339964,10,1,100,0.011585422070546053,-10,-1,-100,18859.62635925482,-0.000836004655951977,0.006783329849142158,0.9999766434934232,66.73119229149296,4.14748184161253,448.6740328431384,-116.76361129643414,-90.45722198486328,4761.76025390625,True
1599385644.49551,0.0,10,0.5,0.5,-0.004012588119506836,-0.05075,-0.00825,-0.5,0.08666128835138062,10,1,100,-0.07410753104474022,-10,-1,-100,18852.598728023702,-6.131985601886351e-05,0.006898194592182724,0.999976205292528,66.81278059226382,4.154133366492501,451.5216762538334,-117.30895913624201,-90.40021514892578,4761.76025390625,True
1599385644.538395,0.0,10,0.5,0.5,0.001380421829223634,-0.05075,-0.00825,-0.5,0.07932762042303115,10,1,100,-0.050535222207215624,-10,-1,-100,18847.89546278864,0.000424453419558935,0.006934645498806537,0.9999758649743006,66.87577776059376,4.159100410048036,453.48261206266875,-117.6725078338431,-90.35841369628906,4761.76025390625,True
1599385644.5733013,0.0,10,0.5,0.5,0.02215840396881104,-0.05075,-0.00825,-0.5,0.07582938149839998,10,1,100,-0.0024675828192224658,-10,-1,-100,18847.89546278864,0.000424453419558935,0.006934645498806537,0.9999758649743006,66.87577776059376,4.159100410048036,453.48261206266875,-117.6725078338431,-90.35841369628906,4761.76025390625,True
1599385644.604219,0.0,10,0.5,0.5,-0.02487474365234375,-0.05075,-0.00825,-0.5,0.073441176956905,10,1,100,-0.0969869217439865,-10,-1,-100,18838.44530863315,0.001279661913084845,0.006911865455321909,0.9999752939854644,67.02499090837767,4.170472520722039,457.57423841798953,-118.39956403429053,-90.27326965332031,4761.76025390625,True
1599385644.6351366,0.0,10,0.5,0.5,0.005491733932495118,-0.05075,-0.00825,-0.5,0.07320090617819783,10,1,100,-0.03473071638814533,-10,-1,-100,18836.073682120186,0.0014868622357976271,0.006888147684150115,0.9999751710228475,67.06805189204728,4.173672665889026,458.63921133889767,-118.58131924127876,-90.25150299072266,4761.76025390625,True
1599385644.668048,0.0,10,0.5,0.5,0.016139609909057617,-0.05075,-0.00825,-0.5,0.07564862940379942,10,1,100,-0.014472325747206803,-10,-1,-100,18836.073682120186,0.0014868622357976271,0.006888147684150115,0.9999751710228475,67.06805189204728,4.173672665889026,458.63921133889767,-118.58131924127876,-90.25150299072266,4761.76025390625,True
1599385644.6979678,0.0,10,0.5,0.5,-0.008885710334777832,-0.05075,-0.00825,-0.5,0.06805705748178884,10,1,100,-0.05538832146488164,-10,-1,-100,18831.31952398084,0.001855176191581505,0.006818635907487859,0.9999750319511278,67.15832585069931,4.18032998009096,460.801291651183,-118.94481862238618,-90.20648193359375,4761.76025390625,True
1599385644.7288852,0.0,10,0.5,0.5,0.0013378236770629891,-0.05075,-0.00825,-0.5,0.07007822956896033,10,1,100,-0.03862526502659997,-10,-1,-100,18828.936992667732,0.0020344212397950833,0.006773617303498586,0.999974989306655,67.20663713254548,4.183855570159113,461.9060488476599,-119.1265628081961,-90.18461608886719,4761.76025390625,True
1599385644.7607994,0.0,10,0.5,0.5,-0.012417254829406737,-0.05075,-0.00825,-0.5,0.062222473861280436,10,1,100,-0.05890423500442778,-10,-1,-100,18824.161025652196,0.0023783682075928267,0.006661115893444274,0.9999749861370149,67.30948743302572,4.191293344850509,464.1625412544677,-119.49003979783937,-90.14026641845703,4761.76025390625,True
1599385644.7947092,0.0,10,0.5,0.5,-0.0027061937332153313,-0.05075,-0.00825,-0.5,0.0663274640072196,10,1,100,-0.04161585309183346,-10,-1,-100,18821.767590057687,0.0025309580037821498,0.00659627108013589,0.9999750414182448,67.36352504626394,4.195174346673872,465.310961798091,-119.6717724809727,-90.11811065673828,4761.76025390625,True
1599385644.833606,0.0,10,0.5,0.5,-0.015379831886291504,-0.05075,-0.00825,-0.5,0.056213799913177265,10,1,100,-0.05866480648773505,-10,-1,-100,18816.969815281802,0.0028216056105899723,0.00644554890242698,0.9999752464141923,67.47813299215,4.203342242664909,467.657529257387,-120.03522596399625,-90.07549285888672,4761.76025390625,True
1599385644.8744972,0.0,10,0.5,0.5,-0.03633670978546143,-0.05075,-0.00825,-0.5,0.029828021430009476,10,1,100,-0.08382687085203006,-10,-1,-100,18807.330653653597,0.0033119559060301213,0.006069069523471678,0.9999760983859542,67.73510458840717,4.2214051221378845,472.5631122883606,-120.76208406603384,-89.99923706054688,4761.76025390625,True
1599385644.9173822,0.0,10,0.5,0.5,-0.01662367687225342,-0.05075,-0.00825,-0.5,0.043044647742830316,10,1,100,-0.05632399973966715,-10,-1,-100,18802.48926791246,0.0035050777986028927,0.005847753578151898,0.9999767588337816,67.87760168902578,4.231309773787069,475.12439587381556,-121.12548765816543,-89.96633911132812,4761.76025390625,True
1599385644.9662507,0.0,10,0.5,0.5,-0.008027948951721191,-0.05075,-0.00825,-0.5,0.052600132668093075,10,1,100,-0.04605590932297747,-10,-1,-100,18800.06312403828,0.003584496311354557,0.005734413392564172,0.9999771336831844,67.9526208754335,4.236497484731512,476.4343365384138,-121.30718290607973,-89.95266723632812,4761.76025390625,True
1599385645.01113,0.0,10,0.5,0.5,-0.012515880393981934,-0.05075,-0.00825,-0.5,0.03666959864487032,10,1,100,-0.05376441026239535,-10,-1,-100,18795.199935249053,0.003724676936579624,0.005487624234603085,0.9999780061391241,68.11141294381082,4.2474200243988935,479.1217955021061,-121.67055981546768,-89.93258666992188,4761.76025390625,True
1599385645.0829387,0.0,10,0.5,0.5,-0.013260233306884766,-0.05075,-0.00825,-0.5,0.016385156128035837,10,1,100,-0.05650337542081554,-10,-1,-100,18787.87789991952,0.0038749791748600663,0.005080139634894099,0.9999795881505205,68.3698559321421,4.265073038057985,483.3120065383418,-122.2155903964987,-89.91348266601562,4761.76025390625,True
1599385645.123831,0.0,10,0.5,0.5,-0.006390578651428222,-0.05075,-0.00825,-0.5,0.041472770454662695,10,1,100,-0.0451279670843916,-10,-1,-100,18785.42995483335,0.003906033754839285,0.004939411954536407,0.999980172358357,68.46077930241665,4.271257328511287,484.7471115457738,-122.3972577209108,-89.90911865234375,4761.76025390625,True
1599385645.1637259,0.0,10,0.5,0.5,-0.008000290870666504,-0.05075,-0.00825,-0.5,0.006877467681503595,10,1,100,-0.04721074979151783,-10,-1,-100,18778.06432000443,0.003951335163464033,0.004498683332594287,0.999982074238683,68.74707024304546,4.2906610079184215,489.1630125245508,-122.94223009422015,-89.90267944335938,4761.76025390625,True
1599385645.2006228,0.0,10,0.5,0.5,-0.005046899223327637,-0.05075,-0.00825,-0.5,0.03325119622318816,10,1,100,-0.043040218000698544,-10,-1,-100,18775.601842161384,0.003952861687821203,0.004339850239363042,0.9999827701437545,68.84684828131333,4.2974029429222815,490.67098092994746,-123.12387748306996,-89.90261840820312,4761.76025390625,True
