Timestamp,Input Throttle,horizon,dT,dt,Input Roll,Roll P,Roll I,Roll D,Input Pitch,Pitch P,Pitch I,Pitch D,Input Yaw,Yaw P,Yaw I,Yaw D,Altitude,Direction X,Direction Y,Direction Z,Drag X,Drag Y,Drag Z,Vertical Velocity,Roll,Mass,Has Fuel
1599387108.0913675,0.0,10,0.5,0.5,-8.425346641540528,-0.15025,-0.001,-0.37525,-0.0010526894033928225,10,1,100,0.49275059816192623,-10,-1,-100,19351.09560010268,-0.048797074571985316,-0.00018261609205324602,0.9988086964802514,60.987093631971675,3.6802302338248816,232.74574129824086,-68.48253458749832,-33.92181396484375,4761.76025390625,True
1599387108.120338,0.0,10,0.5,0.5,-8.430136459350585,-0.15025,-0.001,-0.37525,-3.2218748262668497e-05,10,1,100,0.5038699347530201,-10,-1,-100,19348.345350941643,-0.04889725167722139,-0.00016614151222165406,0.9988038001406544,61.16634814509439,3.6923917826812005,234.72083390911246,-68.84745135601054,-33.92413330078125,4761.76025390625,True
1599387108.1532938,0.0,10,0.5,0.5,-8.436614376831054,-0.15025,-0.001,-0.37525,-0.0016962908826440306,10,1,100,0.4987419493971346,-10,-1,-100,19348.345350941643,-0.04889725167722139,-0.00016614151222165406,0.9988038001406544,61.16634814509439,3.6923917826812005,234.72083390911246,-68.84745135601054,-33.92413330078125,4761.76025390625,True
1599387108.1872387,0.0,10,0.5,0.5,-8.418294778442382,-0.15025,-0.001,-0.37525,0.010783667353277048,10,1,100,0.5084257696109806,-10,-1,-100,19345.580505556893,-0.04894083435945888,-5.253630870217002e-05,0.9988016779982583,61.34669219340711,3.704633969745994,236.70840113478198,-69.21235435128084,-33.96966552734375,4761.76025390625,True
1599387108.262063,0.0,10,0.5,0.5,-8.162966567993166,-0.15025,-0.001,-0.37525,0.03896080156141532,10,1,100,0.5036367380714678,-10,-1,-100,19341.405870563467,-0.04889242666171607,0.00030694467485198356,0.9988040029956304,61.63676671621452,3.7241875505799222,239.78140148707104,-69.75968170942309,-34.49871826171875,4761.76025390625,True
1599387108.2949755,0.0,10,0.5,0.5,-8.36704373474121,-0.15025,-0.001,-0.37525,0.0030433976734851615,10,1,100,0.5133667505119209,-10,-1,-100,19341.405870563467,-0.04889242666171607,0.00030694467485198356,0.9988040029956304,61.63676671621452,3.7241875505799222,239.78140148707104,-69.75968170942309,-34.49871826171875,4761.76025390625,True
1599387108.3298962,0.0,10,0.5,0.5,-7.469551107788085,-0.15025,-0.001,-0.37525,0.10378236257663988,10,1,100,0.4770509818813711,-10,-1,-100,19335.788609708892,-0.04851783564992769,0.0012224744060853427,0.9988215682393793,62.06295381788459,3.752553639799195,244.06448498156584,-70.4893935620791,-36.2171630859375,4761.76025390625,True
1599387108.3588183,0.0,10,0.5,0.5,-8.119775811767578,-0.15025,-0.001,-0.37525,0.012351636893912487,10,1,100,0.5193618666252016,-10,-1,-100,19335.788609708892,-0.04851783564992769,0.0012224744060853427,0.9988215682393793,62.06295381788459,3.752553639799195,244.06448498156584,-70.4893935620791,-36.2171630859375,4761.76025390625,True
1599387108.391615,0.0,10,0.5,0.5,-7.803115353393554,-0.15025,-0.001,-0.37525,0.04825851055112988,10,1,100,0.5071259237427028,-10,-1,-100,19334.375173444394,-0.04836249268222322,0.001547789189872696,0.9988286507956134,62.17142888285415,3.7597260329268862,245.14882723270884,-70.67181022023465,-36.829986572265625,4761.76025390625,True
1599387108.4245276,0.0,10,0.5,0.5,-7.278497761535644,-0.15025,-0.001,-0.37525,0.09676996349754163,10,1,100,0.4823212387883683,-10,-1,-100,19331.537355933106,-0.04795180876410501,0.0022831360299286944,0.9988470410058387,62.38300904921879,3.7736790798699396,247.303475042794,-71.03662940441272,-38.276031494140625,4761.76025390625,True
1599387108.4554446,0.0,10,0.5,0.5,-6.912350608825683,-0.15025,-0.001,-0.37525,0.1220797344064426,10,1,100,0.4710642746984153,-10,-1,-100,19328.684946592548,-0.0474325311570306,0.003179646405487857,0.998869383271293,62.57659014529226,3.786428701544614,249.39581644535264,-71.40143016510157,-40.015228271484375,4761.76025390625,True
1599387108.4893587,0.0,10,0.5,0.5,-6.496070948791504,-0.15025,-0.001,-0.37525,0.14391363744174224,10,1,100,0.4507939912161123,-10,-1,-100,19325.817945686635,-0.04677742579477379,0.00419008926313751,0.9988965489919271,62.73804105747656,3.797087394331786,251.36809161538795,-71.7662133864665,-42.04815673828125,4761.76025390625,True
1599387108.5212762,0.0,10,0.5,0.5,-6.666061456298828,-0.15025,-0.001,-0.37525,0.10296929104998967,10,1,100,0.47426355791961006,-10,-1,-100,19324.378973479965,-0.04639716227719254,0.004732492138552754,0.9989118614025878,62.80136561375049,3.8012985308208433,252.2870736198316,-71.9485990616972,-43.1748046875,4761.76025390625,True
1599387108.55618,0.0,10,0.5,0.5,-6.457256506347656,-0.15025,-0.001,-0.37525,0.11161378473116801,10,1,100,0.46629519189981733,-10,-1,-100,19322.93635398231,-0.045981301287756945,0.0052997186645311655,0.9989282421245088,62.849925753126705,3.8045671838067174,253.14805988022545,-72.13098125145883,-44.374908447265625,4761.76025390625,True
1599387108.591087,0.0,10,0.5,0.5,-5.529506929016113,-0.15025,-0.001,-0.37525,0.18829051973493863,10,1,100,0.40427970315438366,-10,-1,-100,19320.040171768633,-0.0450421591570131,0.00650757468366106,0.9989638909240969,62.89207162088627,3.8076158053617886,254.65095454363694,-72.49573695798553,-46.995361328125,4761.76025390625,True
1599387108.6249964,0.0,10,0.5,0.5,-4.980226327514648,-0.15025,-0.001,-0.37525,0.21197972347382682,10,1,100,0.3781641949928963,-10,-1,-100,19317.12939957925,-0.043954480116236726,0.007815345071397395,0.9990029649901576,62.84224247814735,3.8048613688630892,255.78193525208184,-72.8604852795403,-49.909454345703125,4761.76025390625,True
1599387108.6559155,0.0,10,0.5,0.5,-4.386358479309082,-0.15025,-0.001,-0.37525,0.23265847638572582,10,1,100,0.349300382135876,-10,-1,-100,19314.204037737334,-0.04270777173187209,0.00918539008635992,0.9990453817733504,62.67664206245755,3.794848609737772,256.4379331174804,-73.22523231447167,-53.117523193359375,4761.76025390625,True
1599387108.692145,0.0,10,0.5,0.5,-4.68749022064209,-0.15025,-0.001,-0.37525,0.171948155411972,10,1,100,0.39829385071532586,-10,-1,-100,19312.73588525562,-0.042025077518552015,0.00987173453140057,0.9990677863473034,62.54244053160639,3.7866365586158786,256.5528007314038,-73.4076077005852,-54.83209228515625,4761.76025390625,True
1599387108.7270503,0.0,10,0.5,0.5,-3.4111414306640624,-0.15025,-0.001,-0.37525,0.25866487238990726,10,1,100,0.30272763470731545,-10,-1,-100,19309.78863810317,-0.04054156514103492,0.011276154853850284,0.999114222613024,62.1540629969914,3.7627734934247714,256.2801298095127,-73.77236737699208,-58.481719970703125,4761.76025390625,True
1599387108.7579675,0.0,10,0.5,0.5,-2.705798622131347,-0.15025,-0.001,-0.37525,0.2733387116347961,10,1,100,0.2702258262552511,-10,-1,-100,19306.82679969864,-0.038904556473310786,0.012677455171336307,0.9991625081116654,61.58219288838401,3.727601830174995,255.23175357755028,-74.13714707641725,-62.42596435546875,4761.76025390625,True
1599387108.7913897,0.0,10,0.5,0.5,-3.089177505493164,-0.15025,-0.001,-0.37525,0.2128745737703115,10,1,100,0.3359423268282382,-10,-1,-100,19305.340408879565,-0.03802201428267127,0.013392241189245188,0.9991871567958716,61.21848309745572,3.7052524504075395,254.3758243993833,-74.31954767864943,-64.50833129882812,4761.76025390625,True
1599387108.827294,0.0,10,0.5,0.5,-1.5631722793579101,-0.15025,-0.001,-0.37525,0.29383228952152896,10,1,100,0.21740655081279803,-10,-1,-100,19302.356681822217,-0.036150660251835304,0.014768741717097278,0.9992372160960831,60.31778285862051,3.650011265115413,251.9182480682356,-74.68437719335459,-68.89456176757812,4761.76025390625,True
1599387108.8582113,0.0,10,0.5,0.5,-0.7463146957397464,-0.15025,-0.001,-0.37525,0.30090733711689055,10,1,100,0.18363641981095183,-10,-1,-100,19299.35836031998,-0.03415208881973395,0.01607480749105341,0.9992873637714901,59.163098933011675,3.579424499879287,248.35782314689587,-75.0492532080994,-73.57601928710938,4761.76025390625,True
1599387108.8916357,0.0,10,0.5,0.5,-1.211932762145996,-0.15025,-0.001,-0.37525,0.2428927714713103,10,1,100,0.26525120311986505,-10,-1,-100,19297.85372604546,-0.033088290160138714,0.016724423674824164,0.9993124930205883,58.48212463463373,3.5379118586716696,246.12365199273935,-75.23171180333668,-76.02713012695312,4761.76025390625,True
1599387108.927538,0.0,10,0.5,0.5,0.5641755447387695,-0.15025,-0.001,-0.37525,0.3117092697898466,10,1,100,0.1283687605016483,-10,-1,-100,19294.833508513868,-0.030888535546820726,0.017930202276593095,0.999361999586783,56.89768553476572,3.441620685271148,240.67182074123716,-75.59667594754642,-81.1512451171875,4761.76025390625,True
1599387108.9604495,0.0,10,0.5,0.5,1.4727934722900389,-0.15025,-0.001,-0.37525,0.31247226568796904,10,1,100,0.09585397903696477,-10,-1,-100,19291.798690574476,-0.02860603663377106,0.01902291676128148,0.9994097374480604,55.003506595777466,3.3269726770744277,233.83687928166628,-75.96170820125477,-86.5328369140625,4761.76025390625,True
1599387108.9958627,0.0,10,0.5,0.5,0.9217196502685545,-0.15025,-0.001,-0.37525,0.261639974255663,10,1,100,0.19076214868096697,-10,-1,-100,19290.275805414887,-0.027407792294564536,0.019543993123713698,0.9994332620311965,53.94226113258103,3.2629249809967633,229.90287530827123,-76.1442511525851,-89.32009887695312,4761.76025390625,True
1599387109.0317671,0.0,10,0.5,0.5,2.885962069702148,-0.15025,-0.001,-0.37525,0.3125396116602409,10,1,100,0.04286945243401191,-10,-1,-100,19287.219081621268,-0.024987909274347474,0.0204710059722961,0.9994781349807405,52.496808071222354,3.1762093699916423,224.867157359066,-76.50937498763545,-95.04139709472656,4761.76025390625,True
1599387109.0676708,0.0,10,0.5,0.5,3.67439458694458,-0.15025,-0.001,-0.37525,0.3084273379735929,10,1,100,0.014255587051478169,-10,-1,-100,19284.147754141246,-0.022543377905440025,0.021266724918000673,0.9995196458919027,54.27616776572907,3.2851917626022824,233.65189558757413,-76.874433914583,-100.61956787109375,4761.76025390625,True
1599387109.1015797,0.0,10,0.5,0.5,4.38075492477417,-0.15025,-0.001,-0.37525,0.30417782607439225,10,1,100,-0.021545940025898658,-10,-1,-100,19281.061827106867,-0.02001197022139855,0.021942391514953776,0.9995589289794086,55.76322525294558,3.3769787136233544,241.24771945200294,-77.23940662911085,-105.9389877319336,4761.76025390625,True
1599387109.1384826,0.0,10,0.5,0.5,6.302948971939086,-0.15025,-0.001,-0.37525,0.32094370970580527,10,1,100,-0.1781213264867599,-10,-1,-100,19276.405569571652,-0.016304452982854753,0.02270062833033888,0.9996093468382224,57.63263687707135,3.493335483039255,251.18497156039996,-77.78671122795376,-113.38704681396484,4761.76025390625,True
1599387109.1753838,0.0,10,0.5,0.5,4.740620134353637,-0.15025,-0.001,-0.37525,0.26754660729454793,10,1,100,0.0557898053953593,-10,-1,-100,19274.846187402378,-0.015080190838834037,0.022896044152276553,0.9996241088561446,58.19724791716783,3.5286384465114033,254.2678421775005,-77.96910813396046,-115.72323608398438,4761.76025390625,True
1599387109.2132807,0.0,10,0.5,0.5,7.319406721496581,-0.15025,-0.001,-0.37525,0.29698781325264084,10,1,100,-0.21286025092632474,-10,-1,-100,19270.146156061557,-0.01154410698626626,0.023333953769625118,0.9996610726618131,59.4728816186187,3.60912570447727,261.74698995320904,-78.51620318703041,-122.28985595703125,4761.76025390625,True
1599387109.2491858,0.0,10,0.5,0.5,4.860153997802734,-0.15025,-0.001,-0.37525,0.2539227661456415,10,1,100,0.1384873361471062,-10,-1,-100,19270.146156061557,-0.01154410698626626,0.023333953769625118,0.9996610726618131,59.4728816186187,3.60912570447727,261.74698995320904,-78.51620318703041,-122.28985595703125,4761.76025390625,True
1599387109.2801027,0.0,10,0.5,0.5,6.971968235778808,-0.15025,-0.001,-0.37525,0.269580682275536,10,1,100,-0.12127543918049719,-10,-1,-100,19266.994567780872,-0.009202212831627931,0.02347028979799252,0.9996821818837223,60.02481673588379,3.6444869792140238,265.45762864353725,-78.88086993468582,-126.29972839355469,4761.76025390625,True
1599387109.316007,0.0,10,0.5,0.5,6.467025865936279,-0.15025,-0.001,-0.37525,0.2640232389476026,10,1,100,-0.007375572138737685,-10,-1,-100,19265.4133039054,-0.008128386321168348,0.023538672986689494,0.9996898820183383,60.22326310969985,3.657378272610101,266.9779760357816,-79.06318893287997,-128.19363403320312,4761.76025390625,True
1599387109.3529077,0.0,10,0.5,0.5,9.354569116210937,-0.15025,-0.001,-0.37525,0.25990274989067397,10,1,100,-0.36373333228418164,-10,-1,-100,19259.051787036937,-0.00393118044698524,0.023559275297509747,0.9997147124893929,60.61324797322646,3.6837768478995923,271.2941729211127,-79.79239953241964,-135.032958984375,4761.76025390625,True
1599387109.3878138,0.0,10,0.5,0.5,8.357396528625488,-0.15025,-0.001,-0.37525,0.2462123594478116,10,1,100,-0.16406647409596717,-10,-1,-100,19255.849153475836,-0.0019520343738457994,0.02344989631952596,0.9997231076275105,60.620458685385444,3.685181994709337,272.6205563053743,-80.15698042205128,-138.01052856445312,4761.76025390625,True
1599387109.4197292,0.0,10,0.5,0.5,7.968077619934082,-0.15025,-0.001,-0.37525,0.25610500162111605,10,1,100,-0.067103979928954,-10,-1,-100,19254.242367996252,-0.0010552295951468838,0.023437685913527802,0.9997247428014974,60.589546497696105,3.683698260539126,273.12841962971686,-80.3392676080813,-139.38772583007812,4761.76025390625,True
1599387109.4546354,0.0,10,0.5,0.5,7.4551611618042,-0.15025,-0.001,-0.37525,0.2575431383204845,10,1,100,0.020427683109908244,-10,-1,-100,19254.242367996252,-0.0010552295951468838,0.023437685913527802,0.9997247428014974,60.589546497696105,3.683698260539126,273.12841962971686,-80.3392676080813,-139.38772583007812,4761.76025390625,True
1599387109.4915376,0.0,10,0.5,0.5,8.789912758636474,-0.15025,-0.001,-0.37525,0.24711864979965292,10,1,100,-0.17520294746998039,-10,-1,-100,19251.01786008617,0.000705997282282784,0.023341558477521538,0.9997272994250371,60.48168841078796,3.677774615706491,273.9340648136486,-80.70383830422257,-141.92132568359375,4761.76025390625,True
1599387109.5264444,0.0,10,0.5,0.5,9.01863452606201,-0.15025,-0.001,-0.37525,0.23800258800860968,10,1,100,-0.1853625053012033,-10,-1,-100,19247.77876920905,0.0023840081963525652,0.023170713946554376,0.999728680452915,60.331192750570125,3.6690786331887146,274.54169111098673,-81.0684067065942,-144.16033935546875,4761.76025390625,True
1599387109.5593555,0.0,10,0.5,0.5,9.202812373352051,-0.15025,-0.001,-0.37525,0.23236470515369556,10,1,100,-0.19222241520444003,-10,-1,-100,19244.525095543126,0.00395595893641344,0.02296389755627203,0.999728468034155,60.15478994609218,3.658661513254319,275.0251143875015,-81.43297467151874,-146.104248046875,4761.76025390625,True
1599387109.5942624,0.0,10,0.5,0.5,8.928033229064942,-0.15025,-0.001,-0.37525,0.24449256014411072,10,1,100,-0.11625127746707482,-10,-1,-100,19242.892790273996,0.00468026738801757,0.022886472297940354,0.9997271150083568,60.061782925810505,3.653115929202758,275.24223799917087,-81.61525878365129,-146.96493530273438,4761.76025390625,True
1599387109.630167,0.0,10,0.5,0.5,9.395890103149414,-0.15025,-0.001,-0.37525,0.2314527671560655,10,1,100,-0.19773576009763347,-10,-1,-100,19239.61724284175,0.006064748209413417,0.022697948928176316,0.9997239728763188,59.879305615448864,3.642167989896808,275.68732762032414,-81.97982726013389,-148.46514892578125,4761.76025390625,True
1599387109.6630807,0.0,10,0.5,0.5,9.46832381591797,-0.15025,-0.001,-0.37525,0.22836856968248542,10,1,100,-0.20143285799564853,-10,-1,-100,19236.327112434083,0.007343098063354287,0.022499228015785386,0.9997198925946835,59.714178270630576,3.632201429174864,276.2055545259,-82.34439553125247,-149.6700439453125,4761.76025390625,True
1599387109.698982,0.0,10,0.5,0.5,9.677118002319336,-0.15025,-0.001,-0.37525,0.2139088048681994,10,1,100,-0.2631183211288836,-10,-1,-100,19231.36457432923,0.009051946245980377,0.02218806518345549,0.9997128347843568,59.52262444863253,3.6205756170837686,277.2323439707729,-82.89124414108707,-150.92367553710938,4761.76025390625,True
1599387109.7358859,0.0,10,0.5,0.5,9.208281819152832,-0.15025,-0.001,-0.37525,0.2448879670897836,10,1,100,-0.09353181553557126,-10,-1,-100,19231.36457432923,0.009051946245980377,0.02218806518345549,0.9997128347843568,59.52262444863253,3.6205756170837686,277.2323439707729,-82.89124414108707,-150.92367553710938,4761.76025390625,True
1599387109.774779,0.0,10,0.5,0.5,9.543912245178223,-0.15025,-0.001,-0.37525,0.2107494919710447,10,1,100,-0.2992048577918971,-10,-1,-100,19224.69681873254,0.010911697556838042,0.021878862528863383,0.9997010804389836,59.41175159399286,3.61378419799005,279.26373007695827,-83.620358179535,-151.55990600585938,4761.76025390625,True
1599387109.8106835,0.0,10,0.5,0.5,9.306383979797364,-0.15025,-0.001,-0.37525,0.24151387509178904,10,1,100,-0.11442641942132903,-10,-1,-100,19224.69681873254,0.010911697556838042,0.021878862528863383,0.9997010804389836,59.41175159399286,3.61378419799005,279.26373007695827,-83.620358179535,-151.55990600585938,4761.76025390625,True
1599387109.842598,0.0,10,0.5,0.5,9.151024072265624,-0.15025,-0.001,-0.37525,0.21814148253620502,10,1,100,-0.23681276352063718,-10,-1,-100,19219.657724387245,0.012013421660329949,0.021667803345071405,0.9996930448883848,59.45527810217539,3.616394099491341,281.3819548770166,-84.1671699104298,-151.26194763183594,4761.76025390625,True
1599387109.8794994,0.0,10,0.5,0.5,8.965222458648682,-0.15025,-0.001,-0.37525,0.22802227584164347,10,1,100,-0.19221678182429225,-10,-1,-100,19216.280101493117,0.012599291535012139,0.02156727834906673,0.9996880065087455,59.54451965625688,3.621818542669292,283.082545711623,-84.5316947806466,-150.69383239746094,4761.76025390625,True
1599387109.9144058,0.0,10,0.5,0.5,9.1790610496521,-0.15025,-0.001,-0.37525,0.2379144318823623,10,1,100,-0.13465132268993915,-10,-1,-100,19216.280101493117,0.012599291535012139,0.02156727834906673,0.9996880065087455,59.54451965625688,3.621818542669292,283.082545711623,-84.5316947806466,-150.69383239746094,4761.76025390625,True
1599387109.9503088,0.0,10,0.5,0.5,8.725601100921631,-0.15025,-0.001,-0.37525,0.23167754003716512,10,1,100,-0.18639851289954124,-10,-1,-100,19212.887898223125,0.013061862961827977,0.02151184898611694,0.9996832638836989,59.67855962201002,3.6300006004830094,285.00131816175906,-84.8962038995607,-149.83004760742188,4761.76025390625,True
1599387109.9834511,0.0,10,0.5,0.5,8.078598385620117,-0.15025,-0.001,-0.37525,0.2284487738177201,10,1,100,-0.19455799117141578,-10,-1,-100,19207.772256409167,0.013548939883610498,0.02143335589354202,0.9996784670498665,59.95050396739249,3.646680778205138,288.23176894398273,-85.44293358712126,-147.98147583007812,4761.76025390625,True
1599387110.0193546,0.0,10,0.5,0.5,7.930821983337402,-0.15025,-0.001,-0.37525,0.23270405251331178,10,1,100,-0.16633024449974312,-10,-1,-100,19204.34360482951,0.013728317395784678,0.02140183251846532,0.9996766951701596,60.164679932508264,3.6598920994847735,290.55435974195075,-85.80739512002195,-146.3803253173828,4761.76025390625,True
1599387110.058252,0.0,10,0.5,0.5,8.531324741363525,-0.15025,-0.001,-0.37525,0.23574665047124987,10,1,100,-0.1490310152155682,-10,-1,-100,19204.34360482951,0.013728317395784678,0.02140183251846532,0.9996766951701596,60.164679932508264,3.6598920994847735,290.55435974195075,-85.80739512002195,-146.3803253173828,4761.76025390625,True
1599387110.0971832,0.0,10,0.5,0.5,7.5345164405822755,-0.15025,-0.001,-0.37525,0.2339283151462381,10,1,100,-0.15625738432392397,-10,-1,-100,19200.900375510682,0.013789760413906272,0.02138601695429702,0.9996761879661622,60.392022130278896,3.6740030969452246,292.9503675124502,-86.1718358089573,-144.48431396484375,4761.76025390625,True
1599387110.1340768,0.0,10,0.5,0.5,7.094320056152343,-0.15025,-0.001,-0.37525,0.23255265227535168,10,1,100,-0.14544199678294525,-10,-1,-100,19197.442569172243,0.013742988894400709,0.02135986227734429,0.999677391231662,60.61902171996342,3.688218050123008,295.3548464166045,-86.53625559821475,-142.29396057128906,4761.76025390625,True
1599387110.169951,0.0,10,0.5,0.5,5.898760622406005,-0.15025,-0.001,-0.37525,0.22976548116507756,10,1,100,-0.11952594512240877,-10,-1,-100,19192.228529753513,0.013462294960356627,0.021311219197522515,0.9996822487924429,60.92091121648696,3.707487013248024,298.7913215166259,-87.08284870929629,-138.45654296875,4761.76025390625,True
1599387110.2038615,0.0,10,0.5,0.5,6.5879686767578125,-0.15025,-0.001,-0.37525,0.232269602229296,10,1,100,-0.1313933852013816,-10,-1,-100,19190.483228936093,0.013312685750667652,0.021290278992205924,0.9996846985017516,61.00156446373199,3.7127873110673897,299.8432180665072,-87.26503790689614,-137.03033447265625,4761.76025390625,True
1599387110.2397666,0.0,10,0.5,0.5,6.333664678955078,-0.15025,-0.001,-0.37525,0.23130755253217306,10,1,100,-0.12725362598662376,-10,-1,-100,19188.734284428065,0.013137862054370479,0.021262839739537784,0.9996875953150819,61.06781368282917,3.7172628106733323,300.8260570153484,-87.44722361037567,-135.5306854248047,4761.76025390625,True
1599387110.276206,0.0,10,0.5,0.5,5.20298950881958,-0.15025,-0.001,-0.37525,0.22576572868039088,10,1,100,-0.09797698255487898,-10,-1,-100,19185.225464183022,0.012712290507885042,0.021187791509922844,0.9996946909736867,61.145284289379354,3.723029849856511,302.5243304419782,-87.81158690864731,-132.3110809326172,4761.76025390625,True
1599387110.3111126,0.0,10,0.5,0.5,2.5627923126220704,-0.15025,-0.001,-0.37525,0.20604560826847368,10,1,100,-0.013261821142541264,-10,-1,-100,19178.16410091787,0.011555166726447146,0.0209406370127456,0.9997139430074107,60.98951393309513,3.7163344721825906,304.3833006230678,-88.54030400175395,-124.9913558959961,4761.76025390625,True
1599387110.349012,0.0,10,0.5,0.5,3.15271459236145,-0.15025,-0.001,-0.37525,0.20935286000171538,10,1,100,-0.05094243750605297,-10,-1,-100,19174.611557534197,0.01084715679774951,0.020746536314680642,0.9997259226509777,60.70111232691837,3.700481778340694,304.25464591080066,-88.90467453839737,-120.89179229736328,4761.76025390625,True
1599387110.380929,0.0,10,0.5,0.5,3.5535254947662356,-0.15025,-0.001,-0.37525,0.21528946037584618,10,1,100,-0.08097173976516474,-10,-1,-100,19172.829819964245,0.010478961231367096,0.020624674610367197,0.9997323712717957,60.49117473283838,3.688611181069757,303.85608614308234,-89.08686719061993,-118.73224639892578,4761.76025390625,True
1599387110.4158378,0.0,10,0.5,0.5,4.361130285263061,-0.15025,-0.001,-0.37525,0.22739791501638087,10,1,100,-0.11746636078696447,-10,-1,-100,19172.829819964245,0.010478961231367096,0.020624674610367197,0.9997323712717957,60.49117473283838,3.688611181069757,303.85608614308234,-89.08686719061993,-118.73224639892578,4761.76025390625,True
1599387110.4527366,0.0,10,0.5,0.5,1.9732525127410887,-0.15025,-0.001,-0.37525,0.19619076027874793,10,1,100,-0.02897480997867656,-10,-1,-100,19169.2554131503,0.009677446547804858,0.020341679710850623,0.9997462493527323,59.9188488306353,3.6556518939183715,302.2777298018813,-89.45127471252482,-114.19349670410156,4761.76025390625,True
1599387110.4901457,0.0,10,0.5,0.5,1.1345176643371584,-0.15025,-0.001,-0.37525,0.1861769854279089,10,1,100,-0.012151433435945436,-10,-1,-100,19165.666428592172,0.008799595515874451,0.019994326701049243,0.9997613685367766,59.11855178151636,3.6088012915373042,299.52170118306964,-89.81572181006496,-109.36215209960938,4761.76025390625,True
1599387110.5220606,0.0,10,0.5,0.5,0.25171670150756853,-0.15025,-0.001,-0.37525,0.17425002314108376,10,1,100,0.004340544797938217,-10,-1,-100,19162.062864694162,0.007856116042337435,0.019571365703691664,0.9997775968110217,58.24627195375129,3.557450376585029,296.3669209745584,-90.18021526834995,-104.23851776123047,4761.76025390625,True
1599387110.5579646,0.0,10,0.5,0.5,0.7670888805389404,-0.15025,-0.001,-0.37525,0.19022037168464295,10,1,100,-0.03772991438102363,-10,-1,-100,19160.255614997703,0.00738596267612891,0.019333622377847887,0.9997858063610912,57.71485444675341,3.5258732074620167,294.29031991901536,-90.362482152588,-101.56706237792969,4761.76025390625,True
1599387110.6018474,0.0,10,0.5,0.5,-1.1568430000305177,-0.15025,-0.001,-0.37525,0.15539580647903176,10,1,100,0.023581881855927314,-10,-1,-100,19156.630178216496,0.00640655848930755,0.01880268390395195,0.9998026880771681,56.55692987372827,3.4566491387545923,289.6170103193683,-90.72705953763491,-96.0050277709961,4761.76025390625,True
1599387110.640772,0.0,10,0.5,0.5,-5.194988198471069,-0.15025,-0.001,-0.37525,0.06611360790640586,10,1,100,0.1498567593475666,-10,-1,-100,19149.335549747106,0.004374356981877832,0.017510592718691393,0.9998371088050467,56.54259531633157,3.457478718370495,292.00921926328994,-91.45631700621385,-84.35641479492188,4761.76025390625,True
1599387110.678642,0.0,10,0.5,0.5,-0.8286416458129883,-0.15025,-0.001,-0.37525,0.19495500655333825,10,1,100,-0.05252959804280451,-10,-1,-100,19149.335549747106,0.004374356981877832,0.017510592718691393,0.9998371088050467,56.54259531633157,3.457478718370495,292.00921926328994,-91.45631700621385,-84.35641479492188,4761.76025390625,True
1599387110.7175376,0.0,10,0.5,0.5,-6.850985550689696,-0.15025,-0.001,-0.37525,0.028713603308397728,10,1,100,0.16390958739084832,-10,-1,-100,19141.982595531153,0.002413256032248778,0.016002425456731983,0.9998690407122447,60.61324734039765,3.70641721669802,315.67612227856836,-92.18523337965053,-72.9039306640625,4761.76025390625,True
1599387110.7554355,0.0,10,0.5,0.5,-2.558239666748047,-0.15025,-0.001,-0.37525,0.1790559184185439,10,1,100,-0.031357117495506966,-10,-1,-100,19141.982595531153,0.002413256032248778,0.016002425456731983,0.9998690407122447,60.61324734039765,3.70641721669802,315.67612227856836,-92.18523337965053,-72.9039306640625,4761.76025390625,True
1599387110.7893448,0.0,10,0.5,0.5,-6.710949634552001,-0.15025,-0.001,-0.37525,0.03498705379722167,10,1,100,0.1284734717810809,-10,-1,-100,19136.42962289392,0.0009675831344608143,0.014696910550314177,0.999891526418318,62.86781831632271,3.8438445090077287,329.473704281217,-92.73167102984628,-65.01025390625,4761.76025390625,True
1599387110.8252492,0.0,10,0.5,0.5,-3.7542196304321287,-0.15025,-0.001,-0.37525,0.164945768032997,10,1,100,-0.015142680188024867,-10,-1,-100,19136.42962289392,0.0009675831344608143,0.014696910550314177,0.999891526418318,62.86781831632271,3.8438445090077287,329.473704281217,-92.73167102984628,-65.01025390625,4761.76025390625,True
1599387110.8621507,0.0,10,0.5,0.5,-6.338238327026367,-0.15025,-0.001,-0.37525,0.06474405248461501,10,1,100,0.085885786915692,-10,-1,-100,19132.709429842187,5.706058207551911e-05,0.013791117471838464,0.9999048963891356,64.02388696063858,3.9143055283163224,336.92733513368336,-93.09586617149972,-60.10235595703125,4761.76025390625,True
1599387110.8990514,0.0,10,0.5,0.5,-6.925289825439452,-0.15025,-0.001,-0.37525,0.05735701758926576,10,1,100,0.09040932011335948,-10,-1,-100,19128.974670609226,-0.0008038624628591817,0.012906153637111197,0.9999163890063189,64.93096442377774,3.9697284614039963,343.1153430816072,-93.45999956981362,-55.489959716796875,4761.76025390625,True
1599387110.9359534,0.0,10,0.5,0.5,-7.466271332550048,-0.15025,-0.001,-0.37525,0.03624055591170827,10,1,100,0.09780470777987214,-10,-1,-100,19125.225347779808,-0.0016458778656724825,0.01191573251035096,0.9999276505851776,65.62022847324332,4.0120981209912765,348.18724835756586,-93.8240844252671,-51.1761474609375,4761.76025390625,True
1599387110.973852,0.0,10,0.5,0.5,-7.963805716705322,-0.15025,-0.001,-0.37525,0.03153765949123777,10,1,100,0.10189720353870987,-10,-1,-100,19121.461462585372,-0.0024403401564541886,0.010979339600262372,0.9999367474204871,66.12396628408237,4.04342919020413,352.30123910795527,-94.18813263689577,-47.158538818359375,4761.76025390625,True
1599387111.0107534,0.0,10,0.5,0.5,-7.458086186218261,-0.15025,-0.001,-0.37525,0.07157830502601101,10,1,100,0.06587702022555787,-10,-1,-100,19119.57405977638,-0.00282707975554912,0.010499191318046767,0.9999408855536025,66.31628940434271,4.055571284622078,354.0488781499238,-94.37014632900095,-45.26129150390625,4761.76025390625,True
1599387111.0476544,0.0,10,0.5,0.5,-9.50702024230957,-0.15025,-0.001,-0.37525,-0.03924378781659921,10,1,100,0.1504123441584927,-10,-1,-100,19113.890009968425,-0.003940617393446259,0.009061593309645802,0.9999511783388474,66.70064403564763,4.08066937188982,358.2840818131502,-94.9161595964919,-40.014923095703125,4761.76025390625,True
1599387111.0845556,0.0,10,0.5,0.5,-8.3837984085083,-0.15025,-0.001,-0.37525,0.051570818347501456,10,1,100,0.0790260602079671,-10,-1,-100,19111.988046587678,-0.00429639905164313,0.008587954266599517,0.9999538929354213,66.77666644998857,4.085987211137054,359.42170298725404,-95.09815764508039,-38.414459228515625,4761.76025390625,True
1599387111.1194623,0.0,10,0.5,0.5,-10.076033412170409,-0.15025,-0.001,-0.37525,-0.05587217092436336,10,1,100,0.15724938976123487,-10,-1,-100,19106.260317445034,-0.005324858414048273,0.0071873592988042434,0.999959993074313,66.89535942268164,4.095593547814453,362.2546949193452,-95.6441422194715,-34.05792236328125,4761.76025390625,True
1599387111.154369,0.0,10,0.5,0.5,-9.130516317749024,-0.15025,-0.001,-0.37525,0.034918664391153806,10,1,100,0.09221972750504946,-10,-1,-100,19104.343794691726,-0.005661608073500084,0.006747476072911358,0.9999612081279291,66.90889215302396,4.097298804457465,363.06037119681855,-95.82613524722561,-32.753662109375,4761.76025390625,True
1599387111.1882782,0.0,10,0.5,0.5,-9.897945651245118,-0.15025,-0.001,-0.37525,-0.022372155530671095,10,1,100,0.12955696721170432,-10,-1,-100,19100.499829595326,-0.006301147041964082,0.00583398335415342,0.9999631294123693,66.91376558873229,4.09946342533055,364.55307035773103,-96.1901206358552,-30.368072509765625,4761.76025390625,True
1599387111.223218,0.0,10,0.5,0.5,-10.595530924987791,-0.15025,-0.001,-0.37525,-0.06853310103414306,10,1,100,0.1715735347605381,-10,-1,-100,19094.706582899555,-0.007257906963578547,0.004591947675429332,0.9999631177213759,66.90242366614171,4.101777422650812,366.6937105929784,-96.73609776754071,-27.34368896484375,4761.76025390625,True
1599387111.258126,0.0,10,0.5,0.5,-10.329150442504883,-0.15025,-0.001,-0.37525,-0.031205433419867444,10,1,100,0.14551028780971573,-10,-1,-100,19090.82621907175,-0.0078841001313609,0.003810529645624857,0.9999616596794793,66.90737701212142,4.104180741780994,368.19150002016465,-97.1000810501809,-25.697174072265625,4761.76025390625,True
1599387111.2939956,0.0,10,0.5,0.5,-10.088754698181154,-0.15025,-0.001,-0.37525,0.0062675738673747886,10,1,100,0.11830574368999332,-10,-1,-100,19088.880577694857,-0.008199616030376014,0.003449082070224342,0.9999604342821906,66.9191179012173,4.105969183049858,368.9922099435097,-97.28207162177465,-24.98455810546875,4761.76025390625,True
1599387111.327905,0.0,10,0.5,0.5,-10.456351235961913,-0.15025,-0.001,-0.37525,-0.035374621906763444,10,1,100,0.15600774468753242,-10,-1,-100,19084.978375189938,-0.008823236185672198,0.0027496249041318232,0.9999572941211531,66.96877601214206,4.1111785489947135,370.7405733867486,-97.64604949218774,-23.781158447265625,4761.76025390625,True
1599387111.363843,0.0,10,0.5,0.5,-10.484229661560057,-0.15025,-0.001,-0.37525,-0.03863063506760213,10,1,100,0.1620827920835369,-10,-1,-100,19081.061613850412,-0.009439588670424026,0.0020916361923093004,0.9999532585195031,67.06125052971922,4.119041958208999,372.73070395040656,-98.01002047438877,-22.87322998046875,4761.76025390625,True
1599387111.399714,0.0,10,0.5,0.5,-10.326232528686523,-0.15025,-0.001,-0.37525,-0.0065951917577971725,10,1,100,0.13546722180652762,-10,-1,-100,19079.09777383483,-0.009751938009575717,0.0017923391708559043,0.9999508424044425,67.1260054299571,4.12411817846352,373.8309940358556,-98.19200240608194,-22.529815673828125,4761.76025390625,True
1599387111.435616,0.0,10,0.5,0.5,-10.443694914245604,-0.15025,-0.001,-0.37525,-0.03895893470969207,10,1,100,0.17343095876024173,-10,-1,-100,19075.159174844623,-0.010375733816914538,0.001232643537370854,0.9999454108788493,67.29623869723557,4.1367847270502,376.26462491468175,-98.55595688236134,-22.06439208984375,4761.76025390625,True
1599387111.4685276,0.0,10,0.5,0.5,-10.33484370727539,-0.15025,-0.001,-0.37525,-0.012262197817847644,10,1,100,0.14593334119729856,-10,-1,-100,19073.184416211676,-0.010687315905045553,0.0009732135793368747,0.9999424154090447,67.4027921006189,4.144441356818251,377.60486067317913,-98.73792850563805,-21.942291259765625,4761.76025390625,True
1599387111.5049403,0.0,10,0.5,0.5,-10.315575373840334,-0.15025,-0.001,-0.37525,-0.014816542182218114,10,1,100,0.14914182526210368,-10,-1,-100,19071.206018427503,-0.010994865424398344,0.0007197960739203141,0.9999392955714419,67.52416100428033,4.15301270428938,379.03093461291746,-98.91989572902527,-21.894073486328125,4761.76025390625,True
1599387111.5418413,0.0,10,0.5,0.5,-10.23313670501709,-0.15025,-0.001,-0.37525,-0.03964918746328989,10,1,100,0.18720085355052418,-10,-1,-100,19067.238304828526,-0.01161559864702207,0.0002691449118945983,0.9999325004364484,67.81168363685822,4.172921711041397,382.14441321395316,-99.28381512685071,-22.018585205078125,4761.76025390625,True
1599387111.5797405,0.0,10,0.5,0.5,-9.892022251892088,-0.15025,-0.001,-0.37525,-0.05910980783543417,10,1,100,0.22730989015947814,-10,-1,-100,19061.259441762348,-0.012539697862574984,-0.0003123937492916741,0.999921326099039,68.35316536983025,4.20959553747366,387.4651692420853,-99.82964873019037,-22.758209228515625,4761.76025390625,True
1599387111.6186378,0.0,10,0.5,0.5,-9.433141184997558,-0.15025,-0.001,-0.37525,-0.04927695450960713,10,1,100,0.23676739814799055,-10,-1,-100,19055.2478315318,-0.013460963775792296,-0.0007472171915673842,0.9999091179305724,69.01598794519414,4.253765775354335,393.51579636703076,-100.3754165470745,-24.16046142578125,4761.76025390625,True
1599387111.6575322,0.0,10,0.5,0.5,-9.636601290893553,-0.15025,-0.001,-0.37525,-0.017559883258943414,10,1,100,0.17879842208685248,-10,-1,-100,19053.236684937263,-0.013766417674848205,-0.0008500308124145485,0.9999048770718241,69.26001767726908,4.2699121274722485,395.6747451706153,-100.55732250705029,-24.77490234375,4761.76025390625,True
1599387111.698428,0.0,10,0.5,0.5,-8.66664630432129,-0.15025,-0.001,-0.37525,-0.029909702206149167,10,1,100,0.24816935212120567,-10,-1,-100,19047.18141841609,-0.014669687127352721,-0.0010518605373568966,0.9998918410853224,70.04317372743301,4.321470786226459,402.4784003752265,-101.10298513540911,-27.059478759765625,4761.76025390625,True
1599387111.736362,0.0,10,0.5,0.5,-9.523605772399902,-0.15025,-0.001,-0.37525,-0.010106878256063231,10,1,100,0.15842705196492204,-10,-1,-100,19047.18141841609,-0.014669687127352721,-0.0010518605373568966,0.9998918410853224,70.04317372743301,4.321470786226459,402.4784003752265,-101.10298513540911,-27.059478759765625,4761.76025390625,True
1599387112.067052,0.0,10,0.5,0.5,-8.529551451110839,-0.15025,-0.001,-0.37525,-0.017116050135000737,10,1,100,0.22392566638165734,-10,-1,-100,19043.12638680311,-0.015260374441634925,-0.0011127225574111773,0.9998829345580468,70.59160856246521,4.357410265074241,407.1956209493392,-101.46671161620799,-28.9503173828125,4761.76025390625,True
1599387112.100961,0.0,10,0.5,0.5,-7.458757965087891,-0.15025,-0.001,-0.37525,-0.0023552717352243596,10,1,100,0.25891052925918023,-10,-1,-100,19037.016562907607,-0.01611039944765799,-0.0010312218068004955,0.999869687314913,71.41478424735392,4.411170287250329,414.3208281717443,-102.01222586161838,-32.33697509765625,4761.76025390625,True
1599387112.1368654,0.0,10,0.5,0.5,-8.728574014282227,-0.15025,-0.001,-0.37525,-0.010731733330709682,10,1,100,0.1744814952199479,-10,-1,-100,19037.016562907607,-0.01611039944765799,-0.0010312218068004955,0.999869687314913,71.41478424735392,4.411170287250329,414.3208281717443,-102.01222586161838,-32.33697509765625,4761.76025390625,True
1599387112.1923347,0.0,10,0.5,0.5,-7.3481772308349615,-0.15025,-0.001,-0.37525,0.005361414477097646,10,1,100,0.23381550497578873,-10,-1,-100,19032.92516482703,-0.016644869460399624,-0.0008830982491057585,0.9998610745789281,71.93535202486183,4.445072991366386,418.93750737760683,-102.37585237520716,-34.961822509765625,4761.76025390625,True
1599387112.228235,0.0,10,0.5,0.5,-6.798259425354003,-0.15025,-0.001,-0.37525,0.015257960968883679,10,1,100,0.2350380136239123,-10,-1,-100,19028.819222853286,-0.01713672863784223,-0.0006570146882551918,0.9998529396182683,72.40626516375124,4.475681965548473,423.2873965283566,-102.73944192303676,-37.880157470703125,4761.76025390625,True
1599387112.2611177,0.0,10,0.5,0.5,-6.203773289489746,-0.15025,-0.001,-0.37525,0.02216285588128794,10,1,100,0.2394492911473466,-10,-1,-100,19024.698738301988,-0.017618956658465985,-0.000387870443187229,0.9998446989021778,72.80055266588577,4.501265422875509,427.2090571122161,-103.10299890980708,-41.09234619140625,4761.76025390625,True
1599387112.292543,0.0,10,0.5,0.5,-5.565289294433594,-0.15025,-0.001,-0.37525,0.03414904450416584,10,1,100,0.23737159133550162,-10,-1,-100,19020.563711898634,-0.018033840080019996,-3.4159890468467764e-05,0.9998373764993336,73.09153400952866,4.520111802286717,430.540472270432,-103.46652967969617,-44.597625732421875,4761.76025390625,True
1599387112.3264534,0.0,10,0.5,0.5,-3.8264262649536134,-0.15025,-0.001,-0.37525,0.06797502407827351,10,1,100,0.25498545893113933,-10,-1,-100,19014.333909196896,-0.01856697573566196,0.0005942558287667495,0.9998274422479316,73.26110753350271,4.531121332232196,433.9830538677218,-104.01179659518911,-50.40576171875,4761.76025390625,True
1599387112.3623571,0.0,10,0.5,0.5,-3.775924893188477,-0.15025,-0.001,-0.37525,0.057993524368353325,10,1,100,0.23269817783671842,-10,-1,-100,19010.16253168229,-0.018844668723513727,0.0010734889519438714,0.9998218471718704,73.14514831938853,4.523772912498493,434.92494133358065,-104.37530551202113,-54.64447021484375,4761.76025390625,True
1599387112.3928213,0.0,10,0.5,0.5,-5.363741757202149,-0.15025,-0.001,-0.37525,0.010282746999571206,10,1,100,0.20534637721115798,-10,-1,-100,19010.16253168229,-0.018844668723513727,0.0010734889519438714,0.9998218471718704,73.14514831938853,4.523772912498493,434.92494133358065,-104.37530551202113,-54.64447021484375,4761.76025390625,True
1599387112.442651,0.0,10,0.5,0.5,-4.189465298461914,-0.15025,-0.001,-0.37525,0.0382825420290315,10,1,100,0.2174322423067503,-10,-1,-100,19008.071390174795,-0.018950744786568056,0.0013261004072214189,0.9998195390818007,73.00474666262974,4.514852969062483,434.9038366934229,-104.5570645722346,-56.873809814453125,4761.76025390625,True
1599387112.479553,0.0,10,0.5,0.5,-2.5645860733032224,-0.15025,-0.001,-0.37525,0.07166211576169498,10,1,100,0.22535958078934687,-10,-1,-100,19003.878201480606,-0.019115889402509294,0.0018569807432573732,0.9998155501865681,72.53453101024108,4.485050272783337,433.72182328722346,-104.92060227308639,-61.552490234375,4761.76025390625,True
1599387112.5144594,0.0,10,0.5,0.5,-1.704721673583984,-0.15025,-0.001,-0.37525,0.0815859064038336,10,1,100,0.22128956150728885,-10,-1,-100,18999.6704698822,-0.019226288432660027,0.002427189870445812,0.999812211658988,71.78164992943044,4.437542691239924,430.8256630715453,-105.28418052185638,-66.524169921875,4761.76025390625,True
1599387112.5484014,0.0,10,0.5,0.5,-0.8001605590820313,-0.15025,-0.001,-0.37525,0.08856162493291207,10,1,100,0.2129505753004978,-10,-1,-100,18995.448193497024,-0.019248009595476227,0.0030058334166294274,0.9998102215381095,70.71262467616722,4.3704423907372325,425.9950702663641,-105.64781768151384,-71.7891845703125,4761.76025390625,True
1599387112.5803223,0.0,10,0.5,0.5,0.14872211303710903,-0.15025,-0.001,-0.37525,0.09465866261358294,10,1,100,0.205130074408049,-10,-1,-100,18991.211369365337,-0.019194294153436806,0.0035837652269245083,0.9998093496756016,69.292376566064,4.281813941945375,418.99670411724776,-106.01153180182312,-77.34750366210938,4761.76025390625,True
1599387112.6161876,0.0,10,0.5,0.5,-0.4148527664184569,-0.15025,-0.001,-0.37525,0.06886389733288453,10,1,100,0.2048798636648037,-10,-1,-100,18989.08750077698,-0.01914131677617547,0.0038708046610817057,0.9998092952475236,68.4404471110973,4.228883742829221,414.61593080404833,-106.1934233228369,-80.23663330078125,4761.76025390625,True
1599387112.650097,0.0,10,0.5,0.5,1.6523188568115232,-0.15025,-0.001,-0.37525,0.10234376244833691,10,1,100,0.192587109505491,-10,-1,-100,18984.828848240548,-0.01898001924983713,0.004432240488543026,0.9998100390141758,66.43595202268453,4.104899877003792,403.97118020977075,-106.55728502099565,-86.22598266601562,4761.76025390625,True
1599387112.6820116,0.0,10,0.5,0.5,4.221128966522216,-0.15025,-0.001,-0.37525,0.13361858673285057,10,1,100,0.16804766484071498,-10,-1,-100,18978.41357400641,-0.01860943911151357,0.005222892915749794,0.9998131876333427,66.00469103300385,4.079572005624632,403.58588776953957,-107.10319038449994,-95.38326263427734,4761.76025390625,True
1599387112.7199104,0.0,10,0.5,0.5,0.7893574085235595,-0.15025,-0.001,-0.37525,0.055016207720872026,10,1,100,0.2051099250106561,-10,-1,-100,18978.41357400641,-0.01860943911151357,0.005222892915749794,0.9998131876333427,66.00469103300385,4.079572005624632,403.58588776953957,-107.10319038449994,-95.38326263427734,4761.76025390625,True
1599387112.7568297,0.0,10,0.5,0.5,4.023376752853393,-0.15025,-0.001,-0.37525,0.10779911141200255,10,1,100,0.16919689861822448,-10,-1,-100,18974.118531790446,-0.018283170898502375,0.00569896530933843,0.9998166069116371,68.0573293336886,4.2083430057658555,417.6747614979817,-107.46699457541712,-101.5296859741211,4761.76025390625,True
1599387112.793715,0.0,10,0.5,0.5,7.818966683578491,-0.15025,-0.001,-0.37525,0.1483561246357171,10,1,100,0.11352979736547023,-10,-1,-100,18965.484807209577,-0.01748100932785353,0.006496253536127873,0.9998260913793326,71.64925906983217,4.435748648678943,442.95238181334736,-108.19422795655454,-113.13262939453125,4761.76025390625,True
1599387112.8256273,0.0,10,0.5,0.5,3.470588047027588,-0.15025,-0.001,-0.37525,0.06914431726966351,10,1,100,0.1935989808844831,-10,-1,-100,18965.484807209577,-0.01748100932785353,0.006496253536127873,0.9998260913793326,71.64925906983217,4.435748648678943,442.95238181334736,-108.19422795655454,-113.13262939453125,4761.76025390625,True
1599387112.8625615,0.0,10,0.5,0.5,4.915177930450439,-0.15025,-0.001,-0.37525,0.08696781380984767,10,1,100,0.16921579215064952,-10,-1,-100,18963.31728786847,-0.017260830230341095,0.006654067802136028,0.9998288789195098,72.40991298393068,4.484229701920167,448.47056470579304,-108.37596509846901,-115.87179565429688,4761.76025390625,True
1599387112.899431,0.0,10,0.5,0.5,9.266980719757079,-0.15025,-0.001,-0.37525,0.12560043086319606,10,1,100,0.08428142251182205,-10,-1,-100,18954.610871889046,-0.016290323561524375,0.007144898309963255,0.9998417753756846,74.55875413994131,4.622318772129634,465.13432441653646,-109.1026959872478,-126.09965515136719,4761.76025390625,True
1599387112.934336,0.0,10,0.5,0.5,7.888900471496582,-0.15025,-0.001,-0.37525,0.09297765721814605,10,1,100,0.12440091147611294,-10,-1,-100,18950.23586568213,-0.015775456204124502,0.007290774406766339,0.9998489783912877,75.16096814652857,4.661503054917347,470.580789812309,-109.46596852924674,-130.7704315185547,4761.76025390625,True
1599387112.9712718,0.0,10,0.5,0.5,6.141533932495117,-0.15025,-0.001,-0.37525,0.07876074845582182,10,1,100,0.17554576342116893,-10,-1,-100,18950.23586568213,-0.015775456204124502,0.007290774406766339,0.9998489783912877,75.16096814652857,4.661503054917347,470.580789812309,-109.46596852924674,-130.7704315185547,4761.76025390625,True
1599387113.0031521,0.0,10,0.5,0.5,8.445401239013671,-0.15025,-0.001,-0.37525,0.08926462684228283,10,1,100,0.12101391102872733,-10,-1,-100,18945.846329569235,-0.015282771964713261,0.007383155146874453,0.9998559525757457,75.50342233483575,4.684064888578623,474.422261451116,-109.8292051624571,-135.14495849609375,4761.76025390625,True
1599387113.040053,0.0,10,0.5,0.5,7.899844356536865,-0.15025,-0.001,-0.37525,0.08257522830699773,10,1,100,0.14114448716253442,-10,-1,-100,18943.646113132127,-0.015021243573087765,0.0074036422742353005,0.9998597643282747,75.59173207467646,4.6900066228743436,475.82712819400876,-110.0108152601858,-137.22125244140625,4761.76025390625,True
1599387113.0759573,0.0,10,0.5,0.5,9.190510928344727,-0.15025,-0.001,-0.37525,0.07922292925572494,10,1,100,0.10979354845722004,-10,-1,-100,18939.23478393152,-0.014501743952051206,0.007389808990134967,0.9998675362994032,75.6266028489806,4.692726391324911,477.7483989302332,-110.3740278848919,-141.15200805664062,4761.76025390625,True
1599387113.1128588,0.0,10,0.5,0.5,10.526929424285889,-0.15025,-0.001,-0.37525,0.06718940108637547,10,1,100,0.07972952269496178,-10,-1,-100,18932.59054919379,-0.013759896512506043,0.007265867642982047,0.9998789288785718,75.39349465499691,4.678300010599848,478.8241695443679,-110.9188489089466,-146.49331665039062,4761.76025390625,True
1599387113.143776,0.0,10,0.5,0.5,9.385054502868652,-0.15025,-0.001,-0.37525,0.07150663683019279,10,1,100,0.12655712897178223,-10,-1,-100,18930.368540002033,-0.01351530732851426,0.007191016832028964,0.9998828060051524,75.2580004691832,4.669734656550977,478.8127207554177,-111.10046085873971,-148.12596130371094,4761.76025390625,True
1599387113.1796792,0.0,10,0.5,0.5,10.375216544342038,-0.15025,-0.001,-0.37525,0.058925417767001366,10,1,100,0.09881127890073191,-10,-1,-100,18925.91362444905,-0.013044323707875217,0.007007964318500874,0.9998903610172041,74.92494088415549,4.648563817516623,478.3862295657336,-111.46369667278786,-151.16937255859375,4761.76025390625,True
1599387113.2160914,0.0,10,0.5,0.5,10.680990574645994,-0.15025,-0.001,-0.37525,0.05116334200549616,10,1,100,0.09520305256017968,-10,-1,-100,18921.44417875074,-0.012587388072943774,0.006770523425841316,0.9998978536200791,74.53566313317822,4.623724104294274,477.58706476365546,-111.82695126111373,-153.91725158691406,4761.76025390625,True
1599387113.2539895,0.0,10,0.5,0.5,10.317480548858642,-0.15025,-0.001,-0.37525,0.059119204872565154,10,1,100,0.11601506873942045,-10,-1,-100,18919.204006910208,-0.012365440772051376,0.006626888226193521,0.9999015852707456,74.32864238047237,4.610492285478351,477.1023745484227,-112.0085862041816,-155.18048095703125,4761.76025390625,True
1599387113.2859347,0.0,10,0.5,0.5,11.604849542236327,-0.15025,-0.001,-0.37525,0.020248306120170756,10,1,100,0.0680854487178026,-10,-1,-100,18912.461694276542,-0.011731514755397646,0.006143409883386277,0.999912311193611,73.6945627403792,4.5699071739353405,475.53993224653124,-112.55352217110382,-158.52679443359375,4761.76025390625,True
1599387113.3228393,0.0,10,0.5,0.5,10.351921046447753,-0.15025,-0.001,-0.37525,0.06848140394855717,10,1,100,0.13107365623830297,-10,-1,-100,18912.461694276542,-0.011731514755397646,0.006143409883386277,0.999912311193611,73.6945627403792,4.5699071739353405,475.53993224653124,-112.55352217110382,-158.52679443359375,4761.76025390625,True
1599387113.3647282,0.0,10,0.5,0.5,11.333129315185547,-0.15025,-0.001,-0.37525,0.02581406123958732,10,1,100,0.08693280771958925,-10,-1,-100,18907.948653743137,-0.011333910624726364,0.005756568008325988,0.9999191989329519,73.28850857235632,4.54387330099464,474.5852102247267,-112.91683705633413,-160.38870239257812,4761.76025390625,True
1599387113.4016325,0.0,10,0.5,0.5,12.128540843200682,-0.15025,-0.001,-0.37525,-0.0340237432926661,10,1,100,0.04511763349997884,-10,-1,-100,18898.878972683917,-0.010595904250610546,0.004862392250831192,0.9999320396680521,72.59655682071616,4.499352532487316,473.4102569551842,-113.64351300378138,-163.22708129882812,4761.76025390625,True
1599387113.4375365,0.0,10,0.5,0.5,11.579271446228027,-0.15025,-0.001,-0.37525,0.0004180264649862597,10,1,100,0.08031269698303577,-10,-1,-100,18894.32233149011,-0.010248967523371663,0.004364922423654039,0.9999379511334392,72.33830363430313,4.482596341424847,473.37598795559563,-114.00686629188702,-164.2037353515625,4761.76025390625,True
1599387113.4754345,0.0,10,0.5,0.5,11.573289334106445,-0.15025,-0.001,-0.37525,-0.007216288197470382,10,1,100,0.07643404260557578,-10,-1,-100,18889.751156070735,-0.009902176164658206,0.0038460241625310953,0.9999435759108336,72.1525553501304,4.470372169701372,473.80769268502644,-114.37022369190561,-164.8853759765625,4761.76025390625,True
1599387113.50842,0.0,10,0.5,0.5,11.319342895507813,-0.15025,-0.001,-0.37525,0.04433155356677891,10,1,100,0.11072740644213672,-10,-1,-100,18889.751156070735,-0.009902176164658206,0.0038460241625310953,0.9999435759108336,72.1525553501304,4.470372169701372,473.80769268502644,-114.37022369190561,-164.8853759765625,4761.76025390625,True
1599387113.544326,0.0,10,0.5,0.5,11.442130165100098,-0.15025,-0.001,-0.37525,0.012844799029803122,10,1,100,0.09250885287750099,-10,-1,-100,18887.460117775598,-0.00973983761512866,0.0035628218418944954,0.999946219485705,72.08919481633609,4.46609952394331,474.2150716348694,-114.55190237737304,-165.1158447265625,4761.76025390625,True
1599387113.582222,0.0,10,0.5,0.5,11.454482148742676,-0.15025,-0.001,-0.37525,-0.09169573460929702,10,1,100,0.039647894332665856,-10,-1,-100,18878.259630289627,-0.009114707025233067,0.0023581286468481364,0.9999556796904195,72.04665981348651,4.462092976813981,477.23038149407756,-115.27860043545996,-165.30126953125,4761.76025390625,True
1599387113.6231155,0.0,10,0.5,0.5,11.386039892578125,-0.15025,-0.001,-0.37525,0.028332345417439578,10,1,100,0.101813685217454,-10,-1,-100,18878.259630289627,-0.009114707025233067,0.0023581286468481364,0.9999556796904195,72.04665981348651,4.462092976813981,477.23038149407756,-115.27860043545996,-165.30126953125,4761.76025390625,True
1599387113.6590192,0.0,10,0.5,0.5,10.865577255249022,-0.15025,-0.001,-0.37525,-0.11484917475313844,10,1,100,0.03173879732106888,-10,-1,-100,18869.001009397558,-0.008480617802308492,0.001060359154005923,0.9999634767131026,72.35591105660752,4.479770559872838,482.5924342755437,-116.00523871818478,-164.30892944335938,4761.76025390625,True
1599387113.6959186,0.0,10,0.5,0.5,11.238531086730957,-0.15025,-0.001,-0.37525,0.014419469458144867,10,1,100,0.09482262991821751,-10,-1,-100,18869.001009397558,-0.008480617802308492,0.001060359154005923,0.9999634767131026,72.35591105660752,4.479770559872838,482.5924342755437,-116.00523871818478,-164.30892944335938,4761.76025390625,True
1599387113.7288306,0.0,10,0.5,0.5,10.746821900939942,-0.15025,-0.001,-0.37525,-0.06561448430090308,10,1,100,0.06342098905051505,-10,-1,-100,18864.349901167094,-0.008198103700741277,0.0003373987114049237,0.9999663380623478,72.63822152757037,4.496420453796762,486.1398752710601,-116.36852116431825,-163.37213134765625,4761.76025390625,True
1599387113.764733,0.0,10,0.5,0.5,10.07016965942383,-0.15025,-0.001,-0.37525,-0.11161312088076566,10,1,100,0.03685619820467797,-10,-1,-100,18857.34599475877,-0.007702625334285278,-0.0007330809605066253,0.9999700656295992,73.20880269924727,4.530332274210587,492.47601657383854,-116.91338351930656,-161.41497802734375,4761.76025390625,True
1599387113.8006382,0.0,10,0.5,0.5,10.804410232543946,-0.15025,-0.001,-0.37525,-0.005124701010744539,10,1,100,0.08611470695864541,-10,-1,-100,18857.34599475877,-0.007702625334285278,-0.0007330809605066253,0.9999700656295992,73.20880269924727,4.530332274210587,492.47601657383854,-116.91338351930656,-161.41497802734375,4761.76025390625,True
1599387113.8375397,0.0,10,0.5,0.5,9.925545007324219,-0.15025,-0.001,-0.37525,-0.08719288793928646,10,1,100,0.0480867664569282,-10,-1,-100,18852.658563403762,-0.0073592316408052,-0.0014745208385986786,0.9999718333522969,73.6749249167157,4.55811820486379,497.30104914501294,-117.2765767705733,-159.74307250976562,4761.76025390625,True
1599387113.8694541,0.0,10,0.5,0.5,9.51937474822998,-0.15025,-0.001,-0.37525,-0.09487723391444235,10,1,100,0.04119675334503377,-10,-1,-100,18847.956605551997,-0.006986730840736864,-0.0022135779230009352,0.9999731424718056,74.1970685832146,4.589267337861301,502.5269890110045,-117.63972605443595,-157.77725219726562,4761.76025390625,True
1599387113.90435,0.0,10,0.5,0.5,9.682149714660644,-0.15025,-0.001,-0.37525,-0.06501051497510449,10,1,100,0.05900019199679263,-10,-1,-100,18845.60017991287,-0.006812593596894295,-0.0026084236438403408,0.9999733919932959,74.47464929394171,4.605827890741743,505.260908016743,-117.82128286532243,-156.68460083007812,4761.76025390625,True
1599387113.9402251,0.0,10,0.5,0.5,8.82712830657959,-0.15025,-0.001,-0.37525,-0.11149803947849464,10,1,100,0.03382600633423799,-10,-1,-100,18840.876435930608,-0.006428091909212585,-0.00338437793510177,0.9999736124620484,75.05485551445084,4.64044190405904,510.91813537459683,-118.1843591870317,-154.27890014648438,4761.76025390625,True
1599387113.9781246,0.0,10,0.5,0.5,8.310357872009277,-0.15025,-0.001,-0.37525,-0.11922871578121011,10,1,100,0.02645815901770432,-10,-1,-100,18836.13817039691,-0.006014006867638925,-0.004154849342107801,0.9999732841173009,75.65341063808745,4.676144563208127,516.7268792475764,-118.54738367128071,-151.57974243164062,4761.76025390625,True
1599387114.0145378,0.0,10,0.5,0.5,7.749530305480957,-0.15025,-0.001,-0.37525,-0.13002399280290122,10,1,100,0.020764276082827583,-10,-1,-100,18831.385385800153,-0.005588622166943622,-0.00494749588686597,0.9999721444053953,76.24930253472253,4.711686628984263,522.5442402500165,-118.91035527658997,-148.58770751953125,4761.76025390625,True
1599387114.0534377,0.0,10,0.5,0.5,7.14424137878418,-0.15025,-0.001,-0.37525,-0.13607298788591918,10,1,100,0.01203987271926886,-10,-1,-100,18826.618083468522,-0.005125225131765871,-0.005717612832818222,0.9999705200508877,76.81976566860403,4.7457266637953355,528.213402186861,-119.2732745614265,-145.30230712890625,4761.76025390625,True
1599387114.0903347,0.0,10,0.5,0.5,7.454231143188475,-0.15025,-0.001,-0.37525,-0.10182498616943833,10,1,100,0.03151337418452077,-10,-1,-100,18824.228989099385,-0.004884037288261609,-0.006100211884455148,0.9999694663312134,77.08724618004693,4.761700356999639,530.9352772473334,-119.45471523145679,-143.54977416992188,4761.76025390625,True
1599387114.1262398,0.0,10,0.5,0.5,6.152492414855956,-0.15025,-0.001,-0.37525,-0.14709587141628622,10,1,100,-0.00016439790224208328,-10,-1,-100,18819.439914966002,-0.004379808653753053,-0.0068537303331001895,0.999966921281238,77.56865444779714,4.790495580683809,536.0269156760404,-119.81756138421501,-139.824951171875,4761.76025390625,True
1599387114.1611497,0.0,10,0.5,0.5,5.4367156600952145,-0.15025,-0.001,-0.37525,-0.15209938165536335,10,1,100,-0.008895624115850903,-10,-1,-100,18814.636328183464,-0.00384506494469477,-0.0075786693346122065,0.9999638889713406,77.95302329626386,4.813581305592099,540.4674551348667,-120.1803658265605,-135.80714416503906,4761.76025390625,True
1599387114.1980476,0.0,10,0.5,0.5,4.676764850616455,-0.15025,-0.001,-0.37525,-0.15884668776797123,10,1,100,-0.017446102036924344,-10,-1,-100,18809.818230129313,-0.0032847095557134724,-0.008292820674852198,0.9999602191129352,78.20719725731978,4.828997800471875,544.0200167338555,-120.54313766811029,-131.496826171875,4761.76025390625,True
1599387114.23398,0.0,10,0.5,0.5,3.8723237861633306,-0.15025,-0.001,-0.37525,-0.1602611564142753,10,1,100,-0.026730325976613838,-10,-1,-100,18804.98562210973,-0.0026945976409015627,-0.00894870951745836,0.9999563289171811,78.29653131783904,4.834673718973906,546.4344776777442,-120.9058885162662,-126.89347076416016,4761.76025390625,True
1599387114.266863,0.0,10,0.5,0.5,3.023858716201782,-0.15025,-0.001,-0.37525,-0.16341524263545762,10,1,100,-0.0352389313471416,-10,-1,-100,18800.138504142873,-0.0020846832451585154,-0.009567522765843385,0.9999520571526879,78.1835563428715,4.828328505859353,547.4379284870705,-121.26863291847324,-121.99758911132812,4761.76025390625,True
1599387114.3037648,0.0,10,0.5,0.5,2.131029180908203,-0.15025,-0.001,-0.37525,-0.1644740208341831,10,1,100,-0.043696103523288315,-10,-1,-100,18795.276875962736,-0.0014576303295650802,-0.010133379066980001,0.999947593598038,77.83008651270305,4.80758598086167,546.7490833974266,-121.63138852764764,-116.80912017822266,4761.76025390625,True
1599387114.3586175,0.0,10,0.5,0.5,-0.3037260959625243,-0.15025,-0.001,-0.37525,-0.18956415490246986,10,1,100,-0.08626783140592181,-10,-1,-100,18787.957224867656,-0.0005050851178922415,-0.010869750558514187,0.999940794953291,76.7654391690441,4.744110294351488,541.9187783835583,-122.17558720793153,-108.47804260253906,4761.76025390625,True
1599387114.394521,0.0,10,0.5,0.5,2.8182005943298343,-0.15025,-0.001,-0.37525,-0.11659849587069186,10,1,100,0.008435797586387395,-10,-1,-100,18787.957224867656,-0.0005050851178922415,-0.010869750558514187,0.999940794953291,76.7654391690441,4.744110294351488,541.9187783835583,-122.17558720793153,-108.47804260253906,4761.76025390625,True
1599387114.4314222,0.0,10,0.5,0.5,-3.4576155059814453,-0.15025,-0.001,-0.37525,-0.198947687696742,10,1,100,-0.12800209759717554,-10,-1,-100,18778.14688808669,0.000730637986459193,-0.011612995707231327,0.9999322999577704,74.2896957876858,4.594429587546691,527.873323114188,-122.90142000431956,-96.5431137084961,4761.76025390625,True
1599387114.4643345,0.0,10,0.5,0.5,1.0160906421661375,-0.15025,-0.001,-0.37525,-0.1252127111124694,10,1,100,-0.0050153734738545945,-10,-1,-100,18778.14688808669,0.000730637986459193,-0.011612995707231327,0.9999322999577704,74.2896957876858,4.594429587546691,527.873323114188,-122.90142000431956,-96.5431137084961,4761.76025390625,True
1599387114.5002391,0.0,10,0.5,0.5,-0.5883516277313231,-0.15025,-0.001,-0.37525,-0.1434034092065186,10,1,100,-0.040158614131586313,-10,-1,-100,18775.685229216237,0.001045017742188826,-0.011773354068247432,0.9999301455961322,73.56224467895203,4.550137975675633,523.5563633658563,-123.0829315423653,-93.49888610839844,4761.76025390625,True
1599387114.538138,0.0,10,0.5,0.5,-2.7025780204772945,-0.15025,-0.001,-0.37525,-0.1548549000864391,10,1,100,-0.0724064343019101,-10,-1,-100,18770.75101918308,0.0016190478613133071,-0.012018766473774853,0.999926461264263,71.90080136297546,4.448376403166583,513.3993487264346,-123.4460284820012,-87.31060791015625,4761.76025390625,True
1599387114.5750384,0.0,10,0.5,0.5,-3.6938671310424804,-0.15025,-0.001,-0.37525,-0.15323663987116726,10,1,100,-0.07888541163014996,-10,-1,-100,18765.802282256423,0.002194825842768645,-0.012223120752170798,0.9999228860560188,70.13749801089165,4.339626994236153,502.4373364938016,-123.8092243452661,-81.0145263671875,4761.76025390625,True
1599387114.6109426,0.0,10,0.5,0.5,-4.657105760192871,-0.15025,-0.001,-0.37525,-0.14885101762233344,10,1,100,-0.07915470016341472,-10,-1,-100,18760.839016431477,0.0027157270531227387,-0.012365455075652879,0.9999198569622192,70.77913868305117,4.3788907900680085,508.67737864542977,-124.17243391004871,-74.69522094726562,4761.76025390625,True
1599387114.6428583,0.0,10,0.5,0.5,-5.502813858795165,-0.15025,-0.001,-0.37525,-0.14558685232831095,10,1,100,-0.07944836315876075,-10,-1,-100,18755.86122686055,0.003187024794589584,-0.012462069552910753,0.9999172664252864,72.991984384402,4.51471175820839,526.2741760741296,-124.53548429307389,-68.58331298828125,4761.76025390625,True
1599387114.6787615,0.0,10,0.5,0.5,-4.7651979423522945,-0.15025,-0.001,-0.37525,-0.1398648578153445,10,1,100,-0.05680049624246136,-10,-1,-100,18753.366887779674,0.0034047951257387687,-0.012495251357766336,0.9999161345151192,73.95645610970891,4.573675336453806,534.0851271018147,-124.71695516530716,-65.63272094726562,4761.76025390625,True
1599387114.7176576,0.0,10,0.5,0.5,-8.081584587097169,-0.15025,-0.001,-0.37525,-0.1415219797134876,10,1,100,-0.09793505649787601,-10,-1,-100,18745.86210007302,0.003972298315055157,-0.012538334222808362,0.9999135017695346,76.30333093427478,4.716521845754981,553.6826086759255,-125.26118230033154,-57.224578857421875,4761.76025390625,True
1599387114.754559,0.0,10,0.5,0.5,-6.326050845336914,-0.15025,-0.001,-0.37525,-0.13714862788436333,10,1,100,-0.058957202471482444,-10,-1,-100,18743.35324911459,0.004129795829254708,-0.01253622582561426,0.9999128901201634,76.91593177871914,4.753670038502827,559.0169732473861,-125.44253856590429,-54.5709228515625,4761.76025390625,True
