Timestamp,Input Throttle,horizon,dT,dt,Input Roll,Roll P,Roll I,Roll D,Input Pitch,Pitch P,Pitch I,Pitch D,Input Yaw,Yaw P,Yaw I,Yaw D,Altitude,Direction X,Direction Y,Direction Z,Drag X,Drag Y,Drag Z,Vertical Velocity,Roll,Mass,Has Fuel
1599387247.0599308,0.0,10,0.5,0.5,-8.425051834106446,-0.15025,-0.00825,-0.2505,-0.00016364592478948308,10,1,100,0.4981949533632454,-10,-1,-100,19348.34677125211,-0.04884860752065669,-0.00017418402852013097,0.9988061789973154,61.166410009275914,3.691907970306921,234.71049413242713,-68.84811804162868,-33.9227294921875,4761.76025390625,True
1599387247.0943775,0.0,10,0.5,0.5,-8.471408905029298,-0.15025,-0.00825,-0.2505,-0.0008265323502297755,10,1,100,0.49902710864657956,-10,-1,-100,19346.966159713338,-0.048900027272365296,-0.00016570469817628054,0.9988036643278372,61.2562404517384,3.6980056071911327,235.70187050581418,-69.03057130011861,-33.92388916015625,4761.76025390625,True
1599387247.125268,0.0,10,0.5,0.5,-8.456543537902832,-0.15025,-0.00825,-0.2505,0.023554532322039867,10,1,100,0.5091245764486036,-10,-1,-100,19341.40722440451,-0.04899411309278028,6.380046706437686e-05,0.9987990652837799,61.62105749320672,3.722763748255014,239.70949332761538,-69.76034982533454,-34.0771484375,4761.76025390625,True
1599387247.1582696,0.0,10,0.5,0.5,-8.541071339416504,-0.15025,-0.00825,-0.2505,0.0006103958446805651,10,1,100,0.5046154057163831,-10,-1,-100,19341.40722440451,-0.04899411309278028,6.380046706437686e-05,0.9987990652837799,61.62105749320672,3.722763748255014,239.70949332761538,-69.76034982533454,-34.0771484375,4761.76025390625,True
1599387247.1942108,0.0,10,0.5,0.5,-8.516861195373535,-0.15025,-0.00825,-0.2505,0.013045308715187217,10,1,100,0.5084739860084939,-10,-1,-100,19340.008368480485,-0.04898465099262422,0.00017678712909892426,0.9987995157755344,61.71803994258751,3.729306682083257,240.73918941605857,-69.94278554471938,-34.252685546875,4761.76025390625,True
1599387247.2271216,0.0,10,0.5,0.5,-8.035296180725098,-0.15025,-0.00825,-0.2505,0.08739676370550958,10,1,100,0.48649822095869066,-10,-1,-100,19334.376459873747,-0.048731737900218106,0.0009552638789249898,0.9988114462660838,62.13690668239896,3.7572957030198717,245.00200185176652,-70.67248701884445,-35.6788330078125,4761.76025390625,True
1599387247.2580392,0.0,10,0.5,0.5,-8.221136106872558,-0.15025,-0.00825,-0.2505,0.04111686947370433,10,1,100,0.5026007897226209,-10,-1,-100,19332.95936150651,-0.048603902315975354,0.0012413752822241608,0.9988173605154587,62.24615700174142,3.7645391473125343,246.0915197718652,-70.85490135839912,-36.2183837890625,4761.76025390625,True
1599387247.2919178,0.0,10,0.5,0.5,-8.400663410949706,-0.15025,-0.00825,-0.2505,0.01262986667200965,10,1,100,0.5202447383784936,-10,-1,-100,19332.95936150651,-0.048603902315975354,0.0012413752822241608,0.9988173605154587,62.24615700174142,3.7645391473125343,246.0915197718652,-70.85490135839912,-36.2183837890625,4761.76025390625,True
1599387247.3278334,0.0,10,0.5,0.5,-7.286052699279785,-0.15025,-0.00825,-0.2505,0.17607128095752173,10,1,100,0.4371238637946512,-10,-1,-100,19327.254488231498,-0.04780407263583499,0.002726077798199521,0.9988530117786432,62.66850030093941,3.7924141499256665,250.41539528467996,-71.58451175506838,-39.11041259765625,4761.76025390625,True
1599387247.359735,0.0,10,0.5,0.5,-7.689261218261718,-0.15025,-0.00825,-0.2505,0.07896128756567738,10,1,100,0.49206409442964627,-10,-1,-100,19325.81915014086,-0.04753295313908386,0.0031905109838892645,0.9988645749076996,62.76274063834259,3.7986242306138593,251.4567955447869,-71.76690280119011,-40.01678466796875,4761.76025390625,True
1599387247.392646,0.0,10,0.5,0.5,-7.1426762725830075,-0.15025,-0.00825,-0.2505,0.14113239232384708,10,1,100,0.4519267815266067,-10,-1,-100,19322.937530592433,-0.04687838443097421,0.004175014367787038,0.9988918791982296,62.925196644005226,3.809354308879253,253.4411234684721,-72.13167182082074,-42.050140380859375,4761.76025390625,True
1599387247.4262366,0.0,10,0.5,0.5,-7.645326764678955,-0.15025,-0.00825,-0.2505,0.04311697377370043,10,1,100,0.5171866300286032,-10,-1,-100,19322.937530592433,-0.04687838443097421,0.004175014367787038,0.9988918791982296,62.925196644005226,3.809354308879253,253.4411234684721,-72.13167182082074,-42.050140380859375,4761.76025390625,True
1599387247.4622912,0.0,10,0.5,0.5,-6.706213549804688,-0.15025,-0.00825,-0.2505,0.16703236347026,10,1,100,0.430957647403574,-10,-1,-100,19320.041320849443,-0.04609632244605703,0.005297571802241249,0.9989229523791858,63.037600774626206,3.8168743282660564,255.23018636474566,-72.49642550780861,-44.376800537109375,4761.76025390625,True
1599387247.4967878,0.0,10,0.5,0.5,-6.7701167884826665,-0.15025,-0.00825,-0.2505,0.11928975857516955,10,1,100,0.45945677394107254,-10,-1,-100,19318.58774490666,-0.04564707432887932,0.005879296906030458,0.9989403277839495,63.06895400553636,3.8190523252787094,256.02583660734865,-72.6787974797534,-45.650482177734375,4761.76025390625,True
1599387247.5296898,0.0,10,0.5,0.5,-5.97060471496582,-0.15025,-0.00825,-0.2505,0.20033691429615413,10,1,100,0.3935350614720253,-10,-1,-100,19315.66965056432,-0.044642421416966345,0.007139643419266903,0.9989775171153131,63.06828700134423,3.8193986980963928,257.360994658417,-73.04353453012077,-48.4178466796875,4761.76025390625,True
1599387247.5606167,0.0,10,0.5,0.5,-4.767561599731445,-0.15025,-0.00825,-0.2505,0.292860959507807,10,1,100,0.29519219695770293,-10,-1,-100,19311.26515425765,-0.04283902202834767,0.00912021079114218,0.999040359518463,62.86490820387857,3.807199122742271,258.532814716416,-73.5906336831419,-53.1204833984375,4761.76025390625,True
1599387247.5955307,0.0,10,0.5,0.5,-5.931182736206054,-0.15025,-0.00825,-0.2505,0.095620717011501,10,1,100,0.4749428642323835,-10,-1,-100,19311.26515425765,-0.04283902202834767,0.00912021079114218,0.999040359518463,62.86490820387857,3.807199122742271,258.532814716416,-73.5906336831419,-53.1204833984375,4761.76025390625,True
1599387247.913669,0.0,10,0.5,0.5,-4.5135495010375974,-0.15025,-0.00825,-0.2505,0.24876856266517222,10,1,100,0.3203819354025318,-10,-1,-100,19308.310586645035,-0.041439163475610497,0.010505301355712902,0.9990857993054788,62.55681991148985,3.78830712426153,258.5949455421617,-73.95537273843544,-56.623138427734375,4761.76025390625,True
1599387247.944587,0.0,10,0.5,0.5,-2.212733179473877,-0.15025,-0.00825,-0.2505,0.4184553513519197,10,1,100,0.09927478795901656,-10,-1,-100,19302.357680477668,-0.03816301321349053,0.013298660015135364,0.9991830313132167,61.402453948948335,3.7173122858761958,256.4360877330686,-74.68490656036471,-64.5118408203125,4761.76025390625,True
1599387247.980751,0.0,10,0.5,0.5,-3.3036085441589353,-0.15025,-0.00825,-0.2505,0.21303194110265147,10,1,100,0.3260191967357476,-10,-1,-100,19300.860334145138,-0.037254772199917525,0.01396097999214704,0.9992082730772355,60.98096986213169,3.6914341933876904,255.32554899254782,-74.86730919216853,-66.66851806640625,4761.76025390625,True
1599387248.0136323,0.0,10,0.5,0.5,-2.004514716339111,-0.15025,-0.00825,-0.2505,0.28761762825815496,10,1,100,0.2068154561195999,-10,-1,-100,19297.854696477763,-0.03535477198283087,0.01523134942810927,0.9992587483192935,59.95378017718661,3.628513517152962,252.30354925802578,-75.23214694092626,-71.20339965820312,4761.76025390625,True
1599387248.084443,0.0,10,0.5,0.5,-3.1164511161804196,-0.15025,-0.00825,-0.2505,0.16168631816796417,10,1,100,0.3956631165834509,-10,-1,-100,19297.854696477763,-0.03535477198283087,0.01523134942810927,0.9992587483192935,59.95378017718661,3.628513517152962,252.30354925802578,-75.23214694092626,-71.20339965820312,4761.76025390625,True
1599387248.1183522,0.0,10,0.5,0.5,-1.1572839851379393,-0.15025,-0.00825,-0.2505,0.3055876479688695,10,1,100,0.16559930964666075,-10,-1,-100,19294.834463842213,-0.03327375884017655,0.016529492121699026,0.9993095780902154,58.6582252501907,3.549440784569865,248.1043944777418,-75.59703668365802,-76.03213500976562,4761.76025390625,True
1599387248.1465802,0.0,10,0.5,0.5,0.7841735542297363,-0.15025,-0.00825,-0.2505,0.3662716788232004,10,1,100,0.008147306633199847,-10,-1,-100,19290.27674393286,-0.029962203740919225,0.01825108401425685,0.9993843926534436,56.15809846996615,3.397627563068517,239.33206667383624,-76.14448910251764,-83.82986450195312,4761.76025390625,True
1599387248.1784942,0.0,10,0.5,0.5,1.0936279579162598,-0.15025,-0.00825,-0.2505,0.30803173232785475,10,1,100,0.07983809255838253,-10,-1,-100,19287.220012440346,-0.027617692495994193,0.019275466414707888,0.9994326988125273,54.08918292156121,3.272620388539177,231.67377974083905,-76.50954540443757,-89.39764404296875,4761.76025390625,True
1599387248.2074168,0.0,10,0.5,0.5,-0.2672924842834473,-0.15025,-0.00825,-0.2505,0.20680707458229508,10,1,100,0.3125867441587885,-10,-1,-100,19287.220012440346,-0.027617692495994193,0.019275466414707888,0.9994326988125273,54.08918292156121,3.272620388539177,231.67377974083905,-76.50954540443757,-89.39764404296875,4761.76025390625,True
1599387248.2403295,0.0,10,0.5,0.5,0.8911581039428711,-0.15025,-0.00825,-0.2505,0.2571221481589218,10,1,100,0.18451985114596314,-10,-1,-100,19285.68617047835,-0.026467285586361557,0.019723644123928526,0.9994550818601918,52.9282195208453,3.202666060166908,227.26848444286335,-76.69210126463081,-92.21366882324219,4761.76025390625,True
1599387248.2732406,0.0,10,0.5,0.5,2.4218027965545654,-0.15025,-0.00825,-0.2505,0.3056584795870398,10,1,100,0.03498097355188662,-10,-1,-100,19282.607533204486,-0.02407690017806027,0.020562678296809463,0.999498613875516,53.604755939190355,3.244645931446656,231.32277629025631,-77.05719152645297,-97.71287536621094,4761.76025390625,True
1599387248.303162,0.0,10,0.5,0.5,4.325634477233887,-0.15025,-0.00825,-0.2505,0.3362637904761094,10,1,100,-0.1435974317070091,-10,-1,-100,19277.962201501243,-0.020296166362066912,0.021594523664837224,0.9995607746298831,55.913056402970305,3.3868856765733435,243.08136591284497,-77.60466620277407,-105.81639099121094,4761.76025390625,True
1599387248.3360727,0.0,10,0.5,0.5,4.4077014709472655,-0.15025,-0.00825,-0.2505,0.2907622782367001,10,1,100,-0.04104182741628282,-10,-1,-100,19274.847068164498,-0.017807701883671756,0.022111373103004466,0.9995969052238617,57.26903278981764,3.471086519789929,250.20273293588542,-77.96954225875362,-111.00147247314453,4761.76025390625,True
1599387248.3669906,0.0,10,0.5,0.5,3.145413247108459,-0.15025,-0.00825,-0.2505,0.23989237373106165,10,1,100,0.2058599133916082,-10,-1,-100,19274.847068164498,-0.017807701883671756,0.022111373103004466,0.9995969052238617,57.26903278981764,3.471086519789929,250.20273293588542,-77.96954225875362,-111.00147247314453,4761.76025390625,True
1599387248.3999016,0.0,10,0.5,0.5,4.175715828704834,-0.15025,-0.00825,-0.2505,0.265116851018124,10,1,100,0.07184797353573733,-10,-1,-100,19273.28402894968,-0.016605363403253984,0.022334431965909674,0.9996126425045884,57.84325741407691,3.506967781635412,253.3303440036458,-78.15195059744755,-113.490478515625,4761.76025390625,True
1599387248.4288244,0.0,10,0.5,0.5,5.494698913574218,-0.15025,-0.00825,-0.2505,0.2827873565126594,10,1,100,-0.07705730343700468,-10,-1,-100,19270.147007748834,-0.014175689001830697,0.022691396361648547,0.9996420111082177,58.934847222747656,3.575317298087722,259.37140537297296,-78.5167110039163,-118.25053405761719,4761.76025390625,True
1599387248.4616663,0.0,10,0.5,0.5,5.246943346023559,-0.15025,-0.00825,-0.2505,0.2605383176771725,10,1,100,0.025748420879450368,-10,-1,-100,19268.5730261259,-0.01291885346690307,0.022808043728143143,0.9996563891489894,59.37148325618933,3.602851604578235,261.9275187743062,-78.69906663961325,-120.52079772949219,4761.76025390625,True
1599387248.4965446,0.0,10,0.5,0.5,6.4396207221984865,-0.15025,-0.00825,-0.2505,0.266970548039684,10,1,100,-0.11564092308331633,-10,-1,-100,19265.41412308847,-0.010506411990283725,0.022968418919421165,0.9996809826336762,60.0432602697585,3.6455774702165478,266.1739457799683,-79.063737802415,-124.84046936035156,4761.76025390625,True
1599387248.5274572,0.0,10,0.5,0.5,6.999603934860229,-0.15025,-0.00825,-0.2505,0.2618140710064832,10,1,100,-0.12837172728777674,-10,-1,-100,19262.240634572343,-0.008213104501048963,0.023063980254367802,0.9997002539407905,60.479113710644164,3.6737563040975822,269.39766306885133,-79.42836666248446,-128.86497497558594,4761.76025390625,True
1599387248.5603957,0.0,10,0.5,0.5,7.518943913269043,-0.15025,-0.00825,-0.2505,0.24946161245182805,10,1,100,-0.15304992568399223,-10,-1,-100,19259.0525616206,-0.005921572787228989,0.02303511501396819,0.9997171192152402,60.720823040179866,3.6898716106794165,271.77083533958336,-79.79296526389635,-132.59527587890625,4761.76025390625,True
1599387248.594312,0.0,10,0.5,0.5,7.3208430515289304,-0.15025,-0.00825,-0.2505,0.25013377729870784,10,1,100,-0.045576299349139524,-10,-1,-100,19257.453056495055,-0.004834073025708704,0.023011974047767413,0.9997235021686781,60.77938960387077,3.6940377358570258,272.6818492902606,-79.97525660187526,-134.34954833984375,4761.76025390625,True
1599387248.6251957,0.0,10,0.5,0.5,8.229011631774902,-0.15025,-0.00825,-0.2505,0.24195017529563972,10,1,100,-0.17167767674632678,-10,-1,-100,19254.24310874904,-0.002716554199945243,0.02291431379141976,0.9997337418316674,60.7958985978207,3.6960448145347176,274.0542093511793,-80.33982882752875,-137.63685607910156,4761.76025390625,True
1599387248.6591396,0.0,10,0.5,0.5,8.046120124816895,-0.15025,-0.00825,-0.2505,0.24463070063957537,10,1,100,-0.07417814499674708,-10,-1,-100,19252.632666253718,-0.0016938779307583867,0.022848700343206237,0.9997374993818037,60.76236473576901,3.694408904664485,274.55197271937806,-80.52211146575766,-139.1697998046875,4761.76025390625,True
1599387248.6900997,0.0,10,0.5,0.5,9.350888169670103,-0.15025,-0.00825,-0.2505,0.22220387250383136,10,1,100,-0.29427559177027407,-10,-1,-100,19247.77946571319,0.001222064717395443,0.02258450120065063,0.9997441907124762,60.53989396227064,3.6817441140559506,275.4872066641739,-81.06895434223202,-143.32583618164062,4761.76025390625,True
1599387248.722971,0.0,10,0.5,0.5,8.336468657302856,-0.15025,-0.00825,-0.2505,0.24867109956915656,10,1,100,-0.0045843036149978015,-10,-1,-100,19247.77946571319,0.001222064717395443,0.02258450120065063,0.9997441907124762,60.53989396227064,3.6817441140559506,275.4872066641739,-81.06895434223202,-143.32583618164062,4761.76025390625,True
1599387248.7579145,0.0,10,0.5,0.5,9.323479647445678,-0.15025,-0.00825,-0.2505,0.22571684442362344,10,1,100,-0.20520323911554408,-10,-1,-100,19244.52577061311,0.00302966646910891,0.02237559881820511,0.9997450443481143,60.32327056231159,3.668905209363358,275.7912805897321,-81.43351659393946,-145.72732543945312,4761.76025390625,True
1599387248.7888317,0.0,10,0.5,0.5,9.965830236053467,-0.15025,-0.00825,-0.2505,0.2141574325512459,10,1,100,-0.29917273408174916,-10,-1,-100,19239.617885240703,0.005511567692658526,0.022080889087636155,0.9997409949375232,59.95639228278119,3.646829514275095,276.03829076272433,-81.98036563033237,-148.77474975585938,4761.76025390625,True
1599387248.8227031,0.0,10,0.5,0.5,9.225759955215453,-0.15025,-0.00825,-0.2505,0.24355569014409087,10,1,100,-0.052825653842743694,-10,-1,-100,19239.617885240703,0.005511567692658526,0.022080889087636155,0.9997409949375232,59.95639228278119,3.646829514275095,276.03829076272433,-81.98036563033237,-148.77474975585938,4761.76025390625,True
1599387248.8566368,0.0,10,0.5,0.5,10.459056182098388,-0.15025,-0.00825,-0.2505,0.2031047080099371,10,1,100,-0.3744896917910928,-10,-1,-100,19233.02299881878,0.008421224419749934,0.021713959731718198,0.9997287566795514,59.48373197391705,3.618077419945197,276.41033734156423,-82.70950913546933,-151.80294799804688,4761.76025390625,True
1599387248.8885658,0.0,10,0.5,0.5,9.949020857620239,-0.15025,-0.00825,-0.2505,0.2256089169345826,10,1,100,-0.15929783823478214,-10,-1,-100,19231.365162734757,0.009094955203938573,0.021586198598855605,0.9997256212681002,59.38226541922953,3.611869511891859,276.5752466706072,-82.89179621144115,-152.37588500976562,4761.76025390625,True
1599387248.924504,0.0,10,0.5,0.5,10.191560177993775,-0.15025,-0.00825,-0.2505,0.22155971499497654,10,1,100,-0.2284579774071237,-10,-1,-100,19228.038553551887,0.010322514883866651,0.021434558384452386,0.9997169626415947,59.20652390693093,3.6010828864213407,277.02627570624554,-83.25637022572475,-153.2985076904297,4761.76025390625,True
1599387248.9604073,0.0,10,0.5,0.5,10.227547691345215,-0.15025,-0.00825,-0.2505,0.21827267499861078,10,1,100,-0.23137002568701504,-10,-1,-100,19224.697361162514,0.011451172679155212,0.021268255476540057,0.999708223409839,59.0768800854639,3.593078819009905,277.6870822078399,-83.62094208162915,-153.92601013183594,4761.76025390625,True
1599387248.9948652,0.0,10,0.5,0.5,10.083796881866455,-0.15025,-0.00825,-0.2505,0.23473835995835568,10,1,100,-0.11992101884606901,-10,-1,-100,19224.697361162514,0.011451172679155212,0.021268255476540057,0.999708223409839,59.0768800854639,3.593078819009905,277.6870822078399,-83.62094208162915,-153.92601013183594,4761.76025390625,True
1599387249.0327642,0.0,10,0.5,0.5,10.250648661422728,-0.15025,-0.00825,-0.2505,0.21828599021695855,10,1,100,-0.28178365162159535,-10,-1,-100,19219.658230457222,0.012910701112923712,0.021120125246951598,0.9996935801065874,58.98029760486002,3.587012335398522,279.1321862407582,-84.1677899595175,-154.31198120117188,4761.76025390625,True
1599387249.0676706,0.0,10,0.5,0.5,10.16302647819519,-0.15025,-0.00825,-0.2505,0.23295257558043458,10,1,100,-0.13699967188429818,-10,-1,-100,19219.658230457222,0.012910701112923712,0.021120125246951598,0.9996935801065874,58.98029760486002,3.587012335398522,279.1321862407582,-84.1677899595175,-154.31198120117188,4761.76025390625,True
1599387249.1021612,0.0,10,0.5,0.5,10.127401922225953,-0.15025,-0.00825,-0.2505,0.22085941387204727,10,1,100,-0.23120234334344225,-10,-1,-100,19216.28058198467,0.013756463002192723,0.021011518664105985,0.9996845881622348,58.98614080767275,3.587243751293669,280.4266614953738,-84.5323443299757,-154.20046997070312,4761.76025390625,True
1599387249.1380706,0.0,10,0.5,0.5,9.872776372146607,-0.15025,-0.00825,-0.2505,0.22731096253992827,10,1,100,-0.26095505224048826,-10,-1,-100,19211.186768318876,0.014786064985562166,0.020972675922276255,0.9996707053559698,59.0981878572643,3.593899182409894,282.864016669107,-85.07915239987936,-153.4779510498047,4761.76025390625,True
1599387249.1689482,0.0,10,0.5,0.5,9.902070697784424,-0.15025,-0.00825,-0.2505,0.2289042192302661,10,1,100,-0.19123903614838272,-10,-1,-100,19209.481539902394,0.015079853462976243,0.02095285595703899,0.9996667323897395,59.1624828524567,3.597768232583726,283.8075319495812,-85.26141400604382,-153.08973693847656,4761.76025390625,True
1599387249.2033675,0.0,10,0.5,0.5,9.817552112960815,-0.15025,-0.00825,-0.2505,0.23206818742888052,10,1,100,-0.19097563744741025,-10,-1,-100,19207.772666522418,0.015335840921734456,0.020964626638747604,0.99966259128424,59.23854925429749,3.6023612854832763,284.8091132339302,-85.44367131000993,-152.62728881835938,4761.76025390625,True
1599387249.2373147,0.0,10,0.5,0.5,9.474670754623412,-0.15025,-0.00825,-0.2505,0.23534279880230213,10,1,100,-0.21259172629472287,-10,-1,-100,19204.34398439352,0.01575878067694296,0.02100577766468924,0.9996551496072421,59.42448872941501,3.6136339930152364,286.9806876065116,-85.80817141058894,-151.48092651367188,4761.76025390625,True
1599387249.2682323,0.0,10,0.5,0.5,8.850425795364378,-0.15025,-0.00825,-0.2505,0.2396766517461544,10,1,100,-0.2181222863504919,-10,-1,-100,19199.173625023453,0.016187491159027678,0.021083114006793174,0.99964667129629,59.772924045308336,3.6348790017636254,290.5916030844675,-86.35488191692752,-149.20851135253906,4761.76025390625,True
1599387249.3013663,0.0,10,0.5,0.5,8.661338619613646,-0.15025,-0.00825,-0.2505,0.24161538986829917,10,1,100,-0.190317157720709,-10,-1,-100,19195.708496142062,0.016319122267674704,0.021171364159250482,0.999642665950213,60.034210034243245,3.6509072540940584,293.15330246307735,-86.71932705411112,-147.3246612548828,4761.76025390625,True
1599387249.335264,0.0,10,0.5,0.5,8.254684663009643,-0.15025,-0.00825,-0.2505,0.24452037202631532,10,1,100,-0.17842763705425946,-10,-1,-100,19192.22879010602,0.01632627495166926,0.021278088582300264,0.9996402831481366,60.30324030640796,3.667516743341939,295.7645042162131,-87.08374883015885,-145.14596557617188,4761.76025390625,True
1599387249.3651948,0.0,10,0.5,0.5,8.79320439376831,-0.15025,-0.00825,-0.2505,0.23384891303191316,10,1,100,-0.17819987888205535,-10,-1,-100,19192.22879010602,0.01632627495166926,0.021278088582300264,0.9996402831481366,60.30324030640796,3.667516743341939,295.7645042162131,-87.08374883015885,-145.14596557617188,4761.76025390625,True
1599387249.4000971,0.0,10,0.5,0.5,8.304847608184815,-0.15025,-0.00825,-0.2505,0.2396483351936946,10,1,100,-0.17426064946653394,-10,-1,-100,19190.48347107938,0.016287358708038387,0.021330666998920687,0.9996397974229001,60.43587895327306,3.675757767528728,297.0653380048391,-87.26595104251342,-143.94622802734375,4761.76025390625,True
1599387249.4300168,0.0,10,0.5,0.5,7.546744775390624,-0.15025,-0.00825,-0.2505,0.24657200007811894,10,1,100,-0.15981553348149818,-10,-1,-100,19186.981901080115,0.016117591379787164,0.02144121656593223,0.9996401840063689,60.68538994705353,3.6914010962049586,299.59799975365,-87.63033890353914,-141.325927734375,4761.76025390625,True
1599387249.4649212,0.0,10,0.5,0.5,7.623217981719971,-0.15025,-0.00825,-0.2505,0.24177610785091397,10,1,100,-0.16290756945208917,-10,-1,-100,19185.22565052728,0.01598922038258452,0.021497726517602837,0.9996410318640044,60.797176000895014,3.698501876409802,300.804347543475,-87.8125251096599,-139.90536499023438,4761.76025390625,True
1599387249.498835,0.0,10,0.5,0.5,6.740929358291626,-0.15025,-0.00825,-0.2505,0.24791210811531428,10,1,100,-0.13760601428536656,-10,-1,-100,19181.70221850276,0.01564141156052371,0.021604403702802186,0.999644234708049,60.9807661404796,3.7104260875462787,303.02598080699175,-88.176884249011,-136.84375,4761.76025390625,True
1599387249.5317407,0.0,10,0.5,0.5,6.149805792236329,-0.15025,-0.00825,-0.2505,0.24669730639573118,10,1,100,-0.12158967157209184,-10,-1,-100,19178.16421258275,0.01517910809934998,0.0216897469939456,0.9996495133558795,61.090887568364096,3.7181081409232273,304.8895303321957,-88.5412296590035,-133.4884033203125,4761.76025390625,True
1599387249.565652,0.0,10,0.5,0.5,6.258052954864501,-0.15025,-0.00825,-0.2505,0.24222330788774138,10,1,100,-0.13766900861241357,-10,-1,-100,19176.389744520886,0.014905150501215316,0.02172599989004407,0.9996528484515581,61.110318472660516,3.7198721646691326,305.6452005265864,-88.72339909671234,-131.7005615234375,4761.76025390625,True
1599387249.6005259,0.0,10,0.5,0.5,5.168486179351807,-0.15025,-0.00825,-0.2505,0.24351161146942818,10,1,100,-0.09585467936368963,-10,-1,-100,19172.829878211138,0.014276743900809703,0.021770014171580417,0.9996610630941669,61.06081771476509,3.7182075789619717,306.7147462366062,-89.08773614882287,-127.90492248535156,4761.76025390625,True
1599387249.6314776,0.0,10,0.5,0.5,4.46315980682373,-0.15025,-0.00825,-0.2505,0.2390476597595796,10,1,100,-0.07855538349194502,-10,-1,-100,19169.255438391003,0.013549935890023483,0.021768821320919576,0.9996712047746869,60.868724393027975,3.7080984757405835,307.0641362556383,-89.4520783992899,-123.81619262695312,4761.76025390625,True
1599387249.667372,0.0,10,0.5,0.5,4.604663792037964,-0.15025,-0.00825,-0.2505,0.23753669567110638,10,1,100,-0.10649829835408131,-10,-1,-100,19167.46275320172,0.013145745275671477,0.02175345773118572,0.9996769360437824,60.709578890629686,3.6992797028588766,306.9173132970572,-89.63425469732559,-121.66191101074219,4761.76025390625,True
1599387249.7012916,0.0,10,0.5,0.5,3.3103257534027097,-0.15025,-0.00825,-0.2505,0.23032556466941234,10,1,100,-0.050737180256665765,-10,-1,-100,19163.866451826878,0.012274271397807693,0.021673502941276918,0.9996897526392414,60.24593521332115,3.6729063059520795,305.8767451061256,-89.99862484364712,-117.13387298583984,4761.76025390625,True
1599387249.736198,0.0,10,0.5,0.5,2.489666515922546,-0.15025,-0.00825,-0.2505,0.22207654025988796,10,1,100,-0.03355080178211389,-10,-1,-100,19160.25557446573,0.011329466253211837,0.021525466170037807,0.9997041049733566,59.56148485883753,3.6331578609786344,303.6923157869045,-90.36302890092098,-112.3133544921875,4761.76025390625,True
1599387249.768112,0.0,10,0.5,0.5,1.6221208059310912,-0.15025,-0.00825,-0.2505,0.21314620428792527,10,1,100,-0.013923599836766498,-10,-1,-100,19156.630120018963,0.010296630551762288,0.02130952532446521,0.9997199025375691,58.71722259761558,3.583628719918724,300.6621328864306,-90.72747793208596,-107.20046997070312,4761.76025390625,True
1599387249.8039808,0.0,10,0.5,0.5,1.806363574028015,-0.15025,-0.00825,-0.2505,0.21918078511261466,10,1,100,-0.0586180758474818,-10,-1,-100,19154.81192529539,0.009769294205840133,0.02116819500984318,0.9997281972670097,58.24531185526801,3.55577147932928,298.87871404191054,-90.90972103800448,-104.53451538085938,4761.76025390625,True
1599387249.839918,0.0,10,0.5,0.5,0.22047668476104731,-0.15025,-0.00825,-0.2505,0.19569052506000695,10,1,100,0.009866408803420323,-10,-1,-100,19151.16460069269,0.008672965781972467,0.020826464661079225,0.9997454866286046,57.11559798691422,3.4885020010584635,294.32480469719894,-91.27425089923346,-98.98360443115234,4761.76025390625,True
1599387249.8728309,0.0,10,0.5,0.5,-1.9763331287384032,-0.15025,-0.00825,-0.2505,0.1557419016714653,10,1,100,0.08905558149299485,-10,-1,-100,19145.66626945301,0.0069627369592589585,0.02015333862143591,0.9997726557755247,55.080801838177685,3.3660124584786133,285.6407097353159,-91.82116237674498,-90.11004638671875,4761.76025390625,True
1599387249.9077363,0.0,10,0.5,0.5,0.21070601692199709,-0.15025,-0.00825,-0.2505,0.2229008647985459,10,1,100,-0.08114566366434692,-10,-1,-100,19145.66626945301,0.0069627369592589585,0.02015333862143591,0.9997726557755247,55.080801838177685,3.3660124584786133,285.6407097353159,-91.82116237674498,-90.11004638671875,4761.76025390625,True
1599387249.9495907,0.0,10,0.5,0.5,-2.3265814693450926,-0.15025,-0.00825,-0.2505,0.16131226729315715,10,1,100,0.047219306909286204,-10,-1,-100,19141.98248500959,0.005803003057264072,0.0195948719725402,0.9997911612671404,57.006378753385775,3.484281936820508,296.8708055438783,-92.18574309364087,-83.86431884765625,4761.76025390625,True
1599387249.9845316,0.0,10,0.5,0.5,-5.709944783020019,-0.15025,-0.00825,-0.2505,0.06741993759293341,10,1,100,0.18520498468338786,-10,-1,-100,19134.571181300795,0.00350198765827102,0.018235585787359378,0.9998275848832303,61.19755946348559,3.7405166454565415,321.36864140436325,-92.9145688897053,-71.60833740234375,4761.76025390625,True
1599387250.0194051,0.0,10,0.5,0.5,-2.682892911529541,-0.15025,-0.00825,-0.2505,0.20299523255765972,10,1,100,-0.04389176039274209,-10,-1,-100,19134.571181300795,0.00350198765827102,0.018235585787359378,0.9998275848832303,61.19755946348559,3.7405166454565415,321.36864140436325,-92.9145688897053,-71.60833740234375,4761.76025390625,True
1599387250.0523937,0.0,10,0.5,0.5,-5.105389113235473,-0.15025,-0.00825,-0.2505,0.11793834841358342,10,1,100,0.07800742393659454,-10,-1,-100,19130.843670278322,0.0024025803076565054,0.01746553945145307,0.9998445791919538,62.83697277441826,3.8405197328141902,331.34829591131097,-93.2788291624593,-65.66647338867188,4761.76025390625,True
1599387250.0882628,0.0,10,0.5,0.5,-4.809820153999328,-0.15025,-0.00825,-0.2505,0.15251295383366886,10,1,100,0.027009805221092094,-10,-1,-100,19128.97445153445,0.0018757080600480156,0.01708363734398432,0.9998523046202238,63.53073397230522,3.882844654427855,335.6991610763594,-93.46092661011349,-62.79583740234375,4761.76025390625,True
1599387250.123203,0.0,10,0.5,0.5,-6.3442759645462035,-0.15025,-0.00825,-0.2505,0.0957707043910831,10,1,100,0.09225990563304523,-10,-1,-100,19125.225090006483,0.0008121448841072363,0.016224653004831086,0.9998680418212996,64.67204818640613,3.9525918381097163,343.1395343205306,-93.82506640564202,-57.274444580078125,4761.76025390625,True
1599387250.157082,0.0,10,0.5,0.5,-8.098629196357727,-0.15025,-0.00825,-0.2505,0.034631893311433876,10,1,100,0.15110329451697185,-10,-1,-100,19119.573740972904,-0.0006810483696313005,0.01489257338880373,0.999888867540277,65.82822904161448,4.023827023552198,351.4261702316235,-94.37117140611358,-49.548248291015625,4761.76025390625,True
1599387250.1900265,0.0,10,0.5,0.5,-7.180957130622863,-0.15025,-0.00825,-0.2505,0.11564488636430781,10,1,100,0.05530162069262198,-10,-1,-100,19117.682677201694,-0.001158072163194543,0.01442377878527866,0.9998953012562957,66.08348338034358,4.039807727803461,353.5092558335798,-94.55318685166482,-47.121856689453125,4761.76025390625,True
1599387250.225478,0.0,10,0.5,0.5,-7.558626396179199,-0.15025,-0.00825,-0.2505,0.11185694085939783,10,1,100,0.05954316576374834,-10,-1,-100,19115.787973135128,-0.0016213523507666693,0.013968986628280142,0.9999011144253883,66.28159230564988,4.052394716701402,355.2918256281259,-94.73519572810265,-44.76953125,4761.76025390625,True
1599387250.2603512,0.0,10,0.5,0.5,-8.802799617004395,-0.15025,-0.00825,-0.2505,0.056218181905501735,10,1,100,0.11280024401747851,-10,-1,-100,19111.987645126297,-0.0025188676969479444,0.013055354451421667,0.9999116026057868,66.52475901410224,4.06850158696266,358.0471561950272,-95.09920065734991,-40.287872314453125,4761.76025390625,True
1599387250.291266,0.0,10,0.5,0.5,-9.397871462249757,-0.15025,-0.00825,-0.2505,0.04076677247166599,10,1,100,0.1180696913590977,-10,-1,-100,19108.172756828484,-0.0033740751650763626,0.012090765099579105,0.9999212114042221,66.59412662457599,4.074332104717336,359.8755534297657,-95.46319831526787,-36.104156494140625,4761.76025390625,True
1599387250.3277106,0.0,10,0.5,0.5,-9.182937864685057,-0.15025,-0.00825,-0.2505,0.08403974715817103,10,1,100,0.07861714755202734,-10,-1,-100,19106.259852701914,-0.00378453421219943,0.011614078283120423,0.9999253924600725,66.57485398489045,4.074059713824531,360.49945248569134,-95.64519759009262,-34.1236572265625,4761.76025390625,True
1599387250.3626244,0.0,10,0.5,0.5,-11.595288713073732,-0.15025,-0.00825,-0.2505,-0.07323253441920079,10,1,100,0.2100296495959853,-10,-1,-100,19098.57183605258,-0.0053457137991923176,0.009756998169731185,0.9999381102501759,66.236102802804,4.057488912803002,361.56804458818124,-96.37321825595731,-26.943267822265625,4761.76025390625,True
1599387250.3975194,0.0,10,0.5,0.5,-9.833449849700928,-0.15025,-0.00825,-0.2505,0.11162761815796018,10,1,100,0.05479646104244286,-10,-1,-100,19098.57183605258,-0.0053457137991923176,0.009756998169731185,0.9999381102501759,66.236102802804,4.057488912803002,361.56804458818124,-96.37321825595731,-26.943267822265625,4761.76025390625,True
1599387250.4274592,0.0,10,0.5,0.5,-11.125701921844481,-0.15025,-0.00825,-0.2505,0.008671320771542534,10,1,100,0.13514505363763235,-10,-1,-100,19094.705986045534,-0.006069111646324178,0.008828039594656226,0.9999426141538021,65.96367749684447,4.043079128212713,361.52992333079555,-96.737250806719,-23.79840087890625,4761.76025390625,True
1599387250.4623964,0.0,10,0.5,0.5,-10.955947698211668,-0.15025,-0.00825,-0.2505,0.05550988878736648,10,1,100,0.10460116074224823,-10,-1,-100,19092.767600435414,-0.0064418517358438565,0.00841684205177678,0.9999438280804022,65.81401825046784,4.035065974291046,361.43341210785496,-96.91927359427125,-22.33648681640625,4761.76025390625,True
1599387250.4962988,0.0,10,0.5,0.5,-11.70092214050293,-0.15025,-0.00825,-0.2505,0.0013438948201908996,10,1,100,0.14512081584607825,-10,-1,-100,19088.879907806404,-0.007142472321242064,0.007557705986687554,0.9999459316229848,65.50376903422253,4.018365702334476,361.1719703434275,-97.28333252774804,-19.635650634765625,4761.76025390625,True
1599387250.5262353,0.0,10,0.5,0.5,-12.012880520629881,-0.15025,-0.00825,-0.2505,-0.0016747421285034786,10,1,100,0.15221754240321073,-10,-1,-100,19084.977652018773,-0.007838041800349265,0.006755899107438415,0.9999464600307288,65.19675380570479,4.001822207841681,360.9169881526134,-97.64740865742367,-17.230560302734375,4761.76025390625,True
1599387250.5601447,0.0,10,0.5,0.5,-12.28020206451416,-0.15025,-0.00825,-0.2505,-0.00815514447553746,10,1,100,0.15664320217634178,-10,-1,-100,19081.060832715244,-0.008504538261441407,0.005975041813764198,0.9999459843932987,64.91338749183403,3.9866563164664486,360.78199788537546,-98.01150006130591,-15.121673583984375,4761.76025390625,True
1599387250.5930805,0.0,10,0.5,0.5,-12.154571222686766,-0.15025,-0.00825,-0.2505,0.02924164115055873,10,1,100,0.12793891339497407,-10,-1,-100,19079.09696172946,-0.008843238613593945,0.005612409547765344,0.9999451474905469,64.78910474938228,3.9801079914808475,360.80745648711513,-98.19355063695537,-14.177978515625,4761.76025390625,True
1599387250.627828,0.0,10,0.5,0.5,-12.89651178741455,-0.15025,-0.00825,-0.2505,-0.048249963662594875,10,1,100,0.2046607758363198,-10,-1,-100,19073.183501875494,-0.00984287007327517,0.004585041030286495,0.9999410459159436,64.56763937965887,3.969621355864548,361.7181934066443,-98.73971297076426,-11.79046630859375,4761.76025390625,True
1599387250.6637208,0.0,10,0.5,0.5,-12.3184987739563,-0.15025,-0.00825,-0.2505,0.05373631567836073,10,1,100,0.1053445093590171,-10,-1,-100,19073.183501875494,-0.00984287007327517,0.004585041030286495,0.9999410459159436,64.56763937965887,3.969621355864548,361.7181934066443,-98.73971297076426,-11.79046630859375,4761.76025390625,True
1599387250.6976058,0.0,10,0.5,0.5,-12.82665855026245,-0.15025,-0.00825,-0.2505,-0.01729640781053003,10,1,100,0.17733961293283887,-10,-1,-100,19069.22298988758,-0.010491863436799845,0.003945679032435519,0.9999371742357599,64.52252700340448,3.9688216292033007,362.89601172803975,-99.1038243738897,-10.56842041015625,4761.76025390625,True
1599387250.7315443,0.0,10,0.5,0.5,-12.905675863647462,-0.15025,-0.00825,-0.2505,-0.013984265611709637,10,1,100,0.18752231397208796,-10,-1,-100,19065.247913418338,-0.011169749095235807,0.003399834253594177,0.9999318365929738,64.55844071918811,3.9729320969593016,364.5309523791531,-99.46793204433308,-9.641082763671875,4761.76025390625,True
1599387250.7674506,0.0,10,0.5,0.5,-13.022959786987304,-0.15025,-0.00825,-0.2505,-0.04523107145174633,10,1,100,0.2278426328735852,-10,-1,-100,19059.25799114362,-0.012147262560831162,0.002625329096025475,0.9999227728476914,64.7319721879817,3.9863683518394457,367.66882779654804,-100.01407807364531,-8.80438232421875,4761.76025390625,True
1599387250.8013258,0.0,10,0.5,0.5,-12.901635272216797,-0.15025,-0.00825,-0.2505,-0.014485318448132417,10,1,100,0.20434233059754198,-10,-1,-100,19055.24650544487,-0.012816746462576994,0.002206379171449173,0.9999154278743105,64.9343507795481,4.000636878072087,370.2632574366247,-100.37815907161972,-8.614990234375,4761.76025390625,True
1599387250.8332787,0.0,10,0.5,0.5,-12.865512788391113,-0.15025,-0.00825,-0.2505,0.026788627721465015,10,1,100,0.13803142989563202,-10,-1,-100,19055.24650544487,-0.012816746462576994,0.002206379171449173,0.9999154278743105,64.9343507795481,4.000636878072087,370.2632574366247,-100.37815907161972,-8.614990234375,4761.76025390625,True
1599387250.8701775,0.0,10,0.5,0.5,-12.868281964874267,-0.15025,-0.00825,-0.2505,0.006523036201732342,10,1,100,0.17603545053040864,-10,-1,-100,19053.235301529057,-0.013157079128219205,0.0020270113638290927,0.9999113873207689,65.06255597875486,4.009437517970742,371.7186980879041,-100.56019305808613,-8.630767822265625,4761.76025390625,True
1599387250.904645,0.0,10,0.5,0.5,-12.558623902130126,-0.15025,-0.00825,-0.2505,-0.04090097767714798,10,1,100,0.29142887805033,-10,-1,-100,19045.154081289307,-0.014510668131413345,0.0014371213104970252,0.9998936819445949,65.75636286688288,4.055894853988157,378.61424363622245,-101.28827283692753,-9.4310302734375,4761.76025390625,True
1599387250.9405155,0.0,10,0.5,0.5,-12.763784426879882,-0.15025,-0.00825,-0.2505,0.01763423560573205,10,1,100,0.15667059071791323,-10,-1,-100,19045.154081289307,-0.014510668131413345,0.0014371213104970252,0.9998936819445949,65.75636286688288,4.055894853988157,378.61424363622245,-101.28827283692753,-9.4310302734375,4761.76025390625,True
1599387250.9724324,0.0,10,0.5,0.5,-12.217611112976073,-0.15025,-0.00825,-0.2505,-0.007887938438112424,10,1,100,0.271014030066297,-10,-1,-100,19039.054944728035,-0.015545001735018816,0.0012088972630414103,0.9998784383556161,66.45932032379906,4.102203999293843,384.88702166237044,-101.83425854828522,-10.803680419921875,4761.76025390625,True
1599387251.0092928,0.0,10,0.5,0.5,-12.562274073028565,-0.15025,-0.00825,-0.2505,0.01459685193072456,10,1,100,0.16815088287192423,-10,-1,-100,19039.054944728035,-0.015545001735018816,0.0012088972630414103,0.9998784383556161,66.45932032379906,4.102203999293843,384.88702166237044,-101.83425854828522,-10.803680419921875,4761.76025390625,True
1599387251.0442111,0.0,10,0.5,0.5,-12.04888120880127,-0.15025,-0.00825,-0.2505,0.00631005224417575,10,1,100,0.24423520734955678,-10,-1,-100,19034.97065563081,-0.016231493656032072,0.0011366319420430075,0.9998676145778113,67.01417147183194,4.138542635332191,389.5974637237016,-102.19820526249805,-12.0867919921875,4761.76025390625,True
1599387251.079115,0.0,10,0.5,0.5,-11.737225903320311,-0.15025,-0.00825,-0.2505,0.01763428707867435,10,1,100,0.25124110516100484,-10,-1,-100,19030.871810001787,-0.016914049355039804,0.00117643746425844,0.9998562551333606,67.68217280407082,4.182009290887973,394.9938656104494,-102.56210975995808,-13.66339111328125,4761.76025390625,True
1599387251.110222,0.0,10,0.5,0.5,-11.3789802986145,-0.15025,-0.00825,-0.2505,0.021822512116009544,10,1,100,0.2583256242178614,-10,-1,-100,19026.758409567294,-0.017593737163509343,0.0012527203455112766,0.9998444334517033,68.44698907135074,4.231610995022104,400.98796181311013,-102.92596601002978,-15.5345458984375,4761.76025390625,True
1599387251.1441286,0.0,10,0.5,0.5,-11.423204067230223,-0.15025,-0.00825,-0.2505,0.02393863496149594,10,1,100,0.22762368661292293,-10,-1,-100,19024.696252189926,-0.017927575306979776,0.0013425537259278354,0.9998383867371294,68.85983119484735,4.258351105624703,404.176655592084,-103.1078740021112,-16.5799560546875,4761.76025390625,True
1599387251.1800022,0.0,10,0.5,0.5,-10.752275266265869,-0.15025,-0.00825,-0.2505,0.04040030962717388,10,1,100,0.2667766807255391,-10,-1,-100,19020.5610236458,-0.01858235463039086,0.0015746573191267987,0.9998260931535633,69.71576420249094,4.313809953399533,410.7602052985305,-103.47164731597367,-18.891204833984375,4761.76025390625,True
1599387251.210432,0.0,10,0.5,0.5,-10.278880435180664,-0.15025,-0.00825,-0.2505,0.051578296492346,10,1,100,0.27132756451307216,-10,-1,-100,19016.411246248055,-0.019213738769589588,0.0018878529406749867,0.9998136167575274,70.59574917997011,4.370877044535405,417.5244354964349,-103.83536107131016,-21.49603271484375,4761.76025390625,True
1599387251.2453382,0.0,10,0.5,0.5,-10.354726384735109,-0.15025,-0.00825,-0.2505,0.04028985991914388,10,1,100,0.24271098782856576,-10,-1,-100,19014.33090219088,-0.019522067599328036,0.0020700805899834603,0.9998072832516265,71.0381272009551,4.3995898382309155,420.9354364845007,-104.01719510321507,-22.90850830078125,4761.76025390625,True
1599387251.2822764,0.0,10,0.5,0.5,-8.13944711074829,-0.15025,-0.00825,-0.2505,0.1272967474790195,10,1,100,0.3357134410834916,-10,-1,-100,19005.973165590665,-0.020643287565527847,0.0030261383769177724,0.9997823248912788,72.7532321218276,4.511086105398021,434.35298168233857,-104.74437714289003,-29.29150390625,4761.76025390625,True
1599387251.3331368,0.0,10,0.5,0.5,-9.722002619171143,-0.15025,-0.00825,-0.2505,0.03184987049223036,10,1,100,0.22420470640692194,-10,-1,-100,19005.973165590665,-0.020643287565527847,0.0030261383769177724,0.9997823248912788,72.7532321218276,4.511086105398021,434.35298168233857,-104.74437714289003,-29.29150390625,4761.76025390625,True
1599387251.3680408,0.0,10,0.5,0.5,-6.67883002166748,-0.15025,-0.00825,-0.2505,0.17128521885772563,10,1,100,0.32186926680743866,-10,-1,-100,18997.557266225806,-0.02152651240023208,0.004292080415591478,0.999759064629868,74.20084766610154,4.60546583982476,446.3137081374677,-105.47132746347025,-36.847137451171875,4761.76025390625,True
1599387251.4009228,0.0,10,0.5,0.5,-7.719618843078614,-0.15025,-0.00825,-0.2505,0.08406698974402058,10,1,100,0.25633029517684836,-10,-1,-100,18995.444205411593,-0.02172819749817128,0.004647240928667937,0.9997531138162218,74.48754087310103,4.624210035360234,448.8707821300624,-105.65303423582206,-38.919281005859375,4761.76025390625,True
1599387251.4358642,0.0,10,0.5,0.5,-8.216554000091552,-0.15025,-0.00825,-0.2505,0.04890199933503715,10,1,100,0.23671145576714245,-10,-1,-100,18995.444205411593,-0.02172819749817128,0.004647240928667937,0.9997531138162218,74.48754087310103,4.624210035360234,448.8707821300624,-105.65303423582206,-38.919281005859375,4761.76025390625,True
1599387251.470739,0.0,10,0.5,0.5,-6.446863871765136,-0.15025,-0.00825,-0.2505,0.1328527970161229,10,1,100,0.269480610279673,-10,-1,-100,18991.207182321465,-0.02202172240451871,0.005407274722619254,0.99974286950316,74.94044046001397,4.653903146527783,453.2755604762961,-106.01641915524549,-43.283233642578125,4761.76025390625,True
1599387251.5026844,0.0,10,0.5,0.5,-4.673733991241455,-0.15025,-0.00825,-0.2505,0.19371918006086292,10,1,100,0.27521307788623584,-10,-1,-100,18984.82439547754,-0.022336651129220574,0.006647768422638898,0.9997284037133937,75.23686249017892,4.673723693637589,457.5932713991857,-106.56145111467673,-50.378448486328125,4761.76025390625,True
1599387251.5425792,0.0,10,0.5,0.5,-6.423201553344726,-0.15025,-0.00825,-0.2505,0.0702003315285696,10,1,100,0.24416111299827356,-10,-1,-100,18984.82439547754,-0.022336651129220574,0.006647768422638898,0.9997284037133937,75.23686249017892,4.673723693637589,457.5932713991857,-106.56145111467673,-50.378448486328125,4761.76025390625,True
1599387251.57845,0.0,10,0.5,0.5,-3.289504209899902,-0.15025,-0.00825,-0.2505,0.21361209114183022,10,1,100,0.25385679913091097,-10,-1,-100,18978.408906906843,-0.02242138073360925,0.007946899772665347,0.9997170241973484,74.94958737186818,4.656082709912417,458.36543300807296,-107.10648046131001,-58.133209228515625,4761.76025390625,True
1599387251.6143873,0.0,10,0.5,0.5,-4.1071827064514155,-0.15025,-0.00825,-0.2505,0.1320616242097684,10,1,100,0.24318412656600746,-10,-1,-100,18976.26314337412,-0.02239846731249618,0.008381052167096111,0.9997139924131418,74.69728937009698,4.640239892634652,457.660902713424,-107.28816825114475,-60.86474609375,4761.76025390625,True
1599387251.6512914,0.0,10,0.5,0.5,-0.08791044387817415,-0.15025,-0.00825,-0.2505,0.2820386150006211,10,1,100,0.2118213977772016,-10,-1,-100,18967.643747072667,-0.02208990630457409,0.010133426104152637,0.9997046312360701,72.760935669097,4.51864161909727,449.07381057063685,-108.01505314056436,-72.52340698242188,4761.76025390625,True
1599387251.683197,0.0,10,0.5,0.5,-1.731291784667969,-0.15025,-0.00825,-0.2505,0.1550727311364796,10,1,100,0.22785320963284134,-10,-1,-100,18965.4798104848,-0.021953824933569784,0.010565796841141615,0.9997031526947876,72.02007627272178,4.472297528631505,445.31491355735005,-108.19682240472515,-75.6212158203125,4761.76025390625,True
1599387251.7240973,0.0,10,0.5,0.5,-2.469070886230469,-0.15025,-0.00825,-0.2505,0.11258962328400417,10,1,100,0.24159240047007624,-10,-1,-100,18965.4798104848,-0.021953824933569784,0.010565796841141615,0.9997031526947876,72.02007627272178,4.472297528631505,445.31491355735005,-108.19682240472515,-75.6212158203125,4761.76025390625,True
1599387251.7599678,0.0,10,0.5,0.5,0.11801695632934606,-0.15025,-0.00825,-0.2505,0.20059490555798037,10,1,100,0.20329993759368398,-10,-1,-100,18961.141029251623,-0.021605323168754093,0.011360141483245444,0.99970203420632,70.20011756888896,4.358883371550241,435.6511505683432,-108.56043834794748,-81.99700927734375,4761.76025390625,True
1599387251.7958703,0.0,10,0.5,0.5,1.1972018646240234,-0.15025,-0.00825,-0.2505,0.20625307836338808,10,1,100,0.190305789942416,-10,-1,-100,18956.78769979393,-0.021170486471482317,0.012127608273793925,0.9997023215038157,67.94531875262038,4.219097963055126,423.2002158176194,-108.92417197639233,-88.58660888671875,4761.76025390625,True
1599387251.8317735,0.0,10,0.5,0.5,2.3407310905456544,-0.15025,-0.00825,-0.2505,0.20850726312952403,10,1,100,0.17611300380945555,-10,-1,-100,18952.419817649527,-0.020646662064596234,0.012838997610943665,0.99970439405153,66.33420196816722,4.120176053858303,414.67288952652916,-109.28800838200054,-95.45684814453125,4761.76025390625,True
1599387251.86369,0.0,10,0.5,0.5,4.850450561523438,-0.15025,-0.00825,-0.2505,0.23493708376687725,10,1,100,0.13171709448658908,-10,-1,-100,18945.840713746264,-0.01976810893752821,0.013719230175157254,0.9997104603796217,69.90815014698644,4.345725155619506,439.39742934007734,-109.8335472847688,-105.90643310546875,4761.76025390625,True
1599387251.8986328,0.0,10,0.5,0.5,4.97126478805542,-0.15025,-0.00825,-0.2505,0.2011703376872261,10,1,100,0.14855618092550954,-10,-1,-100,18941.436465976527,-0.01912484191890355,0.01420604257667049,0.9997161741093754,71.9584635956755,4.47632581583632,453.91677424297274,-110.19705720931537,-112.62539672851562,4761.76025390625,True
1599387251.9325411,0.0,10,0.5,0.5,4.643074670410156,-0.15025,-0.00825,-0.2505,0.17585156140429614,10,1,100,0.17738214698426957,-10,-1,-100,18939.2288907849,-0.01880502778360651,0.014411557453515857,0.9997192995745465,72.85335954046884,4.533643882054589,460.38704726164815,-110.37876280900969,-115.87818908691406,4761.76025390625,True
1599387251.963421,0.0,10,0.5,0.5,6.394629470443725,-0.15025,-0.00825,-0.2505,0.1935409686438262,10,1,100,0.13651081652500346,-10,-1,-100,18934.80284005031,-0.018146017704570423,0.01475332499129751,0.9997264933186308,74.45409324390839,4.636505526282669,472.1872192169998,-110.74208374269872,-122.16325378417969,4761.76025390625,True
1599387251.9993577,0.0,10,0.5,0.5,4.8707920326232905,-0.15025,-0.00825,-0.2505,0.1600014421480811,10,1,100,0.20198657946781973,-10,-1,-100,18934.80284005031,-0.018146017704570423,0.01475332499129751,0.9997264933186308,74.45409324390839,4.636505526282669,472.1872192169998,-110.74208374269872,-122.16325378417969,4761.76025390625,True
1599387252.0342596,0.0,10,0.5,0.5,7.3119460895538335,-0.15025,-0.00825,-0.2505,0.18720533200811854,10,1,100,0.12794643599331035,-10,-1,-100,18930.362259658752,-0.017476510844438523,0.01499643317285499,0.9997348041159698,75.5933928921298,4.710339289844447,481.12067883234386,-111.10530930806948,-128.15252685546875,4761.76025390625,True
1599387252.0681431,0.0,10,0.5,0.5,9.232710160446167,-0.15025,-0.00825,-0.2505,0.18363117624964975,10,1,100,0.08733851549286457,-10,-1,-100,18923.67415163922,-0.016502775616213772,0.015180920434346882,0.9997485674166915,76.53255623238289,4.772072515672535,489.6901399452673,-111.65003313194299,-136.58106994628906,4761.76025390625,True
1599387252.1000547,0.0,10,0.5,0.5,8.23824161453247,-0.15025,-0.00825,-0.2505,0.1668291573856794,10,1,100,0.14848770220157448,-10,-1,-100,18921.43751961051,-0.01617841896910441,0.01519169493367323,0.9997537052517997,76.66430852752072,4.781016905313766,491.39883538405036,-111.8315908977912,-139.2425537109375,4761.76025390625,True
1599387252.1364675,0.0,10,0.5,0.5,8.655632305145263,-0.15025,-0.00825,-0.2505,0.16575606658549308,10,1,100,0.14726856118103174,-10,-1,-100,18919.197256448795,-0.01587739973899974,0.015188251331740553,0.9997585834585327,76.71526350312955,4.784757111141136,492.5920484753432,-112.01314543362656,-141.82986450195312,4761.76025390625,True
1599387252.1714087,0.0,10,0.5,0.5,10.036144653320314,-0.15025,-0.00825,-0.2505,0.15901749335727994,10,1,100,0.11265405681546427,-10,-1,-100,18914.705837362213,-0.01529388047806532,0.015121078625128959,0.9997686983503411,76.60258092096592,4.778394864997005,493.60073805473576,-112.37625512862758,-146.7823486328125,4761.76025390625,True
1599387252.205283,0.0,10,0.5,0.5,10.70403597793579,-0.15025,-0.00825,-0.2505,0.14780147976210187,10,1,100,0.10849144261623173,-10,-1,-100,18910.199893253273,-0.014730432640483305,0.014955974149149358,0.9997796423169829,76.24663984469822,4.756349511301858,493.03415320881794,-112.73938065117076,-151.43898010253906,4761.76025390625,True
1599387252.239701,0.0,10,0.5,0.5,10.46368505744934,-0.15025,-0.00825,-0.2505,0.15229798456804358,10,1,100,0.1355156501153613,-10,-1,-100,18907.941474141902,-0.014468461652943602,0.014845632174700108,0.9997851123230086,75.99210747827372,4.740406894160879,492.2501177502987,-112.9209538765032,-153.65625,4761.76025390625,True
1599387252.2766032,0.0,10,0.5,0.5,13.199805271530153,-0.15025,-0.00825,-0.2505,0.09685071629208805,10,1,100,0.05989334167247275,-10,-1,-100,18898.87147895724,-0.013547063751395758,0.014240673768512076,0.9998068214781964,74.5954818659455,4.652537041986954,486.59629105369453,-113.64734612393046,-161.78524780273438,4761.76025390625,True
1599387252.3115082,0.0,10,0.5,0.5,11.201364645385743,-0.15025,-0.00825,-0.2505,0.15732946854239085,10,1,100,0.1515073354240361,-10,-1,-100,18898.87147895724,-0.013547063751395758,0.014240673768512076,0.9998068214781964,74.5954818659455,4.652537041986954,486.59629105369453,-113.64734612393046,-161.78524780273438,4761.76025390625,True
1599387252.3434246,0.0,10,0.5,0.5,13.36603349571228,-0.15025,-0.00825,-0.2505,0.08912185349387172,10,1,100,0.08977721469316718,-10,-1,-100,18892.03084142611,-0.012990061702890745,0.013621070587364434,0.9998228466748542,73.29661906651724,4.570947020822245,480.6333422231701,-114.19226459926195,-167.105224609375,4761.76025390625,True
1599387252.3793602,0.0,10,0.5,0.5,12.07045643157959,-0.15025,-0.00825,-0.2505,0.1509689461682426,10,1,100,0.14496182394350055,-10,-1,-100,18892.03084142611,-0.012990061702890745,0.013621070587364434,0.9998228466748542,73.29661906651724,4.570947020822245,480.6333422231701,-114.19226459926195,-167.105224609375,4761.76025390625,True
1599387252.4157796,0.0,10,0.5,0.5,13.375745365142821,-0.15025,-0.00825,-0.2505,0.097510223865023,10,1,100,0.11152881550909773,-10,-1,-100,18887.45225061872,-0.012690203852706671,0.013136332532412883,0.9998331838330706,72.37974641395873,4.513580762702858,476.27722270761956,-114.55560647283521,-170.2821502685547,4761.76025390625,True
1599387252.734837,0.0,10,0.5,0.5,14.295194817352295,-0.15025,-0.00825,-0.2505,0.05701239486163873,10,1,100,0.1018969523133595,-10,-1,-100,18880.55711044441,-0.012333509388726719,0.012329358207791557,0.9998479241726426,71.00482134045951,4.428027247820344,469.671851151662,-115.10071048762016,-174.492919921875,4761.76025390625,True
1599387252.7647455,0.0,10,0.5,0.5,13.772776445770264,-0.15025,-0.00825,-0.2505,0.1043868267292325,10,1,100,0.12811181712660036,-10,-1,-100,18878.25146160787,-0.01225105401939293,0.01202902396304655,0.9998525962650245,70.55986088492314,4.400483924450707,467.53861406714014,-115.28243468973032,-175.74880981445312,4761.76025390625,True
1599387252.8028517,0.0,10,0.5,0.5,14.818315361785887,-0.15025,-0.00825,-0.2505,0.030315727504837325,10,1,100,0.11351250457785605,-10,-1,-100,18871.312706211233,-0.012046670247482363,0.011085491227028128,0.999865985830203,69.30438831330537,4.32324430477725,461.6092516136207,-115.82766853559673,-179.07296752929688,4761.76025390625,True
1599387252.8347592,0.0,10,0.5,0.5,14.012253614807127,-0.15025,-0.00825,-0.2505,0.12426544236686944,10,1,100,0.13362616074585448,-10,-1,-100,18871.312706211233,-0.012046670247482363,0.011085491227028128,0.999865985830203,69.30438831330537,4.32324430477725,461.6092516136207,-115.82766853559673,-179.07296752929688,4761.76025390625,True
1599387252.9125507,0.0,10,0.5,0.5,-129.4947263568878,-0.15025,-0.00825,-0.2505,0.04774366257297473,10,1,100,0.12639624661330542,-10,-1,-100,18866.668693214306,-0.011983383539361918,0.01039335730428556,0.9998741804061619,68.55612458224407,4.277634411871368,458.20311759731806,-116.19120247670307,179.07994079589844,4761.76025390625,True
1599387252.9463484,0.0,10,0.5,0.5,-39.43002043075561,-0.15025,-0.00825,-0.2505,0.0360512200817978,10,1,100,0.12800502531206084,-10,-1,-100,18862.010139461723,-0.011942734591162546,0.009661897238118356,0.9998820024544122,69.14277079195922,4.315585162889145,463.716587925864,-116.55471578742237,177.528076171875,4761.76025390625,True
1599387252.981287,0.0,10,0.5,0.5,-39.59495785980225,-0.15025,-0.00825,-0.2505,0.02288914394445657,10,1,100,0.13714638112837357,-10,-1,-100,18857.337046623696,-0.011990342717638899,0.008881440828109063,0.9998886696479415,69.86406675348543,4.3621813962179505,470.1644135021178,-116.91817700561145,176.27108764648438,4761.76025390625,True
1599387253.013209,0.0,10,0.5,0.5,-39.94569088821411,-0.15025,-0.00825,-0.2505,0.05587634513043218,10,1,100,0.13450482999852137,-10,-1,-100,18854.995048886398,-0.012011023932376706,0.008476690677918942,0.9998919346705656,70.18683361331442,4.383189608700484,473.14585914291837,-117.09988976311213,175.6646270751953,4761.76025390625,True
1599387253.045656,0.0,10,0.5,0.5,-39.82810345726013,-0.15025,-0.00825,-0.2505,0.002990805773618682,10,1,100,0.14143890105252882,-10,-1,-100,18850.300151236937,-0.01209375208060252,0.007632635074420023,0.9998977367923351,70.8562396167731,4.426843771443794,479.29339888584497,-117.46327951236427,174.28648376464844,4761.76025390625,True
1599387253.0765662,0.0,10,0.5,0.5,-39.79155842132568,-0.15025,-0.00825,-0.2505,-0.01153179832966203,10,1,100,0.14678918133617114,-10,-1,-100,18845.590719725704,-0.012218413226679362,0.006738732157130221,0.9999026451945892,71.59424227085006,4.474999265276791,485.93843224047964,-117.82661727614266,172.63104248046875,4761.76025390625,True
1599387253.1114485,0.0,10,0.5,0.5,-40.11357513618469,-0.15025,-0.00825,-0.2505,0.026400112196893158,10,1,100,0.1436111592308454,-10,-1,-100,18843.230554413167,-0.012303279331815372,0.0062767446919947964,0.99990461134738,71.98906494580024,4.50077909303206,489.44960828825396,-118.00826506453545,171.69386291503906,4761.76025390625,True
1599387253.1441226,0.0,10,0.5,0.5,-38.836144556427,-0.15025,-0.00825,-0.2505,-0.14538118020644777,10,1,100,0.1788484607570675,-10,-1,-100,18833.7535695337,-0.01270079692313823,0.004300610350492035,0.9999100932124501,73.69816674552544,4.612633216791455,504.47550259138416,-118.73470135080996,167.20777893066406,4761.76025390625,True
1599387253.1740096,0.0,10,0.5,0.5,-40.242847780227656,-0.15025,-0.00825,-0.2505,0.051459412582572875,10,1,100,0.13914167591515633,-10,-1,-100,18833.7535695337,-0.01270079692313823,0.004300610350492035,0.9999100932124501,73.69816674552544,4.612633216791455,504.47550259138416,-118.73470135080996,167.20777893066406,4761.76025390625,True
1599387253.2079217,0.0,10,0.5,0.5,-40.00516222381591,-0.15025,-0.00825,-0.2505,-0.006614201938229189,10,1,100,0.15345961208173733,-10,-1,-100,18831.375244088238,-0.012830365318583824,0.0037788364738270495,0.9999105470594337,74.20346643471127,4.645630243366067,508.79180238425727,-118.91626750175425,165.9018096923828,4761.76025390625,True
1599387253.2378418,0.0,10,0.5,0.5,-39.48138203468323,-0.15025,-0.00825,-0.2505,-0.07607832174542062,10,1,100,0.16778804985232956,-10,-1,-100,18826.60770075221,-0.013077700844111475,0.0026796470011145957,0.9999108926462305,75.25139162195633,4.714118207600879,517.7160919429308,-119.27934173832578,163.06829833984375,4761.76025390625,True
1599387253.2715948,0.0,10,0.5,0.5,-39.565945165252685,-0.15025,-0.00825,-0.2505,-0.027992853826068073,10,1,100,0.16101403455987418,-10,-1,-100,18824.218483774923,-0.013239974530746336,0.002124536925463907,0.9999100906667947,75.83545429020006,4.752190684240289,522.6104070067564,-119.46084740001724,161.54110717773438,4761.76025390625,True
1599387253.3055053,0.0,10,0.5,0.5,-38.622618899536135,-0.15025,-0.00825,-0.2505,-0.10044953040698347,10,1,100,0.18177026713578368,-10,-1,-100,18819.429160826956,-0.013575009778432129,0.0009680464880573724,0.9999073867091454,76.99329852562528,4.827764980142893,532.3678593858785,-119.82379334804514,158.2655029296875,4761.76025390625,True
1599387253.3384156,0.0,10,0.5,0.5,-37.99737812271118,-0.15025,-0.00825,-0.2505,-0.12105414270857699,10,1,100,0.18565356342731276,-10,-1,-100,18814.625323103042,-0.013913449363468756,-0.00026342911747209865,0.9999031685777929,78.10771088368406,4.900610932369205,541.8764879534659,-120.18665319613037,154.69488525390625,4761.76025390625,True
1599387253.3718376,0.0,10,0.5,0.5,-37.325653551864626,-0.15025,-0.00825,-0.2505,-0.13830439027672195,10,1,100,0.1962851850490878,-10,-1,-100,18809.80697328807,-0.014316043341489925,-0.0015318272642134891,0.999896346832149,79.13683756586468,4.96794759695225,550.8417634778841,-120.54943034210889,150.82997131347656,4761.76025390625,True
1599387253.406743,0.0,10,0.5,0.5,-37.455706454849235,-0.15025,-0.00825,-0.2505,-0.08590936357383291,10,1,100,0.17838111221341657,-10,-1,-100,18807.39235725219,-0.014517253303674989,-0.002200266734553368,0.9998921982808016,79.60609448654414,4.998657551481217,555.0259000851978,-120.73079012881146,148.7869110107422,4761.76025390625,True
1599387253.4366627,0.0,10,0.5,0.5,-35.31462215881347,-0.15025,-0.00825,-0.2505,-0.25173729732007316,10,1,100,0.23091070018977827,-10,-1,-100,18800.12674982613,-0.01517562330537652,-0.004307339288108457,0.9998755659008527,80.75713027268613,5.07392293501228,565.843168061812,-121.27477088061879,142.2162322998047,4761.76025390625,True
1599387253.4715693,0.0,10,0.5,0.5,-35.99956248626709,-0.15025,-0.00825,-0.2505,-0.1234344145374984,10,1,100,0.19148547841690297,-10,-1,-100,18797.697628169553,-0.015413119159921263,-0.0050468480533350365,0.9998684738916859,81.03291562458938,5.091911248980792,568.70926888075,-121.45607125391243,139.87887573242188,4761.76025390625,True
1599387253.5054793,0.0,10,0.5,0.5,-33.575415059280395,-0.15025,-0.00825,-0.2505,-0.3114463570909366,10,1,100,0.25063547143813564,-10,-1,-100,18790.38850912964,-0.016164285944030615,-0.007419830537296068,0.9998418184766616,81.43792617620322,5.118129484177096,574.3684509335632,-121.99992792126383,132.42507934570312,4761.76025390625,True
1599387253.5513575,0.0,10,0.5,0.5,-34.35938886871338,-0.15025,-0.00825,-0.2505,-0.1649477993496652,10,1,100,0.20687505130381398,-10,-1,-100,18787.944885001052,-0.016446194211071744,-0.008234627324260186,0.9998308424972708,81.4063610166987,5.1159728010938075,575.0854466252723,-122.18120899580384,129.7937469482422,4761.76025390625,True
1599387253.5873015,0.0,10,0.5,0.5,-34.98874848251343,-0.15025,-0.00825,-0.2505,-0.08466946703306213,10,1,100,0.1790458074889498,-10,-1,-100,18787.944885001052,-0.016446194211071744,-0.008234627324260186,0.9998308424972708,81.4063610166987,5.1159728010938075,575.0854466252723,-122.18120899580384,129.7937469482422,4761.76025390625,True
1599387253.6222074,0.0,10,0.5,0.5,-30.448432246780396,-0.15025,-0.00825,-0.2505,-0.47807849817566006,10,1,100,0.31351281631548644,-10,-1,-100,18778.134129159618,-0.017665559297343023,-0.011801150994351644,0.9997743049558337,80.24953469916882,5.0406928365469845,570.6289712623303,-122.90641067370862,118.53269958496094,4761.76025390625,True
1599387253.656401,0.0,10,0.5,0.5,-30.801213860321045,-0.15025,-0.00825,-0.2505,-0.32913762253267886,10,1,100,0.2700960797848425,-10,-1,-100,18773.20699145866,-0.018375352148432333,-0.013676777563207855,0.999737611670636,78.95021429877399,4.957080251318064,563.226747303859,-123.26911704762686,112.46250915527344,4761.76025390625,True
1599387253.6923118,0.0,10,0.5,0.5,-32.28400909309387,-0.15025,-0.00825,-0.2505,-0.14303944805218438,10,1,100,0.19959682891291142,-10,-1,-100,18773.20699145866,-0.018375352148432333,-0.013676777563207855,0.999737611670636,78.95021429877399,4.957080251318064,563.226747303859,-123.26911704762686,112.46250915527344,4761.76025390625,True
1599387253.7282116,0.0,10,0.5,0.5,-29.697975614166257,-0.15025,-0.00825,-0.2505,-0.3801438411277589,10,1,100,0.2867177419579828,-10,-1,-100,18768.265342186787,-0.019163304173583015,-0.01582007809258059,0.9996911987720484,77.10055361989232,4.8390125775110935,551.8323559005178,-123.63194049921563,106.09646606445312,4761.76025390625,True
