Timestamp,Input Throttle,horizon,dT,dt,Input Roll,Roll P,Roll I,Roll D,Input Pitch,Pitch P,Pitch I,Pitch D,Input Yaw,Yaw P,Yaw I,Yaw D,Altitude,Direction X,Direction Y,Direction Z,Drag X,Drag Y,Drag Z,Vertical Velocity,Roll,Mass,Has Fuel
1599387812.991468,0.0,10,0.5,0.5,-8.42476244354248,-0.15025,-0.03,-0.37525,-0.00016513381774806743,10,1,100,0.49809669194010286,-10,-1,-100,19351.094166499213,-0.04884458132459501,-0.0001750803071560487,0.9988063757416206,60.986868949578756,3.6807019687088736,232.75536431281296,-68.48187337002027,-33.922882080078125,4761.76025390625,True
1599387813.035344,0.0,10,0.5,0.5,-8.593192878723142,-0.15025,-0.03,-0.37525,-0.0008298446174837664,10,1,100,0.49889315965495995,-10,-1,-100,19349.720879830304,-0.04889515303620001,-0.00016654879365793666,0.9988039028112904,61.076580558818385,3.6867869410777545,233.74225034592178,-68.66433334089795,-33.924072265625,4761.76025390625,True
1599387813.0762744,0.0,10,0.5,0.5,-8.760584320068359,-0.15025,-0.03,-0.37525,0.00027472636297253016,10,1,100,0.5105514269677685,-10,-1,-100,19346.96335890249,-0.04900266142865173,-0.0001485999099339976,0.9987986369088494,61.2567382545341,3.699012389735698,235.7250568255562,-69.02924317264345,-33.926513671875,4761.76025390625,True
1599387813.1151705,0.0,10,0.5,0.5,-8.75822137451172,-0.15025,-0.03,-0.37525,0.03417865275133596,10,1,100,0.5019699813854767,-10,-1,-100,19342.799710159423,-0.04897783531519732,0.00017606986053646362,0.9987998501437823,61.53746686430674,3.718005101253334,238.7555480013098,-69.57658167595157,-34.25286865234375,4761.76025390625,True
1599387813.1561022,0.0,10,0.5,0.5,-8.749976287841797,-0.15025,-0.03,-0.37525,0.036872513897545034,10,1,100,0.500613816265557,-10,-1,-100,19340.00570060918,-0.0488984120424984,0.0004955537806019323,0.9988036342175435,61.74138662806925,3.7316712554057583,240.85198227771437,-69.94145479186076,-34.819854736328125,4761.76025390625,True
1599387813.1949577,0.0,10,0.5,0.5,-9.128278251647949,-0.15025,-0.03,-0.37525,0.004973677269058364,10,1,100,0.5134459847396983,-10,-1,-100,19340.00570060918,-0.0488984120424984,0.0004955537806019323,0.9988036342175435,61.74138662806925,3.7316712554057583,240.85198227771437,-69.94145479186076,-34.819854736328125,4761.76025390625,True
1599387813.2329013,0.0,10,0.5,0.5,-8.842281272888183,-0.15025,-0.03,-0.37525,0.05509909517806561,10,1,100,0.4979044496301893,-10,-1,-100,19337.197096329648,-0.04871267225782787,0.0009507888945196328,0.998812380561024,61.95566937538712,3.745931621025238,242.99826912467174,-70.30631079585092,-35.679107666015625,4761.76025390625,True
1599387813.27479,0.0,10,0.5,0.5,-7.962225364685058,-0.15025,-0.03,-0.37525,0.15887737970204333,10,1,100,0.4457394401830246,-10,-1,-100,19331.536107587977,-0.04802530630200968,0.0023072135947586857,0.9988434545613374,62.38481894577003,3.774289058276329,247.32191982672168,-71.03596780983884,-38.277496337890625,4761.76025390625,True
1599387813.312816,0.0,10,0.5,0.5,-8.178281837463379,-0.15025,-0.03,-0.37525,0.11947239689766628,10,1,100,0.46116798847161045,-10,-1,-100,19328.683724712464,-0.04749702832088755,0.0031800023753046163,0.9988663173245846,62.57901845656788,3.787078133877542,249.41687878402584,-71.40076839322433,-40.01708984375,4761.76025390625,True
1599387813.3546698,0.0,10,0.5,0.5,-8.981013031005858,-0.15025,-0.03,-0.37525,0.03251151908060369,10,1,100,0.518745489415912,-10,-1,-100,19328.683724712464,-0.04749702832088755,0.0031800023753046163,0.9988663173245846,62.57901845656788,3.787078133877542,249.41687878402584,-71.40076839322433,-40.01708984375,4761.76025390625,True
1599387813.3935642,0.0,10,0.5,0.5,-6.839340423583984,-0.15025,-0.03,-0.37525,0.2575508654881166,10,1,100,0.3621599806528968,-10,-1,-100,19322.935184757924,-0.046030344579113876,0.005222923704122639,0.9989263879014852,62.85132829042556,3.8051565710236583,253.1653023068461,-72.13031929340923,-44.3779296875,4761.76025390625,True
1599387813.433066,0.0,10,0.5,0.5,-7.775156951904297,-0.15025,-0.03,-0.37525,0.11945086155466125,10,1,100,0.45903226663380814,-10,-1,-100,19321.488930778927,-0.04558021126527835,0.005819763054551902,0.9989437294958118,62.88167504056133,3.8072693163293745,253.95396293567407,-72.31269845554164,-45.65142822265625,4761.76025390625,True
1599387813.473957,0.0,10,0.5,0.5,-5.977696563720704,-0.15025,-0.03,-0.37525,0.25731090978274573,10,1,100,0.3283700761340598,-10,-1,-100,19317.128283288912,-0.04398617464976736,0.007610175346244538,0.9990031539844504,62.840553450505844,3.8052559494123788,255.78681216609317,-72.85982350844372,-49.914337158203125,4761.76025390625,True
1599387813.5159805,0.0,10,0.5,0.5,-7.529389671325683,-0.15025,-0.03,-0.37525,0.07904555813910008,10,1,100,0.48727208900727026,-10,-1,-100,19317.128283288912,-0.04398617464976736,0.007610175346244538,0.9990031539844504,62.840553450505844,3.8052559494123788,255.78681216609317,-72.85982350844372,-49.914337158203125,4761.76025390625,True
1599387813.555874,0.0,10,0.5,0.5,-5.796228309631347,-0.15025,-0.03,-0.37525,0.22574286135583554,10,1,100,0.3491986547432896,-10,-1,-100,19314.20294763765,-0.04273549948433611,0.008937028915955126,0.9990464486689193,62.67193172641065,3.795052317631692,256.43046125025046,-73.22457061235946,-53.123046875,4761.76025390625,True
1599387813.5957673,0.0,10,0.5,0.5,-4.125539428710937,-0.15025,-0.03,-0.37525,0.3095716065807762,10,1,100,0.23482277808999275,-10,-1,-100,19309.78758798621,-0.040564344012148784,0.01089766486761389,0.9991174980427963,62.14236731425884,3.7625350733744427,256.2437302885616,-73.77170614447304,-58.48907470703125,4761.76025390625,True
1599387813.6351702,0.0,10,0.5,0.5,-5.051067977905273,-0.15025,-0.03,-0.37525,0.19095385673853105,10,1,100,0.3619287098960173,-10,-1,-100,19308.308506106143,-0.0397536512066063,0.011592261542295073,0.9991422654897941,61.87787747037475,3.746260461436506,255.8109279790285,-73.95409320697496,-60.42449951171875,4761.76025390625,True
1599387813.6750648,0.0,10,0.5,0.5,-3.5522512969970705,-0.15025,-0.03,-0.37525,0.26521926101731663,10,1,100,0.25313676322388123,-10,-1,-100,19305.3393983664,-0.03803578461459483,0.01288917903758713,0.9991932486523761,61.1966150243344,3.704370294648691,254.29673529794596,-74.31888777210294,-64.5174560546875,4761.76025390625,True
1599387813.7149568,0.0,10,0.5,0.5,-2.703519104003907,-0.15025,-0.03,-0.37525,0.27416889263010324,10,1,100,0.22108042336848238,-10,-1,-100,19302.355697804247,-0.036191747824705696,0.014139935261202672,0.9992448246652079,60.28758590750295,3.6486051029813424,251.8038260816643,-74.6837183593062,-68.90545654296875,4761.76025390625,True
1599387813.757842,0.0,10,0.5,0.5,-1.8030565948486328,-0.15025,-0.03,-0.37525,0.2900408189589915,10,1,100,0.181705879136018,-10,-1,-100,19299.357402819674,-0.03416767786859879,0.01541131303758315,0.9992972837046669,59.12274900888476,3.57738281525056,248.20000836409403,-75.04859599055516,-73.58746337890625,4761.76025390625,True
1599387813.8017244,0.0,10,0.5,0.5,-0.8433151702880859,-0.15025,-0.03,-0.37525,0.28955601686479604,10,1,100,0.1501358085475556,-10,-1,-100,19296.3445108718,-0.032052731221744936,0.0165515843510161,0.9993491219172096,57.67586941169418,3.4892569405499767,243.35816546952438,-75.41353063798752,-78.56549072265625,4761.76025390625,True
1599387813.8416173,0.0,10,0.5,0.5,0.16235397338867186,-0.15025,-0.03,-0.37525,0.29334036054767426,10,1,100,0.11515000744171244,-10,-1,-100,19293.31701983721,-0.02982470663578592,0.01761229897793868,0.9993999668795276,55.923316288838706,3.3829497633567787,237.1597780897458,-75.77853060926056,-83.83877563476562,4761.76025390625,True
1599387813.8825085,0.0,10,0.5,0.5,1.2245773696899411,-0.15025,-0.03,-0.37525,0.2926546731145821,10,1,100,0.08207721231066792,-10,-1,-100,19290.27492644987,-0.027512891151567766,0.018559630993091655,0.9994491387348743,53.846063406535286,3.2574506510537358,229.50369343968134,-76.14360205916408,-89.40768432617188,4761.76025390625,True
1599387813.9243968,0.0,10,0.5,0.5,5.445710388183593,-0.15025,-0.03,-0.37525,0.3667811153453592,10,1,100,-0.2147409527042901,-10,-1,-100,19284.146927144728,-0.0227278694689591,0.02008476461292247,0.9995399172518551,54.475804483912846,3.297654491796899,234.52236174516233,-76.87377773856792,-101.19148254394531,4761.76025390625,True
1599387813.9722683,0.0,10,0.5,0.5,4.221952796936035,-0.15025,-0.03,-0.37525,0.27795268671823437,10,1,100,-0.0050492635481751424,-10,-1,-100,19281.061026742565,-0.020303463572716635,0.0206523780168251,0.9995805363497239,56.125813173238,3.399357084517337,242.82769047243968,-77.23873677898287,-106.9845962524414,4761.76025390625,True
1599387814.0171494,0.0,10,0.5,0.5,5.111203546524048,-0.15025,-0.03,-0.37525,0.27203319027922856,10,1,100,-0.01643349871404534,-10,-1,-100,19277.960530811222,-0.018016357925453412,0.021103926280835735,0.9996149434370392,57.52703227491018,3.4863062655727117,250.120895988554,-77.60360492468162,-112.50606536865234,4761.76025390625,True
1599387814.060033,0.0,10,0.5,0.5,5.949926542282103,-0.15025,-0.03,-0.37525,0.26438540934321697,10,1,100,-0.04838307520113164,-10,-1,-100,19274.84544253361,-0.01566721844722851,0.02143562100196055,0.999647464068402,58.770626054522396,3.563817471400955,256.78419690550703,-77.96839037084858,-117.73651885986328,4761.76025390625,True
1599387814.0999265,0.0,10,0.5,0.5,4.1591349277496334,-0.15025,-0.03,-0.37525,0.23220027317670186,10,1,100,0.1841222293454207,-10,-1,-100,19274.84544253361,-0.01566721844722851,0.02143562100196055,0.999647464068402,58.770626054522396,3.563817471400955,256.78419690550703,-77.96839037084858,-117.73651885986328,4761.76025390625,True
1599387814.1408179,0.0,10,0.5,0.5,6.912802877426147,-0.15025,-0.03,-0.37525,0.25762884571301337,10,1,100,-0.06472675407665737,-10,-1,-100,19271.71576534107,-0.013425290021725407,0.021659020350504862,0.9996752714883412,59.71362053023518,3.6230366484195837,262.17983146135623,-78.3331054676847,-122.67279052734375,4761.76025390625,True
1599387814.18071,0.0,10,0.5,0.5,8.822425399780274,-0.15025,-0.03,-0.37525,0.25190014899953495,10,1,100,-0.20173194478444112,-10,-1,-100,19266.993899211287,-0.010162368317381806,0.02180319607443234,0.9997106315885221,60.587999637248124,3.678684895494375,267.958818223701,-78.88008168922809,-129.524658203125,4761.76025390625,True
1599387814.222599,0.0,10,0.5,0.5,9.671005813598633,-0.15025,-0.03,-0.37525,0.23300869864465806,10,1,100,-0.2186286368691458,-10,-1,-100,19262.23921750125,-0.007064292575891415,0.02175671365383403,0.9997383363567626,60.9291950010117,3.7012678813257445,271.41820345552185,-79.42698625673746,-135.71292114257812,4761.76025390625,True
1599387814.262493,0.0,10,0.5,0.5,9.494086723327637,-0.15025,-0.03,-0.37525,0.23002491807691566,10,1,100,-0.12421382734741462,-10,-1,-100,19259.051200370654,-0.0051288932962303005,0.021682599694217163,0.9997517488477109,60.92971046213692,3.7021290965972664,272.7210864694462,-79.7915703112703,-139.46893310546875,4761.76025390625,True
1599387814.3013875,0.0,10,0.5,0.5,8.25153370666504,-0.15025,-0.03,-0.37525,0.2378433441102301,10,1,100,0.06685651928474129,-10,-1,-100,19259.051200370654,-0.0051288932962303005,0.021682599694217163,0.9997517488477109,60.92971046213692,3.7021290965972664,272.7210864694462,-79.7915703112703,-139.46893310546875,4761.76025390625,True
1599387814.3392866,0.0,10,0.5,0.5,11.883555877685545,-0.15025,-0.03,-0.37525,0.20887337488112706,10,1,100,-0.33021705519412575,-10,-1,-100,19252.631416252465,-0.0015394826171999981,0.021416397275133385,0.999769457385564,60.567992355907926,3.6809672304027483,273.68967112459245,-80.52073188492463,-146.09469604492188,4761.76025390625,True
1599387814.3791804,0.0,10,0.5,0.5,11.040411056518554,-0.15025,-0.03,-0.37525,0.20994410924181006,10,1,100,-0.15711633556958482,-10,-1,-100,19249.399649090017,0.00013071292455739693,0.02118291844955233,0.9997756082642199,60.26963628565443,3.662922030133709,273.6302101600941,-80.88532077573673,-148.96522521972656,4761.76025390625,True
1599387814.419074,0.0,10,0.5,0.5,10.784486492156981,-0.15025,-0.03,-0.37525,0.22895258345050723,10,1,100,-0.07508917680487433,-10,-1,-100,19247.778296705917,0.0008847945405692295,0.021142986973255232,0.9997760705480352,60.10180745238323,3.6527071691094446,273.5111808463972,-81.0676186760003,-150.28834533691406,4761.76025390625,True
1599387814.456971,0.0,10,0.5,0.5,11.057870731353761,-0.15025,-0.03,-0.37525,0.22715123903251316,10,1,100,-0.08265909487215059,-10,-1,-100,19246.153298092424,0.0016219578534952047,0.02109027426310118,0.9997762597622672,59.927324579340144,3.642056389507434,273.3584530024943,-81.24991916412462,-151.53770446777344,4761.76025390625,True
1599387814.501853,0.0,10,0.5,0.5,11.887653469085693,-0.15025,-0.03,-0.37525,0.21158872522121236,10,1,100,-0.16900891111716038,-10,-1,-100,19242.89236284746,0.0030613872162909765,0.020901190170802813,0.9997768591829658,59.57305164756085,3.620360391479576,273.0182133517437,-81.61452804466656,-153.81591796875,4761.76025390625,True
1599387814.541745,0.0,10,0.5,0.5,12.182786819458007,-0.15025,-0.03,-0.37525,0.20968635726662632,10,1,100,-0.172870795111294,-10,-1,-100,19239.616842997028,0.0043880413954487845,0.020712487133518205,0.9997758438617408,59.22482917271463,3.5989675716713396,272.69162871024,-81.9791471534322,-155.79840087890625,4761.76025390625,True
1599387814.58463,0.0,10,0.5,0.5,12.424537078857423,-0.15025,-0.03,-0.37525,0.2095046016810952,10,1,100,-0.17633037858907427,-10,-1,-100,19236.326738098986,0.005609347470465545,0.020540147079042812,0.9997732930914521,58.899110396880744,3.578906834448095,272.455148207,-82.34377532984293,-157.4849853515625,4761.76025390625,True
1599387814.624523,0.0,10,0.5,0.5,13.181587501525879,-0.15025,-0.03,-0.37525,0.1968233725575579,10,1,100,-0.29036688176515274,-10,-1,-100,19229.702772038174,0.007741983280456179,0.02026933862748338,0.9997645800919781,58.37448214403882,3.546459511313649,272.5348620901053,-83.07304938246075,-159.97035217285156,4761.76025390625,True
1599387814.6624212,0.0,10,0.5,0.5,12.321725894927978,-0.15025,-0.03,-0.37525,0.22375548021086616,10,1,100,-0.07858392835172406,-10,-1,-100,19229.702772038174,0.007741983280456179,0.02026933862748338,0.9997645800919781,58.37448214403882,3.546459511313649,272.5348620901053,-83.07304938246075,-159.97035217285156,4761.76025390625,True
1599387814.6973288,0.0,10,0.5,0.5,12.954523769378662,-0.15025,-0.03,-0.37525,0.21054029210493547,10,1,100,-0.2257902699242681,-10,-1,-100,19224.69651053357,0.009068521952409592,0.02015048533658104,0.9997558301156833,58.13683307689787,3.531603753991529,273.2995814016564,-83.62000892900298,-161.0574951171875,4761.76025390625,True
1599387814.737223,0.0,10,0.5,0.5,12.723886642456053,-0.15025,-0.03,-0.37525,0.22161655255505172,10,1,100,-0.1371664042022892,-10,-1,-100,19223.020463754307,0.009455887951941395,0.02014452299835964,0.9997523615256975,58.092826574924736,3.528795871914017,273.71731888379225,-83.80232723147927,-161.27166748046875,4761.76025390625,True
1599387814.7751205,0.0,10,0.5,0.5,12.793955329895018,-0.15025,-0.03,-0.37525,0.2201806040934876,10,1,100,-0.21117712743421835,-10,-1,-100,19217.97044599068,0.01047086782583408,0.02012720486330485,0.999742595147053,58.074275170141824,3.5272799366997463,275.50404179845583,-84.34927105871533,-161.47129821777344,4761.76025390625,True
1599387814.8130186,0.0,10,0.5,0.5,12.756562114715575,-0.15025,-0.03,-0.37525,0.22180684624034178,10,1,100,-0.1107131555350775,-10,-1,-100,19217.97044599068,0.01047086782583408,0.02012720486330485,0.999742595147053,58.074275170141824,3.5272799366997463,275.50404179845583,-84.34927105871533,-161.47129821777344,4761.76025390625,True
1599387814.8519158,0.0,10,0.5,0.5,12.665848377227784,-0.15025,-0.03,-0.37525,0.22466526840854573,10,1,100,-0.1719102117919688,-10,-1,-100,19214.585536603467,0.011018490088819215,0.020154113957661205,0.9997361674795727,58.156909691380505,3.5320500984469403,277.1479314352798,-84.71388613105829,-161.23483276367188,4761.76025390625,True
1599387814.8888164,0.0,10,0.5,0.5,12.503715736389161,-0.15025,-0.03,-0.37525,0.23294472645577244,10,1,100,-0.16556212402825254,-10,-1,-100,19211.1860429676,0.011450076318921622,0.020254695625964898,0.9997292848853586,58.3134929600829,3.5413178300394184,279.1498470171133,-85.07848563463452,-160.70208740234375,4761.76025390625,True
1599387814.9256601,0.0,10,0.5,0.5,12.289468086242675,-0.15025,-0.03,-0.37525,0.2322860585629158,10,1,100,-0.16072443389762536,-10,-1,-100,19207.77196583769,0.011790822355006626,0.02034073333861941,0.9997235773329745,58.54162242942394,3.5549367312267717,281.5029535784407,-85.44306573380949,-159.87464904785156,4761.76025390625,True
1599387814.9635594,0.0,10,0.5,0.5,11.276592678070068,-0.15025,-0.03,-0.37525,0.25699831908393955,10,1,100,-0.16466276556945603,-10,-1,-100,19200.900064998423,0.012129664693046402,0.020643944312855454,0.9997133083027564,59.18280575799782,3.5934371820606446,287.136845931645,-86.17215435521805,-157.33306884765625,4761.76025390625,True
1599387814.9974697,0.0,10,0.5,0.5,11.799087364196776,-0.15025,-0.03,-0.37525,0.23617838347767248,10,1,100,-0.13343148862184712,-10,-1,-100,19199.17297670769,0.012147854921538316,0.020730224150073237,0.9997113020404906,59.37582121100257,3.605062291948623,288.7132192117025,-86.35440935504074,-156.51332092285156,4761.76025390625,True
1599387815.0333781,0.0,10,0.5,0.5,12.096326679229735,-0.15025,-0.03,-0.37525,0.22759648830815316,10,1,100,-0.13205305293676392,-10,-1,-100,19199.17297670769,0.012147854921538316,0.020730224150073237,0.9997113020404906,59.37582121100257,3.605062291948623,288.7132192117025,-86.35440935504074,-156.51332092285156,4761.76025390625,True
1599387815.0732725,0.0,10,0.5,0.5,11.108140377044679,-0.15025,-0.03,-0.37525,0.24825341003398174,10,1,100,-0.12667788179525893,-10,-1,-100,19195.707865486736,0.012094984391487287,0.02091759536074205,0.9997080401581724,59.791245487292834,3.6301265140632,292.02216283829074,-86.71889672281698,-154.652587890625,4761.76025390625,True
1599387815.110171,0.0,10,0.5,0.5,10.654521423339842,-0.15025,-0.03,-0.37525,0.2508235536999644,10,1,100,-0.11521911111709233,-10,-1,-100,19192.228175677476,0.01193999830124022,0.021110600394655215,0.9997058462325523,60.23417006723067,3.6569186086799497,295.4840965900336,-87.08335216592624,-152.49722290039062,4761.76025390625,True
1599387815.1535718,0.0,10,0.5,0.5,10.149557479858398,-0.15025,-0.03,-0.37525,0.2538866801774711,10,1,100,-0.1017765387904272,-10,-1,-100,19188.733908487135,0.01167463837045566,0.021313027868556975,0.9997046852255885,60.68725182229205,3.684414886031908,299.015331336145,-87.44777478178757,-150.0472869873047,4761.76025390625,True
1599387815.1924667,0.0,10,0.5,0.5,9.592594036102295,-0.15025,-0.03,-0.37525,0.25509862226701163,10,1,100,-0.08650120933321456,-10,-1,-100,19185.22506564739,0.011293441101454471,0.021506992479276895,0.9997049101922947,61.13112705216721,3.7114761096712234,302.5207065615158,-87.81216452592983,-147.3031768798828,4761.76025390625,True
1599387815.2328672,0.0,10,0.5,0.5,7.232424648284912,-0.15025,-0.03,-0.37525,0.2727793514182038,10,1,100,-0.006057316202107477,-10,-1,-100,19178.163656691904,0.01021484221637458,0.02184280349256405,0.9997092321940814,61.902347829418666,3.759066424051558,309.0079336390604,-88.54085328559492,-140.93325805664062,4761.76025390625,True
1599387815.2697682,0.0,10,0.5,0.5,9.56183196258545,-0.15025,-0.03,-0.37525,0.23936711904297864,10,1,100,-0.11383683992285215,-10,-1,-100,19178.163656691904,0.01021484221637458,0.02184280349256405,0.9997092321940814,61.902347829418666,3.759066424051558,309.0079336390604,-88.54085328559492,-140.93325805664062,4761.76025390625,True
1599387815.3096619,0.0,10,0.5,0.5,7.597443641662598,-0.15025,-0.03,-0.37525,0.2528180461271007,10,1,100,-0.03735426004525834,-10,-1,-100,19174.611093137064,0.009520668975762406,0.02196364091345007,0.9997134366107514,62.17786902295536,3.7765367485759533,311.7252183553048,-88.90516003915295,-137.3079833984375,4761.76025390625,True
1599387815.3475602,0.0,10,0.5,0.5,6.831235382080078,-0.15025,-0.03,-0.37525,0.2462028614064431,10,1,100,-0.021346937153674334,-10,-1,-100,19171.04395762307,0.008746145051990797,0.0220118797008179,0.9997194516957074,62.34076028828431,3.787456381432351,313.8880251883269,-89.26945012190815,-133.3900146484375,4761.76025390625,True
1599387815.3854604,0.0,10,0.5,0.5,6.016455596923828,-0.15025,-0.03,-0.37525,0.24560634817263532,10,1,100,-0.00035559228166308354,-10,-1,-100,19167.46225102758,0.007854277913035647,0.02204906671867407,0.9997260369597764,62.358432375681886,3.7898620368248146,315.3245834987697,-89.63373254789188,-129.178466796875,4761.76025390625,True
1599387815.4223685,0.0,10,0.5,0.5,5.148143890380858,-0.15025,-0.03,-0.37525,0.23538388924649942,10,1,100,0.015503414029680626,-10,-1,-100,19163.86597304966,0.006903220072071933,0.021988742705970628,0.9997343850977854,62.19878236179693,3.7817925054803547,315.86282648026787,-89.99801849250635,-124.67477416992188,4761.76025390625,True
1599387815.459269,0.0,10,0.5,0.5,5.501632682800293,-0.15025,-0.03,-0.37525,0.23571154312636006,10,1,100,-0.02373032137606884,-10,-1,-100,19162.06236962194,0.006400060206565795,0.02193573725827905,0.9997388972428191,62.041224482771504,3.7731334475005593,315.73442126207266,-90.18016678038443,-122.31320190429688,4761.76025390625,True
1599387815.4971683,0.0,10,0.5,0.5,2.3374045181274417,-0.15025,-0.03,-0.37525,0.2107405893026822,10,1,100,0.10239045616412419,-10,-1,-100,19156.629700060468,0.00480126682772657,0.021659616232982785,0.9997538741417755,61.203126239867196,3.725214101022342,313.4603630895319,-90.72665466230663,-114.79010009765625,4761.76025390625,True
1599387815.5350678,0.0,10,0.5,0.5,3.6527787513732903,-0.15025,-0.03,-0.37525,0.22366515077427782,10,1,100,0.004390765116582096,-10,-1,-100,19154.811523250188,0.004245214339644488,0.02152559402714766,0.9997592845065201,60.78710016356558,3.7009686381569686,311.99001852112923,-90.90883806318811,-112.13634490966797,4761.76025390625,True
1599387815.573963,0.0,10,0.5,0.5,0.12112782096862817,-0.15025,-0.03,-0.37525,0.1783635994462613,10,1,100,0.13862021892065107,-10,-1,-100,19149.335128038423,0.0025261983377427052,0.020991730131444133,0.9997764578084678,59.298110320814544,3.613414353656562,306.2842732186178,-91.45547014643978,-103.73722076416016,4761.76025390625,True
1599387815.6138563,0.0,10,0.5,0.5,1.594287218093872,-0.15025,-0.03,-0.37525,0.20709456457106423,10,1,100,0.030082328553038183,-10,-1,-100,19147.502373557072,0.0019581348327773035,0.020768058329528074,0.999782403056384,58.670311833368366,3.5760944100797114,303.68152733369743,-91.63771208551007,-100.79161834716797,4761.76025390625,True
1599387815.651755,0.0,10,0.5,0.5,-0.6315856685638428,-0.15025,-0.03,-0.37525,0.172746512548076,10,1,100,0.10504429835174746,-10,-1,-100,19143.82592909923,0.0007677471095328516,0.020253442350452705,0.9997945832206397,57.31808273586305,3.495231221355668,297.9343161673746,-92.00224732909513,-94.68165588378906,4761.76025390625,True
1599387815.6896539,0.0,10,0.5,0.5,-1.7721435661315916,-0.15025,-0.03,-0.37525,0.15903680142563872,10,1,100,0.10965095602106775,-10,-1,-100,19140.134901085985,-0.0003477139857678876,0.019662420778491223,0.9998066154532653,56.124729057657945,3.4234781502534366,292.9589662710794,-92.36684603695812,-88.41226196289062,4761.76025390625,True
1599387815.727552,0.0,10,0.5,0.5,-2.957806884765625,-0.15025,-0.03,-0.37525,0.14186596111962346,10,1,100,0.12554452629969698,-10,-1,-100,19136.42929117009,-0.001497285272245616,0.018971121910412427,0.9998189109385127,58.678462407869844,3.579720222163361,307.57314195009263,-92.73136391110238,-81.95828247070312,4761.76025390625,True
1599387815.76545,0.0,10,0.5,0.5,-5.763017990112305,-0.15025,-0.03,-0.37525,0.0844804496080992,10,1,100,0.18785254077297375,-10,-1,-100,19130.843545959564,-0.0030994743639603975,0.017823746250954578,0.9998363402718711,62.03520709471605,3.784424291746963,327.2041362630096,-93.27791512721976,-72.3050537109375,4761.76025390625,True
1599387815.7993608,0.0,10,0.5,0.5,-5.534458030700684,-0.15025,-0.03,-0.37525,0.10651703358163524,10,1,100,0.14022707961479708,-10,-1,-100,19127.101501856,-0.004113093207465869,0.01698485125163206,0.9998472869854809,63.808326692615445,3.8923166339118764,337.95148717096487,-93.64214526957784,-66.17147827148438,4761.76025390625,True
1599387815.8362613,0.0,10,0.5,0.5,-6.477903289794922,-0.15025,-0.03,-0.37525,0.09489988145143068,10,1,100,0.144264044632946,-10,-1,-100,19123.34489127784,-0.005061249735108981,0.016121157952386403,0.9998572358178907,65.20100212356809,3.9770700848056086,346.7521604295725,-94.00628412847514,-60.33026123046875,4761.76025390625,True
1599387815.8751569,0.0,10,0.5,0.5,-5.948172172546387,-0.15025,-0.03,-0.37525,0.13159220553543863,10,1,100,0.10077320032668538,-10,-1,-100,19121.461124783265,-0.005517419530235191,0.015674834789568506,0.9998619192848816,65.76339964541326,4.011361052335628,350.46128948429805,-94.18832510277237,-57.52105712890625,4761.76025390625,True
1599387815.9140553,0.0,10,0.5,0.5,-6.502964042663574,-0.15025,-0.03,-0.37525,0.12586019057583714,10,1,100,0.10452643197516762,-10,-1,-100,19119.573717458174,-0.005956859007737982,0.015222417943231691,0.9998663879852765,66.24212183102398,4.040629191030965,353.7357900856534,-94.37035026532817,-54.7862548828125,4761.76025390625,True
1599387816.282596,0.0,10,0.5,0.5,-8.40587466430664,-0.15025,-0.03,-0.37525,0.07118985110297901,10,1,100,0.15284178312899085,-10,-1,-100,19115.787982912385,-0.006786305294732202,0.014319856975066709,0.9998744359951706,66.96788867370759,4.085327534946881,359.0739962014691,-94.73436298378054,-49.539642333984375,4761.76025390625,True
1599387816.3185503,0.0,10,0.5,0.5,-11.644623580932617,-0.15025,-0.03,-0.37525,-0.04332380125136309,10,1,100,0.23382822350759797,-10,-1,-100,19108.17283630313,-0.008268121828502943,0.012464379140019412,0.999888132449867,67.62966182865054,4.127853124938364,365.5788874148627,-95.46229912869649,-39.939361572265625,4761.76025390625,True
1599387816.3534603,0.0,10,0.5,0.5,-10.513072898864745,-0.15025,-0.03,-0.37525,0.04284017273141155,10,1,100,0.15937803978092555,-10,-1,-100,19104.343425432802,-0.008929111319269068,0.011568438761810284,0.9998932153963555,67.6454675759417,4.130499327259626,367.1453181239149,-95.8262527725832,-35.58465576171875,4761.76025390625,True
1599387816.389591,0.0,10,0.5,0.5,-10.142140991210935,-0.15025,-0.03,-0.37525,0.08579224281076805,10,1,100,0.12967939220100974,-10,-1,-100,19102.423260746174,-0.009251207825212854,0.011152316331058537,0.9998950149861868,67.59175249680925,4.128184877237745,367.5944742137378,-96.00823124766556,-33.518280029296875,4761.76025390625,True
1599387816.4245353,0.0,10,0.5,0.5,-9.531415443420409,-0.15025,-0.03,-0.37525,0.12655347544119944,10,1,100,0.09836009099057565,-10,-1,-100,19102.423260746174,-0.009251207825212854,0.011152316331058537,0.9998950149861868,67.59175249680925,4.128184877237745,367.5944742137378,-96.00823124766556,-33.518280029296875,4761.76025390625,True
1599387816.4923217,0.0,10,0.5,0.5,-11.731346153259278,-0.15025,-0.03,-0.37525,0.03346325689213153,10,1,100,0.16564113122762725,-10,-1,-100,19098.572012394783,-0.009855804625046989,0.010313149622048242,0.9998982458530798,67.3841312508368,4.117630649863374,367.9439250957613,-96.37219714533542,-29.60845947265625,4761.76025390625,True
1599387816.527932,0.0,10,0.5,0.5,-14.033762405395507,-0.15025,-0.03,-0.37525,-0.06130955809530475,10,1,100,0.22226040286974988,-10,-1,-100,19090.82583720598,-0.010914016612314512,0.008695527565452103,0.9999026312805386,66.68476948888866,4.079617017364927,367.05908576351885,-97.10018568483315,-22.67889404296875,4761.76025390625,True
1599387816.5628076,0.0,10,0.5,0.5,-11.56392073059082,-0.15025,-0.03,-0.37525,0.09962371519569108,10,1,100,0.11711929648348247,-10,-1,-100,19090.82583720598,-0.010914016612314512,0.008695527565452103,0.9999026312805386,66.68476948888866,4.079617017364927,367.05908576351885,-97.10018568483315,-22.67889404296875,4761.76025390625,True
1599387816.5967178,0.0,10,0.5,0.5,-13.264312057495118,-0.15025,-0.03,-0.37525,0.019723863464068916,10,1,100,0.17220628082861728,-10,-1,-100,19086.93090859335,-0.011409486681927369,0.007975915850061842,0.99990309949515,66.25482005846742,4.055757661305883,366.15375197381127,-97.46421490857364,-19.6580810546875,4761.76025390625,True
1599387816.6336577,0.0,10,0.5,0.5,-12.979797149658204,-0.15025,-0.03,-0.37525,0.05438604397506188,10,1,100,0.15063526704745284,-10,-1,-100,19084.977983680554,-0.011658457467972387,0.007643833130661092,0.9999028213704259,66.03213043478802,4.043338603807163,365.6521577857951,-97.6462387205154,-18.258544921875,4761.76025390625,True
1599387816.669555,0.0,10,0.5,0.5,-13.918175109863283,-0.15025,-0.03,-0.37525,0.013797806781396818,10,1,100,0.17604497859949855,-10,-1,-100,19081.061212032335,-0.012110608652613515,0.006979845397456701,0.9999023026857629,65.58776583998551,4.018495966342522,364.6415813546192,-98.01030420548886,-15.6820068359375,4761.76025390625,True
1599387816.7064242,0.0,10,0.5,0.5,-14.251586715698242,-0.15025,-0.03,-0.37525,0.014353856221340139,10,1,100,0.1805085647337094,-10,-1,-100,19077.129877210595,-0.012557392964091111,0.006387947918159113,0.9999007480761979,65.20909198567888,3.9975619158944045,363.9801875294793,-98.37439070232374,-13.400970458984375,4761.76025390625,True
1599387816.7423604,0.0,10,0.5,0.5,-15.406449073791503,-0.15025,-0.03,-0.37525,-0.04010878332274512,10,1,100,0.22936195561075212,-10,-1,-100,19069.22351467854,-0.013403782917829688,0.00536026842405313,0.9998957976338904,64.68339128847727,3.9694909846578277,363.91615174921674,-99.10260559085866,-9.725982666015625,4761.76025390625,True
1599387816.77524,0.0,10,0.5,0.5,-14.104985923767089,-0.15025,-0.03,-0.37525,0.062038349054077443,10,1,100,0.14517042739675046,-10,-1,-100,19069.22351467854,-0.013403782917829688,0.00536026842405313,0.9998957976338904,64.68339128847727,3.9694909846578277,363.91615174921674,-99.10260559085866,-9.725982666015625,4761.76025390625,True
1599387816.8101892,0.0,10,0.5,0.5,-14.56213254547119,-0.15025,-0.03,-0.37525,0.03741172193602657,10,1,100,0.16833830995539642,-10,-1,-100,19067.2378213217,-0.013610624963733182,0.0051416554938044905,0.9998941515314906,64.60429693090181,3.965599825530294,364.18895052715095,-99.28466416485416,-8.99188232421875,4761.76025390625,True
1599387816.8500826,0.0,10,0.5,0.5,-15.284772903442382,-0.15025,-0.03,-0.37525,-0.0031227351824985455,10,1,100,0.2156766841485859,-10,-1,-100,19061.258894066326,-0.01422504893709397,0.004579885638716639,0.9998883300800512,64.44887204091427,3.9587760813463704,365.4633578323051,-99.83084332004354,-7.2325439453125,4761.76025390625,True
1599387816.888979,0.0,10,0.5,0.5,-14.922256652832031,-0.15025,-0.03,-0.37525,0.034342413211776265,10,1,100,0.17605308773726697,-10,-1,-100,19059.25863577309,-0.014419429632489928,0.004414990086751392,0.9998862874905364,64.42858951592018,3.9583876809903855,366.0657230559197,-100.0129025320045,-6.7938232421875,4761.76025390625,True
1599387816.924399,0.0,10,0.5,0.5,-15.150173370361328,-0.15025,-0.03,-0.37525,0.021007978211503988,10,1,100,0.20093213951052086,-10,-1,-100,19055.247195979813,-0.014819125814406583,0.004147754300852057,0.999881587811455,64.44050893170113,3.960779871655719,367.5695238673715,-100.37701708427531,-6.13751220703125,4761.76025390625,True
1599387816.9622977,0.0,10,0.5,0.5,-15.143523025512694,-0.15025,-0.03,-0.37525,0.026576229859266498,10,1,100,0.20605181253369603,-10,-1,-100,19051.22119174339,-0.015225478362539596,0.003959567486163775,0.9998762456594088,64.52694817215378,3.967702777622243,369.50192091664474,-100.7411229860781,-5.77593994140625,4761.76025390625,True
1599387816.9982014,0.0,10,0.5,0.5,-15.084369903564452,-0.15025,-0.03,-0.37525,0.029133095929649005,10,1,100,0.20839601671398472,-10,-1,-100,19047.180623983615,-0.015612731633680767,0.0038153840265087212,0.9998708343859546,64.69191723102816,3.979437745871141,371.89089525821765,-101.10521566623002,-5.709564208984375,4761.76025390625,True
1599387817.0366151,0.0,10,0.5,0.5,-14.859264793395996,-0.15025,-0.03,-0.37525,0.03606282426026023,10,1,100,0.23475687903437276,-10,-1,-100,19041.09246653586,-0.016200829470207442,0.003750786092649822,0.9998617228037907,65.0899769910474,4.006350559116766,376.3612782311208,-101.65131997885689,-6.16217041015625,4761.76025390625,True
1599387817.0745137,0.0,10,0.5,0.5,-15.057664779663085,-0.15025,-0.03,-0.37525,0.04219971171566945,10,1,100,0.17635611746346463,-10,-1,-100,19041.09246653586,-0.016200829470207442,0.003750786092649822,0.9998617228037907,65.0899769910474,4.006350559116766,376.3612782311208,-101.65131997885689,-6.16217041015625,4761.76025390625,True
1599387817.1109273,0.0,10,0.5,0.5,-14.72733723449707,-0.15025,-0.03,-0.37525,0.046956458142972377,10,1,100,0.2190430144164326,-10,-1,-100,19037.01549219445,-0.016585579954774318,0.003796426661830312,0.9998552423636959,65.4540601491787,4.030450071272781,379.9307628789444,-102.01535971156234,-6.83209228515625,4761.76025390625,True
1599387817.1488252,0.0,10,0.5,0.5,-14.169392440795898,-0.15025,-0.03,-0.37525,0.0654063784584776,10,1,100,0.24244415571439132,-10,-1,-100,19030.872729870374,-0.01714519822796479,0.004007066311010098,0.9998449807831729,66.1384873622214,4.075326110066076,386.1249220182909,-102.56136310863566,-8.38873291015625,4761.76025390625,True
1599387817.187385,0.0,10,0.5,0.5,-14.407510299682619,-0.15025,-0.03,-0.37525,0.05523499496171019,10,1,100,0.2069140290955458,-10,-1,-100,19028.817862669588,-0.01732753967495741,0.004107319962214784,0.9998414305736388,66.40052840409507,4.092445089212566,388.398614238445,-102.74334698790283,-9.0548095703125,4761.76025390625,True
1599387817.2247937,0.0,10,0.5,0.5,-13.841465240478513,-0.15025,-0.03,-0.37525,0.07551173952283201,10,1,100,0.22750258863046405,-10,-1,-100,19024.69721022295,-0.017677094336439752,0.004383733991621597,0.9998341378509294,66.9702580831061,4.129624632617176,393.23225183626164,-103.10728567512491,-10.60723876953125,4761.76025390625,True
1599387817.261695,0.0,10,0.5,0.5,-12.31881819152832,-0.15025,-0.03,-0.37525,0.13227334114470657,10,1,100,0.26218703996661746,-10,-1,-100,19016.412238808698,-0.018307046272298417,0.005151212352778555,0.9998191421792647,68.33215186168786,4.21827921145814,404.29403188440995,-103.83502968438816,-14.59405517578125,4761.76025390625,True
1599387817.2966015,0.0,10,0.5,0.5,-13.171223831176757,-0.15025,-0.03,-0.37525,0.0820495988889235,10,1,100,0.2145829192870149,-10,-1,-100,19014.331900082994,-0.018443430919955536,0.005391671185808646,0.9998153678243424,68.72139838286262,4.2435790227854735,407.36790892999795,-104.0169333457668,-15.77435302734375,4761.76025390625,True
1599387817.336495,0.0,10,0.5,0.5,-13.585220077514649,-0.15025,-0.03,-0.37525,0.058128107274410076,10,1,100,0.2013068850318579,-10,-1,-100,19014.331900082994,-0.018443430919955536,0.005391671185808646,0.9998153678243424,68.72139838286262,4.2435790227854735,407.36790892999795,-104.0169333457668,-15.77435302734375,4761.76025390625,True
1599387817.373108,0.0,10,0.5,0.5,-12.199008895874023,-0.15025,-0.03,-0.37525,0.11740583402242638,10,1,100,0.22740388764403363,-10,-1,-100,19010.160309364554,-0.01867775098683221,0.00592925769833639,0.9998079743236802,69.59132784106221,4.299970992411108,414.08598963408537,-104.3806961437027,-18.35516357421875,4761.76025390625,True
1599387817.4279747,0.0,10,0.5,0.5,-11.618965347290038,-0.15025,-0.03,-0.37525,0.12958899519171643,10,1,100,0.227288880666482,-10,-1,-100,19005.97417023196,-0.018886937330239488,0.006526807017017132,0.999800322258623,70.493412759783,4.358519100756373,421.03501784032096,-104.74439590232919,-21.22967529296875,4761.76025390625,True
1599387817.4668705,0.0,10,0.5,0.5,-9.168612380981445,-0.15025,-0.03,-0.37525,0.22348521374469757,10,1,100,0.23481000472139046,-10,-1,-100,18997.558256514487,-0.019143038672145243,0.007921112001822756,0.9997853769960088,72.25508729962426,4.4732637383849525,434.79738914529156,-105.47160127170748,-27.85919189453125,4761.76025390625,True
1599387817.5057666,0.0,10,0.5,0.5,-11.591247421264647,-0.15025,-0.03,-0.37525,0.08447174785505246,10,1,100,0.2094940914510087,-10,-1,-100,18997.558256514487,-0.019143038672145243,0.007921112001822756,0.9997853769960088,72.25508729962426,4.4732637383849525,434.79738914529156,-105.47160127170748,-27.85919189453125,4761.76025390625,True
1599387817.5446632,0.0,10,0.5,0.5,-7.427460357666016,-0.15025,-0.03,-0.37525,0.25927465888186774,10,1,100,0.20469731539718822,-10,-1,-100,18989.084178835154,-0.019097106654640175,0.009506479660848357,0.9997724377886595,73.76125152202341,4.571948362590684,447.16603739991376,-106.1985591904841,-35.662628173828125,4761.76025390625,True
1599387817.5835574,0.0,10,0.5,0.5,-10.273878135681151,-0.15025,-0.03,-0.37525,0.10128783431429154,10,1,100,0.20948570799036265,-10,-1,-100,18989.084178835154,-0.019097106654640175,0.009506479660848357,0.9997724377886595,73.76125152202341,4.571948362590684,447.16603739991376,-106.1985591904841,-35.662628173828125,4761.76025390625,True
1599387817.6194618,0.0,10,0.5,0.5,-7.912584754943847,-0.15025,-0.03,-0.37525,0.19757691328419286,10,1,100,0.19810560128740706,-10,-1,-100,18984.825334069552,-0.018992042441904503,0.010376926597212338,0.9997657834304398,74.32837044992432,4.6093870370991,452.26856799604786,-106.56195937106895,-40.004150390625,4761.76025390625,True
1599387817.6587327,0.0,10,0.5,0.5,-7.017515823364257,-0.15025,-0.03,-0.37525,0.20339027249331001,10,1,100,0.18002056673171757,-10,-1,-100,18980.55195443984,-0.018730924708815384,0.011215642357075577,0.999761652508272,74.72264280750754,4.635696929477198,456.34077002472566,-106.92532062060977,-44.639801025390625,4761.76025390625,True
1599387817.6966276,0.0,10,0.5,0.5,-6.077109443664551,-0.15025,-0.03,-0.37525,0.21983181235311075,10,1,100,0.17365477932277537,-10,-1,-100,18976.264041339164,-0.018435288812801695,0.012122066655672803,0.9997565681836674,74.89858001680149,4.647960305737159,459.092817877364,-107.28865756927115,-49.56805419921875,4761.76025390625,True
1599387817.7295408,0.0,10,0.5,0.5,-5.080757965087891,-0.15025,-0.03,-0.37525,0.22465567718618534,10,1,100,0.15680979697092384,-10,-1,-100,18971.961594947148,-0.01801340010605165,0.01298382352063472,0.9997534384754094,74.81662986506429,4.643674570889535,460.26752309440445,-107.6519878131591,-54.790313720703125,4761.76025390625,True
1599387817.7684324,0.0,10,0.5,0.5,-5.493392921447753,-0.15025,-0.03,-0.37525,0.1862122010436676,10,1,100,0.17271141636824086,-10,-1,-100,18969.804921487812,-0.017774816031539856,0.013410850749000095,0.9997520717644115,74.66445587856376,4.634430063683858,460.1689335209036,-107.83365682690052,-57.511474609375,4761.76025390625,True
1599387817.8062956,0.0,10,0.5,0.5,-1.8757317810058596,-0.15025,-0.03,-0.37525,0.27970844109716364,10,1,100,0.10315914014509989,-10,-1,-100,18963.313099887804,-0.0169264488480963,0.014642221690681615,0.9997495189663027,73.69878311467302,4.574437657264984,456.70202752989155,-108.37871333949727,-66.11529541015625,4761.76025390625,True
1599387817.8442335,0.0,10,0.5,0.5,-1.7626300659179686,-0.15025,-0.03,-0.37525,0.24179195921962254,10,1,100,0.11431843166387255,-10,-1,-100,18958.9670482676,-0.016258436321029315,0.015409576879983837,0.9997490726121104,72.5785846399493,4.5045563298266895,451.3962409077685,-108.74215536772793,-72.21810913085938,4761.76025390625,True
1599387817.8841197,0.0,10,0.5,0.5,-2.258282463073731,-0.15025,-0.03,-0.37525,0.205852691189861,10,1,100,0.14075900187478985,-10,-1,-100,18956.788570062257,-0.015894143391386863,0.01577364419282606,0.999749252740272,71.86144585792684,4.459869578591025,447.74753164190696,-108.92390673346117,-75.37957763671875,4761.76025390625,True
1599387817.9240105,0.0,10,0.5,0.5,0.13673278808593725,-0.15025,-0.03,-0.37525,0.23932471957484416,10,1,100,0.09358642918074017,-10,-1,-100,18952.4207066074,-0.015137079972021236,0.016401766978736108,0.9997508943981475,70.09345043883069,4.3499795051865915,438.3177896023231,-109.28748426994892,-81.92343139648438,4761.76025390625,True
1599387817.9619167,0.0,10,0.5,0.5,3.2672175521850586,-0.15025,-0.03,-0.37525,0.26779598592990317,10,1,100,0.032091982156953636,-10,-1,-100,18945.841635141405,-0.013893400096638623,0.017225348944320425,0.9997551004058449,66.5596243784221,4.13147653051399,418.4849145413915,-109.83307454859936,-92.28933715820312,4761.76025390625,True
1599387818.001809,0.0,10,0.5,0.5,1.440221347808838,-0.15025,-0.03,-0.37525,0.21128607560296775,10,1,100,0.10794300019731846,-10,-1,-100,18943.64133485756,-0.013457067379892293,0.01745331621071269,0.9997571150488411,65.1939106890573,4.047395720766196,410.63867822647455,-110.01500419983947,-95.89148712158203,4761.76025390625,True
1599387818.0396745,0.0,10,0.5,0.5,5.951772764205932,-0.15025,-0.03,-0.37525,0.24624269800774667,10,1,100,0.008762301099718262,-10,-1,-100,18937.018610361032,-0.012163790350201093,0.017971913575100466,0.9997644985329122,68.78100714321921,4.273635517993189,435.57569895476223,-110.56056715115633,-106.72991943359375,4761.76025390625,True
1599387818.076612,0.0,10,0.5,0.5,3.9222793197631836,-0.15025,-0.03,-0.37525,0.20881859849040002,10,1,100,0.0905276938063421,-10,-1,-100,18934.80376341578,-0.011737375833595323,0.018097004573278907,0.9997673391514726,69.87390329324703,4.343045229349604,443.289131709398,-110.74234696907772,-110.25296020507812,4761.76025390625,True
1599387818.1135027,0.0,10,0.5,0.5,6.374249340057373,-0.15025,-0.03,-0.37525,0.21718884615663542,10,1,100,0.03552841500278278,-10,-1,-100,18930.363165267976,-0.01085582184117518,0.018281385061390897,0.9997739454958754,71.69025017462133,4.459177722431795,456.43595122410153,-111.1058069204592,-117.0882339477539,4761.76025390625,True
1599387818.1523988,0.0,10,0.5,0.5,5.734652135848998,-0.15025,-0.03,-0.37525,0.20554799051191716,10,1,100,0.0785724424132167,-10,-1,-100,18928.13741519733,-0.010452225350219791,0.01833836176150367,0.9997772029172961,72.54183469165098,4.513763494785767,462.6781599297929,-111.28749012617737,-120.39640808105469,4761.76025390625,True
1599387818.1913023,0.0,10,0.5,0.5,8.042284866333008,-0.15025,-0.03,-0.37525,0.20538133180926735,10,1,100,0.029222447474244004,-10,-1,-100,18923.675016637426,-0.009643340032343614,0.01838416412702528,0.9997844910291273,73.87582387258361,4.599810852868873,472.8554349994001,-111.65077898175673,-126.79102325439453,4761.76025390625,True
1599387818.2301621,0.0,10,0.5,0.5,9.029295629501341,-0.15025,-0.03,-0.37525,0.197670182247391,10,1,100,0.02611003231008656,-10,-1,-100,18919.19808881136,-0.00888631606806907,0.018352299515631193,0.9997920916316688,74.75278800385775,4.656966172659462,480.155718257691,-112.01399060601813,-132.88914489746094,4761.76025390625,True
1599387818.2671041,0.0,10,0.5,0.5,9.971780246734617,-0.15025,-0.03,-0.37525,0.18795885568417908,10,1,100,0.021829982833376463,-10,-1,-100,18914.706633892725,-0.008165904850988446,0.01823237169775678,0.9998004293959067,75.22089198592958,4.688047239621855,484.8597817718902,-112.37715498458607,-138.6908416748047,4761.76025390625,True
1599387818.3040028,0.0,10,0.5,0.5,10.877435222625733,-0.15025,-0.03,-0.37525,0.1810813554459603,10,1,100,0.02207949540812791,-10,-1,-100,18910.20065325161,-0.0075202795302678005,0.018058588472519024,0.999808648081305,75.33056300939243,4.696145817560444,487.26745318851243,-112.74029947106281,-144.19570922851562,4761.76025390625,True
1599387818.342932,0.0,10,0.5,0.5,11.73550294494629,-0.15025,-0.03,-0.37525,0.17259267504154813,10,1,100,0.02132183927298026,-10,-1,-100,18905.68014679302,-0.00693338400151292,0.017821927699086606,0.9998171368202167,75.13606266566121,4.6847011733300254,487.7078160654884,-113.10344737264042,-149.40399169921875,4761.76025390625,True
1599387818.3838344,0.0,10,0.5,0.5,12.533487777709961,-0.15025,-0.03,-0.37525,0.16485313494805146,10,1,100,0.022318392842119436,-10,-1,-100,18901.145113603794,-0.006415229476996226,0.017535879741702832,0.999825653677901,74.68984302707459,4.657111905481771,486.50272941142646,-113.4666172626587,-154.3155975341797,4761.76025390625,True
1599387818.4206977,0.0,10,0.5,0.5,15.560131183624268,-0.15025,-0.03,-0.37525,0.11737363519676483,10,1,100,-0.016563668046308364,-10,-1,-100,18892.031462043407,-0.005597108299270703,0.016844129270404986,0.9998424614347042,73.24105887977294,4.566556019113688,480.3933294481661,-114.19307570359094,-163.2489013671875,4761.76025390625,True
1599387818.459597,0.0,10,0.5,0.5,12.377465866088867,-0.15025,-0.03,-0.37525,0.1864359038960799,10,1,100,0.06459178152115093,-10,-1,-100,18892.031462043407,-0.005597108299270703,0.016844129270404986,0.9998424614347042,73.24105887977294,4.566556019113688,480.3933294481661,-114.19307570359094,-163.2489013671875,4761.76025390625,True
1599387818.496533,0.0,10,0.5,0.5,14.649888061523436,-0.15025,-0.03,-0.37525,0.14312547311663026,10,1,100,0.03102264751841602,-10,-1,-100,18887.452839758014,-0.005297516415186135,0.016451537059048966,0.9998506304684842,72.32980316494569,4.5096038740693025,476.0646587318214,-114.5563800524739,-167.27066040039062,4761.76025390625,True
1599387818.5294065,0.0,10,0.5,0.5,16.16918782043457,-0.15025,-0.03,-0.37525,0.11384419585887075,10,1,100,0.024862447353148104,-10,-1,-100,18880.557654712815,-0.0049742113421759005,0.015830105117293262,0.9998623230192739,70.84333902725639,4.4170455194823415,468.7084925827084,-115.10143978536271,-172.7471923828125,4761.76025390625,True
1599387818.5703013,0.0,10,0.5,0.5,15.152660591125487,-0.15025,-0.03,-0.37525,0.1508658980399487,10,1,100,0.049639915673808266,-10,-1,-100,18878.251991543337,-0.004910527364179911,0.01560400815065625,0.9998661918730125,70.33376896553091,4.385443687025083,466.14183191414645,-115.28315383654687,-174.42462158203125,4761.76025390625,True
1599387818.6093967,0.0,10,0.5,0.5,17.076777992248537,-0.15025,-0.03,-0.37525,0.09932595536687217,10,1,100,0.04173486547362207,-10,-1,-100,18871.313193514827,-0.004785071302971103,0.01493244793484588,0.9998770549879112,68.81583636742178,4.291779212614934,458.4469581702071,-115.82837518286595,-179.0120086669922,4761.76025390625,True
1599387818.6472926,0.0,10,0.5,0.5,15.493729579925537,-0.15025,-0.03,-0.37525,0.16613999178983074,10,1,100,0.05387034711799301,-10,-1,-100,18871.313193514827,-0.004785071302971103,0.01493244793484588,0.9998770549879112,68.81583636742178,4.291779212614934,458.4469581702071,-115.82837518286595,-179.0120086669922,4761.76025390625,True
1599387818.6871867,0.0,10,0.5,0.5,-170.89556549453732,-0.15025,-0.03,-0.37525,0.05932228998215705,10,1,100,0.06226196531817527,-10,-1,-100,18862.010568417143,-0.00486443222619823,0.013964377849106037,0.9998906607476662,67.90734727186702,4.2376357011206665,455.51247892961925,-116.55547508784682,175.90760803222656,4761.76025390625,True
1599387818.7261207,0.0,10,0.5,0.5,-38.67228927993774,-0.15025,-0.03,-0.37525,0.15571987749379995,10,1,100,0.054060288265055594,-10,-1,-100,18862.010568417143,-0.00486443222619823,0.013964377849106037,0.9998906607476662,67.90734727186702,4.2376357011206665,455.51247892961925,-116.55547508784682,175.90760803222656,4761.76025390625,True
1599387818.765017,0.0,10,0.5,0.5,-37.44209592056274,-0.15025,-0.03,-0.37525,0.04237021321674875,10,1,100,0.09026717409893256,-10,-1,-100,18852.649782170425,-0.005195466599029216,0.012937433219178281,0.9999028102513352,69.71883565733513,4.354506472936373,470.8691732474044,-117.28240072669188,171.70945739746094,4761.76025390625,True
1599387818.8049128,0.0,10,0.5,0.5,-39.99552711105347,-0.15025,-0.03,-0.37525,0.14460483155727188,10,1,100,0.05704176052803729,-10,-1,-100,18852.649782170425,-0.005195466599029216,0.012937433219178281,0.9999028102513352,69.71883565733513,4.354506472936373,470.8691732474044,-117.28240072669188,171.70945739746094,4761.76025390625,True
1599387818.8433244,0.0,10,0.5,0.5,-39.76534568405151,-0.15025,-0.03,-0.37525,0.08647784522548568,10,1,100,0.08831147398332788,-10,-1,-100,18847.947584812413,-0.005480101850168441,0.01241255761257225,0.9999079442114791,70.60423609472329,4.412114704382965,478.47337186161934,-117.64577181862978,169.3592071533203,4761.76025390625,True
1599387818.8811164,0.0,10,0.5,0.5,-40.25885621261597,-0.15025,-0.03,-0.37525,0.0765293973000819,10,1,100,0.09196392520374036,-10,-1,-100,18843.230854381458,-0.005772171640888852,0.011848986236024761,0.9999131380073605,71.52896026512981,4.472475139801063,486.38623203547445,-118.00907768531417,166.72125244140625,4761.76025390625,True
1599387818.9200158,0.0,10,0.5,0.5,-39.01559904479981,-0.15025,-0.03,-0.37525,0.007923367139196669,10,1,100,0.15425089661498914,-10,-1,-100,18833.753806282184,-0.006603503322349939,0.010717141574812655,0.9999207651710894,73.61835971761909,4.60902615895666,503.98258676339873,-118.73547004211449,160.56497192382812,4761.76025390625,True
1599387818.952929,0.0,10,0.5,0.5,-42.32567980194092,-0.15025,-0.03,-0.37525,0.12059653690615918,10,1,100,0.07128065766689781,-10,-1,-100,18833.753806282184,-0.006603503322349939,0.010717141574812655,0.9999207651710894,73.61835971761909,4.60902615895666,503.98258676339873,-118.73547004211449,160.56497192382812,4761.76025390625,True
1599387818.991973,0.0,10,0.5,0.5,-40.498308143615716,-0.15025,-0.03,-0.37525,0.019735052603685535,10,1,100,0.15497400970810737,-10,-1,-100,18826.607893884997,-0.0073628129082171445,0.009804661596222753,0.9999248259729638,75.40811649518889,4.725902073248443,518.837263343548,-119.2800442628041,155.1751708984375,4761.76025390625,True
1599387819.0308895,0.0,10,0.5,0.5,-43.52339251708984,-0.15025,-0.03,-0.37525,0.11047027182881348,10,1,100,0.07930082528191149,-10,-1,-100,18826.607893884997,-0.0073628129082171445,0.009804661596222753,0.9999248259729638,75.40811649518889,4.725902073248443,518.837263343548,-119.2800442628041,155.1751708984375,4761.76025390625,True
1599387819.0707827,0.0,10,0.5,0.5,-40.20900555419922,-0.15025,-0.03,-0.37525,-0.028561223661277835,10,1,100,0.21559846897632867,-10,-1,-100,18817.029198029544,-0.008599538994888896,0.008545400533893398,0.9999265093289561,77.60718810316003,4.87000086234006,537.5354150924733,-120.00584247902628,146.96023559570312,4761.76025390625,True
1599387819.1076841,0.0,10,0.5,0.5,-43.204817909240724,-0.15025,-0.03,-0.37525,0.09682298484013636,10,1,100,0.09229937098602266,-10,-1,-100,18817.029198029544,-0.008599538994888896,0.008545400533893398,0.9999265093289561,77.60718810316003,4.87000086234006,537.5354150924733,-120.00584247902628,146.96023559570312,4761.76025390625,True
1599387819.1489205,0.0,10,0.5,0.5,-38.18378770446777,-0.15025,-0.03,-0.37525,-0.05200381306061433,10,1,100,0.25624247732861605,-10,-1,-100,18807.392453683773,-0.010086535319122753,0.007197355986900403,0.9999232269889794,79.25145939772283,4.978102135170756,552.5647831862526,-120.73134897777294,137.5707244873047,4761.76025390625,True
1599387819.1877933,0.0,10,0.5,0.5,-41.604785549163815,-0.15025,-0.03,-0.37525,0.08222663391545736,10,1,100,0.10803195177723965,-10,-1,-100,18807.392453683773,-0.010086535319122753,0.007197355986900403,0.9999232269889794,79.25145939772283,4.978102135170756,552.5647831862526,-120.73134897777294,137.5707244873047,4761.76025390625,True
1599387819.2267222,0.0,10,0.5,0.5,-35.951759563446046,-0.15025,-0.03,-0.37525,-0.0765983978133545,10,1,100,0.30263016012177657,-10,-1,-100,18797.697677948163,-0.011851163514327549,0.005758710314122366,0.9999131898214337,79.94128469868616,5.023823167815571,561.0497106492297,-121.4566831217488,127.00819396972656,4761.76025390625,True
1599387819.2665865,0.0,10,0.5,0.5,-39.788296100616456,-0.15025,-0.03,-0.37525,0.06660078473460422,10,1,100,0.12680444676771288,-10,-1,-100,18797.697677948163,-0.011851163514327549,0.005758710314122366,0.9999131898214337,79.94128469868616,5.023823167815571,561.0497106492297,-121.4566831217488,127.00819396972656,4761.76025390625,True
1599387819.320443,0.0,10,0.5,0.5,-36.66337646865844,-0.15025,-0.03,-0.37525,-0.011193020492593728,10,1,100,0.2352188855102268,-10,-1,-100,18792.828530754894,-0.012831222964829095,0.005057030517440478,0.9999048885566929,79.78969716652628,5.014406439160715,561.8243431388855,-121.81934266319922,121.28834533691406,4761.76025390625,True
1599387819.3603365,0.0,10,0.5,0.5,-35.53147862625122,-0.15025,-0.03,-0.37525,-0.033902916588850834,10,1,100,0.2590163421090732,-10,-1,-100,18787.94487613486,-0.013932865052872305,0.0042178317478158535,0.9998940369693008,79.23031871091467,4.9787627111047135,559.7161834704972,-122.18203552861465,115.27418518066406,4761.76025390625,True
1599387819.4002326,0.0,10,0.5,0.5,-30.87199766921997,-0.15025,-0.03,-0.37525,-0.12401983558962751,10,1,100,0.4153326080937815,-10,-1,-100,18778.134034666116,-0.016348751767563004,0.0026415875207200404,0.9998628607619212,76.66811959352039,4.816125389101284,545.1778876855764,-122.90765106397869,102.37138366699219,4761.76025390625,True
1599387819.4381275,0.0,10,0.5,0.5,-31.934956562042235,-0.15025,-0.03,-0.37525,-0.05761852462084277,10,1,100,0.3259196933604096,-10,-1,-100,18773.20683899778,-0.017723998702560854,0.0018187983904178011,0.999841263322537,74.5679913532263,4.6838708588884685,531.9865247437363,-123.27063824278191,95.48193359375,4761.76025390625,True
1599387819.4760628,0.0,10,0.5,0.5,-30.567295082092283,-0.15025,-0.03,-0.37525,-0.07076350488119165,10,1,100,0.36055973960232734,-10,-1,-100,18768.26511970733,-0.019279713440399658,0.0009585683270542346,0.9998136695386888,72.4960664931577,4.554343364071757,518.9040457620395,-123.63376531864762,88.30049133300781,4761.76025390625,True
1599387819.5129569,0.0,10,0.5,0.5,-33.0861520576477,-0.15025,-0.03,-0.37525,0.01450081823448108,10,1,100,0.20605628326299805,-10,-1,-100,18768.26511970733,-0.019279713440399658,0.0009585683270542346,0.9998136695386888,72.4960664931577,4.554343364071757,518.9040457620395,-123.63376531864762,88.30049133300781,4761.76025390625,True
1599387819.5518234,0.0,10,0.5,0.5,-30.966008853912353,-0.15025,-0.03,-0.37525,-0.03136603519237857,10,1,100,0.29563796578077695,-10,-1,-100,18765.788813654217,-0.020084383122883548,0.000548494052452637,0.9997981379802864,74.10680633449209,4.656302192823503,531.3028040270078,-123.81529059863811,84.60084533691406,4761.76025390625,True
1599387819.5917192,0.0,10,0.5,0.5,-28.192270679473875,-0.15025,-0.03,-0.37525,-0.08194574413776758,10,1,100,0.40738395281598105,-10,-1,-100,18760.82531441585,-0.021822684672912793,-0.0002780718585664901,0.9997618181895667,77.21432144483751,4.853928537776724,555.3942968768569,-124.17818900386467,76.98310852050781,4761.76025390625,True
1599387819.630614,0.0,10,0.5,0.5,-22.40523080062866,-0.15025,-0.03,-0.37525,-0.16883771853845567,10,1,100,0.6554372875910519,-10,-1,-100,18750.854794974788,-0.02564731989875476,-0.0018126266105488004,0.9996694100385294,82.87902913512477,5.21639673760936,600.0230942143043,-124.90337008858477,60.876861572265625,4761.76025390625,True
1599387819.6686094,0.0,10,0.5,0.5,-23.79057924652099,-0.15025,-0.03,-0.37525,-0.08896210809232519,10,1,100,0.5121676932577145,-10,-1,-100,18745.84779010655,-0.027809268195231274,-0.0024746514383636497,0.9996101843732407,84.99704444470846,5.352181346061922,617.3432073851392,-125.26569359235786,52.38946533203125,4761.76025390625,True
1599387819.7064795,0.0,10,0.5,0.5,-24.464776184082027,-0.15025,-0.03,-0.37525,-0.05373295029956568,10,1,100,0.42754425596413403,-10,-1,-100,18743.338853880414,-0.028990864394194734,-0.0027487422457588935,0.9995758971672655,85.76973532628865,5.401598637389078,623.957146802827,-125.44680999496033,48.0377197265625,4761.76025390625,True
1599387819.7454047,0.0,10,0.5,0.5,-23.55331922149658,-0.15025,-0.03,-0.37525,-0.053622631114733345,10,1,100,0.4443796759702125,-10,-1,-100,18740.82629565883,-0.030203401446553715,-0.002989816648289549,0.9995393016472479,86.33193710828668,5.437377714261672,629.0559147399666,-125.62790749225256,43.61393737792969,4761.76025390625,True
1599387819.7843006,0.0,10,0.5,0.5,-20.23528937149048,-0.15025,-0.03,-0.37525,-0.07430744790556239,10,1,100,0.5973095696264392,-10,-1,-100,18735.79031394911,-0.032681188221578776,-0.003390466577419404,0.9994600765777556,86.76319134814638,5.464072505492379,634.2303363129216,-125.990083460632,34.550048828125,4761.76025390625,True
1599387819.8281536,0.0,10,0.5,0.5,-18.51878741455078,-0.15025,-0.03,-0.37525,-0.06275759604827856,10,1,100,0.6403321701603817,-10,-1,-100,18730.73984402232,-0.03530998853422466,-0.0036442114469274743,0.9993697636173724,86.16422513828456,5.42456951578598,631.8803762228923,-126.35230239569324,25.198455810546875,4761.76025390625,True
1599387819.86705,0.0,10,0.5,0.5,-16.7521284866333,-0.15025,-0.03,-0.37525,-0.04478742434094205,10,1,100,0.6828276440921364,-10,-1,-100,18725.674881860614,-0.03807014222707172,-0.0037065570311068923,0.999268195083675,84.42899395007584,5.3131094856307755,621.1571496351656,-126.71464681965826,15.560028076171875,4761.76025390625,True
1599387819.9069731,0.0,10,0.5,0.5,-9.570036064147951,-0.15025,-0.03,-0.37525,0.030093538263909612,10,1,100,1.04172550473735,-10,-1,-100,18715.501450568787,-0.04382499847299219,-0.00307825778817302,0.9990344808052581,80.37733809130246,5.057565397098069,595.2001774978614,-127.43990012199917,-4.574493408203125,4761.76025390625,True
1599387819.945879,0.0,10,0.5,0.5,-16.846890296936035,-0.15025,-0.03,-0.37525,-0.03314006864100036,10,1,100,0.46869440864856177,-10,-1,-100,18715.501450568787,-0.04382499847299219,-0.00307825778817302,0.9990344808052581,80.37733809130246,5.057565397098069,595.2001774978614,-127.43990012199917,-4.574493408203125,4761.76025390625,True
1599387819.985768,0.0,10,0.5,0.5,-5.399354988098144,-0.15025,-0.03,-0.37525,0.16613349940865915,10,1,100,1.0947410616409592,-10,-1,-100,18705.270020962227,-0.04949474930442298,-0.0012633828496846375,0.9987735847803882,88.99079130767758,5.607612196199848,663.257934915604,-128.16449965153396,-25.8494873046875,4761.76025390625,True
1599387820.0246313,0.0,10,0.5,0.5,-13.07429866027832,-0.15025,-0.03,-0.37525,-0.015452525539290909,10,1,100,0.5305331849610315,-10,-1,-100,18705.270020962227,-0.04949474930442298,-0.0012633828496846375,0.9987735847803882,88.99079130767758,5.607612196199848,663.257934915604,-128.16449965153396,-25.8494873046875,4761.76025390625,True
1599387820.0635579,0.0,10,0.5,0.5,-6.998546722412108,-0.15025,-0.03,-0.37525,0.11610008386419526,10,1,100,0.8410007722129681,-10,-1,-100,18700.132583724684,-0.05229550243452634,-6.794934943554882e-05,0.9986316517154894,92.18428240506113,5.813252896302942,689.2608392447012,-128.5263826914231,-36.916229248046875,4761.76025390625,True
1599387820.1034575,0.0,10,0.5,0.5,-4.919156715393066,-0.15025,-0.03,-0.37525,0.1746512689544969,10,1,100,0.82833167207916,-10,-1,-100,18694.980676430743,-0.05470420779318633,0.001548903967894612,0.9985014023756891,93.90764248149381,5.924435845315279,704.3839523119448,-128.88810022695125,-48.26593017578125,4761.76025390625,True
1599387820.14232,0.0,10,0.5,0.5,-2.7742536315917956,-0.15025,-0.03,-0.37525,0.202102310493594,10,1,100,0.8569426625353621,-10,-1,-100,18689.81430143572,-0.057130664083934524,0.0032644185919923196,0.9983613728468188,93.9287720073888,5.925675039760985,706.7855438680955,-129.24978927822286,-59.90240478515625,4761.76025390625,True
1599387820.18225,0.0,10,0.5,0.5,-0.5654105377197265,-0.15025,-0.03,-0.37525,0.24132795540858698,10,1,100,0.836209499014058,-10,-1,-100,18684.63345589419,-0.05912357080475068,0.005174888444726279,0.9982372583233309,92.10694597496123,5.808828193999044,695.292469408253,-129.61159846571167,-71.82415771484375,4761.76025390625,True
1599387820.221138,0.0,10,0.5,0.5,8.262215980529785,-0.15025,-0.03,-0.37525,0.48047330056857646,10,1,100,0.991128468649875,-10,-1,-100,18674.22831201146,-0.06231961992710628,0.009077941125918742,0.9980149577822246,83.04897982422156,5.23712356753423,630.96692665119,-130.33608369576166,-96.52851867675781,4761.76025390625,True
1599387820.2620335,0.0,10,0.5,0.5,-0.6429145469665527,-0.15025,-0.03,-0.37525,0.09144024770661484,10,1,100,0.6742245195536034,-10,-1,-100,18674.22831201146,-0.06231961992710628,0.009077941125918742,0.9980149577822246,83.04897982422156,5.23712356753423,630.96692665119,-130.33608369576166,-96.52851867675781,4761.76025390625,True
