Timestamp,Input Throttle,horizon,dT,dt,Input Roll,Roll P,Roll I,Roll D,Input Pitch,Pitch P,Pitch I,Pitch D,Input Yaw,Yaw P,Yaw I,Yaw D,Altitude,Direction X,Direction Y,Direction Z,Drag X,Drag Y,Drag Z,Vertical Velocity,Roll,Mass,Has Fuel
1599386291.973235,0.0,10,0.5,0.5,-5.63477424621582,-0.1005,-0.001,-0.5,-0.00012369128819171853,10,1,100,0.49815910782851613,-10,-1,-100,19349.722307690652,-0.04884604716764209,-0.00017502729965559368,0.9988063040657787,61.07644798244145,3.6862932058722384,233.7312216685007,-68.66499553226669,-33.921966552734375,4761.76025390625,True
1599386292.0045984,0.0,10,0.5,0.5,-5.640772109985352,-0.1005,-0.001,-0.5,-0.0008575530921977788,10,1,100,0.49896633076221886,-10,-1,-100,19348.345358543913,-0.04889714948008785,-0.00016675254843446897,0.998803805041966,61.166216870922625,3.6923843938582994,234.72034074194215,-68.84745212056048,-33.923095703125,4761.76025390625,True
1599386292.0385473,0.0,10,0.5,0.5,-5.618869241333008,-0.1005,-0.001,-0.5,0.011922624501788994,10,1,100,0.5096580156480058,-10,-1,-100,19344.192617192864,-0.048996351309018346,-4.2895021425899075e-05,0.9987989566065937,61.437110609480214,3.710776245718804,237.70627395813344,-69.39480176545963,-33.9698486328125,4761.76025390625,True
1599386292.0715523,0.0,10,0.5,0.5,-5.5839466369628905,-0.1005,-0.001,-0.5,0.01113045920555697,10,1,100,0.5039629869040718,-10,-1,-100,19342.80107218097,-0.04899021966372938,6.254022318107871e-05,0.9987992563403421,61.53071695841729,3.717112454451301,238.71858683047776,-69.57724465539434,-34.076263427734375,4761.76025390625,True
1599386292.0984383,0.0,10,0.5,0.5,-5.5373546997070315,-0.1005,-0.001,-0.5,0.013021743838747563,10,1,100,0.5084435529711174,-10,-1,-100,19341.405878308695,-0.04898084129620007,0.00017552708746808112,0.9987997028314326,61.627580692557224,3.7236454321590697,239.7457161472931,-69.75968367602323,-34.25177001953125,4761.76025390625,True
1599386292.1224108,0.0,10,0.5,0.5,-5.2902260009765625,-0.1005,-0.001,-0.5,0.036515412952594035,10,1,100,0.5055530260027348,-10,-1,-100,19338.6045447964,-0.04890150995210067,0.0004916616586844439,0.9988034844719046,61.83172187008929,3.73733065662233,241.8473239221951,-70.12454983412518,-34.8187255859375,4761.76025390625,True
1599386292.1463094,0.0,10,0.5,0.5,-5.063313830566407,-0.1005,-0.001,-0.5,0.05562725326600606,10,1,100,0.49897208087506806,-10,-1,-100,19335.78861713002,-0.048725107856347795,0.0009523537611315335,0.9988117725010559,62.046276991022204,3.7516131270510695,243.9991057324873,-70.48939884338131,-35.6778564453125,4761.76025390625,True
1599386292.1732695,0.0,10,0.5,0.5,-4.806274075317383,-0.1005,-0.001,-0.5,0.07631354054480093,10,1,100,0.490065384425748,-10,-1,-100,19332.95809580467,-0.0484394767944365,0.0015583561442896305,0.9988249038815606,62.264525992342016,3.7660618310754828,246.17510745459685,-70.85422973089624,-36.830291748046875,4761.76025390625,True
1599386292.2055824,0.0,10,0.5,0.5,-4.975679653930665,-0.1005,-0.001,-0.5,0.05453645581765807,10,1,100,0.5028185196256103,-10,-1,-100,19331.53736288729,-0.048251713897430035,0.0019098772167827022,0.9988333817384045,62.37217361072181,3.773166995017679,247.2609057455019,-71.03663816988603,-37.5166015625,4761.76025390625,True
1599386292.241724,0.0,10,0.5,0.5,-5.324082901000977,-0.1005,-0.001,-0.5,0.019575336290029173,10,1,100,0.5264199807159996,-10,-1,-100,19331.53736288729,-0.048251713897430035,0.0019098772167827022,0.9988333817384045,62.37217361072181,3.773166995017679,247.2609057455019,-71.03663816988603,-37.5166015625,4761.76025390625,True
1599386292.272713,0.0,10,0.5,0.5,-4.372834140014649,-0.1005,-0.001,-0.5,0.10825923492358952,10,1,100,0.4801683613835593,-10,-1,-100,19328.684953063377,-0.04778737943631928,0.002714358225072539,0.998853842474481,62.57715084144412,3.786674872082957,249.3985765149817,-71.40144102028194,-39.10943603515625,4761.76025390625,True
1599386292.305584,0.0,10,0.5,0.5,-3.4036276794433595,-0.1005,-0.001,-0.5,0.18930951085116396,10,1,100,0.42437557901770323,-10,-1,-100,19324.378979310626,-0.04685901251173928,0.004179898572382406,0.9988927677155087,62.832489581568275,3.8035259316442223,252.4128326349561,-71.94861166855326,-42.048828125,4761.76025390625,True
1599386292.3398886,0.0,10,0.5,0.5,-4.872511151123047,-0.1005,-0.001,-0.5,0.043190141232258984,10,1,100,0.517008457778868,-10,-1,-100,19324.378979310626,-0.04685901251173928,0.004179898572382406,0.9988927677155087,62.832489581568275,3.8035259316442223,252.4128326349561,-71.94861166855326,-42.048828125,4761.76025390625,True
1599386292.3748245,0.0,10,0.5,0.5,-3.474360571289063,-0.1005,-0.001,-0.5,0.16412399201447395,10,1,100,0.4288360271458952,-10,-1,-100,19321.490091739455,-0.04605938799580069,0.005275458312589989,0.9989247731020813,62.94408683642061,3.8109925963494735,254.19520218049925,-72.31337237410648,-44.37579345703125,4761.76025390625,True
1599386292.4056873,0.0,10,0.5,0.5,-3.8718758300781255,-0.1005,-0.001,-0.5,0.11774513850134843,10,1,100,0.45838245156414065,-10,-1,-100,19320.040176514653,-0.04560372486844778,0.00584505675530537,0.9989425086508483,62.974947322866704,3.8131387627616387,254.98739004564493,-72.49574789516096,-45.649627685546875,4761.76025390625,True
1599386292.4389555,0.0,10,0.5,0.5,-2.845795797729493,-0.1005,-0.001,-0.5,0.19868523690610973,10,1,100,0.39192122684390557,-10,-1,-100,19317.129404166364,-0.04458836281560458,0.00709353847993733,0.9989802598716642,62.97294282756956,3.813400843683939,256.31481701700676,-72.86049207135883,-48.417083740234375,4761.76025390625,True
1599386292.47236,0.0,10,0.5,0.5,-1.4040840332031252,-0.1005,-0.001,-0.5,0.28985261753059216,10,1,100,0.29277921812975494,-10,-1,-100,19312.735889826785,-0.04276793645846985,0.009051314529078723,0.9990440317205144,62.76677078363638,3.8010276937953122,257.4738136773171,-73.40760211539767,-53.119964599609375,4761.76025390625,True
1599386292.5074348,0.0,10,0.5,0.5,-1.6503076263427738,-0.1005,-0.001,-0.5,0.24499109376837577,10,1,100,0.3189171384447269,-10,-1,-100,19309.788642960368,-0.04135603647429973,0.010415916211579888,0.999090179581708,62.45668510657663,3.782012860516964,257.5285367070175,-73.77234840947386,-56.622833251953125,4761.76025390625,True
1599386292.5393395,0.0,10,0.5,0.5,-1.1190062286376952,-0.1005,-0.001,-0.5,0.2544611233625875,10,1,100,0.28854828463599447,-10,-1,-100,19306.826806230238,-0.039802850036174904,0.011734502046467154,0.9991386463302875,61.9767673931422,3.752490342306954,256.8673971419304,-74.13710999945302,-60.420928955078125,4761.76025390625,True
1599386292.5724096,0.0,10,0.5,0.5,-1.8091926025390626,-0.1005,-0.001,-0.5,0.19787891386066958,10,1,100,0.35104448810706235,-10,-1,-100,19305.340416026767,-0.038966690454763184,0.01240990124195661,0.9991634457816035,61.663998045591406,3.733251486003027,256.22714741531456,-74.31949967077156,-62.430206298828125,4761.76025390625,True
1599386292.606318,0.0,10,0.5,0.5,-2.81133991394043,-0.1005,-0.001,-0.5,0.13138899671424134,10,1,100,0.43373194390396774,-10,-1,-100,19305.340416026767,-0.038966690454763184,0.01240990124195661,0.9991634457816035,61.663998045591406,3.733251486003027,256.22714741531456,-74.31949967077156,-62.430206298828125,4761.76025390625,True
1599386292.641535,0.0,10,0.5,0.5,2.460137762451172,-0.1005,-0.001,-0.5,0.4177097118989791,10,1,100,0.024362355912988076,-10,-1,-100,19299.358374097385,-0.03525316755391933,0.015004002704529786,0.9992657774987882,59.84417366229664,3.6216448387075837,251.21606728466787,-75.04914871064008,-71.20480346679688,4761.76025390625,True
1599386292.6733098,0.0,10,0.5,0.5,-1.9242452239990235,-0.1005,-0.001,-0.5,0.15938197605487625,10,1,100,0.39455406150159156,-10,-1,-100,19299.358374097385,-0.03525316755391933,0.015004002704529786,0.9992657774987882,59.84417366229664,3.6216448387075837,251.21606728466787,-75.04914871064008,-71.20480346679688,4761.76025390625,True
1599386292.7062335,0.0,10,0.5,0.5,2.4425211730957033,-0.1005,-0.001,-0.5,0.35669713459448515,10,1,100,0.04890326095702463,-10,-1,-100,19294.833530859556,-0.03212143831711219,0.016787936778406096,0.9993429733475709,57.784435715831364,3.4960721771965018,244.4212303238406,-75.596517441145,-78.47183227539062,4761.76025390625,True
1599386292.739145,0.0,10,0.5,0.5,-1.187583627319336,-0.1005,-0.001,-0.5,0.1794549750534357,10,1,100,0.3606823896698693,-10,-1,-100,19294.833530859556,-0.03212143831711219,0.016787936778406096,0.9993429733475709,57.784435715831364,3.4960721771965018,244.4212303238406,-75.596517441145,-78.47183227539062,4761.76025390625,True
1599386292.7741957,0.0,10,0.5,0.5,3.3342191925048827,-0.1005,-0.001,-0.5,0.362382156864889,10,1,100,-0.018086360145977864,-10,-1,-100,19290.275839537033,-0.028690342670196614,0.018440963085761944,0.99941822832983,55.173664138645236,3.3378314031865335,235.1493181616442,-76.14402745060495,-85.99642944335938,4761.76025390625,True
1599386292.806096,0.0,10,0.5,0.5,-0.4243214569091797,-0.1005,-0.001,-0.5,0.19821426858988672,10,1,100,0.32343340253103914,-10,-1,-100,19290.275839537033,-0.028690342670196614,0.018440963085761944,0.99941822832983,55.173664138645236,3.3378314031865335,235.1493181616442,-76.14402745060495,-85.99642944335938,4761.76025390625,True
1599386292.8389823,0.0,10,0.5,0.5,5.458874240112305,-0.1005,-0.001,-0.5,0.3932599546426459,10,1,100,-0.20029496620249687,-10,-1,-100,19284.14780726505,-0.023941973494244716,0.020205569642099134,0.9995091379575474,52.98068309823991,3.206390738652071,228.07378998032434,-76.87423100555583,-95.78811645507812,4761.76025390625,True
1599386292.872944,0.0,10,0.5,0.5,2.001001114654541,-0.1005,-0.001,-0.5,0.26023223346836805,10,1,100,0.13206658271653807,-10,-1,-100,19282.606672050548,-0.02266257383626154,0.02059151481588449,0.9995310886934449,53.72750521447003,3.252214623531781,231.86459831918464,-77.05676010121637,-98.17621612548828,4761.76025390625,True
1599386292.9083364,0.0,10,0.5,0.5,3.6774463325500486,-0.1005,-0.001,-0.5,0.29229698638337726,10,1,100,-0.009508654450509996,-10,-1,-100,19279.513451087987,-0.020228017696758138,0.0212258199887627,0.9995700535059382,55.07094974498225,3.335112730813552,238.84256146805495,-77.42176171378789,-102.95010375976562,4761.76025390625,True
1599386292.9392564,0.0,10,0.5,0.5,1.2945545051574707,-0.1005,-0.001,-0.5,0.22974806097023687,10,1,100,0.23207309222402978,-10,-1,-100,19279.513451087987,-0.020228017696758138,0.0212258199887627,0.9995700535059382,55.07094974498225,3.335112730813552,238.84256146805495,-77.42176171378789,-102.95010375976562,4761.76025390625,True
1599386292.9729486,0.0,10,0.5,0.5,4.031094074249268,-0.1005,-0.001,-0.5,0.288155328609528,10,1,100,-0.046075504916982424,-10,-1,-100,19276.40563230589,-0.017716429243438032,0.021748780677531887,0.9996064819087074,56.28704377524034,3.4106571316185423,245.3224202832978,-77.78668826299591,-107.50045776367188,4761.76025390625,True
1599386293.0068867,0.0,10,0.5,0.5,3.0626167938232425,-0.1005,-0.001,-0.5,0.26020312981684135,10,1,100,0.06935856076652991,-10,-1,-100,19274.846249858034,-0.01649851009964303,0.02196395697104945,0.9996226206717542,56.831767429340374,3.4446847207948914,248.3049237120418,-77.96912415170121,-109.6704330444336,4761.76025390625,True
1599386293.0417671,0.0,10,0.5,0.5,4.456398678588867,-0.1005,-0.001,-0.5,0.2761101157126267,10,1,100,-0.0839321762617197,-10,-1,-100,19271.716539879097,-0.014014808411803739,0.022297853514875718,0.9996531352793375,57.80883366174272,3.50603020893999,253.8108773644019,-78.33394558813528,-113.7918701171875,4761.76025390625,True
1599386293.0731812,0.0,10,0.5,0.5,5.7805752708435065,-0.1005,-0.001,-0.5,0.27713871330680506,10,1,100,-0.23218524548423408,-10,-1,-100,19266.994617535034,-0.01042560318438635,0.022605737699449884,0.9996900956903122,58.98232084062547,3.580375106098959,260.8548677403763,-78.88106359709272,-119.42278289794922,4761.76025390625,True
1599386293.1063478,0.0,10,0.5,0.5,2.9692139755249025,-0.1005,-0.001,-0.5,0.24693207494149283,10,1,100,0.1245656937442322,-10,-1,-100,19266.994617535034,-0.01042560318438635,0.022605737699449884,0.9996900956903122,58.98232084062547,3.580375106098959,260.8548677403763,-78.88106359709272,-119.42278289794922,4761.76025390625,True
1599386293.139337,0.0,10,0.5,0.5,5.005781842041015,-0.1005,-0.001,-0.5,0.2558838846299252,10,1,100,-0.1350922359085011,-10,-1,-100,19263.828434011084,-0.008081680859803148,0.022683331628786826,0.9997100344103279,59.51347100106677,3.614592271383937,264.4757109051598,-79.2457479103938,-122.80867004394531,4761.76025390625,True
1599386293.1752353,0.0,10,0.5,0.5,5.172401321411133,-0.1005,-0.001,-0.5,0.25254231558185414,10,1,100,-0.14519029737778705,-10,-1,-100,19260.647664231947,-0.005877776971197995,0.022719636965435195,0.99972459699361,59.88171514548033,3.638765425333988,267.39143404502727,-79.61039449410507,-125.89923095703125,4761.76025390625,True
1599386293.2061615,0.0,10,0.5,0.5,4.492127478790284,-0.1005,-0.001,-0.5,0.24295954186016822,10,1,100,-0.05261293047034965,-10,-1,-100,19259.051809971803,-0.004732262404827329,0.022663240176442626,0.9997319556947436,60.0160388572378,3.6477600107506625,268.6322123211552,-79.79270629325369,-127.3346939086914,4761.76025390625,True
1599386293.2400305,0.0,10,0.5,0.5,5.368115481567383,-0.1005,-0.001,-0.5,0.23579501021395366,10,1,100,-0.17612405347789425,-10,-1,-100,19255.849163393606,-0.0025843574184503493,0.02254495487570147,0.9997424898974668,60.195984245989635,3.660216633097434,270.72339478862614,-80.15731154654316,-129.98382568359375,4761.76025390625,True
1599386293.2730691,0.0,10,0.5,0.5,5.459768171691895,-0.1005,-0.001,-0.5,0.23088776380071263,10,1,100,-0.18619399522555805,-10,-1,-100,19252.631932933582,-0.0005562112879273406,0.022391612239555554,0.9997491216951965,60.281094842513696,3.666717854368521,272.39378116959034,-80.52189721342472,-132.3377227783203,4761.76025390625,True
1599386293.3089628,0.0,10,0.5,0.5,4.926291108703613,-0.1005,-0.001,-0.5,0.23369229971384076,10,1,100,-0.09563426749802685,-10,-1,-100,19251.01784912625,0.00044640420919890133,0.02227664581295062,0.9997517450720487,60.29660072858207,3.6682553915360794,273.1078838346,-80.70418420775067,-133.40438842773438,4761.76025390625,True
1599386293.3398917,0.0,10,0.5,0.5,5.54355044708252,-0.1005,-0.001,-0.5,0.21884996943944296,10,1,100,-0.20671736485410075,-10,-1,-100,19247.77874476288,0.0023512075157755778,0.022036720727055776,0.9997543972210451,60.28476883044404,3.6685988781192664,274.342307304959,-81.0687490562834,-135.31613159179688,4761.76025390625,True
1599386293.3729615,0.0,10,0.5,0.5,5.560924709320068,-0.1005,-0.001,-0.5,0.21447122304770463,10,1,100,-0.21499289055294257,-10,-1,-100,19244.525057938183,0.004140942830275283,0.02177873407835738,0.9997542394680907,60.23319145490262,3.6663744930862743,275.3948354175761,-81.43330424726429,-136.93258666992188,4761.76025390625,True
1599386293.406922,0.0,10,0.5,0.5,5.174067440032959,-0.1005,-0.001,-0.5,0.22298145703277794,10,1,100,-0.13356841739945158,-10,-1,-100,19242.892746254453,0.00501124722275048,0.021622038451619977,0.9997536570848187,60.198192076012226,3.6646532475418003,275.8782054650029,-81.61557863440069,-137.63043212890625,4761.76025390625,True
1599386293.43784,0.0,10,0.5,0.5,6.059412557983398,-0.1005,-0.001,-0.5,0.1725387223865903,10,1,100,-0.395616215932809,-10,-1,-100,19236.32704536547,0.008170652247661057,0.02102191183893684,0.9997456274795524,60.0324993245608,3.6559526071366863,277.6864229368727,-82.34465863900623,-139.68280029296875,4761.76025390625,True
1599386293.462774,0.0,10,0.5,0.5,5.035254477691651,-0.1005,-0.001,-0.5,0.23239300106885263,10,1,100,-0.08153533898495609,-10,-1,-100,19236.32704536547,0.008170652247661057,0.02102191183893684,0.9997456274795524,60.0324993245608,3.6559526071366863,277.6864229368727,-82.34465863900623,-139.68280029296875,4761.76025390625,True
1599386293.4916954,0.0,10,0.5,0.5,5.495728435516358,-0.1005,-0.001,-0.5,0.18287234290408658,10,1,100,-0.3110440876584807,-10,-1,-100,19231.36449373071,0.010242320569140859,0.020573234419066104,0.999735883568704,59.91937572875392,3.6499256138005727,279.08638553307543,-82.89145070547181,-140.44680786132812,4761.76025390625,True
1599386293.5176263,0.0,10,0.5,0.5,5.1151794090271006,-0.1005,-0.001,-0.5,0.22752544463652338,10,1,100,-0.10548926526453441,-10,-1,-100,19231.36449373071,0.010242320569140859,0.020573234419066104,0.999735883568704,59.91937572875392,3.6499256138005727,279.08638553307543,-82.89145070547181,-140.44680786132812,4761.76025390625,True
1599386293.544554,0.0,10,0.5,0.5,5.181079922485352,-0.1005,-0.001,-0.5,0.20751236098312428,10,1,100,-0.17859467375346166,-10,-1,-100,19229.70301940851,0.010893301934518408,0.020393197300178273,0.9997326910113721,59.88907944393252,3.64834872217616,279.58625338497376,-83.07371098621374,-140.5543670654297,4761.76025390625,True
1599386293.5734773,0.0,10,0.5,0.5,5.148607389831543,-0.1005,-0.001,-0.5,0.20566403300087288,10,1,100,-0.18332406093031722,-10,-1,-100,19228.037900014664,0.011515845187057623,0.02021468035369207,0.9997293393753259,59.86300696771639,3.647024151214854,280.10535011638285,-83.25596933127424,-140.5880889892578,4761.76025390625,True
1599386293.6063898,0.0,10,0.5,0.5,5.039540512084962,-0.1005,-0.001,-0.5,0.19124937655647045,10,1,100,-0.24642255539442087,-10,-1,-100,19224.69672576303,0.012644441678607865,0.019923328918197196,0.9997215507627378,59.823676100302954,3.645150265859159,281.20243505994506,-83.62047964763477,-140.43316650390625,4761.76025390625,True
1599386293.8891828,0.0,10,0.5,0.5,4.646163327026368,-0.1005,-0.001,-0.5,0.16974857801396293,10,1,100,-0.3001809430402753,-10,-1,-100,19219.65762666834,0.014148061979098209,0.019465141550901562,0.9997104283774574,59.79867983526046,3.644434720378124,283.00663903455126,-84.16722777496314,-139.64791870117188,4761.76025390625,True
1599386293.917108,0.0,10,0.5,0.5,4.1686621719360355,-0.1005,-0.001,-0.5,0.17109604717910543,10,1,100,-0.286753726942761,-10,-1,-100,19214.58572359744,0.015382199510963552,0.019063195099566967,0.9996999462492738,59.8065563873741,3.6458090448927347,284.9668536394483,-84.71395312709511,-138.1981964111328,4761.76025390625,True
1599386293.9532473,0.0,10,0.5,0.5,4.893649877929688,-0.1005,-0.001,-0.5,0.21101913841468586,10,1,100,-0.16446409942429552,-10,-1,-100,19214.58572359744,0.015382199510963552,0.019063195099566967,0.9996999462492738,59.8065563873741,3.6458090448927347,284.9668536394483,-84.71395312709511,-138.1981964111328,4761.76025390625,True
1599386294.0111296,0.0,10,0.5,0.5,3.6242964218139653,-0.1005,-0.001,-0.5,0.17277140940132446,10,1,100,-0.271599339746825,-10,-1,-100,19209.481018039864,0.016346728102724535,0.01871781469340191,0.9996911662575793,59.831340313017456,3.6483682957389454,287.00971375596123,-85.26065462734726,-136.0842742919922,4761.76025390625,True
1599386294.0649786,0.0,10,0.5,0.5,4.68089762878418,-0.1005,-0.001,-0.5,0.20707904030327653,10,1,100,-0.175964088156233,-10,-1,-100,19209.481018039864,0.016346728102724535,0.01871781469340191,0.9996911662575793,59.831340313017456,3.6483682957389454,287.00971375596123,-85.26065462734726,-136.0842742919922,4761.76025390625,True
1599386294.0991838,0.0,10,0.5,0.5,2.3679677078247074,-0.1005,-0.001,-0.5,0.1643893862001452,10,1,100,-0.2722203075197648,-10,-1,-100,19202.623719912488,0.01721435184616113,0.01833182156259666,0.9996837551989698,59.833206770994316,3.65023788715764,289.58697044312123,-85.98955669811193,-132.2332000732422,4761.76025390625,True
1599386294.1300933,0.0,10,0.5,0.5,4.292683456420899,-0.1005,-0.001,-0.5,0.20276455799502355,10,1,100,-0.1861551363038073,-10,-1,-100,19202.623719912488,0.01721435184616113,0.01833182156259666,0.9996837551989698,59.833206770994316,3.65023788715764,289.58697044312123,-85.98955669811193,-132.2332000732422,4761.76025390625,True
1599386294.155992,0.0,10,0.5,0.5,2.093086117553711,-0.1005,-0.001,-0.5,0.1723751167706934,10,1,100,-0.22551839748771296,-10,-1,-100,19197.442479696125,0.01756586146485389,0.018057591563154084,0.9996826315876134,59.74941547549756,3.646786493487805,291.1067120218525,-86.53621668407904,-128.57162475585938,4761.76025390625,True
1599386294.186942,0.0,10,0.5,0.5,3.9226755020141604,-0.1005,-0.001,-0.5,0.19956455614124846,10,1,100,-0.19103469157147052,-10,-1,-100,19197.442479696125,0.01756586146485389,0.018057591563154084,0.9996826315876134,59.74941547549756,3.646786493487805,291.1067120218525,-86.53621668407904,-128.57162475585938,4761.76025390625,True
1599386294.2158651,0.0,10,0.5,0.5,2.23461551437378,-0.1005,-0.001,-0.5,0.18003840879688293,10,1,100,-0.20128935228250872,-10,-1,-100,19193.970097723766,0.01765358563833806,0.01788204212256034,0.9996842418902265,59.62118002496626,3.6402505159741607,291.7637615928124,-86.90065499447326,-125.76253509521484,4761.76025390625,True
1599386294.2437918,0.0,10,0.5,0.5,2.7279957069396974,-0.1005,-0.001,-0.5,0.187778095278387,10,1,100,-0.1933842520317641,-10,-1,-100,19192.228440085077,0.01765691657198987,0.017794668223484827,0.9996857421609983,59.52806543831914,3.6352669967139346,291.9483852073067,-87.08287547778622,-124.24763488769531,4761.76025390625,True
1599386294.27475,0.0,10,0.5,0.5,1.5321616645812988,-0.1005,-0.001,-0.5,0.17567786531005528,10,1,100,-0.1848506037847481,-10,-1,-100,19188.734191346215,0.01757917620525238,0.017606753927638087,0.9996904394761791,59.270342233531906,3.6210357419596955,291.96031512733424,-87.44732288219832,-120.9974365234375,4761.76025390625,True
1599386294.3112726,0.0,10,0.5,0.5,2.11348048324585,-0.1005,-0.001,-0.5,0.18339492534529822,10,1,100,-0.18428680551488058,-10,-1,-100,19186.981600276427,0.017501380454224693,0.017507401878254104,0.9996935493248268,59.100008503480396,3.6114318733158854,291.75786368309116,-87.62955139808659,-119.26211547851562,4761.76025390625,True
1599386294.341189,0.0,10,0.5,0.5,-1.629651493835449,-0.1005,-0.001,-0.5,0.14233961682065788,10,1,100,-0.13019957974393942,-10,-1,-100,19179.93478790589,0.016937028463606184,0.017045266113336763,0.9997112562985118,58.07270640409975,3.552046723503714,289.19222346932565,-88.35852085625406,-111.5870132446289,4761.76025390625,True
1599386294.376203,0.0,10,0.5,0.5,2.205449897003174,-0.1005,-0.001,-0.5,0.1883859384543854,10,1,100,-0.18669380884187842,-10,-1,-100,19179.93478790589,0.016937028463606184,0.017045266113336763,0.9997112562985118,58.07270640409975,3.552046723503714,289.19222346932565,-88.35852085625406,-111.5870132446289,4761.76025390625,True
1599386294.4091501,0.0,10,0.5,0.5,0.9406911880493165,-0.1005,-0.001,-0.5,0.1730388713013556,10,1,100,-0.1645113119276036,-10,-1,-100,19178.16397224681,0.01673483276405743,0.016907267819745643,0.9997170047904709,57.713686481903906,3.5309553530254845,288.02797092780406,-88.54078247507086,-109.48491668701172,4761.76025390625,True
1599386294.4441009,0.0,10,0.5,0.5,-0.6140092689514158,-0.1005,-0.001,-0.5,0.15351732719418643,10,1,100,-0.13423629777737145,-10,-1,-100,19174.611404277617,0.01627622701681291,0.016605641291636587,0.9997296320062692,56.95962742218203,3.486502971899465,285.49695985803487,-88.90533415056005,-105.14940643310547,4761.76025390625,True
1599386294.4750319,0.0,10,0.5,0.5,0.23126335067749038,-0.1005,-0.001,-0.5,0.16455938242906176,10,1,100,-0.1501906522760041,-10,-1,-100,19172.82965159556,0.01600520512824123,0.01643338693210082,0.999736853978457,56.54975344648386,3.46221243205644,284.054885498789,-89.08762483590623,-102.95161437988281,4761.76025390625,True
1599386294.5079355,0.0,10,0.5,0.5,-1.4218644805908203,-0.1005,-0.001,-0.5,0.13957240408131943,10,1,100,-0.11170434731656702,-10,-1,-100,19169.255207924638,0.015410364872032654,0.016051114260844334,0.9997524105424783,55.652453566869504,3.408718554819247,280.75409314536614,-89.45223876284736,-98.37299346923828,4761.76025390625,True
1599386294.5416472,0.0,10,0.5,0.5,-1.9051528984069823,-0.1005,-0.001,-0.5,0.13031387823604243,10,1,100,-0.09927605697805297,-10,-1,-100,19165.666178655578,0.014758576087486383,0.015621249304110746,0.9997690538329584,54.67941752812451,3.350292331068874,277.0321335633775,-89.81689644614382,-93.76087188720703,4761.76025390625,True
1599386294.5765562,0.0,10,0.5,0.5,-0.9776714775085449,-0.1005,-0.001,-0.5,0.14658665233882115,10,1,100,-0.12491414287860739,-10,-1,-100,19163.86619381362,0.014401746163859225,0.015380452556031335,0.9997779910493146,54.14926358950485,3.3182740869012473,274.93420845025565,-89.99924233376608,-91.4704818725586,4761.76025390625,True
1599386294.6080918,0.0,10,0.5,0.5,-3.892771439361572,-0.1005,-0.001,-0.5,0.08204597596740162,10,1,100,-0.03518255731836514,-10,-1,-100,19158.4443570273,0.013264572883112452,0.014577007741371197,0.9998057621115896,54.951129904874435,3.3682846233397963,280.7972029541859,-90.54627124527151,-84.71441650390625,4761.76025390625,True
1599386294.6405604,0.0,10,0.5,0.5,-1.7965003730773925,-0.1005,-0.001,-0.5,0.12940361053722768,10,1,100,-0.10427377791908729,-10,-1,-100,19156.629785523866,0.012862803363642077,0.014279881629757005,0.9998152995780112,55.776041905549945,3.4189762885433357,285.6189013291929,-90.72857679530489,-82.58596801757812,4761.76025390625,True
1599386294.6745028,0.0,10,0.5,0.5,-1.9712130012512208,-0.1005,-0.001,-0.5,0.1237984778206371,10,1,100,-0.09804994892445387,-10,-1,-100,19154.81156822201,0.012445194970618327,0.013961745340182822,0.9998250780957633,56.5502364216497,3.4664951571456712,290.1983398270922,-90.91086288421629,-80.52890014648438,4761.76025390625,True
1599386294.7099473,0.0,10,0.5,0.5,-3.28553211517334,-0.1005,-0.001,-0.5,0.0824326947043367,10,1,100,-0.04663984623422268,-10,-1,-100,19151.16419800697,0.011602269892042804,0.013299281158397338,0.999844246097372,57.95322656034448,3.5524593902331754,298.6585378879142,-91.27537958235621,-76.632568359375,4761.76025390625,True
1599386294.741863,0.0,10,0.5,0.5,-3.502683657073975,-0.1005,-0.001,-0.5,0.06732626703528101,10,1,100,-0.03291080601079105,-10,-1,-100,19147.502248945413,0.010716014690008008,0.012563115273378155,0.9998636582873645,59.1762669509817,3.6272312743977597,306.24855709880904,-91.63982741146864,-73.03253173828125,4761.76025390625,True
1599386294.7752345,0.0,10,0.5,0.5,-4.614341056823731,-0.1005,-0.001,-0.5,0.009276243095082223,10,1,100,0.028604153055438286,-10,-1,-100,19141.98199626757,0.009356572894896154,0.011370095298946515,0.9998915818610312,60.71596013379655,3.721141440627796,316.1978134113975,-92.18638382478078,-68.18984985351562,4761.76025390625,True
1599386294.808199,0.0,10,0.5,0.5,-3.0767562355041504,-0.1005,-0.001,-0.5,0.08200306898758859,10,1,100,-0.056061999858231376,-10,-1,-100,19140.134625342907,0.008896699611393208,0.010951444235752074,0.9999004523477204,61.16065746222982,3.7482231575539715,319.17895287095854,-92.3685417660009,-66.72430419921875,4761.76025390625,True
1599386294.8448033,0.0,10,0.5,0.5,-3.9740580436706545,-0.1005,-0.001,-0.5,0.02985299191162788,10,1,100,4.668629057498486e-05,-10,-1,-100,19136.42895493179,0.007975016302780333,0.01010174433460871,0.9999171735080704,61.961546720931835,3.796959855168198,324.70658661456866,-92.73282081648362,-64.01580810546875,4761.76025390625,True
1599386294.8756819,0.0,10,0.5,0.5,-4.071222598266601,-0.1005,-0.001,-0.5,0.016023045746736395,10,1,100,0.011357232073944276,-10,-1,-100,19132.70871480822,0.0070410586501645925,0.009208971613821398,0.9999328069099946,62.65936744940412,3.839400187145192,329.7269879509343,-93.09705536652794,-61.604522705078125,4761.76025390625,True
1599386294.9090471,0.0,10,0.5,0.5,-3.5260139015197756,-0.1005,-0.001,-0.5,0.05535533712117288,10,1,100,-0.030099743964895863,-10,-1,-100,19130.84313145408,0.006575903763991849,0.008760755678046255,0.9999400015249097,62.974911683283196,3.8585894614337497,332.0727798799787,-93.2791575752245,-60.51007080078125,4761.76025390625,True
1599386294.9420462,0.0,10,0.5,0.5,-4.1627989074707035,-0.1005,-0.001,-0.5,0.00014878369225690413,10,1,100,0.02651154602344799,-10,-1,-100,19127.10103952349,0.005645501997031563,0.00785742679333142,0.9999531934802693,63.54888049427254,3.893501494941231,336.48289572625373,-93.64333438178235,-58.54351806640625,4761.76025390625,True
1599386294.9770176,0.0,10,0.5,0.5,-4.184854412841798,-0.1005,-0.001,-0.5,-0.012527206650280856,10,1,100,0.03712291923408953,-10,-1,-100,19123.344381570932,0.0047101416077764535,0.006927091150429446,0.9999649143716135,64.05825169190682,3.9245027221979227,340.5751541444231,-94.00747794603078,-56.87371826171875,4761.76025390625,True
1599386295.0079067,0.0,10,0.5,0.5,-3.352525735473633,-0.1005,-0.001,-0.5,0.07977107859198387,10,1,100,-0.055597853515834864,-10,-1,-100,19123.344381570932,0.0047101416077764535,0.006927091150429446,0.9999649143716135,64.05825169190682,3.9245027221979227,340.5751541444231,-94.00747794603078,-56.87371826171875,4761.76025390625,True
1599386295.041944,0.0,10,0.5,0.5,-4.1799006988525385,-0.1005,-0.001,-0.5,-0.021721574687630293,10,1,100,0.04758080988333876,-10,-1,-100,19119.573158768006,0.0037791856253865494,0.00601082580624182,0.9999747935468852,64.51507072089652,3.9523274338673797,344.4097591328072,-94.37159143421428,-55.499847412109375,4761.76025390625,True
1599386295.074886,0.0,10,0.5,0.5,-3.840886499023438,-0.1005,-0.001,-0.5,0.018688040482676714,10,1,100,0.0065342634411041725,-10,-1,-100,19117.68208574748,0.003313124322022093,0.005551843317939638,0.999979099903093,64.72694220664383,3.965239834263556,346.24635521230135,-94.55363781498816,-54.923980712890625,4761.76025390625,True
1599386295.111178,0.0,10,0.5,0.5,-4.493448422241212,-0.1005,-0.001,-0.5,-0.14021094321595964,10,1,100,0.16623798402095635,-10,-1,-100,19110.081387614715,0.0014443101231175549,0.0036964241785459044,0.999992125177274,65.48610252304496,4.011525251900952,353.1648144464105,-95.28176073290453,-53.360809326171875,4761.76025390625,True
1599386295.142061,0.0,10,0.5,0.5,-3.9160656951904302,-0.1005,-0.001,-0.5,-0.05867972083413236,10,1,100,0.0833932340311501,-10,-1,-100,19106.25919606723,0.000505715181086012,0.002757848501768577,0.9999960692541731,65.82134605351236,4.031947991979546,356.4102800060624,-95.64578809250047,-53.023223876953125,4761.76025390625,True
1599386295.175,0.0,10,0.5,0.5,-3.7486430786132816,-0.1005,-0.001,-0.5,0.034358487270202034,10,1,100,-0.009627161728973465,-10,-1,-100,19106.25919606723,0.000505715181086012,0.002757848501768577,0.9999960692541731,65.82134605351236,4.031947991979546,356.4102800060624,-95.64578809250047,-53.023223876953125,4761.76025390625,True
1599386295.2086337,0.0,10,0.5,0.5,-3.722180325317383,-0.1005,-0.001,-0.5,-0.10574299905909335,10,1,100,0.14415983810579822,-10,-1,-100,19100.498608241556,-0.0008855581800285541,0.0014908748949866556,0.9999984965382485,66.27399045207436,4.059442307656355,361.03438495721633,-96.1917911707623,-53.069122314453125,4761.76025390625,True
1599386295.245046,0.0,10,0.5,0.5,-3.7459830841064456,-0.1005,-0.001,-0.5,0.02018255194721533,10,1,100,0.005825163677360942,-10,-1,-100,19100.498608241556,-0.0008855581800285541,0.0014908748949866556,0.9999984965382485,66.27399045207436,4.059442307656355,361.03438495721633,-96.1917911707623,-53.069122314453125,4761.76025390625,True
1599386295.2744236,0.0,10,0.5,0.5,-3.6484825347900394,-0.1005,-0.001,-0.5,-0.030558224717752262,10,1,100,0.058286460217794635,-10,-1,-100,19098.571132412995,-0.0013556959104470236,0.001036204089653368,0.9999985441837819,66.41088615088162,4.067723287232881,362.5065813396195,-96.37378293150648,-53.23272705078125,4761.76025390625,True
1599386295.3083355,0.0,10,0.5,0.5,-3.402051028442383,-0.1005,-0.001,-0.5,-0.07589851261482229,10,1,100,0.11397187872796394,-10,-1,-100,19094.70526161522,-0.0022829601991858272,0.00021688367001672276,0.9999973705236441,66.66080248348284,4.082766626459649,365.33003370920267,-96.73775412697393,-53.78021240234375,4761.76025390625,True
1599386295.3422651,0.0,10,0.5,0.5,-3.1696877410888677,-0.1005,-0.001,-0.5,-0.08760980085373589,10,1,100,0.1249895629385843,-10,-1,-100,19090.824832628365,-0.003219731134674959,-0.0006283191432063395,0.9999946192587611,66.87365120063302,4.0954461514472875,367.9617705333728,-97.10171069081048,-54.62353515625,4761.76025390625,True
1599386295.3782792,0.0,10,0.5,0.5,-2.500382363891602,-0.1005,-0.001,-0.5,-0.13244958948713226,10,1,100,0.18525650617197048,-10,-1,-100,19084.97689296084,-0.004612013402929997,-0.001797451224354876,0.9999877491756922,67.10412806602635,4.108811561355526,371.4380324412997,-97.64762411524713,-56.440673828125,4761.76025390625,True
1599386295.4111862,0.0,10,0.5,0.5,-3.4088576171875,-0.1005,-0.001,-0.5,-0.016317209075338273,10,1,100,0.046867399249298294,-10,-1,-100,19084.97689296084,-0.004612013402929997,-0.001797451224354876,0.9999877491756922,67.10412806602635,4.108811561355526,371.4380324412997,-97.64762411524713,-56.440673828125,4761.76025390625,True
1599386295.4430997,0.0,10,0.5,0.5,-2.4601072692871093,-0.1005,-0.001,-0.5,-0.09775021669380594,10,1,100,0.1489616318895912,-10,-1,-100,19081.060069920262,-0.005532938119909976,-0.002531070116757042,0.999981489968602,67.18125694100736,4.112872463494375,373.3406931452044,-98.01155741281721,-58.020355224609375,4761.76025390625,True
1599386295.4763317,0.0,10,0.5,0.5,-1.4952259399414065,-0.1005,-0.001,-0.5,-0.13644690076692376,10,1,100,0.2072898068157634,-10,-1,-100,19075.15754016163,-0.006894055590817861,-0.0035441230611552607,0.9999699551432724,67.144568648382,4.109383125368486,375.3525574049615,-98.55745548091573,-60.941680908203125,4761.76025390625,True
1599386295.5132024,0.0,10,0.5,0.5,-2.9550969360351567,-0.1005,-0.001,-0.5,-0.035771803483394246,10,1,100,0.0719180368021653,-10,-1,-100,19075.15754016163,-0.006894055590817861,-0.0035441230611552607,0.9999699551432724,67.144568648382,4.109383125368486,375.3525574049615,-98.55745548091573,-60.941680908203125,4761.76025390625,True
1599386295.5431578,0.0,10,0.5,0.5,0.0025453277587885736,-0.1005,-0.001,-0.5,-0.16282894032870815,10,1,100,0.26519967970558045,-10,-1,-100,19067.236549038556,-0.008644434371056268,-0.004693458876510002,0.9999516214288464,66.71577773482464,4.08109499577351,375.89821563261273,-99.28534802131985,-65.86566162109375,4761.76025390625,True
1599386295.576163,0.0,10,0.5,0.5,-1.6083794403076173,-0.1005,-0.001,-0.5,-0.07967079604716663,10,1,100,0.13940705464276057,-10,-1,-100,19065.247202430503,-0.009085064965073705,-0.0049767043662989376,0.9999463455647164,66.52309241967045,4.068753126607475,375.5475691064359,-99.46733240145818,-67.28079223632812,4761.76025390625,True
1599386295.6101227,0.0,10,0.5,0.5,-0.5098898681640627,-0.1005,-0.001,-0.5,-0.10363508188629739,10,1,100,0.18724226058694848,-10,-1,-100,19061.257589317276,-0.009913049643868497,-0.005446177792588899,0.9999360332512324,66.01538519916103,4.0365928402719815,374.1420621262404,-99.83132199771742,-70.2860107421875,4761.76025390625,True
1599386295.645301,0.0,10,0.5,0.5,-0.0818744659423829,-0.1005,-0.001,-0.5,-0.10567607127762915,10,1,100,0.19501633906614674,-10,-1,-100,19057.253415678628,-0.010728657016462454,-0.005885633191062569,0.9999251248171352,65.35642433921454,3.9952578266724776,371.85610846974834,-100.19534623145294,-73.49819946289062,4761.76025390625,True
1599386295.6762094,0.0,10,0.5,0.5,-1.6859970275878908,-0.1005,-0.001,-0.5,-0.0623407831163701,10,1,100,0.1143001714884787,-10,-1,-100,19057.253415678628,-0.010728657016462454,-0.005885633191062569,0.9999251248171352,65.35642433921454,3.9952578266724776,371.85610846974834,-100.19534623145294,-73.49819946289062,4761.76025390625,True
1599386295.7091496,0.0,10,0.5,0.5,-0.6704909240722658,-0.1005,-0.001,-0.5,-0.08379927195567383,10,1,100,0.15754918622910424,-10,-1,-100,19055.245868010214,-0.011115003581484697,-0.0060759309859218244,0.9999197666603246,64.95811354202336,3.9704392392224257,370.31077332687244,-100.37737380731335,-75.1861572265625,4761.76025390625,True
1599386295.74312,0.0,10,0.5,0.5,2.7802980224609373,-0.1005,-0.001,-0.5,-0.13835252359761394,10,1,100,0.282157755366221,-10,-1,-100,19047.17926729459,-0.012593121096225476,-0.006740978105482815,0.999897981053686,62.92819266330258,3.8451486285147034,361.5383693219604,-101.10561020619797,-82.33502197265625,4761.76025390625,True
1599386295.779912,0.0,10,0.5,0.5,-0.7915449157714844,-0.1005,-0.001,-0.5,-0.07234216432962766,10,1,100,0.1351441146614727,-10,-1,-100,19047.17926729459,-0.012593121096225476,-0.006740978105482815,0.999897981053686,62.92819266330258,3.8451486285147034,361.5383693219604,-101.10561020619797,-82.33502197265625,4761.76025390625,True
1599386295.810836,0.0,10,0.5,0.5,0.3652107238769531,-0.1005,-0.001,-0.5,-0.08764454412182125,10,1,100,0.17332188472468327,-10,-1,-100,19045.15351298661,-0.012933773385003467,-0.0068762634599675515,0.999892711498016,62.29666601090431,3.8064773780386654,358.6043706660064,-101.28770515852932,-84.25729370117188,4761.76025390625,True
1599386295.8427489,0.0,10,0.5,0.5,1.7625552551269532,-0.1005,-0.001,-0.5,-0.10003940630689849,10,1,100,0.20894293680688994,-10,-1,-100,19041.09107820317,-0.01356179437755426,-0.0071089014926372755,0.9998827637542459,62.05253687224958,3.791757345341865,358.5835197278745,-101.65191577448834,-88.18093872070312,4761.76025390625,True
1599386295.8757918,0.0,10,0.5,0.5,2.202666567230225,-0.1005,-0.001,-0.5,-0.10128487077670979,10,1,100,0.21571850253951627,-10,-1,-100,19037.01407711301,-0.014188257024000006,-0.007328472309852144,0.9998724852981128,63.655947109882554,3.8904267904539824,369.27071036993766,-102.01605029064994,-92.1762924194336,4761.76025390625,True
1599386295.912254,0.0,10,0.5,0.5,1.4215633811950683,-0.1005,-0.001,-0.5,-0.08958463603824472,10,1,100,0.18454781618912375,-10,-1,-100,19034.97011533263,-0.014469358806080803,-0.007419320906576576,0.9998677869263647,64.4280721001184,3.938134231547769,374.46953997053095,-102.19808490985403,-94.19784545898438,4761.76025390625,True
1599386295.9421754,0.0,10,0.5,0.5,5.019339955902099,-0.1005,-0.001,-0.5,-0.1130565941005261,10,1,100,0.2638658379498778,-10,-1,-100,19026.75786953466,-0.01544108399321474,-0.007713071416401093,0.9998510296311346,67.24939958564073,4.113631200858884,393.8730995560689,-102.92600965514217,-101.86788940429688,4761.76025390625,True
1599386295.976255,0.0,10,0.5,0.5,1.1874761711120607,-0.1005,-0.001,-0.5,-0.08390823248045566,10,1,100,0.16724612267141875,-10,-1,-100,19026.75786953466,-0.01544108399321474,-0.007713071416401093,0.9998510296311346,67.24939958564073,4.113631200858884,393.8730995560689,-102.92600965514217,-101.86788940429688,4761.76025390625,True
1599386296.008593,0.0,10,0.5,0.5,4.204431700897217,-0.1005,-0.001,-0.5,-0.10220705806106381,10,1,100,0.22959296483217903,-10,-1,-100,19020.56047872384,-0.01600358944287915,-0.007877763068747223,0.9998409003306359,69.08860737192926,4.229009143684422,406.96031190968694,-103.47173692313842,-106.88723754882812,4761.76025390625,True
1599386296.0451303,0.0,10,0.5,0.5,1.6980965324401855,-0.1005,-0.001,-0.5,-0.08593710581421928,10,1,100,0.17386991310837976,-10,-1,-100,19020.56047872384,-0.01600358944287915,-0.007877763068747223,0.9998409003306359,69.08860737192926,4.229009143684422,406.96031190968694,-103.47173692313842,-106.88723754882812,4761.76025390625,True
1599386296.0760405,0.0,10,0.5,0.5,3.4886603515625,-0.1005,-0.001,-0.5,-0.09608167753267423,10,1,100,0.2086750123606719,-10,-1,-100,19016.410697199404,-0.0163155552671169,-0.007968348418839699,0.9998351404505653,70.13964964932994,4.295340633533468,414.7178527290562,-103.83546151590691,-109.8637466430664,4761.76025390625,True
1599386296.1099617,0.0,10,0.5,0.5,2.830156472015381,-0.1005,-0.001,-0.5,-0.09177645571153761,10,1,100,0.19027277530607575,-10,-1,-100,19014.33035113581,-0.016428483466681354,-0.008010444565719475,0.9998329549023899,70.5998343843154,4.32451094920927,418.22706839234206,-104.01729908567764,-111.24092864990234,4761.76025390625,True
1599386296.1438577,0.0,10,0.5,0.5,3.665048947143555,-0.1005,-0.001,-0.5,-0.09637743015944059,10,1,100,0.20050655271038287,-10,-1,-100,19010.15874997992,-0.016620693113260507,-0.00808938677017272,0.9998291425949323,71.40212341732516,4.375585875360717,424.5740594661071,-104.38093050903461,-113.77313995361328,4761.76025390625,True
1599386296.1877143,0.0,10,0.5,0.5,4.349488202667237,-0.1005,-0.001,-0.5,-0.10114131519720297,10,1,100,0.19868138488858605,-10,-1,-100,19003.874079165747,-0.01677548497565408,-0.008203357617009686,0.9998256288111637,72.35238848001997,4.436513521744079,432.64782586006106,-104.92628359246575,-117.01642608642578,4761.76025390625,True
1599386296.2184842,0.0,10,0.5,0.5,3.8070765548706054,-0.1005,-0.001,-0.5,-0.0983778196720227,10,1,100,0.185687741152263,-10,-1,-100,18999.66612211184,-0.016795159279683388,-0.008280849831064951,0.9998246597033128,72.84640174138715,4.468425997441102,437.22868864267036,-105.28979979303705,-118.80884552001953,4761.76025390625,True
1599386296.2493992,0.0,10,0.5,0.5,2.9135300933837893,-0.1005,-0.001,-0.5,-0.09072383601861748,10,1,100,0.18398100097490036,-10,-1,-100,18999.66612211184,-0.016795159279683388,-0.008280849831064951,0.9998246597033128,72.84640174138715,4.468425997441102,437.22868864267036,-105.28979979303705,-118.80884552001953,4761.76025390625,True
1599386296.2773244,0.0,10,0.5,0.5,3.814784913635254,-0.1005,-0.001,-0.5,-0.09956690623582964,10,1,100,0.17865513463668653,-10,-1,-100,18995.44362533558,-0.016744627948905442,-0.008360458170380981,0.9998248447473358,73.24953319747326,4.494631465803347,441.2845199616786,-105.65328106512868,-120.30558776855469,4761.76025390625,True
1599386296.31223,0.0,10,0.5,0.5,4.083768335723876,-0.1005,-0.001,-0.5,-0.10588977825493695,10,1,100,0.1625614431704331,-10,-1,-100,18989.08262134134,-0.016551199049454377,-0.008489721509247457,0.9998269762507516,73.71605992445845,4.525228740613362,446.56610011443746,-106.19844765037128,-121.99669647216797,4761.76025390625,True
1599386296.344154,0.0,10,0.5,0.5,3.2402268646240233,-0.1005,-0.001,-0.5,-0.09304110937757401,10,1,100,0.18201534462116353,-10,-1,-100,18989.08262134134,-0.016551199049454377,-0.008489721509247457,0.9998269762507516,73.71605992445845,4.525228740613362,446.56610011443746,-106.19844765037128,-121.99669647216797,4761.76025390625,True
1599386296.3773413,0.0,10,0.5,0.5,3.697056196594238,-0.1005,-0.001,-0.5,-0.10315510202948347,10,1,100,0.15888834582195935,-10,-1,-100,18984.823780668434,-0.01634045577891018,-0.008581110571137088,0.9998296625157223,73.95329626816131,4.54096793708728,449.6568271437101,-106.56186077254984,-122.75492858886719,4761.76025390625,True
1599386296.410395,0.0,10,0.5,0.5,3.4806886238098147,-0.1005,-0.001,-0.5,-0.09902265997638614,10,1,100,0.16603154001161513,-10,-1,-100,18982.688909294433,-0.01621350287437957,-0.008625984474642787,0.9998313431356238,74.05335441370491,4.547667600152145,451.09341706008934,-106.74355912368345,-123.02330780029297,4761.76025390625,True
1599386296.4464703,0.0,10,0.5,0.5,3.5655805229187014,-0.1005,-0.001,-0.5,-0.1109010126756796,10,1,100,0.12648282742729144,-10,-1,-100,18976.262492660317,-0.015738650167124016,-0.00877416610595445,0.9998376412698523,74.28969048324697,4.563766408448264,455.02696092733396,-107.288625501965,-123.38594818115234,4761.76025390625,True
1599386296.4763875,0.0,10,0.5,0.5,3.309244064331055,-0.1005,-0.001,-0.5,-0.10729001945830435,10,1,100,0.13100237700204723,-10,-1,-100,18971.960046790075,-0.015348679823298163,-0.008875355176497792,0.9998428106948475,74.3988921625611,4.571499433442773,457.3620838292575,-107.65198189236028,-123.25900268554688,4761.76025390625,True
1599386296.5102687,0.0,10,0.5,0.5,3.1202973907470706,-0.1005,-0.001,-0.5,-0.10725924228290926,10,1,100,0.12177887483851987,-10,-1,-100,18967.643067116034,-0.01491146768496074,-0.008966350931391488,0.9998486148825008,74.4709613981654,4.576963275513387,459.47403522650563,-108.01532394259979,-122.83707427978516,4761.76025390625,True
1599386296.5432568,0.0,10,0.5,0.5,3.3318436584472657,-0.1005,-0.001,-0.5,-0.09823596612497783,10,1,100,0.1653136869431928,-10,-1,-100,18967.643067116034,-0.01491146768496074,-0.008966350931391488,0.9998486148825008,74.4709613981654,4.576963275513387,459.47403522650563,-108.01532394259979,-122.83707427978516,4761.76025390625,True
1599386296.5811937,0.0,10,0.5,0.5,3.139202444458008,-0.1005,-0.001,-0.5,-0.10342728679571206,10,1,100,0.13869273011952282,-10,-1,-100,18965.479127245373,-0.014671171433468034,-0.009012921572852411,0.9998517509978625,74.4927926427438,4.578836476788488,460.44383996669126,-108.19699030746654,-122.5156021118164,4761.76025390625,True
1599386296.6121125,0.0,10,0.5,0.5,2.085871807098389,-0.1005,-0.001,-0.5,-0.11836035029788192,10,1,100,0.04194560732717878,-10,-1,-100,18956.787035375368,-0.013575131895677188,-0.009190348122616807,0.9998656176183878,74.47197855129072,4.579860039705467,463.6576655955635,-108.92363183764523,-120.49322509765625,4761.76025390625,True
1599386296.6440265,0.0,10,0.5,0.5,3.0970790779113773,-0.1005,-0.001,-0.5,-0.10070068431666598,10,1,100,0.1512326115009406,-10,-1,-100,18956.787035375368,-0.013575131895677188,-0.009190348122616807,0.9998656176183878,74.47197855129072,4.579860039705467,463.6576655955635,-108.92363183764523,-120.49322509765625,4761.76025390625,True
1599386296.6771035,0.0,10,0.5,0.5,2.224409634399414,-0.1005,-0.001,-0.5,-0.10880323562873481,10,1,100,0.0826712577013502,-10,-1,-100,18952.41919046617,-0.0129545523767298,-0.009263370746714369,0.9998731767254924,74.38226322492346,4.575644414346792,464.77029973196267,-109.286944067996,-119.04023742675781,4761.76025390625,True
1599386296.7130127,0.0,10,0.5,0.5,1.9011347480773928,-0.1005,-0.001,-0.5,-0.10596193724258637,10,1,100,0.07414495746814677,-10,-1,-100,18948.036813090555,-0.012316147036178256,-0.009303221647622198,0.999880874199101,74.22649605272959,4.567488426112534,465.4661828610743,-109.65025578180332,-117.29257202148438,4761.76025390625,True
1599386296.7449262,0.0,10,0.5,0.5,2.183551425933838,-0.1005,-0.001,-0.5,-0.10539484404514017,10,1,100,0.09822755104915937,-10,-1,-100,18945.840174771147,-0.011958369676179451,-0.009333637882037544,0.9998849336791585,74.12050541294184,4.561729847352435,465.635535663037,-109.83191296113297,-116.30860900878906,4761.76025390625,True
1599386296.7770047,0.0,10,0.5,0.5,1.3604063995361328,-0.1005,-0.001,-0.5,-0.1047030759176387,10,1,100,0.05548389051808289,-10,-1,-100,18941.435998487286,-0.011248407101532751,-0.00935435688179476,0.99989297894575,73.84115105886983,4.54616292634297,465.54365514286127,-110.19523346461222,-114.11967468261719,4761.76025390625,True
1599386296.8100402,0.0,10,0.5,0.5,0.9628356872558594,-0.1005,-0.001,-0.5,-0.10233052416815133,10,1,100,0.04446742998976584,-10,-1,-100,18937.017288953182,-0.01050691897711068,-0.00935109623769158,0.9999010759333954,73.45863047008302,4.524361057338795,464.7883925040232,-110.55856782973187,-111.63655853271484,4761.76025390625,True
1599386296.846073,0.0,10,0.5,0.5,1.3914670486450196,-0.1005,-0.001,-0.5,-0.1016292502859372,10,1,100,0.07549415654123515,-10,-1,-100,18934.802483963664,-0.010119301615236869,-0.009341324306794747,0.999905165200688,73.22297286416597,4.51076081831557,464.1236767305441,-110.74024248051968,-110.28474426269531,4761.76025390625,True
1599386296.8769903,0.0,10,0.5,0.5,1.2101709640502931,-0.1005,-0.001,-0.5,-0.10034132111078192,10,1,100,0.07144456751018224,-10,-1,-100,18932.58404550457,-0.009734464264223582,-0.009320391401318576,0.9999091811307739,72.954246735678,4.4951396467931755,463.2442299378612,-110.92192351538813,-108.8593521118164,4761.76025390625,True
1599386296.9099052,0.0,10,0.5,0.5,-1.9395672393798828,-0.1005,-0.001,-0.5,-0.08511910724183747,10,1,100,-0.06736448140962191,-10,-1,-100,18923.673951371806,-0.008127418048959409,-0.00916265586983172,0.9999249925935787,71.49933286778591,4.40923310836172,457.2415665589424,-111.64873479769065,-102.42964935302734,4761.76025390625,True
1599386296.9438763,0.0,10,0.5,0.5,1.2732755447387696,-0.1005,-0.001,-0.5,-0.10090763382022111,10,1,100,0.0926857647783446,-10,-1,-100,18923.673951371806,-0.008127418048959409,-0.00916265586983172,0.9999249925935787,71.49933286778591,4.40923310836172,457.2415665589424,-111.64873479769065,-102.42964935302734,4761.76025390625,True
1599386296.979808,0.0,10,0.5,0.5,-0.9223908935546875,-0.1005,-0.001,-0.5,-0.08647627163673717,10,1,100,0.0005143756087302165,-10,-1,-100,18919.197097835946,-0.007294448796369021,-0.009031486842938943,0.9999326093603322,70.54478174482382,4.352123527218013,452.73713106264535,-112.01220925469497,-98.77626037597656,4761.76025390625,True
1599386297.0106978,0.0,10,0.5,0.5,-0.20771096267700195,-0.1005,-0.001,-0.5,-0.09083538960972189,10,1,100,0.04027024100324081,-10,-1,-100,18916.953218320617,-0.006904330691327227,-0.008952015037590532,0.9999360937802334,70.0547725246679,4.322699763258439,450.3877109747627,-112.19396572973787,-96.92806243896484,4761.76025390625,True
1599386297.0447254,0.0,10,0.5,0.5,-1.5866097869873046,-0.1005,-0.001,-0.5,-0.07840403977344558,10,1,100,-0.016565475823951265,-10,-1,-100,18912.454553154064,-0.006038489735301489,-0.008767038721225032,0.9999433362314973,68.99599074179375,4.2587672998330675,445.1489205963435,-112.55751967585167,-93.09661102294922,4761.76025390625,True
1599386297.0776691,0.0,10,0.5,0.5,-3.071379934692383,-0.1005,-0.001,-0.5,-0.05904278487063071,10,1,100,-0.06716796151548078,-10,-1,-100,18905.679284883197,-0.004797045957446801,-0.008423354464436622,0.9999530166211054,67.34584373911319,4.158319663433535,436.8016556234795,-113.10295247649935,-87.4378662109375,4761.76025390625,True
1599386297.1135414,0.0,10,0.5,0.5,-0.24489460296630863,-0.1005,-0.001,-0.5,-0.09332018220771164,10,1,100,0.056260283898114744,-10,-1,-100,18905.679284883197,-0.004797045957446801,-0.008423354464436622,0.9999530166211054,67.34584373911319,4.158319663433535,436.8016556234795,-113.10295247649935,-87.4378662109375,4761.76025390625,True
1599386297.1454546,0.0,10,0.5,0.5,-2.36313044128418,-0.1005,-0.001,-0.5,-0.06362499611327638,10,1,100,-0.03372430416561975,-10,-1,-100,18901.144255934632,-0.003984869121543839,-0.008154244593048445,0.9999588137084452,66.16909245401297,4.086074460991589,430.67654771548405,-113.4666429170127,-83.91485595703125,4761.76025390625,True
1599386297.179538,0.0,10,0.5,0.5,-2.550066597747803,-0.1005,-0.001,-0.5,-0.05859451689475303,10,1,100,-0.0386735090169957,-10,-1,-100,18896.59467835771,-0.0032074629083064248,-0.007864955673113202,0.9999639266763336,66.16682265003632,4.0859195028160915,432.169312225873,-113.83035398513678,-80.67477416992188,4761.76025390625,True
1599386297.2114873,0.0,10,0.5,0.5,-1.8597776710510254,-0.1005,-0.001,-0.5,-0.06883373734021844,10,1,100,-0.006382596673524532,-10,-1,-100,18894.31443480181,-0.0028005672254920867,-0.007696391721434196,0.9999664606263982,66.82011497638013,4.126110998396218,437.19750848103297,-114.01217830868036,-79.13140869140625,4761.76025390625,True
1599386297.2472312,0.0,10,0.5,0.5,-3.715561332702637,-0.1005,-0.001,-0.5,-0.0284373883941358,10,1,100,-0.0907878672695068,-10,-1,-100,18887.45188896754,-0.00166964496027806,-0.0071773885928342425,0.9999728483207401,68.56896937124209,4.233190934806066,450.9830790992914,-114.55752907776981,-74.76089477539062,4761.76025390625,True
1599386297.2801769,0.0,10,0.5,0.5,-1.533071250152588,-0.1005,-0.001,-0.5,-0.08013917452643138,10,1,100,0.021658581943027718,-10,-1,-100,18887.45188896754,-0.00166964496027806,-0.0071773885928342425,0.9999728483207401,68.56896937124209,4.233190934806066,450.9830790992914,-114.55752907776981,-74.76089477539062,4761.76025390625,True
1599386297.311094,0.0,10,0.5,0.5,-3.080556936645508,-0.1005,-0.001,-0.5,-0.03842807890197043,10,1,100,-0.05885655561076681,-10,-1,-100,18882.858683191007,-0.0009435598671423656,-0.006800001602863686,0.9999764345588241,69.53836628293769,4.292154721027369,458.9423982743675,-114.92100335871294,-72.18850708007812,4761.76025390625,True
1599386297.3449965,0.0,10,0.5,0.5,-3.164695066833496,-0.1005,-0.001,-0.5,-0.0351714309623521,10,1,100,-0.06072595342455759,-10,-1,-100,18878.250940519734,-0.0002722615195565695,-0.006429345253657627,0.9999792944822778,70.3538653147769,4.3414744069455695,465.9262077996498,-115.28441291787169,-69.91094970703125,4761.76025390625,True
1599386297.379908,0.0,10,0.5,0.5,-2.645922855377197,-0.1005,-0.001,-0.5,-0.048652365215075016,10,1,100,-0.03215645282928149,-10,-1,-100,18875.941618521465,7.225781904457986e-05,-0.006217232220116812,0.9999806702143441,70.7098561928687,4.36290570215511,469.08852321120924,-115.4660958984617,-68.88296508789062,4761.76025390625,True
1599386297.4118211,0.0,10,0.5,0.5,-3.7187827423095707,-0.1005,-0.001,-0.5,-0.0019398183757280765,10,1,100,-0.10235044697947276,-10,-1,-100,18868.991853009327,0.0010180292122706853,-0.005602060678813925,0.999983790134957,71.594776818666,4.415842370610604,477.4030844002023,-116.01106919704193,-66.24444580078125,4761.76025390625,True
1599386297.4466972,0.0,10,0.5,0.5,-3.235338317871094,-0.1005,-0.001,-0.5,-0.016500382857840473,10,1,100,-0.07342004696186046,-10,-1,-100,18864.340512252413,0.0016095313194345626,-0.005177747403635615,0.999985300062334,72.05319545202549,4.443013485824667,482.0995194982564,-116.3743302106637,-64.85610961914062,4761.76025390625,True
1599386297.478653,0.0,10,0.5,0.5,-2.543428402709961,-0.1005,-0.001,-0.5,-0.05860714966959135,10,1,100,-0.014910493973160868,-10,-1,-100,18864.340512252413,0.0016095313194345626,-0.005177747403635615,0.999985300062334,72.05319545202549,4.443013485824667,482.0995194982564,-116.3743302106637,-64.85610961914062,4761.76025390625,True
1599386297.5145469,0.0,10,0.5,0.5,-3.678547122192383,-0.1005,-0.001,-0.5,0.033777631877583376,10,1,100,-0.13269864758538785,-10,-1,-100,18854.994244096568,0.0026752468973266458,-0.004340591659742584,0.9999870010745548,72.71626894837192,4.481787430547385,489.84602906831554,-117.10074767850972,-62.968994140625,4761.76025390625,True
1599386297.5474584,0.0,10,0.5,0.5,-3.0367167480468753,-0.1005,-0.001,-0.5,-0.0008182376192734375,10,1,100,-0.08081798790693963,-10,-1,-100,18850.299318827107,0.0031670889621466165,-0.0038972528552779543,0.999987390404343,72.94235067430304,4.494729851046397,493.0297415071327,-117.46391431397545,-62.469482421875,4761.76025390625,True
1599386297.5773785,0.0,10,0.5,0.5,-2.7886270812988285,-0.1005,-0.001,-0.5,-0.04477220417912078,10,1,100,-0.032230547043706426,-10,-1,-100,18850.299318827107,0.0031670889621466165,-0.0038972528552779543,0.999987390404343,72.94235067430304,4.494729851046397,493.0297415071327,-117.46391431397545,-62.469482421875,4761.76025390625,True
1599386297.6112897,0.0,10,0.5,0.5,-2.911411291503906,-0.1005,-0.001,-0.5,-0.0029321863424768904,10,1,100,-0.07971171764726874,-10,-1,-100,18845.589867865667,0.0035943389367949787,-0.0035198709983426065,0.9999873455378135,73.10790681422705,4.503980132826741,495.813903516052,-117.82705892931689,-62.267059326171875,4761.76025390625,True
1599386297.6471982,0.0,10,0.5,0.5,-2.7556653747558597,-0.1005,-0.001,-0.5,0.0054775370625129785,10,1,100,-0.0828418862073211,-10,-1,-100,18840.865891446243,0.004006418642569354,-0.003103669567987375,0.999987157839976,73.21816063036492,4.509855721538076,498.2300995708664,-118.19018556315311,-62.359954833984375,4761.76025390625,True
1599386297.6771095,0.0,10,0.5,0.5,-2.803095983886719,-0.1005,-0.001,-0.5,-0.03577297276952256,10,1,100,-0.04212891348085474,-10,-1,-100,18840.865891446243,0.004006418642569354,-0.003103669567987375,0.999987157839976,73.21816063036492,4.509855721538076,498.2300995708664,-118.19018556315311,-62.359954833984375,4761.76025390625,True
1599386297.712018,0.0,10,0.5,0.5,-2.570252038574219,-0.1005,-0.001,-0.5,0.007723666239024624,10,1,100,-0.08316570708413162,-10,-1,-100,18836.127390323323,0.004375590693360847,-0.00271126891853301,0.9999867515257067,73.27463461233096,4.51244354991162,500.2851170221891,-118.5532982742349,-62.74896240234375,4761.76025390625,True
1599386297.7443397,0.0,10,0.5,0.5,-2.0819632781982422,-0.1005,-0.001,-0.5,0.03134324434025402,10,1,100,-0.10018940026974565,-10,-1,-100,18828.992406077916,0.004862050374972954,-0.0021430048574738506,0.9999858838985338,73.25691554117267,4.510051813035691,502.6718225393156,-119.0979495976849,-63.88702392578125,4761.76025390625,True
1599386297.7802446,0.0,10,0.5,0.5,-2.6512297821044926,-0.1005,-0.001,-0.5,-0.0251372561835279,10,1,100,-0.051927834224805194,-10,-1,-100,18828.992406077916,0.004862050374972954,-0.0021430048574738506,0.9999858838985338,73.25691554117267,4.510051813035691,502.6718225393156,-119.0979495976849,-63.88702392578125,4761.76025390625,True
1599386297.8111658,0.0,10,0.5,0.5,-1.9739132843017582,-0.1005,-0.001,-0.5,0.01573929302356806,10,1,100,-0.08316809685794756,-10,-1,-100,18824.217595069436,0.005143095927041941,-0.0017741587215422162,0.9999852003530432,73.17181990512915,4.503963133155109,503.75947386902425,-119.46104473287723,-65.01510620117188,4761.76025390625,True
1599386297.8451722,0.0,10,0.5,0.5,-1.6829847106933595,-0.1005,-0.001,-0.5,0.016333454410128154,10,1,100,-0.08182339954324055,-10,-1,-100,18819.4282601272,0.00538315503096404,-0.0014365367568920872,0.9999844788815769,73.02093087938273,4.493841088766397,504.39034469280654,-119.82414054706521,-66.4388427734375,4761.76025390625,True
1599386297.8791199,0.0,10,0.5,0.5,-1.9007171783447268,-0.1005,-0.001,-0.5,0.002891523786968969,10,1,100,-0.07038734006886684,-10,-1,-100,18817.02814629965,0.005494964668277426,-0.001254447117332372,0.9999841157367071,72.918088098499,4.487102405624305,504.5142746906929,-120.00569036479325,-67.26113891601562,4761.76025390625,True
1599386297.914702,0.0,10,0.5,0.5,-1.1907264160156252,-0.1005,-0.001,-0.5,0.021826311629595297,10,1,100,-0.08053450716132782,-10,-1,-100,18812.217025300488,0.005686740516033667,-0.0009191791971068876,0.9999834079083046,72.65148567058618,4.469902805914963,504.33360755035653,-120.3687970310481,-69.12734985351562,4761.76025390625,True
1599386297.9456594,0.0,10,0.5,0.5,-0.8253142150878907,-0.1005,-0.001,-0.5,0.023165626584600394,10,1,100,-0.0784758819697889,-10,-1,-100,18807.39137953834,0.005840076829021817,-0.0006049219279092836,0.9999827636375002,72.2933918180573,4.447129560725977,503.5055294536123,-120.7319183454022,-71.28863525390625,4761.76025390625,True
1599386297.9786148,0.0,10,0.5,0.5,-0.430285546875,-0.1005,-0.001,-0.5,0.026125208913103777,10,1,100,-0.07658645289647296,-10,-1,-100,18802.551208291436,0.005960255269351602,-0.0002949781611709159,0.9999821940139778,71.8298551730464,4.417959165614352,501.92638764335493,-121.09506097256283,-73.74453735351562,4761.76025390625,True
1599386298.0135212,0.0,10,0.5,0.5,0.882217123413086,-0.1005,-0.001,-0.5,0.042205551323602195,10,1,100,-0.07664624661865202,-10,-1,-100,18795.263713911292,0.006068275761101414,0.0001304204746804799,0.9999815793402331,70.90282250349794,4.360222721027542,497.8947918933634,-121.63983150613304,-77.97320556640625,4761.76025390625,True
1599386298.0474863,0.0,10,0.5,0.5,-1.2305556579589845,-0.1005,-0.001,-0.5,-1.0903257270600698e-05,10,1,100,-0.06605038315552401,-10,-1,-100,18795.263713911292,0.006068275761101414,0.0001304204746804799,0.9999815793402331,70.90282250349794,4.360222721027542,497.8947918933634,-121.63983150613304,-77.97320556640625,4761.76025390625,True
1599386298.0923672,0.0,10,0.5,0.5,1.5449439697265626,-0.1005,-0.001,-0.5,0.043160937899464576,10,1,100,-0.06908229173210831,-10,-1,-100,18787.943529722048,0.006094299761736053,0.0005203084039296965,0.9999812942198364,69.68451740520418,4.285079189723167,491.7488626052684,-122.18469323757704,-82.5926513671875,4761.76025390625,True
1599386298.1252782,0.0,10,0.5,0.5,-0.762908367919922,-0.1005,-0.001,-0.5,0.004438476300683269,10,1,100,-0.06660311660732077,-10,-1,-100,18787.943529722048,0.006094299761736053,0.0005203084039296965,0.9999812942198364,69.68451740520418,4.285079189723167,491.7488626052684,-122.18469323757704,-82.5926513671875,4761.76025390625,True
1599386298.1581893,0.0,10,0.5,0.5,1.0393259948730469,-0.1005,-0.001,-0.5,0.03189735374444725,10,1,100,-0.06354699176119867,-10,-1,-100,18783.045242912835,0.006065396581874249,0.0007675133686353658,0.999981310769123,68.80317808213884,4.231098437482541,487.11782091773114,-122.54799277335678,-85.59075927734375,4761.76025390625,True
1599386298.191102,0.0,10,0.5,0.5,1.2809720916748046,-0.1005,-0.001,-0.5,0.031714983197993735,10,1,100,-0.05934283672274447,-10,-1,-100,18778.13242280681,0.006000062917418633,0.00098827662968169,0.9999815111062256,68.129624369961,4.190225944984378,483.92364425626903,-122.9113326883769,-88.486083984375,4761.76025390625,True
