Timestamp,Input Throttle,horizon,dT,dt,Input Roll,Roll P,Roll I,Roll D,Input Pitch,Pitch P,Pitch I,Pitch D,Input Yaw,Yaw P,Yaw I,Yaw D,Altitude,Direction X,Direction Y,Direction Z,Drag X,Drag Y,Drag Z,Vertical Velocity,Roll,Mass,Has Fuel
1599386836.1376092,0.0,10,0.5,0.5,-5.635680618286133,-0.1005,-0.03,-0.001,-0.0001579564968591041,10,1,100,0.49810778864334115,-10,-1,-100,19349.722301980713,-0.04884495545984862,-0.00017599925767774511,0.9988063572837262,61.07654572018582,3.6862980244965873,233.7315967956928,-68.66499577207134,-33.923553466796875,4761.76025390625,True
1599386836.1655438,0.0,10,0.5,0.5,-5.803791412353516,-0.1005,-0.03,-0.001,-0.0008637036370414986,10,1,100,0.4989462779900734,-10,-1,-100,19348.345353033743,-0.04889597571299046,-0.00016769117708225669,0.9988038623467292,61.16630029749782,3.6923882736834734,234.72066274494685,-68.84745240318173,-33.92474365234375,4761.76025390625,True
1599386836.1954563,0.0,10,0.5,0.5,-5.9672574615478515,-0.1005,-0.03,-0.001,0.011909772124084155,10,1,100,0.5096468368104938,-10,-1,-100,19344.192611268372,-0.04899518468174778,-4.386342309695921e-05,0.9987990137930662,61.437210137803206,3.7107808062737067,237.70665927627314,-69.39480192892863,-33.971649169921875,4761.76025390625,True
1599386836.2233806,0.0,10,0.5,0.5,-6.124582122802734,-0.1005,-0.03,-0.001,0.011146321447115182,10,1,100,0.5039537938957491,-10,-1,-100,19342.801066310727,-0.04898907864077335,6.180667748368143e-05,0.9987993123515169,61.53079278363637,3.717115470434022,238.71888020544836,-69.5772447530611,-34.078125,4761.76025390625,True
1599386836.253297,0.0,10,0.5,0.5,-6.292454223632813,-0.1005,-0.03,-0.001,0.0005854920567994863,10,1,100,0.5094633058572695,-10,-1,-100,19342.801066310727,-0.04898907864077335,6.180667748368143e-05,0.9987993123515169,61.53079278363637,3.717115470434022,238.71888020544836,-69.5772447530611,-34.078125,4761.76025390625,True
1599386836.2842102,0.0,10,0.5,0.5,-6.417309707641602,-0.1005,-0.03,-0.001,0.02847969053122676,10,1,100,0.5099673477914076,-10,-1,-100,19340.007030050852,-0.04894912531413754,0.0003153341120898533,0.9988012233149189,61.72804710732937,3.730391897624702,240.78910508072101,-69.94211892794411,-34.500885009765625,4761.76025390625,True
1599386836.316173,0.0,10,0.5,0.5,-6.551761459350587,-0.1005,-0.03,-0.001,0.02238328535182403,10,1,100,0.5131402028315302,-10,-1,-100,19338.604538899148,-0.048897149040002336,0.0004901050654535394,0.9988036987380375,61.83168255025649,3.7373263526596476,241.84716847210876,-70.12455000604159,-34.820770263671875,4761.76025390625,True
1599386836.3490849,0.0,10,0.5,0.5,-6.630411056518555,-0.1005,-0.03,-0.001,0.05595831530881794,10,1,100,0.5038150042055121,-10,-1,-100,19335.788611152442,-0.048720671395061074,0.0009537697453336954,0.99881198756427,62.04597342234202,3.751592600178329,243.9979098899566,-70.48939912826715,-35.679962158203125,4761.76025390625,True
1599386836.381995,0.0,10,0.5,0.5,-6.739462860107422,-0.1005,-0.03,-0.001,0.040981267741972,10,1,100,0.511816424974099,-10,-1,-100,19334.37517462368,-0.04858868584174248,0.0012382610493940254,0.9988181047206474,62.15501877701724,3.7588208738489284,245.08437612681027,-70.6718169176374,-36.21954345703125,4761.76025390625,True
1599386836.4178953,0.0,10,0.5,0.5,-6.607799789428711,-0.1005,-0.03,-0.001,0.17684369980945908,10,1,100,0.44083842664741235,-10,-1,-100,19328.68494719523,-0.04777927291226321,0.0027308768345629406,0.9988541852501244,62.57609386116018,3.7866083534127504,249.39436047722936,-71.4014414607728,-39.111602783203125,4761.76025390625,True
1599386836.4490755,0.0,10,0.5,0.5,-6.671357177734375,-0.1005,-0.03,-0.001,0.0785937627377209,10,1,100,0.4961042934457193,-10,-1,-100,19327.253270297195,-0.047502424244619146,0.003192136414214732,0.9988660220249747,62.67000696268448,3.7927962005668987,250.43234712972426,-71.58383607627547,-40.01800537109375,4761.76025390625,True
1599386836.4819865,0.0,10,0.5,0.5,-6.447588424682618,-0.1005,-0.03,-0.001,0.1411578999720254,10,1,100,0.4506281999709313,-10,-1,-100,19324.3789732866,-0.04683854508900395,0.00417716624723559,0.9988937390814342,62.831361705604266,3.8034554636758156,252.40829877297006,-71.94861219339032,-42.051422119140625,4761.76025390625,True
1599386836.7700312,0.0,10,0.5,0.5,-6.310883941650391,-0.1005,-0.03,-0.001,0.10334361185971896,10,1,100,0.47510581476437297,-10,-1,-100,19322.93635332503,-0.04645941274622505,0.004724931787666023,0.9989090038571471,62.89436452211726,3.8076497354815206,253.32783060483928,-72.13099425915577,-43.1781005859375,4761.76025390625,True
1599386836.8019898,0.0,10,0.5,0.5,-6.1625869293212885,-0.1005,-0.03,-0.001,0.11238048730680193,10,1,100,0.4671768833199531,-10,-1,-100,19321.490085615427,-0.046044971032327256,0.005300718605566477,0.9989253040267309,62.94239279491453,3.8108883993354326,254.1883551248518,-72.31337287505225,-44.378143310546875,4761.76025390625,True
1599386836.8368835,0.0,10,0.5,0.5,-5.7226835632324216,-0.1005,-0.03,-0.001,0.25559332387206934,10,1,100,0.34603527441675686,-10,-1,-100,19317.129398067715,-0.04456959494567152,0.007121333397952881,0.9989808996257206,62.97078818165374,3.813269542775327,256.30603686208167,-72.8604926436376,-48.4195556640625,4761.76025390625,True
1599386836.925646,0.0,10,0.5,0.5,-5.6837006835937505,-0.1005,-0.03,-0.001,0.07423779730547578,10,1,100,0.49313093471282055,-10,-1,-100,19317.129398067715,-0.04456959494567152,0.007121333397952881,0.9989808996257206,62.97078818165374,3.813269542775327,256.30603686208167,-72.8604926436376,-48.4195556640625,4761.76025390625,True
1599386836.9984531,0.0,10,0.5,0.5,-4.990520843505859,-0.1005,-0.03,-0.001,0.363272394915876,10,1,100,0.2173478522077935,-10,-1,-100,19311.264084141585,-0.042066457405051695,0.009742733376878462,0.999067311199669,62.62962886527302,3.7926366868282226,257.5762922545083,-73.58997447567214,-54.8375244140625,4761.76025390625,True
1599386837.031403,0.0,10,0.5,0.5,-4.936888549804688,-0.1005,-0.03,-0.001,0.1020576598544604,10,1,100,0.4669785371062806,-10,-1,-100,19311.264084141585,-0.042066457405051695,0.009742733376878462,0.999067311199669,62.62962886527302,3.7926366868282226,257.5762922545083,-73.58997447567214,-54.8375244140625,4761.76025390625,True
1599386837.0662713,0.0,10,0.5,0.5,-4.509018920898437,-0.1005,-0.03,-0.001,0.26190396968219387,10,1,100,0.3015066603459051,-10,-1,-100,19308.309542288305,-0.04056821690176647,0.011187891681101908,0.9991141330484438,62.23818068704062,3.768579834566193,257.2890286943341,-73.95472721309108,-58.48675537109375,4761.76025390625,True
1599386837.0952246,0.0,10,0.5,0.5,-3.833979614257813,-0.1005,-0.03,-0.001,0.3377653384058935,10,1,100,0.1744062693901598,-10,-1,-100,19303.85037200048,-0.03805801331640038,0.013182275645491666,0.9991885784131117,61.297586677955955,3.71073717637484,255.35713213068436,-74.5018975099209,-64.51519775390625,4761.76025390625,True
1599386837.1261508,0.0,10,0.5,0.5,-3.763797271728516,-0.1005,-0.03,-0.001,0.13937208184801056,10,1,100,0.42445450196718265,-10,-1,-100,19303.85037200048,-0.03805801331640038,0.013182275645491666,0.9991885784131117,61.297586677955955,3.71073717637484,255.35713213068436,-74.5018975099209,-64.51519775390625,4761.76025390625,True
1599386837.1540616,0.0,10,0.5,0.5,-3.245050643920899,-0.1005,-0.03,-0.001,0.288363383188034,10,1,100,0.2168793235547191,-10,-1,-100,19300.859351126943,-0.03617955206804,0.014527660076554354,0.9992397045278255,60.39212818011578,3.6551912685572345,252.87210958901997,-74.86672057227298,-68.90194702148438,4761.76025390625,True
1599386837.1849883,0.0,10,0.5,0.5,-2.934966232299805,-0.1005,-0.03,-0.001,0.2217180616800587,10,1,100,0.2977661092329928,-10,-1,-100,19299.35836808011,-0.035216884432988475,0.015135460733057642,0.9992650743817837,59.84564650829898,3.6217447185670615,251.22221331930973,-75.04914890992447,-71.20657348632812,4761.76025390625,True
1599386837.2149217,0.0,10,0.5,0.5,-2.106633239746094,-0.1005,-0.03,-0.001,0.36316904067327616,10,1,100,0.04673049686232389,-10,-1,-100,19294.833524856134,-0.032069810587129405,0.016964460658048616,0.9993416504496784,57.79030307784876,3.49644284627609,244.4459944422623,-75.59651708503934,-78.561767578125,4761.76025390625,True
1599386837.248826,0.0,10,0.5,0.5,-2.0114375610351565,-0.1005,-0.03,-0.001,0.181435422379427,10,1,100,0.3600403654037112,-10,-1,-100,19294.833524856134,-0.032069810587129405,0.016964460658048616,0.9993416504496784,57.79030307784876,3.49644284627609,244.4459944422623,-75.59651708503934,-78.561767578125,4761.76025390625,True
1599386837.2767076,0.0,10,0.5,0.5,-1.3858189697265626,-0.1005,-0.03,-0.001,0.3029584515975233,10,1,100,0.112936472461446,-10,-1,-100,19291.79871432914,-0.029834775000707487,0.01806026717161304,0.9993916714433572,56.043927708663034,3.3905057292850294,238.25825163758222,-75.96150924695417,-83.8345947265625,4761.76025390625,True
1599386837.3086216,0.0,10,0.5,0.5,-0.42576648330688477,-0.1005,-0.03,-0.001,0.3495984865291392,10,1,100,-0.047186757761828846,-10,-1,-100,19287.219119284535,-0.026360654029153212,0.019470510743528426,0.9994628633073573,52.811747313941204,3.195414569700051,226.2145433888637,-76.50913223372174,-92.2984390258789,4761.76025390625,True
1599386837.3385417,0.0,10,0.5,0.5,-0.32184758377075184,-0.1005,-0.03,-0.001,0.2095469070742657,10,1,100,0.2986547590560088,-10,-1,-100,19287.219119284535,-0.026360654029153212,0.019470510743528426,0.9994628633073573,52.811747313941204,3.195414569700051,226.2145433888637,-76.50913223372174,-92.2984390258789,4761.76025390625,True
1599386837.3704891,0.0,10,0.5,0.5,0.7146016235351562,-0.1005,-0.03,-0.001,0.3327916476435678,10,1,100,-0.0912671297791312,-10,-1,-100,19282.60666615318,-0.022830187588266392,0.020582074042006945,0.9995274687385104,54.55727007807425,3.3028547443632634,235.44535968273027,-77.0567365136897,-101.40254211425781,4761.76025390625,True
1599386837.4014146,0.0,10,0.5,0.5,1.471500587463379,-0.1005,-0.03,-0.001,0.2885101662807271,10,1,100,-0.017142235926830285,-10,-1,-100,19279.51344763732,-0.020310660794584292,0.02118148704426986,0.9995693180888859,56.32019179735947,3.411435111407606,244.25969017150388,-77.4216856691476,-107.68092346191406,4761.76025390625,True
1599386837.429334,0.0,10,0.5,0.5,1.5947193832397462,-0.1005,-0.03,-0.001,0.2293687871943134,10,1,100,0.23303570818919814,-10,-1,-100,19279.51344763732,-0.020310660794584292,0.02118148704426986,0.9995693180888859,56.32019179735947,3.411435111407606,244.25969017150388,-77.4216856691476,-107.68092346191406,4761.76025390625,True
1599386837.4622436,0.0,10,0.5,0.5,2.0421916084289555,-0.1005,-0.03,-0.001,0.2570743786629358,10,1,100,0.10356076794952591,-10,-1,-100,19277.961365193478,-0.01914974984015256,0.02142608404725845,0.9995870197253761,57.14315017590106,3.4623211988470306,248.44037816884023,-77.60412258356679,-110.81368255615234,4761.76025390625,True
1599386837.4901674,0.0,10,0.5,0.5,2.786547378540039,-0.1005,-0.03,-0.001,0.27846870630175447,10,1,100,-0.04278728162158668,-10,-1,-100,19274.846255611745,-0.016779421069320767,0.021836667552173058,0.999620733567884,58.595621933255075,3.5524976309161076,256.00837265922763,-77.96892659974054,-116.9393310546875,4761.76025390625,True
1599386837.5210545,0.0,10,0.5,0.5,3.218537704467774,-0.1005,-0.03,-0.001,0.25394316944171935,10,1,100,0.05545953551927357,-10,-1,-100,19273.28322954697,-0.015534490945630293,0.021980873851714097,0.9996376947553425,59.23839891124024,3.5925285496717803,259.44963331051093,-78.15129577636398,-119.90403747558594,4761.76025390625,True
1599386837.5500128,0.0,10,0.5,0.5,3.9195201568603517,-0.1005,-0.03,-0.001,0.26220850838535015,10,1,100,-0.08585430905117444,-10,-1,-100,19270.146236768574,-0.01313309708221806,0.02218254955697199,0.9996676729074425,60.21241588770999,3.6535647135579747,265.00141552450935,-78.51598132320872,-125.61753845214844,4761.76025390625,True
1599386837.585955,0.0,10,0.5,0.5,4.333761337280274,-0.1005,-0.03,-0.001,0.2512207844573321,10,1,100,0.0262635751011996,-10,-1,-100,19268.572270505247,-0.011986480438232987,0.022261258990679978,0.999680329222724,60.5539309339027,3.675147352153224,267.15070999700123,-78.6983029960981,-128.3642120361328,4761.76025390625,True
1599386837.6169102,0.0,10,0.5,0.5,4.9997954711914065,-0.1005,-0.03,-0.001,0.2501911601069444,10,1,100,-0.11457125885116248,-10,-1,-100,19265.413399590063,-0.009680010721009151,0.022319633716484565,0.9997040218700749,60.97991176427021,3.702426707883304,270.33132966128863,-79.06291732512562,-133.6370391845703,4761.76025390625,True
1599386837.6498222,0.0,10,0.5,0.5,5.374890373229981,-0.1005,-0.03,-0.001,0.24548081430176785,10,1,100,-0.008218795171974838,-10,-1,-100,19263.828495244146,-0.00856522486907841,0.022327290211738987,0.9997140236261283,61.07658715816991,3.70885008933679,271.4115537960195,-79.24521477563319,-136.1626739501953,4761.76025390625,True
1599386837.6836946,0.0,10,0.5,0.5,5.994224311828614,-0.1005,-0.03,-0.001,0.23808508178965415,10,1,100,-0.13947418939683714,-10,-1,-100,19260.647748972406,-0.006374729991788146,0.022264419657798146,0.9997317932499863,61.06967260703726,3.7092251388199626,272.6842455782345,-79.60980098356791,-140.99288940429688,4761.76025390625,True
1599386837.719636,0.0,10,0.5,0.5,6.787319641113281,-0.1005,-0.03,-0.001,0.22426306794860185,10,1,100,-0.26273773983659826,-10,-1,-100,19255.84928535181,-0.0032777527880686955,0.02208008053237346,0.9997508321478629,60.649586766948055,3.6842145343190897,272.7515971088481,-80.15668538225347,-147.68406677246094,4761.76025390625,True
1599386837.7505527,0.0,10,0.5,0.5,6.900637893676758,-0.1005,-0.03,-0.001,0.24278683983988084,10,1,100,0.045256689734695286,-10,-1,-100,19255.84928535181,-0.0032777527880686955,0.02208008053237346,0.9997508321478629,60.649586766948055,3.6842145343190897,272.7515971088481,-80.15668538225347,-147.68406677246094,4761.76025390625,True
1599386837.7844608,0.0,10,0.5,0.5,7.435921340942382,-0.1005,-0.03,-0.001,0.22322311559517827,10,1,100,-0.17041429965094335,-10,-1,-100,19252.632079400006,-0.0013325918918415402,0.02190141159061425,0.9997592472036397,60.16327219591186,3.654662800352685,271.8509269601434,-80.52129370310638,-151.7754364013672,4761.76025390625,True
1599386837.8163767,0.0,10,0.5,0.5,8.121283660888674,-0.1005,-0.03,-0.001,0.2106723920496616,10,1,100,-0.27630837474186576,-10,-1,-100,19247.778923333273,0.0013822121892385223,0.02162445567719813,0.9997652086395731,59.23275919088273,3.597817821454322,269.54846945701513,-81.06825098788637,-157.35739135742188,4761.76025390625,True
1599386837.8527715,0.0,10,0.5,0.5,8.236955886840821,-0.1005,-0.03,-0.001,0.238346762203776,10,1,100,-0.006644129959715477,-10,-1,-100,19247.778923333273,0.0013822121892385223,0.02162445567719813,0.9997652086395731,59.23275919088273,3.597817821454322,269.54846945701513,-81.06825098788637,-157.35739135742188,4761.76025390625,True
1599386837.884191,0.0,10,0.5,0.5,8.689508834838868,-0.1005,-0.03,-0.001,0.21491241634817093,10,1,100,-0.19355334027923257,-10,-1,-100,19244.525253005093,0.0030660080074751605,0.02141174018594219,0.9997660411201752,58.53212242635661,3.554960170930657,267.6148251470881,-81.43292357276525,-160.70904541015625,4761.76025390625,True
1599386837.9170985,0.0,10,0.5,0.5,9.10144841003418,-0.1005,-0.03,-0.001,0.22193853933983587,10,1,100,-0.19901107888473774,-10,-1,-100,19241.256994909258,0.004631620824931521,0.021282937047789226,0.9997627641991644,57.80460821720658,3.510479341314009,265.5289361224186,-81.79762465109313,-163.76339721679688,4761.76025390625,True
1599386837.9509788,0.0,10,0.5,0.5,9.34843490600586,-0.1005,-0.03,-0.001,0.22079194919547768,10,1,100,-0.12741397525024006,-10,-1,-100,19239.617395086563,0.005388915079338993,0.021156309122649538,0.9997616566855195,57.44165587898907,3.488306876656304,264.47843160309463,-81.97998548904826,-165.18057250976562,4761.76025390625,True
1599386837.9869308,0.0,10,0.5,0.5,9.82788606262207,-0.1005,-0.03,-0.001,0.20880056702088334,10,1,100,-0.28357446125154495,-10,-1,-100,19234.676710950676,0.007483306159902787,0.020933237829656996,0.9997528693046518,56.38425972290151,3.423826139936604,261.427605489309,-82.52710613318115,-168.98587036132812,4761.76025390625,True
1599386838.0176554,0.0,10,0.5,0.5,10.142459793090822,-0.1005,-0.03,-0.001,0.2180513876489949,10,1,100,-0.21573981374151124,-10,-1,-100,19231.3646834963,0.008756029863934128,0.020815811434812138,0.999744984451201,55.73521055657939,3.384359774245942,259.6173108014971,-82.89188105771935,-171.1524658203125,4761.76025390625,True
1599386838.0515318,0.0,10,0.5,0.5,10.230771926879884,-0.1005,-0.03,-0.001,0.22964916631118212,10,1,100,-0.08998051932394935,-10,-1,-100,19231.3646834963,0.008756029863934128,0.020815811434812138,0.999744984451201,55.73521055657939,3.384359774245942,259.6173108014971,-82.89188105771935,-171.1524658203125,4761.76025390625,True
1599386838.0844436,0.0,10,0.5,0.5,10.650661064147952,-0.1005,-0.03,-0.001,0.2236297386083585,10,1,100,-0.3383544769565978,-10,-1,-100,19224.696853053872,0.01100303513091093,0.020762238700329706,0.9997238932135504,54.648335659155705,3.318577273178831,256.90822528297605,-83.62148094952019,-174.5956573486328,4761.76025390625,True
1599386838.120475,0.0,10,0.5,0.5,10.727952644348147,-0.1005,-0.03,-0.001,0.2288552278733973,10,1,100,-0.1150820290508156,-10,-1,-100,19224.696853053872,0.01100303513091093,0.020762238700329706,0.9997238932135504,54.648335659155705,3.318577273178831,256.90822528297605,-83.62148094952019,-174.5956573486328,4761.76025390625,True
1599386838.1563811,0.0,10,0.5,0.5,10.979558113098145,-0.1005,-0.03,-0.001,0.23866903117921023,10,1,100,-0.27338116882124547,-10,-1,-100,19219.65767491376,0.012430904013348698,0.020852490705737355,0.9997052796983609,54.06841298687038,3.283777535968462,255.93012577076237,-84.16870781170716,-176.40003967285156,4761.76025390625,True
1599386838.1892912,0.0,10,0.5,0.5,11.034881675720216,-0.1005,-0.03,-0.001,0.22956663414129927,10,1,100,-0.13169914975987956,-10,-1,-100,19219.65767491376,0.012430904013348698,0.020852490705737355,0.9997052796983609,54.06841298687038,3.283777535968462,255.93012577076237,-84.16870781170716,-176.40003967285156,4761.76025390625,True
1599386838.2209074,0.0,10,0.5,0.5,11.207484146118166,-0.1005,-0.03,-0.001,0.2523760206445117,10,1,100,-0.26595164750849937,-10,-1,-100,19214.58566275332,0.013641337000314233,0.02106055055119516,0.9996851339973624,53.72120853082072,3.2632724837805105,256.0248692196971,-84.7159413108821,-177.5377197265625,4761.76025390625,True
1599386838.5423524,0.0,10,0.5,0.5,11.280243652343751,-0.1005,-0.03,-0.001,0.24522045710621532,10,1,100,-0.1847816003473549,-10,-1,-100,19212.887695682002,0.013994207169733552,0.02118496455093115,0.9996776277594025,53.660246545797996,3.2597896412191707,256.31334870113744,-84.8983512773451,-177.76837158203125,4761.76025390625,True
1599386838.5772588,0.0,10,0.5,0.5,11.347196937561037,-0.1005,-0.03,-0.001,0.2809734428823209,10,1,100,-0.2504737980304072,-10,-1,-100,19207.77190546412,0.014903688587829042,0.02162318439638015,0.9996550995033423,53.64978819253262,3.259858522938037,258.0008637017195,-85.445569989883,-178.01634216308594,4761.76025390625,True
1599386838.612166,0.0,10,0.5,0.5,11.364651687622072,-0.1005,-0.03,-0.001,0.2780169358543846,10,1,100,-0.2134828613483097,-10,-1,-100,19204.343138512573,0.015385558840343611,0.021994264305376432,0.9996397035516525,53.787250418468496,3.268691739650268,259.823834951054,-85.81036703767595,-177.81137084960938,4761.76025390625,True
1599386838.6959426,0.0,10,0.5,0.5,11.340391113281251,-0.1005,-0.03,-0.001,0.29408454945710194,10,1,100,-0.20566648094909562,-10,-1,-100,19200.899780326174,0.0157453808365636,0.02247671432223801,0.9996233692224228,54.037794758758686,3.284384745942727,262.20194841780324,-86.17514646836496,-177.30947875976562,4761.76025390625,True
1599386838.7315254,0.0,10,0.5,0.5,11.27838985443115,-0.1005,-0.03,-0.001,0.3051531013834327,10,1,100,-0.19837420476878775,-10,-1,-100,19197.44183141517,0.01599984436696749,0.023014418534272062,0.9996070935721505,54.400117962908766,3.3068421319126435,265.1361813173414,-86.53990354174425,-176.51170349121094,4761.76025390625,True
1599386838.7634408,0.0,10,0.5,0.5,11.243503997802735,-0.1005,-0.03,-0.001,0.2843219403218222,10,1,100,-0.18245284189572325,-10,-1,-100,19195.707385903108,0.016079849900758593,0.023311867620016143,0.9995989171939093,54.62128573456208,3.3204866880883994,266.80477120017434,-86.7222722368546,-176.00173950195312,4761.76025390625,True
1599386838.803334,0.0,10,0.5,0.5,11.12218115234375,-0.1005,-0.03,-0.001,0.3260202519036331,10,1,100,-0.18254414867825602,-10,-1,-100,19192.22755302,0.016148796979710032,0.02395903359514569,0.9995825033809339,55.13951334011346,3.3523490229473354,270.52900019996235,-87.08698696842734,-174.75985717773438,4761.76025390625,True
1599386838.8392665,0.0,10,0.5,0.5,10.96785256958008,-0.1005,-0.03,-0.001,0.3391355611595501,10,1,100,-0.17101135435420967,-10,-1,-100,19188.733132818597,0.01610195459231201,0.02466369020677651,0.9995661205961772,55.751539352786104,3.389851506906193,274.738319462078,-87.4516677831887,-173.2222900390625,4761.76025390625,True
1599386838.8751428,0.0,10,0.5,0.5,10.773794204711914,-0.1005,-0.03,-0.001,0.3527132700029228,10,1,100,-0.15484948841736304,-10,-1,-100,19185.224126539193,0.015909107231088872,0.0254242561163797,0.9995501525726652,56.44615920215841,3.432307019687993,279.38331755859286,-87.81631019624642,-171.38916015625,4761.76025390625,True
1599386838.9150374,0.0,10,0.5,0.5,10.65632550048828,-0.1005,-0.03,-0.001,0.32066471369764865,10,1,100,-0.15833177233684004,-10,-1,-100,19183.46415401937,0.01576228657177423,0.025820173008324978,0.9995423297629017,56.820774257246754,3.455168927923616,281.8526610779074,-87.99861571040508,-170.36187744140625,4761.76025390625,True
1599386838.9554772,0.0,10,0.5,0.5,10.404825096130372,-0.1005,-0.03,-0.001,0.3717448859017687,10,1,100,-0.12923003718133563,-10,-1,-100,19179.933271868504,0.015362323880464095,0.026640135727897113,0.9995270392407556,57.615769455204415,3.503626936136104,287.04387948619495,-88.36319292989417,-168.0860137939453,4761.76025390625,True
1599386838.9953704,0.0,10,0.5,0.5,10.378053886413575,-0.1005,-0.03,-0.001,0.2902941310622518,10,1,100,-0.16936311798342213,-10,-1,-100,19179.933271868504,0.015362323880464095,0.026640135727897113,0.9995270392407556,57.615769455204415,3.503626936136104,287.04387948619495,-88.36319292989417,-168.0860137939453,4761.76025390625,True
1599386839.0432422,0.0,10,0.5,0.5,9.796525466918945,-0.1005,-0.03,-0.001,0.47912514890198354,10,1,100,-0.03273916570657823,-10,-1,-100,19172.827764438116,0.014119871009499482,0.028352220479775113,0.9994982645490395,59.32569685062047,3.607704411930956,298.1327932551134,-89.09220031944285,-162.65017700195312,4761.76025390625,True
1599386839.0831351,0.0,10,0.5,0.5,9.599847808837891,-0.1005,-0.03,-0.001,0.35795473551030355,10,1,100,-0.11381210808893669,-10,-1,-100,19171.042276071268,0.013728545773762951,0.028801331990490387,0.9994908755494025,59.76290370690169,3.6343096827119163,300.97717067205633,-89.27441982783292,-161.10702514648438,4761.76025390625,True
1599386839.1240275,0.0,10,0.5,0.5,9.38868862915039,-0.1005,-0.03,-0.001,0.3631575853946232,10,1,100,-0.10535228291946871,-10,-1,-100,19169.253143525915,0.013297721544337124,0.02925116416493604,0.9994836366828249,60.197897067843755,3.6607892561272957,303.81983779667877,-89.45662622969195,-159.49032592773438,4761.76025390625,True
1599386839.164917,0.0,10,0.5,0.5,8.608523590087891,-0.1005,-0.03,-0.001,0.5009287759105697,10,1,100,0.09080342458146928,-10,-1,-100,19162.060176710016,0.011125285924689327,0.030906898104912817,0.999460350220371,61.84571066253095,3.761348448838535,314.81540818993375,-90.18532088274306,-152.2911376953125,4761.76025390625,True
1599386839.202816,0.0,10,0.5,0.5,8.54459097290039,-0.1005,-0.03,-0.001,0.3361148849613817,10,1,100,-0.1259446809857035,-10,-1,-100,19162.060176710016,0.011125285924689327,0.030906898104912817,0.999460350220371,61.84571066253095,3.761348448838535,314.81540818993375,-90.18532088274306,-152.2911376953125,4761.76025390625,True
1599386839.2437077,0.0,10,0.5,0.5,8.067161117553711,-0.1005,-0.03,-0.001,0.4234992992953934,10,1,100,0.018505600693784888,-10,-1,-100,19158.441835298785,0.009816668374016724,0.031694985631122226,0.99944937886212,62.56052426701763,3.805268841882651,319.8090087221063,-90.549594796136,-148.25149536132812,4761.76025390625,True
1599386839.2875886,0.0,10,0.5,0.5,7.087295288085938,-0.1005,-0.03,-0.001,0.48875335684611065,10,1,100,0.22439020706909343,-10,-1,-100,19151.16144470265,0.006761051712010004,0.03299825545502426,0.9994325406532812,63.58995529772811,3.869712771369242,327.826797893976,-91.27802739722178,-139.2958984375,4761.76025390625,True
1599386839.3274794,0.0,10,0.5,0.5,6.501083793640137,-0.1005,-0.03,-0.001,0.4117310453282186,10,1,100,0.10916302385378882,-10,-1,-100,19147.49939807586,0.005039054644433098,0.03347595791810105,0.9994268198171168,63.825297979182835,3.8855346249650276,330.4239952098829,-91.64220754515115,-134.38075256347656,4761.76025390625,True
1599386839.3713658,0.0,10,0.5,0.5,5.869685928344726,-0.1005,-0.03,-0.001,0.3975756703345015,10,1,100,0.13492786487516617,-10,-1,-100,19143.822784284363,0.0032491253300118822,0.03377458785285545,0.9994241944239491,63.81543149526105,3.886860665442061,331.7581057967169,-92.00638324870252,-129.17514038085938,4761.76025390625,True
1599386839.416245,0.0,10,0.5,0.5,5.482841564178467,-0.1005,-0.03,-0.001,0.38285048373826525,10,1,100,0.060597503101540814,-10,-1,-100,19141.979014857905,0.0023086594226168727,0.033905718413461884,0.9994223693466829,63.703813169558174,3.8811769876298974,331.8699632463159,-92.18847510050584,-126.46265411376953,4761.76025390625,True
1599386839.4581323,0.0,10,0.5,0.5,4.490565711975099,-0.1005,-0.03,-0.001,0.3820017392068882,10,1,100,0.28695403143756915,-10,-1,-100,19136.425853458,-0.0005922292376535318,0.03401060707946834,0.9994212964864299,62.87934094948747,3.8347336664736744,329.6281981860968,-92.734796748316,-117.89006042480469,4761.76025390625,True
1599386839.499058,0.0,10,0.5,0.5,4.364857955932617,-0.1005,-0.03,-0.001,0.37207871126621195,10,1,100,-0.0016636245647560595,-10,-1,-100,19136.425853458,-0.0005922292376535318,0.03401060707946834,0.9994212964864299,62.87934094948747,3.8347336664736744,329.6281981860968,-92.734796748316,-117.89006042480469,4761.76025390625,True
1599386839.5494044,0.0,10,0.5,0.5,3.61826033782959,-0.1005,-0.03,-0.001,0.3584860744250372,10,1,100,0.22091638394183505,-10,-1,-100,19132.705533161992,-0.002602664974066709,0.033882301949013136,0.9994224410876859,61.92773474991066,3.7794067615273703,325.9917011642697,-93.0990751765112,-111.811767578125,4761.76025390625,True
1599386839.5902977,0.0,10,0.5,0.5,2.159049247741699,-0.1005,-0.03,-0.001,0.28526476442045345,10,1,100,0.4610944205281999,-10,-1,-100,19125.22117039538,-0.006599315624756182,0.03309580252329939,0.9994303962200788,59.291060518632804,3.6232394013111224,314.7106963052828,-93.8278464379635,-98.78463745117188,4761.76025390625,True
1599386839.6321838,0.0,10,0.5,0.5,1.3062375030517575,-0.1005,-0.03,-0.001,0.29379731652317675,10,1,100,0.2743360760014647,-10,-1,-100,19121.45712110575,-0.008518717991913161,0.03245638178774948,0.99943684879287,57.80316912035924,3.5339017988084835,308.08380703215937,-94.19235264799669,-91.83567810058594,4761.76025390625,True
1599386839.6859229,0.0,10,0.5,0.5,0.3969626235961913,-0.1005,-0.03,-0.001,0.27583654747998,10,1,100,0.28066347152022786,-10,-1,-100,19117.678494075895,-0.010303292826847714,0.03171040186987247,0.9994439917124797,60.83689273695055,3.7203064619805692,325.59190159843763,-94.55677048909358,-84.595703125,4761.76025390625,True
1599386839.7247841,0.0,10,0.5,0.5,-0.5510875320434572,-0.1005,-0.03,-0.001,0.25283008560689935,10,1,100,0.2988483979121646,-10,-1,-100,19113.885294448934,-0.012072660224714128,0.030823074640011956,0.9994519442898866,63.58764200994669,3.8889060346303843,341.71273868878393,-94.92104569379104,-77.0654296875,4761.76025390625,True
1599386839.763717,0.0,10,0.5,0.5,-1.1234744338989258,-0.1005,-0.03,-0.001,0.28806087696027144,10,1,100,0.21415403018748436,-10,-1,-100,19111.983231714577,-0.012894105687153117,0.03033867088045579,0.9994565058509229,64.82714481715121,3.9647773313201133,349.0864809873191,-95.10313060620398,-73.1912841796875,4761.76025390625,True
1599386839.80361,0.0,10,0.5,0.5,-2.4927519149780277,-0.1005,-0.03,-0.001,0.16553126802716703,10,1,100,0.38166254511702835,-10,-1,-100,19106.255199797102,-0.015147376097519337,0.028787250369683458,0.9994707855728017,67.82511371240453,4.148369490695415,367.46493247959705,-95.64919633386017,-61.47125244140625,4761.76025390625,True
1599386839.8425052,0.0,10,0.5,0.5,-2.6841435470581056,-0.1005,-0.03,-0.001,0.320174585356083,10,1,100,0.15817515422315945,-10,-1,-100,19106.255199797102,-0.015147376097519337,0.028787250369683458,0.9994707855728017,67.82511371240453,4.148369490695415,367.46493247959705,-95.64919633386017,-61.47125244140625,4761.76025390625,True
1599386839.8824034,0.0,10,0.5,0.5,-3.6497687683105466,-0.1005,-0.03,-0.001,0.19414009165945648,10,1,100,0.3087857434772365,-10,-1,-100,19102.418313927483,-0.016500694149356277,0.027646135397935742,0.9994815747627109,69.09265331710947,4.226548768070294,375.8482813159716,-96.01311752095509,-53.878631591796875,4761.76025390625,True
1599386839.9222908,0.0,10,0.5,0.5,-4.5761751861572275,-0.1005,-0.03,-0.001,0.18835920537806142,10,1,100,0.30564926926819375,-10,-1,-100,19098.566873029573,-0.01768800764466065,0.026561990522590166,0.9994906678128818,69.76338764630708,4.268919620434372,381.0276879247019,-96.37698270593813,-46.568634033203125,4761.76025390625,True
1599386839.9590156,0.0,10,0.5,0.5,-5.494574676513672,-0.1005,-0.03,-0.001,0.16181416524963493,10,1,100,0.30730962675877316,-10,-1,-100,19094.700878036674,-0.018766936091754432,0.02534185719525111,0.9995026725245029,69.88311083050857,4.278331035846232,383.2164691310927,-96.7408296498205,-39.556365966796875,4761.76025390625,True
1599386839.9969118,0.0,10,0.5,0.5,-6.715527938842774,-0.1005,-0.03,-0.001,0.10014111793634303,10,1,100,0.3513404796187235,-10,-1,-100,19088.874595672474,-0.020133365823186793,0.023679745053689097,0.9995168419065394,69.16540173667231,4.2386320944128215,381.5651161046451,-97.2866396896268,-29.59381103515625,4761.76025390625,True
1599386840.2940123,0.0,10,0.5,0.5,-7.235095565795898,-0.1005,-0.03,-0.001,0.20528994384110527,10,1,100,0.2597974318668152,-10,-1,-100,19086.925223703845,-0.020531061462927564,0.02313319248546657,0.9995215510035969,68.71938883071022,4.212900263010447,379.863088059072,-97.46860089865305,-26.42181396484375,4761.76025390625,True
1599386840.3239071,0.0,10,0.5,0.5,-7.742589660644532,-0.1005,-0.03,-0.001,0.20080381546641052,10,1,100,0.26245200065874186,-10,-1,-100,19084.972211975837,-0.020905815084917585,0.022604019155769123,0.9995258902167771,68.18376469191901,4.18169354562631,377.65595371323536,-97.65057901606997,-23.32403564453125,4761.76025390625,True
1599386840.3617733,0.0,10,0.5,0.5,-8.82139665222168,-0.1005,-0.03,-0.001,0.09002584582676007,10,1,100,0.33347893179104177,-10,-1,-100,19079.091335927136,-0.021882560913149357,0.021124158570878352,0.9995373547059432,66.34491986528678,4.073567144975231,369.67723246584086,-98.19662562809133,-14.475860595703125,4761.76025390625,True
1599386840.3947227,0.0,10,0.5,0.5,-9.000317184448242,-0.1005,-0.03,-0.001,0.2370420127089238,10,1,100,0.236785339036708,-10,-1,-100,19079.091335927136,-0.021882560913149357,0.021124158570878352,0.9995373547059432,66.34491986528678,4.073567144975231,369.67723246584086,-98.19662562809133,-14.475860595703125,4761.76025390625,True
1599386840.4780874,0.0,10,0.5,0.5,-9.73754150390625,-0.1005,-0.03,-0.001,0.13718673049148247,10,1,100,0.296195056413437,-10,-1,-100,19075.152547224192,-0.02241447793000508,0.020224760107364865,0.9995441712389326,64.97057581847952,3.9918132201556933,363.46431560752393,-98.56075302568102,-8.947998046875,4761.76025390625,True
1599386840.5543568,0.0,10,0.5,0.5,-10.158870635986327,-0.1005,-0.03,-0.001,0.18279340432601646,10,1,100,0.2724833811054868,-10,-1,-100,19073.17769012507,-0.02267587171359029,0.019829515348359566,0.9995461946118739,64.29691377212468,3.9515248985860154,360.4117730171694,-98.7428441172718,-6.294921875,4761.76025390625,True
1599386840.5863438,0.0,10,0.5,0.5,-11.323653274536133,-0.1005,-0.03,-0.001,0.06778999594423502,10,1,100,0.3400459554926129,-10,-1,-100,19065.24183855916,-0.02352086356071793,0.018432859795812485,0.9995533996025956,63.78240003610488,3.9225749425031573,360.3738941606239,-99.47131124081903,3.576080322265625,4761.76025390625,True
1599386840.6229055,0.0,10,0.5,0.5,-11.486146408081055,-0.1005,-0.03,-0.001,0.2065342236387308,10,1,100,0.2562487877209852,-10,-1,-100,19065.24183855916,-0.02352086356071793,0.018432859795812485,0.9995533996025956,63.78240003610488,3.9225749425031573,360.3738941606239,-99.47131124081903,3.576080322265625,4761.76025390625,True
1599386840.6548557,0.0,10,0.5,0.5,-12.092457046508791,-0.1005,-0.03,-0.001,0.14533758595780427,10,1,100,0.2943135168403068,-10,-1,-100,19061.252062109066,-0.023861603956424438,0.017883916844828405,0.9995552958065471,65.7345465789506,4.043009529885105,372.8714293512493,-99.83543449019913,8.067474365234375,4761.76025390625,True
1599386840.6887634,0.0,10,0.5,0.5,-12.65671405029297,-0.1005,-0.03,-0.001,0.1533287880929975,10,1,100,0.30099457827209375,-10,-1,-100,19057.24772346043,-0.02422747335838781,0.017464305036390473,0.9995539142959046,67.41775495620672,4.146451815346666,383.92441329353966,-100.19945653801557,12.2633056640625,4761.76025390625,True
1599386840.721642,0.0,10,0.5,0.5,-13.360593261718751,-0.1005,-0.03,-0.001,0.14544657391800292,10,1,100,0.31216983411533,-10,-1,-100,19051.213920576032,-0.024657953224624655,0.01701683366350813,0.9995511056043312,69.49432775010291,4.2734929204580165,398.07602128749755,-100.74531786113049,18.00225830078125,4761.76025390625,True
1599386840.7565877,0.0,10,0.5,0.5,-13.488126525878906,-0.1005,-0.03,-0.001,0.18958207532404153,10,1,100,0.269534536667815,-10,-1,-100,19051.213920576032,-0.024657953224624655,0.01701683366350813,0.9995511056043312,69.49432775010291,4.2734929204580165,398.07602128749755,-100.74531786113049,18.00225830078125,4761.76025390625,True
1599386840.7875054,0.0,10,0.5,0.5,-13.962956909179688,-0.1005,-0.03,-0.001,0.1731994548550973,10,1,100,0.3024540286909014,-10,-1,-100,19047.17319322261,-0.02495381029925298,0.01687298000969251,0.9995462019822502,70.61240511576622,4.341634620717482,406.05531139601845,-101.10912434118383,21.45892333984375,4761.76025390625,True
1599386840.820418,0.0,10,0.5,0.5,-14.388173515319826,-0.1005,-0.03,-0.001,0.18434324491181484,10,1,100,0.30556592308780367,-10,-1,-100,19043.117915766197,-0.02524826918035411,0.01684737585088591,0.9995392392649403,71.5490481336106,4.398616325831781,413.036397262864,-101.47286069420636,24.620193481445312,4761.76025390625,True
1599386840.8533294,0.0,10,0.5,0.5,-14.651488494873048,-0.1005,-0.03,-0.001,0.1895212347198148,10,1,100,0.2913814151389859,-10,-1,-100,19041.084821597324,-0.02538394926521388,0.016875059961788997,0.9995353357790745,71.95758250665858,4.423459920605258,416.196596691683,-101.65470558443859,26.09002685546875,4761.76025390625,True
1599386840.8892677,0.0,10,0.5,0.5,-15.03104559326172,-0.1005,-0.03,-0.001,0.20331986169477573,10,1,100,0.30980982230695325,-10,-1,-100,19037.007723619347,-0.025672126251763187,0.017028714580696516,0.9995253697697937,72.66869387538522,4.4667374929039845,421.9288404890826,-102.01835369253652,28.808380126953125,4761.76025390625,True
1599386840.9251378,0.0,10,0.5,0.5,-15.260366561889649,-0.1005,-0.03,-0.001,0.20151091205321153,10,1,100,0.29763029062390944,-10,-1,-100,19034.96372019523,-0.025820658447382,0.017154501783659733,0.9995193928413286,72.9773543159298,4.485559994046234,424.5339785313465,-102.20015895866194,30.05694580078125,4761.76025390625,True
1599386840.9590504,0.0,10,0.5,0.5,-15.569556106567385,-0.1005,-0.03,-0.001,0.2262897346046162,10,1,100,0.3160936919926925,-10,-1,-100,19030.86480624252,-0.026121446096854708,0.017495277953195568,0.999505670470733,73.51588516966564,4.5185208732255795,429.30483055584585,-102.56373630437727,32.332763671875,4761.76025390625,True
1599386840.9909616,0.0,10,0.5,0.5,-16.025777923583984,-0.1005,-0.03,-0.001,0.3104845454280114,10,1,100,0.35658367321520185,-10,-1,-100,19022.623354066745,-0.026760615987001676,0.018571334189206843,0.9994693466927483,74.34976621758213,4.5702037341293344,437.4887069405546,-103.29077869540345,36.000030517578125,4761.76025390625,True
1599386841.0228767,0.0,10,0.5,0.5,-16.18028012084961,-0.1005,-0.03,-0.001,0.24218688450161174,10,1,100,0.3114369560850841,-10,-1,-100,19020.553903655033,-0.02692861935683369,0.018928054379573116,0.9994581423035876,74.52137252224092,4.581010716596622,439.32936671103664,-103.47251930496097,36.732757568359375,4761.76025390625,True
1599386841.0547917,0.0,10,0.5,0.5,-16.25295574951172,-0.1005,-0.03,-0.001,0.20666124039930273,10,1,100,0.29490673370172743,-10,-1,-100,19020.553903655033,-0.02692861935683369,0.018928054379573116,0.9994581423035876,74.52137252224092,4.581010716596622,439.32936671103664,-103.47251930496097,36.732757568359375,4761.76025390625,True
1599386841.0867083,0.0,10,0.5,0.5,-16.435498764038087,-0.1005,-0.03,-0.001,0.2983280476648303,10,1,100,0.33268166996659027,-10,-1,-100,19016.40409869398,-0.02726996362639407,0.01975965151769967,0.9994327917652663,74.83478343337922,4.600969829187383,442.8464612797474,-103.83597963769179,37.97760009765625,4761.76025390625,True
1599386841.120615,0.0,10,0.5,0.5,-16.546141082763675,-0.1005,-0.03,-0.001,0.2659059328459091,10,1,100,0.3185625826427797,-10,-1,-100,19014.323744577938,-0.02744954670450362,0.020218408946866172,0.9994187002079632,74.97992250536575,4.610323511982819,444.542041977416,-104.01769993951693,38.489532470703125,4761.76025390625,True
1599386841.1565187,0.0,10,0.5,0.5,-16.72996295928955,-0.1005,-0.03,-0.001,0.4653799519808945,10,1,100,0.38267044489072805,-10,-1,-100,19005.965986703057,-0.028193333944670697,0.022445820030119974,0.9993504495842586,75.51915119023066,4.645714249071623,451.11271274125414,-104.74452102937458,39.80226135253906,4761.76025390625,True
1599386841.203427,0.0,10,0.5,0.5,-16.774196434020997,-0.1005,-0.03,-0.001,0.2431986880734377,10,1,100,0.30858622735045205,-10,-1,-100,19005.965986703057,-0.028193333944670697,0.022445820030119974,0.9993504495842586,75.51915119023066,4.645714249071623,451.11271274125414,-104.74452102937458,39.80226135253906,4761.76025390625,True
1599386841.2353384,0.0,10,0.5,0.5,-16.83720018005371,-0.1005,-0.03,-0.001,0.39067034256563477,10,1,100,0.3521356179244832,-10,-1,-100,19001.76530426531,-0.028586683509271474,0.023781407107259647,0.9993083839345789,75.78052381770443,4.663175092385595,454.3685576740701,-105.10789700222075,40.0177001953125,4761.76025390625,True
1599386841.2662578,0.0,10,0.5,0.5,-16.862788330078125,-0.1005,-0.03,-0.001,0.43110279768235016,10,1,100,0.35150440203008176,-10,-1,-100,18997.550087421085,-0.02893588609872534,0.02535700613978716,0.9992595942673296,76.04531647790928,4.680997519779396,457.6580103839994,-105.47125042893111,39.94061279296875,4761.76025390625,True
1599386841.3001347,0.0,10,0.5,0.5,-16.87736483001709,-0.1005,-0.03,-0.001,0.36259627110185844,10,1,100,0.3394594319170413,-10,-1,-100,18995.437028974877,-0.029141011244790904,0.02615912546921122,0.9992329566313938,76.17901463576126,4.690038247876253,459.31554486024356,-105.65291867643187,39.79133605957031,4761.76025390625,True
1599386841.3300917,0.0,10,0.5,0.5,-16.80993433380127,-0.1005,-0.03,-0.001,0.5870333666911902,10,1,100,0.37876957759583185,-10,-1,-100,18989.076054422767,-0.029682108551795934,0.02892078586721246,0.9991409112716496,76.59479921216547,4.718228958123995,464.3973027773985,-106.19788896767182,38.90507507324219,4761.76025390625,True
1599386841.3639636,0.0,10,0.5,0.5,-16.81953572845459,-0.1005,-0.03,-0.001,0.3119022720588669,10,1,100,0.32495199615180836,-10,-1,-100,18989.076054422767,-0.029682108551795934,0.02892078586721246,0.9991409112716496,76.59479921216547,4.718228958123995,464.3973027773985,-106.19788896767182,38.90507507324219,4761.76025390625,True
1599386841.3988698,0.0,10,0.5,0.5,-16.72890781402588,-0.1005,-0.03,-0.001,0.5403139495515653,10,1,100,0.36257866850997456,-10,-1,-100,18984.817240157514,-0.030021666037602025,0.030988171361248228,0.9990687828192873,76.88219461597724,4.737756887592838,467.86461984703993,-106.56117360163418,37.94798278808594,4761.76025390625,True
1599386841.4287903,0.0,10,0.5,0.5,-16.532166213989257,-0.1005,-0.03,-0.001,0.7209001723203248,10,1,100,0.3727538079465742,-10,-1,-100,18978.40177389991,-0.030420044068048678,0.0344983419110134,0.9989416826443318,77.31848667978574,4.767468685943518,473.1244957002114,-107.10605718909723,35.96429443359375,4761.76025390625,True
1599386841.4656916,0.0,10,0.5,0.5,-16.35676988220215,-0.1005,-0.03,-0.001,0.6551213463387753,10,1,100,0.35640712102197636,-10,-1,-100,18974.106634688564,-0.030630735959647788,0.03707801791061009,0.998842819768151,77.60610514451282,4.787111951940008,476.62955282900526,-107.46928459182355,34.276214599609375,4761.76025390625,True
1599386841.4986036,0.0,10,0.5,0.5,-16.345818008422853,-0.1005,-0.03,-0.001,0.3988397072754804,10,1,100,0.3356560507875798,-10,-1,-100,18974.106634688564,-0.030630735959647788,0.03707801791061009,0.998842819768151,77.60610514451282,4.787111951940008,476.62955282900526,-107.46928459182355,34.276214599609375,4761.76025390625,True
1599386841.5295208,0.0,10,0.5,0.5,-16.01676371765137,-0.1005,-0.03,-0.001,0.8779574911717136,10,1,100,0.342044844387584,-10,-1,-100,18967.63668504404,-0.03068660008145239,0.0414203321297754,0.9986704604932,78.00988316819881,4.814868263612613,481.74405859010443,-108.01408590846908,31.1976318359375,4761.76025390625,True
1599386841.5614352,0.0,10,0.5,0.5,-15.875053672790528,-0.1005,-0.03,-0.001,0.6159753796343184,10,1,100,0.3336735560180845,-10,-1,-100,18965.472771204426,-0.030659016419609508,0.04296898539494968,0.9986058737090979,78.12892463342781,4.823152909525017,483.35972640077375,-108.19567673904474,30.025466918945312,4761.76025390625,True
1599386841.6003308,0.0,10,0.5,0.5,-15.586107376098633,-0.1005,-0.03,-0.001,0.8221744993410969,10,1,100,0.3180316841665769,-10,-1,-100,18961.134048959124,-0.0304898575893656,0.04623394619854456,0.9984652176230729,78.33746883844246,4.837879248620719,486.41731522218475,-108.5588461007128,27.462493896484375,4761.76025390625,True
1599386841.6292543,0.0,10,0.5,0.5,-15.4101092376709,-0.1005,-0.03,-0.001,0.6890739830086154,10,1,100,0.31424989885823756,-10,-1,-100,18958.95924040838,-0.030300284266803836,0.047973108653282116,0.998388939051055,78.42282926231478,4.844063236070993,487.8328700380879,-108.74042569882454,26.07208251953125,4761.76025390625,True
1599386841.664165,0.0,10,0.5,0.5,-15.221770210266113,-0.1005,-0.03,-0.001,0.7108745477187945,10,1,100,0.31469013218361735,-10,-1,-100,18956.780800118926,-0.030130893119231127,0.049732521488423276,0.9983079713125811,78.49100054987021,4.8491791986385175,489.14385388244494,-108.92200256022477,24.608322143554688,4761.76025390625,True
1599386841.702066,0.0,10,0.5,0.5,-14.861076217651368,-0.1005,-0.03,-0.001,0.9447991669867483,10,1,100,0.2716528939670367,-10,-1,-100,18952.413025329122,-0.029585245560771172,0.05343965539042281,0.9981327148615367,78.57391678461939,4.85609771386797,491.4382843073725,-109.28515052556776,21.46282958984375,4761.76025390625,True
1599386841.7359738,0.0,10,0.5,0.5,-14.08466828918457,-0.1005,-0.03,-0.001,1.4548931340736893,10,1,100,0.1373530027173422,-10,-1,-100,18943.633898204425,-0.027868382280802195,0.06142470512073711,0.9977225861279686,78.46117696237856,4.852766471089247,494.2925160541419,-110.01144524785937,14.29803466796875,4761.76025390625,True
1599386841.7719076,0.0,10,0.5,0.5,-13.82060597229004,-0.1005,-0.03,-0.001,0.8912502798403311,10,1,100,0.239307524690409,-10,-1,-100,18941.43003756448,-0.02723641430218264,0.06353214571548368,0.997608061413272,78.36176230268576,4.8475747287858875,494.5570306578271,-110.19302378078022,12.324859619140625,4761.76025390625,True
1599386842.0527203,0.0,10,0.5,0.5,-13.751660842895507,-0.1005,-0.03,-0.001,0.6834096007461208,10,1,100,0.3021859595757778,-10,-1,-100,18941.43003756448,-0.02723641430218264,0.06353214571548368,0.997608061413272,78.36176230268576,4.8475747287858875,494.5570306578271,-110.19302378078022,12.324859619140625,4761.76025390625,True
1599386842.0806553,0.0,10,0.5,0.5,-13.478135696411133,-0.1005,-0.03,-0.001,0.9217578235993631,10,1,100,0.22569234993543547,-10,-1,-100,18939.222545435303,-0.026544103597868133,0.06567489853432691,0.9974879539456561,78.22678904179205,4.840218994199859,494.5953685006897,-110.3746062936457,10.278839111328125,4761.76025390625,True
1599386842.1115713,0.0,10,0.5,0.5,-13.193084426879881,-0.1005,-0.03,-0.001,0.9466475739137694,10,1,100,0.20905529415022905,-10,-1,-100,18937.011421302566,-0.025767199388954685,0.06782312893556652,0.9973645645485102,78.05295926794798,4.830505437558173,494.38544172912447,-110.55619388982174,8.159576416015625,4761.76025390625,True
1599386842.1477141,0.0,10,0.5,0.5,-12.673778289794923,-0.1005,-0.03,-0.001,1.2228556016631533,10,1,100,0.09988129876382584,-10,-1,-100,18932.578277593595,-0.02407290415069561,0.0722630451918644,0.9970950544383169,77.57437474590313,4.8031663466161865,493.12422533019526,-110.9193887576565,3.70330810546875,4761.76025390625,True
1599386842.2334726,0.0,10,0.5,0.5,-11.865251602172851,-0.1005,-0.03,-0.001,1.5272577167308847,10,1,100,-0.09431320503355384,-10,-1,-100,18925.90131986933,-0.020773218547092014,0.07903999368929919,0.9966549818210866,76.50585399396861,4.741137646805442,488.95717733533183,-111.4642474541688,-3.52838134765625,4761.76025390625,True
1599386842.263393,0.0,10,0.5,0.5,-11.253097122192383,-0.1005,-0.03,-0.001,1.3521290018606817,10,1,100,-0.05546034588891799,-10,-1,-100,18921.43185126176,-0.018135545480623863,0.08357895305406465,0.9963361182836377,75.52432846247689,4.683742930563093,484.4158313598476,-111.82754410232653,-8.7147216796875,4761.76025390625,True
1599386842.2953072,0.0,10,0.5,0.5,-11.153923049926759,-0.1005,-0.03,-0.001,0.9017936498242137,10,1,100,0.20709048687927903,-10,-1,-100,18921.43185126176,-0.018135545480623863,0.08357895305406465,0.9963361182836377,75.52432846247689,4.683742930563093,484.4158313598476,-111.82754410232653,-8.7147216796875,4761.76025390625,True
1599386842.323232,0.0,10,0.5,0.5,-10.49770802307129,-0.1005,-0.03,-0.001,1.3908257495001362,10,1,100,-0.12319803284317404,-10,-1,-100,18916.947848963668,-0.01514382743554575,0.08799392993151336,0.9960058899353006,74.29771170603658,4.611788897504695,478.2541116302507,-112.19089670141476,-14.194976806640625,4761.76025390625,True
1599386842.3551471,0.0,10,0.5,0.5,-9.506150802612304,-0.1005,-0.03,-0.001,1.6689396576014905,10,1,100,-0.3956594832243591,-10,-1,-100,18910.194589483785,-0.009960290043941444,0.09450444055325988,0.9954746121011604,71.9408534186428,4.473110264539746,465.56218599053653,-112.73604822230475,-22.964080810546875,4761.76025390625,True
1599386842.3830721,0.0,10,0.5,0.5,-9.403133560180663,-0.1005,-0.03,-0.001,1.0211965689700915,10,1,100,0.12090344671238551,-10,-1,-100,18910.194589483785,-0.009960290043941444,0.09450444055325988,0.9954746121011604,71.9408534186428,4.473110264539746,465.56218599053653,-112.73604822230475,-22.964080810546875,4761.76025390625,True
1599386842.4131718,0.0,10,0.5,0.5,-8.985583557128905,-0.1005,-0.03,-0.001,1.248446058010229,10,1,100,-0.08965515807110788,-10,-1,-100,18907.936233387794,-0.008061826477053542,0.0965421883674086,0.995296243748104,71.01259203369625,4.418380475248677,460.37032284568124,-112.91780142105783,-26.03485107421875,4761.76025390625,True
1599386842.4410863,0.0,10,0.5,0.5,-7.893688842773438,-0.1005,-0.03,-0.001,1.6863851345369048,10,1,100,-0.5807313586103093,-10,-1,-100,18901.13935397053,-0.001889052854821917,0.1023459415826482,0.9947470732406668,71.05200521647004,4.431266883001578,463.068708453378,-113.46305418815047,-35.68890380859375,4761.76025390625,True
1599386842.4760065,0.0,10,0.5,0.5,-7.423899353027345,-0.1005,-0.03,-0.001,1.3125611765812517,10,1,100,-0.2127187249222877,-10,-1,-100,18898.866459079087,0.00035457644936750344,0.10419034393958888,0.9945573118253628,71.83786464938156,4.484205318373212,469.0115458084848,-113.64474574273093,-39.0538330078125,4761.76025390625,True
1599386842.5079186,0.0,10,0.5,0.5,-6.579742477416993,-0.1005,-0.03,-0.001,1.4933967382355993,10,1,100,-0.4900659889533509,-10,-1,-100,18894.309770118794,0.004891831148150895,0.10747797190184355,0.9941954312628299,73.362671208794,4.587802375923841,480.6397061054581,-114.00803189792904,-46.008331298828125,4761.76025390625,True
1599386842.5377982,0.0,10,0.5,0.5,-5.701637496948242,-0.1005,-0.03,-0.001,1.4953337620560612,10,1,100,-0.5630860093910643,-10,-1,-100,18889.738553739153,0.009654094937116059,0.11045232033252474,0.99383453521404,74.79580682887855,4.6862409295470595,491.7289147066178,-114.37118879827865,-53.258819580078125,4761.76025390625,True
1599386842.570751,0.0,10,0.5,0.5,-5.559696670532227,-0.1005,-0.03,-0.001,1.201040151652265,10,1,100,-0.08990236184296885,-10,-1,-100,18889.738553739153,0.009654094937116059,0.11045232033252474,0.99383453521404,74.79580682887855,4.6862409295470595,491.7289147066178,-114.37118879827865,-53.258819580078125,4761.76025390625,True
1599386842.5986357,0.0,10,0.5,0.5,-4.265501953125,-0.1005,-0.03,-0.001,1.6063240908885925,10,1,100,-0.8991357098604311,-10,-1,-100,18882.85449988162,0.016985498427804134,0.1141122894462382,0.9933226455892854,76.62512303372608,4.8140343119179345,506.35741205245847,-114.915712646637,-64.69293212890625,4761.76025390625,True
1599386842.6305833,0.0,10,0.5,0.5,-4.1090014343261725,-0.1005,-0.03,-0.001,1.2433805131564633,10,1,100,-0.1695074651824664,-10,-1,-100,18882.85449988162,0.016985498427804134,0.1141122894462382,0.9933226455892854,76.62512303372608,4.8140343119179345,506.35741205245847,-114.915712646637,-64.69293212890625,4761.76025390625,True
1599386842.658475,0.0,10,0.5,0.5,-3.1460279541015623,-0.1005,-0.03,-0.001,1.457145436131749,10,1,100,-0.7221678403845111,-10,-1,-100,18878.24698404316,0.02198047517885604,0.11603186296463651,0.9930022484807713,77.47859995594929,4.875826442081808,513.7465616158913,-115.2786163799824,-72.68780517578125,4761.76025390625,True
1599386842.6913908,0.0,10,0.5,0.5,-2.587681945800781,-0.1005,-0.03,-0.001,1.3500379965598308,10,1,100,-0.4841376680454944,-10,-1,-100,18875.937783042784,0.024328415417436897,0.11678365541942537,0.9928593586355289,77.74266927118524,4.896251198907502,516.3744597632937,-115.46004728847112,-76.7978515625,4761.76025390625,True
1599386842.7221713,0.0,10,0.5,0.5,-1.5733485565185548,-0.1005,-0.03,-0.001,1.4128261989814268,10,1,100,-0.7804863916758429,-10,-1,-100,18871.30849552981,0.0291258142987305,0.11801765111409687,0.9925842639126147,77.91891001295745,4.9143634509322025,519.3030711143141,-115.82289102413051,-85.24063110351562,4761.76025390625,True
1599386842.7556684,0.0,10,0.5,0.5,-0.9643334350585937,-0.1005,-0.03,-0.001,1.3409452067848995,10,1,100,-0.5559598304770825,-10,-1,-100,18868.98840932781,0.03141212850648524,0.11846647866860555,0.9924610680598774,77.81196274824853,4.910832451192863,519.4688370596114,-116.00431404083089,-89.57403564453125,4761.76025390625,True
1599386842.7885766,0.0,10,0.5,0.5,0.09532039642333993,-0.1005,-0.03,-0.001,1.3643499457401802,10,1,100,-0.8196315395552721,-10,-1,-100,18864.337350283517,0.03585733770391736,0.1190726190385833,0.9922378559237093,77.17442850597426,4.876541539516279,516.9580702896831,-116.36718793345456,-98.46400451660156,4761.76025390625,True
1599386842.8244858,0.0,10,0.5,0.5,0.7271359596252444,-0.1005,-0.03,-0.001,1.324072004699516,10,1,100,-0.6079977273651422,-10,-1,-100,18862.00637735834,0.03794221798962306,0.1192439632971943,0.9921397408184017,76.6304341054407,4.844988779295136,514.1823086494397,-116.54864864489505,-103.0204086303711,4761.76025390625,True
1599386842.8574016,0.0,10,0.5,0.5,1.8409896469116211,-0.1005,-0.03,-0.001,1.3181262885322749,10,1,100,-0.8404662854157341,-10,-1,-100,18857.333541654167,0.0419208684254141,0.1193349824840518,0.9919686500822444,75.06921740977076,4.751805062523955,505.41122589479767,-116.91163995229334,-112.35414123535156,4761.76025390625,True
1599386842.8900185,0.0,10,0.5,0.5,2.9692177429199225,-0.1005,-0.03,-0.001,1.2938564231704346,10,1,100,-0.8347670446929125,-10,-1,-100,18852.646183057223,0.045456678657300034,0.11918901691231323,0.9918304636443285,72.86068811821407,4.6177041679214055,492.19994862391127,-117.27474964988838,-121.81498718261719,4761.76025390625,True
1599386842.921904,0.0,10,0.5,0.5,4.11573649597168,-0.1005,-0.03,-0.001,1.2656455190013975,10,1,100,-0.8366870865815428,-10,-1,-100,18847.94429566979,0.048655958718256447,0.1187919157213962,0.9917263122658629,70.08048482562408,4.447600878415563,475.0141147633257,-117.63799780114707,-131.1776580810547,4761.76025390625,True
1599386842.9578443,0.0,10,0.5,0.5,5.231733627319336,-0.1005,-0.03,-0.001,1.2573960519723753,10,1,100,-0.8133952867640615,-10,-1,-100,18843.22787397995,0.05132386017506658,0.11835166527823038,0.9916444648676258,66.8550625742584,4.2493969071918505,454.67119678298974,-118.00139376679937,-140.2998809814453,4761.76025390625,True
1599386842.9907553,0.0,10,0.5,0.5,6.782928459167481,-0.1005,-0.03,-0.001,1.2239149266523885,10,1,100,-0.8988089891093525,-10,-1,-100,18836.125991381705,0.05449449664644456,0.11764320975805066,0.991559592275257,69.87250042489897,4.452150398385811,477.5640655922237,-118.5463197456655,-153.43777465820312,4761.76025390625,True
1599386843.022662,0.0,10,0.5,0.5,7.441355613708496,-0.1005,-0.03,-0.001,1.2726447736416475,10,1,100,-0.6757300972733395,-10,-1,-100,18833.751433745027,0.055319345311490256,0.11744069303343199,0.9915379234573609,70.90672359346765,4.521730215511214,485.43259492744596,-118.72787917593854,-157.66748046875,4761.76025390625,True
1599386843.0565717,0.0,10,0.5,0.5,8.515359687805176,-0.1005,-0.03,-0.001,1.2632177169451262,10,1,100,-0.7400144153889527,-10,-1,-100,18828.99142757093,0.05662543705358823,0.11717028909779754,0.9914961841738115,72.61382294067634,4.6378215371184295,498.7553726094358,-119.09090207781969,-165.90023803710938,4761.76025390625,True
1599386843.0927243,0.0,10,0.5,0.5,9.554151786804198,-0.1005,-0.03,-0.001,1.2742112060068385,10,1,100,-0.7105703574777524,-10,-1,-100,18824.21690347325,0.057520120271980155,0.11702517847688752,0.9914618214365843,74.0862492948288,4.738673007485977,510.53685270880305,-119.45381866994735,-173.83172607421875,4761.76025390625,True
1599386843.1236374,0.0,10,0.5,0.5,9.798993370056152,-0.1005,-0.03,-0.001,1.2885781380786687,10,1,100,-0.6237128348151096,-10,-1,-100,18824.21690347325,0.057520120271980155,0.11702517847688752,0.9914618214365843,74.0862492948288,4.738673007485977,510.53685270880305,-119.45381866994735,-173.83172607421875,4761.76025390625,True
1599386843.1575825,0.0,10,0.5,0.5,10.416027030944825,-0.1005,-0.03,-0.001,1.2928096751396518,10,1,100,-0.6581527308182953,-10,-1,-100,18821.824198452872,0.05781351679694724,0.11706550830522527,0.9914399951791375,74.64183943985687,4.777410569362497,515.2061391746394,-119.6352485605168,-177.68325805664062,4761.76025390625,True
1599386843.1924584,0.0,10,0.5,0.5,-25.145101150512698,-0.1005,-0.03,-0.001,1.3187330212333865,10,1,100,-0.6657526991052886,-10,-1,-100,18817.02790342644,0.05813126671424696,0.1173398189818317,0.9913889865796917,75.42144793873003,4.833374667997881,522.288414355253,-119.99807406280833,174.84152221679688,4761.76025390625,True
1599386843.2273629,0.0,10,0.5,0.5,-24.92625521850586,-0.1005,-0.03,-0.001,1.350110690073407,10,1,100,-0.6332502833750968,-10,-1,-100,18812.21709612233,0.0581099170430733,0.11787625764411247,0.9913265987680678,75.79938570277304,4.8633126900258805,526.6197202181087,-120.36087966212989,167.67001342773438,4761.76025390625,True
1599386843.2603052,0.0,10,0.5,0.5,-25.449561996459966,-0.1005,-0.03,-0.001,1.340787063563316,10,1,100,-0.6232991553264771,-10,-1,-100,18809.80625047686,0.05798854050666818,0.11828036233179252,0.9912855718997259,75.8522344220907,4.869499768153916,527.8465781643275,-120.542283101743,164.19888305664062,4761.76025390625,True
1599386843.2931862,0.0,10,0.5,0.5,-25.648768844604493,-0.1005,-0.03,-0.001,1.4181776506252768,10,1,100,-0.5881008219546513,-10,-1,-100,18804.9736743042,0.05754972918674837,0.11935174606969186,0.9911827224990596,75.71912176912856,4.866577758654046,528.6409517682758,-120.90510396917747,157.39697265625,4761.76025390625,True
1599386843.32314,0.0,10,0.5,0.5,-25.47736053466797,-0.1005,-0.03,-0.001,1.5648561917397494,10,1,100,-0.5147129304406304,-10,-1,-100,18797.697596191545,0.056477987273955914,0.12165826340446695,0.9909639266385493,74.88829989567179,4.822142291516833,525.4035384377477,-121.44940313205663,146.84228515625,4761.76025390625,True
1599386843.3590093,0.0,10,0.5,0.5,-25.640051963806155,-0.1005,-0.03,-0.001,1.5595899530770327,10,1,100,-0.5212885027966241,-10,-1,-100,18792.828732039197,0.05556165120135589,0.12370357239946832,0.9907624988317777,73.81717341630909,4.759869930104096,519.5784053752365,-121.81234097188191,139.4658966064453,4761.76025390625,True
1599386843.4098744,0.0,10,0.5,0.5,-25.76143878173828,-0.1005,-0.03,-0.001,1.6249618637125456,10,1,100,-0.4984374551308791,-10,-1,-100,18787.945348096546,0.05452066133304012,0.126151540783096,0.9905116285263182,72.26022829700317,4.666934118745696,510.2754041165301,-122.17535609989976,131.806884765625,4761.76025390625,True
1599386843.4438152,0.0,10,0.5,0.5,-26.66221916198731,-0.1005,-0.03,-0.001,1.381063150518306,10,1,100,-0.6023259643904009,-10,-1,-100,18787.945348096546,0.05452066133304012,0.126151540783096,0.9905116285263182,72.26022829700317,4.666934118745696,510.2754041165301,-122.17535609989976,131.806884765625,4761.76025390625,True
1599386843.4747293,0.0,10,0.5,0.5,-26.35922381591797,-0.1005,-0.03,-0.001,1.8753098594865254,10,1,100,-0.4224950047440872,-10,-1,-100,18780.593041788205,0.052888561208018124,0.13063639598980145,0.9900186524182973,72.23471102942449,4.678341860873168,512.5743305809525,-122.71994688519783,119.78805541992188,4761.76025390625,True
1599386843.767336,0.0,10,0.5,0.5,-27.252101989746095,-0.1005,-0.03,-0.001,1.4281854605672728,10,1,100,-0.5852418613398906,-10,-1,-100,18780.593041788205,0.052888561208018124,0.13063639598980145,0.9900186524182973,72.23471102942449,4.678341860873168,512.5743305809525,-122.71994688519783,119.78805541992188,4761.76025390625,True
1599386843.7972457,0.0,10,0.5,0.5,-27.723517669677737,-0.1005,-0.03,-0.001,1.6173089991657106,10,1,100,-0.5254276763243961,-10,-1,-100,18778.13501394086,0.05234927312204902,0.13234336371552854,0.9898205835827282,73.80358830122938,4.784803341730884,524.5490006003297,-122.90138646438338,115.64028930664062,4761.76025390625,True
1599386843.8291295,0.0,10,0.5,0.5,-27.12190662384033,-0.1005,-0.03,-0.001,1.6485553328964504,10,1,100,-0.5237784406259776,-10,-1,-100,18775.673358371947,0.05184927453172075,0.13416557055034745,0.9896015624530078,75.45895503999851,4.897194394455928,537.1739069665388,-123.08276743358694,111.42201232910156,4761.76025390625,True
1599386843.8650362,0.0,10,0.5,0.5,-25.17293017578125,-0.1005,-0.03,-0.001,2.3794838253782875,10,1,100,-0.38237862136886996,-10,-1,-100,18765.790481842356,0.05011496894954985,0.14245211822919385,0.9885321865772512,81.43097516658246,5.306599292793722,583.3886255029066,-123.80776440075675,93.84121704101562,4761.76025390625,True
1599386843.929897,0.0,10,0.5,0.5,-24.97943797302246,-0.1005,-0.03,-0.001,1.5532462330833876,10,1,100,-0.5550218224302481,-10,-1,-100,18765.790481842356,0.05011496894954985,0.14245211822919385,0.9885321865772512,81.43097516658246,5.306599292793722,583.3886255029066,-123.80776440075675,93.84121704101562,4761.76025390625,True
1599386843.9648023,0.0,10,0.5,0.5,-23.375057655334473,-0.1005,-0.03,-0.001,2.349837065491216,10,1,100,-0.4743605970647232,-10,-1,-100,18758.34028188733,0.04938844395553344,0.1496728527309382,0.9875013006366291,84.82154265704393,5.543371869060469,610.5742342433615,-124.35107777118272,79.91300964355469,4761.76025390625,True
