Timestamp,Input Throttle,horizon,dT,dt,Input Roll,Roll P,Roll I,Roll D,Input Pitch,Pitch P,Pitch I,Pitch D,Input Yaw,Yaw P,Yaw I,Yaw D,Altitude,Direction X,Direction Y,Direction Z,Drag X,Drag Y,Drag Z,Vertical Velocity,Roll,Mass,Has Fuel
1599384717.1690478,0.0,10,0.5,0.5,-0.05607620239257813,-0.001,-0.00825,-0.001,-0.00014312764917221105,10,1,100,0.4981734178024992,-10,-1,-100,19348.34677228122,-0.04884631977308852,-0.0001750013991002874,0.9988062907386673,61.1660867349548,3.6918885806330195,234.70923938544354,-68.84811698409746,-33.92169189453125,4761.76025390625,True
1599384717.1995554,0.0,10,0.5,0.5,-0.10233827362060546,-0.001,-0.00825,-0.001,0.00012697871423506283,10,1,100,0.5048185293186085,-10,-1,-100,19345.581900246558,-0.04895059886045593,-0.00015777873687166952,0.9988011884139271,61.34602073839872,3.7041041049798022,236.69511226138368,-69.21302013433628,-33.92401123046875,4761.76025390625,True
1599384717.2320197,0.0,10,0.5,0.5,-0.14860328369140624,-0.001,-0.00825,-0.001,-0.001611065382313891,10,1,100,0.4992856804679137,-10,-1,-100,19345.581900246558,-0.04895059886045593,-0.00015777873687166952,0.9988011884139271,61.34602073839872,3.7041041049798022,236.69511226138368,-69.21302013433628,-33.92401123046875,4761.76025390625,True
1599384717.2682128,0.0,10,0.5,0.5,-0.19486353302001955,-0.001,-0.00825,-0.001,-0.0006271616918133844,10,1,100,0.5102229197011968,-10,-1,-100,19344.193990730564,-0.04900552776361263,-0.00014869072265178158,0.9987984962642258,61.436371387362215,3.710240625499202,237.6926464313657,-69.39546641104835,-33.92523193359375,4761.76025390625,True
1599384717.3002949,0.0,10,0.5,0.5,-0.24110519714355472,-0.001,-0.00825,-0.001,0.021871570934313737,10,1,100,0.5080012062789727,-10,-1,-100,19341.40722550149,-0.04899071525558613,6.424021480622837e-05,0.9987992319239842,61.61630131832237,3.7224783771064636,239.69097957903006,-69.76034897507822,-33.93585205078125,4761.76025390625,True
1599384717.3327515,0.0,10,0.5,0.5,-0.28728176422119145,-0.001,-0.00825,-0.001,0.028579445577453743,10,1,100,0.5106874327317292,-10,-1,-100,19338.60586527642,-0.048957132565809296,0.0003187360726922318,0.9988008297845221,61.787547206634805,3.7342076509896867,241.66366440787104,-70.12521775110639,-33.979339599609375,4761.76025390625,True
1599384717.3657358,0.0,10,0.5,0.5,-0.33322436447143555,-0.001,-0.00825,-0.001,0.07431588109822442,10,1,100,0.49464402372302807,-10,-1,-100,19334.376460435218,-0.048736247190873244,0.0009655919608931572,0.9988112163176358,62.02690675069825,3.7507755781842786,244.5685487578046,-70.67249519488618,-34.1383056640625,4761.76025390625,True
1599384717.38668,0.0,10,0.5,0.5,-0.3794692283630371,-0.001,-0.00825,-0.001,0.009726851474221192,10,1,100,0.5216061859357206,-10,-1,-100,19334.376460435218,-0.048736247190873244,0.0009655919608931572,0.9988112163176358,62.02690675069825,3.7507755781842786,244.5685487578046,-70.67249519488618,-34.1383056640625,4761.76025390625,True
1599384717.4329538,0.0,10,0.5,0.5,-0.42516852951049805,-0.001,-0.00825,-0.001,0.07774528123757884,10,1,100,0.49621313739481654,-10,-1,-100,19331.538615325582,-0.048461095615782414,0.0015830635115046876,0.998823816356837,62.17541597020885,3.7611725840096852,246.4705785817993,-71.03732967949232,-34.33160400390625,4761.76025390625,True
1599384717.4661374,0.0,10,0.5,0.5,-0.47072428970336916,-0.001,-0.00825,-0.001,0.09876753698032088,10,1,100,0.4855342982424128,-10,-1,-100,19328.686177320662,-0.04806982192284546,0.002334073551984184,0.998841250810638,62.31598042382463,3.771102738232212,248.34789540599834,-71.40215005082949,-34.61358642578125,4761.76025390625,True
1599384717.4998174,0.0,10,0.5,0.5,-0.5154622093200684,-0.001,-0.00825,-0.001,0.18045323065317556,10,1,100,0.4437946585130113,-10,-1,-100,19324.380159559194,-0.04729096745725108,0.0037572852825806012,0.9988740897652029,62.513115983352264,3.785184128464593,251.12114317306458,-71.94935373818625,-35.232513427734375,4761.76025390625,True
1599384717.5358663,0.0,10,0.5,0.5,-0.514999708557129,-0.001,-0.00825,-0.001,0.03852528626170192,10,1,100,0.5215245698408654,-10,-1,-100,19324.380159559194,-0.04729096745725108,0.0037572852825806012,0.9988740897652029,62.513115983352264,3.785184128464593,251.12114317306458,-71.94935373818625,-35.232513427734375,4761.76025390625,True
1599384717.5669148,0.0,10,0.5,0.5,-0.5133854652404786,-0.001,-0.00825,-0.001,0.0974175207866479,10,1,100,0.4856171319331358,-10,-1,-100,19322.937524566893,-0.046966044959365544,0.00428911008369879,0.9988872780026606,62.57546624012891,3.7896759211090236,252.035107695583,-72.1317477261712,-35.4998779296875,4761.76025390625,True
1599384717.5999491,0.0,10,0.5,0.5,-0.5110766777038575,-0.001,-0.00825,-0.001,0.17145549780523336,10,1,100,0.43592366842005426,-10,-1,-100,19320.041311031557,-0.04622070625107894,0.005441617067774674,0.998916430497236,62.6950036432979,3.798343085194236,253.84652553437252,-72.49652435380857,-36.137908935546875,4761.76025390625,True
1599384717.6334574,0.0,10,0.5,0.5,-0.5074223922729493,-0.001,-0.00825,-0.001,0.2787847208965084,10,1,100,0.3638318414554812,-10,-1,-100,19315.669633409707,-0.044890277017970034,0.007459988801591227,0.9989640692218764,62.859019630835085,3.810388884308781,256.511771689951,-73.04366081517541,-37.371337890625,4761.76025390625,True
1599384717.6691415,0.0,10,0.5,0.5,-0.5038015869140625,-0.001,-0.00825,-0.001,0.23822874295963842,10,1,100,0.379451700472182,-10,-1,-100,19312.73694456194,-0.043826522286420685,0.008919458079646744,0.9989993389446479,62.9554081470394,3.817598514935309,258.2418864907192,-73.40839926330244,-38.381317138671875,4761.76025390625,True
1599384717.7003167,0.0,10,0.5,0.5,-0.49886023254394535,-0.001,-0.00825,-0.001,0.25853257010168595,10,1,100,0.3513116005282956,-10,-1,-100,19309.78966660949,-0.042608317631230845,0.010423009740982233,0.9990374828486545,63.03679113414975,3.82385562873823,259.9146884986267,-73.77312235189166,-39.541168212890625,4761.76025390625,True
1599384717.7329988,0.0,10,0.5,0.5,-0.4955627220153809,-0.001,-0.00825,-0.001,0.10912314574614601,10,1,100,0.4725192730913154,-10,-1,-100,19309.78966660949,-0.042608317631230845,0.010423009740982233,0.9990374828486545,63.03679113414975,3.82385562873823,259.9146884986267,-73.77312235189166,-39.541168212890625,4761.76025390625,True
1599384717.7670147,0.0,10,0.5,0.5,-0.48707105865478517,-0.001,-0.00825,-0.001,0.3751304206023205,10,1,100,0.24221404090884857,-10,-1,-100,19305.341396545642,-0.04052020454735355,0.012832660041692829,0.9990963096016795,63.11991859683309,3.8307657232135233,262.2693708000049,-74.32017922599607,-41.558319091796875,4761.76025390625,True
1599384717.801648,0.0,10,0.5,0.5,-0.48007197036743166,-0.001,-0.00825,-0.001,0.3260904433496337,10,1,100,0.27715730255055804,-10,-1,-100,19302.3576485035,-0.03894680493245194,0.014567206343196047,0.9991350974142127,63.1426355403097,3.8332902424592277,263.70606070726603,-74.6848663939437,-43.085418701171875,4761.76025390625,True
1599384717.8336542,0.0,10,0.5,0.5,-0.4746098083496094,-0.001,-0.00825,-0.001,0.15385912647843308,10,1,100,0.43358496234167987,-10,-1,-100,19302.3576485035,-0.03894680493245194,0.014567206343196047,0.9991350974142127,63.1426355403097,3.8332902424592277,263.70606070726603,-74.6848663939437,-43.085418701171875,4761.76025390625,True
1599384717.8665712,0.0,10,0.5,0.5,-0.463004330444336,-0.001,-0.00825,-0.001,0.42644834839373924,10,1,100,0.13981576183401723,-10,-1,-100,19297.854675887385,-0.036283761439223,0.017035462977825544,0.9991963178759982,63.11496055096129,3.83314673214109,265.6038356320252,-75.23187387921203,-45.648834228515625,4761.76025390625,True
1599384717.900799,0.0,10,0.5,0.5,-0.4569742813110351,-0.001,-0.00825,-0.001,0.18095050270031407,10,1,100,0.40501939055510777,-10,-1,-100,19297.854675887385,-0.036283761439223,0.017035462977825544,0.9991963178759982,63.11496055096129,3.83314673214109,265.6038356320252,-75.23187387921203,-45.648834228515625,4761.76025390625,True
1599384717.935918,0.0,10,0.5,0.5,-0.4448310676574707,-0.001,-0.00825,-0.001,0.3735423127888205,10,1,100,0.18820211310348894,-10,-1,-100,19294.834460978396,-0.034322406447408416,0.01877471002145367,0.9992344483049358,63.04606352464223,3.8298457685211016,266.6552196615638,-75.59653260235574,-47.53399658203125,4761.76025390625,True
1599384717.966108,0.0,10,0.5,0.5,-0.43326294403076177,-0.001,-0.00825,-0.001,0.3747467111783667,10,1,100,0.15229724067669448,-10,-1,-100,19291.799659887794,-0.03222376515988218,0.020354671780153585,0.9992733941698052,62.92963107176406,3.823529953400157,267.50208035243037,-75.96118331258302,-49.55975341796875,4761.76025390625,True
1599384718.0003276,0.0,10,0.5,0.5,-0.42310789184570313,-0.001,-0.00825,-0.001,0.3140951827209961,10,1,100,0.23825779346181075,-10,-1,-100,19290.27678953018,-0.0311088840255031,0.021227900681196902,0.9992905551276651,62.85167013505918,3.819121839887322,267.83970021772683,-76.14350647333887,-50.6224365234375,4761.76025390625,True
1599384718.0332198,0.0,10,0.5,0.5,-0.40961657333374024,-0.001,-0.00825,-0.001,0.4072571908389885,10,1,100,0.09224710159222133,-10,-1,-100,19287.22010954749,-0.02877954728476305,0.022857482989943893,0.9993244083526873,62.6518067570596,3.807530158452158,268.32217934836757,-76.50815053661239,-52.8499755859375,4761.76025390625,True
1599384718.069542,0.0,10,0.5,0.5,-0.3985376861572265,-0.001,-0.00825,-0.001,0.3298773726682538,10,1,100,0.19120706264474566,-10,-1,-100,19285.68630006723,-0.027574176048519104,0.023624164493389967,0.9993405644059659,62.528347320792186,3.8002522033020067,268.4594331335713,-76.69047211851625,-54.0133056640625,4761.76025390625,True
1599384718.1005511,0.0,10,0.5,0.5,-0.38291726455688474,-0.001,-0.00825,-0.001,0.4240981117059263,10,1,100,0.03231386786959278,-10,-1,-100,19282.607741524116,-0.025047567828143866,0.02516569880163578,0.9993694546811605,62.23085921631933,3.7825192695936907,268.508337679063,-77.05511670942751,-56.4354248046875,4761.76025390625,True
1599384718.1335745,0.0,10,0.5,0.5,-0.3679717773437501,-0.001,-0.00825,-0.001,0.42632331447897354,10,1,100,-0.00579828274010874,-10,-1,-100,19279.514597063768,-0.022418243201095645,0.02657611089001427,0.9993953835703555,61.86079569045309,3.7602428709746722,268.2305726170465,-77.41976616460208,-58.982421875,4761.76025390625,True
1599384718.1676219,0.0,10,0.5,0.5,-0.3493148796081543,-0.001,-0.00825,-0.001,0.5040637821224503,10,1,100,-0.20326290697156607,-10,-1,-100,19274.84753113857,-0.018247841103248882,0.028554118035711035,0.999425674394186,61.15697015058782,3.7175702068051883,267.13614486544714,-77.966758541169,-63.02685546875,4761.76025390625,True
1599384718.2031069,0.0,10,0.5,0.5,-0.33690762786865236,-0.001,-0.00825,-0.001,0.3076617587220254,10,1,100,0.21170740643018984,-10,-1,-100,19274.84753113857,-0.018247841103248882,0.028554118035711035,0.999425674394186,61.15697015058782,3.7175702068051883,267.13614486544714,-77.966758541169,-63.02685546875,4761.76025390625,True
1599384718.2342777,0.0,10,0.5,0.5,-0.31689198837280275,-0.001,-0.00825,-0.001,0.4330333260449978,10,1,100,-0.1052000038468536,-10,-1,-100,19271.71792028926,-0.015383260937399373,0.029683388052230888,0.9994409696208538,60.5812247834048,3.682533241182852,265.91498313624584,-78.33143835665581,-65.86624145507812,4761.76025390625,True
1599384718.2672808,0.0,10,0.5,0.5,-0.29715595626831054,-0.001,-0.00825,-0.001,0.4235021264407379,10,1,100,-0.13670207086570327,-10,-1,-100,19268.57372153923,-0.012511715177821025,0.030611851775324387,0.9994530361723829,59.91657984699426,3.6420358312303796,264.27804584959824,-78.69613763793818,-68.81427001953125,4761.76025390625,True
1599384718.3000765,0.0,10,0.5,0.5,-0.279524016571045,-0.001,-0.00825,-0.001,0.3846874070690346,10,1,100,-0.019759920523681446,-10,-1,-100,19266.996151550207,-0.010984157391558714,0.03109228758225402,0.9994561610892696,59.55038135252755,3.619717296342093,263.2995088441074,-78.87849591378746,-70.32614135742188,4761.76025390625,True
1599384718.3362594,0.0,10,0.5,0.5,-0.25453075408935544,-0.001,-0.00825,-0.001,0.45364390654755304,10,1,100,-0.36223940381730746,-10,-1,-100,19262.241557125002,-0.00650132738116758,0.03214616320581103,0.9994620337628779,58.304809022641855,3.5438449410869883,259.6638296122905,-79.42561108646338,-75.0125732421875,4761.76025390625,True
1599384718.3677137,0.0,10,0.5,0.5,-0.23909532318115237,-0.001,-0.00825,-0.001,0.349348170444313,10,1,100,0.0835828415573724,-10,-1,-100,19262.241557125002,-0.00650132738116758,0.03214616320581103,0.9994620337628779,58.304809022641855,3.5438449410869883,259.6638296122905,-79.42561108646338,-75.0125732421875,4761.76025390625,True
1599384718.40088,0.0,10,0.5,0.5,-0.21433400726318358,-0.001,-0.00825,-0.001,0.4066613825200702,10,1,100,-0.25101152864187565,-10,-1,-100,19259.053589088726,-0.0034798133065413205,0.03265874815175804,0.9994605030057523,57.3527076290573,3.4859338938942104,256.6521286409389,-79.79039285110333,-78.25115966796875,4761.76025390625,True
1599384718.4340928,0.0,10,0.5,0.5,-0.19093372497558597,-0.001,-0.00825,-0.001,0.3888853253913359,10,1,100,-0.26877601798732503,-10,-1,-100,19255.851028812234,-0.0005933909380515249,0.03295492068903194,0.9994566629372053,56.30420060444468,3.422268453025709,253.1670657003223,-80.15520900092253,-81.57247924804688,4761.76025390625,True
1599384718.4697444,0.0,10,0.5,0.5,-0.1632761299133301,-0.001,-0.00825,-0.001,0.38256002167031655,10,1,100,-0.472952174698068,-10,-1,-100,19251.019824498333,0.003864545206227687,0.033159584578283136,0.9994425982721293,54.55527123767111,3.3163462032297715,247.05885894249107,-80.70250280589875,-86.69290161132812,4761.76025390625,True
1599384718.5020308,0.0,10,0.5,0.5,-0.13853993835449216,-0.001,-0.00825,-0.001,0.3531579231788283,10,1,100,-0.33902133442901644,-10,-1,-100,19247.780776955304,0.006675767890938026,0.033072365878872266,0.999430664297549,53.27182804997836,3.238826663568472,242.39035411869358,-81.06741411804758,-90.19063568115234,4761.76025390625,True
1599384718.5343058,0.0,10,0.5,0.5,-0.11252119998931885,-0.001,-0.00825,-0.001,0.3371314438066386,10,1,100,-0.35177157649117147,-10,-1,-100,19244.527131664334,0.009324678342154119,0.03284327338707597,0.999417014947733,51.90357932132953,3.156367255092204,237.27943547217038,-81.43236556504081,-93.74381256103516,4761.76025390625,True
1599384718.567743,0.0,10,0.5,0.5,-0.08714373016357423,-0.001,-0.00825,-0.001,0.34228409348252253,10,1,100,-0.2339353844456993,-10,-1,-100,19242.894834444975,0.010636474716077727,0.03267795052308613,0.9994093340344711,51.19127999100938,3.113508849486244,234.5729095918278,-81.61485636631656,-95.53839111328125,4761.76025390625,True
1599384718.6031764,0.0,10,0.5,0.5,-0.057217314910888675,-0.001,-0.00825,-0.001,0.31159672752683737,10,1,100,-0.37890909586817834,-10,-1,-100,19239.619290744653,0.013123305400164018,0.03224595862670654,0.9993938047674795,51.41137137771381,3.128021310436222,236.68573844078205,-81.9798264176898,-99.15912628173828,4761.76025390625,True
1599384718.6343498,0.0,10,0.5,0.5,-0.02849661312103271,-0.001,-0.00825,-0.001,0.29298552120189125,10,1,100,-0.3931886372087944,-10,-1,-100,19236.32914989593,0.015490570015540807,0.0316825603844516,0.9993779353218077,52.342870744435466,3.1860823455456266,242.09830992971933,-82.34474075706167,-102.81259155273438,4761.76025390625,True
1599384718.6676903,0.0,10,0.5,0.5,-0.005348756980895998,-0.001,-0.00825,-0.001,0.3493843727076048,10,1,100,-0.15910964841182548,-10,-1,-100,19236.32914989593,0.015490570015540807,0.0316825603844516,0.9993779353218077,52.342870744435466,3.1860823455456266,242.09830992971933,-82.34474075706167,-102.81259155273438,4761.76025390625,True
1599384718.7017195,0.0,10,0.5,0.5,0.028626632881164554,-0.001,-0.00825,-0.001,0.23972970158615745,10,1,100,-0.5103841279187432,-10,-1,-100,19231.366573775536,0.018663981740697597,0.030686121195003316,0.9993548007347482,53.566549828271164,3.263021858880992,249.48316338183173,-82.8920100649056,-108.33277893066406,4761.76025390625,True
1599384718.7384248,0.0,10,0.5,0.5,0.057981967735290525,-0.001,-0.00825,-0.001,0.24810993426519956,10,1,100,-0.4163843223881044,-10,-1,-100,19228.039949697093,0.020671480250450812,0.02985777863077872,0.9993403839330675,54.39817652791142,3.3154715382994064,254.52371738193864,-83.25678782246662,-112.02595520019531,4761.76025390625,True
1599384718.7684693,0.0,10,0.5,0.5,0.08215299777984619,-0.001,-0.00825,-0.001,0.3306640937355613,10,1,100,-0.21804960076848215,-10,-1,-100,19228.039949697093,0.020671480250450812,0.02985777863077872,0.9993403839330675,54.39817652791142,3.3154715382994064,254.52371738193864,-83.25678782246662,-112.02595520019531,4761.76025390625,True
1599384718.8011065,0.0,10,0.5,0.5,0.11096785030364992,-0.001,-0.00825,-0.001,0.28796232878242145,10,1,100,-0.3160151974077469,-10,-1,-100,19226.371166493976,0.02154274488245458,0.029472396351257677,0.9993334218348968,54.77356168655581,3.339266428124855,256.8675886515812,-83.43915674087,-113.87132263183594,4761.76025390625,True
1599384718.834324,0.0,10,0.5,0.5,0.14624978885650636,-0.001,-0.00825,-0.001,0.12809256124617113,10,1,100,-0.5852470361372418,-10,-1,-100,19219.659564819885,0.024766294718475027,0.02767203929066084,0.9993102065361956,56.237804495564895,3.432204870353795,266.14579100587736,-84.16850288911279,-121.223876953125,4761.76025390625,True
1599384718.8703265,0.0,10,0.5,0.5,0.16449965858459473,-0.001,-0.00825,-0.001,0.30758823464703355,10,1,100,-0.26470110521795087,-10,-1,-100,19219.659564819885,0.024766294718475027,0.02767203929066084,0.9993102065361956,56.237804495564895,3.432204870353795,266.14579100587736,-84.16850288911279,-121.223876953125,4761.76025390625,True
1599384718.9013693,0.0,10,0.5,0.5,0.1908174249649048,-0.001,-0.00825,-0.001,0.25592026534042017,10,1,100,-0.3421615975409818,-10,-1,-100,19217.972548567806,0.02545644317925138,0.02720703160068837,0.9993056323928835,56.54399349777054,3.4517554634968417,268.2007022219117,-84.35080991118369,-123.04723358154297,4761.76025390625,True
1599384718.934478,0.0,10,0.5,0.5,0.22608640060424806,-0.001,-0.00825,-0.001,0.09214360931918009,10,1,100,-0.5331497836878972,-10,-1,-100,19211.188025787007,0.027806634409962592,0.025300392208631575,0.9992930907581018,57.49208809251303,3.512729103254036,275.1612224625116,-85.07994389961858,-130.24600219726562,4761.76025390625,True
1599384718.9676006,0.0,10,0.5,0.5,0.24453430461883546,-0.001,-0.00825,-0.001,0.28211299188305206,10,1,100,-0.2995989935177559,-10,-1,-100,19211.188025787007,0.027806634409962592,0.025300392208631575,0.9992930907581018,57.49208809251303,3.512729103254036,275.1612224625116,-85.07994389961858,-130.24600219726562,4761.76025390625,True
1599384719.003656,0.0,10,0.5,0.5,0.27070550365448004,-0.001,-0.00825,-0.001,0.22940992633159266,10,1,100,-0.3535875491871817,-10,-1,-100,19209.482781667728,0.02828624303932608,0.024827075401959962,0.9992915014057238,57.66150085615796,3.5237330096254817,276.58969204323705,-85.26220822279394,-132.01531982421875,4761.76025390625,True
1599384719.0343058,0.0,10,0.5,0.5,0.3034621831893921,-0.001,-0.00825,-0.001,0.1255395933911419,10,1,100,-0.4380138852081832,-10,-1,-100,19204.34517829737,0.029478130599825823,0.023458743900965754,0.9992901116046974,58.016724777341565,3.5470793313192397,280.15828705609545,-85.80896878900091,-137.23219299316406,4761.76025390625,True
1599384719.0673778,0.0,10,0.5,0.5,0.3254967504501343,-0.001,-0.00825,-0.001,0.20985093085720957,10,1,100,-0.35470718516407723,-10,-1,-100,19202.625353935524,0.02979450006455269,0.02298784322002076,0.9992916725511102,58.0867127626525,3.551793194518352,281.11874744867634,-85.99121431494493,-138.93690490722656,4761.76025390625,True
1599384719.088324,0.0,10,0.5,0.5,0.34936329250335696,-0.001,-0.00825,-0.001,0.208471012753284,10,1,100,-0.35425601487613656,-10,-1,-100,19200.90188461903,0.0300697134664012,0.02255345237768122,0.9992933273658422,58.13389953954416,3.555058932456401,281.97025125986096,-86.17345706716367,-140.62176513671875,4761.76025390625,True
1599384719.1343558,0.0,10,0.5,0.5,0.37788527088165286,-0.001,-0.00825,-0.001,0.16212430901236993,10,1,100,-0.375984656883469,-10,-1,-100,19197.4440116717,0.030508896728861094,0.021743858238139784,0.9992979594942177,58.164207115115644,3.5575160664774277,283.3646865801763,-86.53793760495762,-143.92941284179688,4761.76025390625,True
1599384719.168323,0.0,10,0.5,0.5,0.40580724925994877,-0.001,-0.00825,-0.001,0.15580382070782028,10,1,100,-0.36416785887516656,-10,-1,-100,19193.97155963187,0.03079257775661606,0.02095743052498177,0.9993060608546779,58.11636720889821,3.555000991433532,284.37885475851175,-86.9024157752537,-147.145263671875,4761.76025390625,True
1599384719.2018063,0.0,10,0.5,0.5,0.4271174116134644,-0.001,-0.00825,-0.001,0.19384740121827804,10,1,100,-0.3459571569577249,-10,-1,-100,19192.229866409558,0.030879439325290976,0.020594451161992898,0.9993109269933417,58.06613435565011,3.5520697694005485,284.75648996913634,-87.08465537766094,-148.7156982421875,4761.76025390625,True
1599384719.2367811,0.0,10,0.5,0.5,0.454350440788269,-0.001,-0.00825,-0.001,0.15719459767627433,10,1,100,-0.34604552284483636,-10,-1,-100,19188.735545518226,0.030953650309781172,0.01993769678901086,0.9993219500137327,57.91981491819342,3.5432933063588012,285.28347532793816,-87.44913833350795,-151.7770538330078,4761.76025390625,True
1599384719.2687597,0.0,10,0.5,0.5,0.4808819034576416,-0.001,-0.00825,-0.001,0.15914514717054823,10,1,100,-0.33353872646886906,-10,-1,-100,19185.226645171642,0.03090241923123571,0.01936498811334939,0.9993347976134058,57.721141833294475,3.5311966175881744,285.5463324942052,-87.81362889500598,-154.722412109375,4761.76025390625,True
1599384719.301897,0.0,10,0.5,0.5,0.5009826107025146,-0.001,-0.00825,-0.001,0.18728406725673585,10,1,100,-0.3301627908903686,-10,-1,-100,19183.46672745736,0.030822340850188677,0.01910554804907274,0.9993422643610443,57.60553592502059,3.5241200330542735,285.59435620890883,-87.99587790174306,-156.14892578125,4761.76025390625,True
1599384719.3348317,0.0,10,0.5,0.5,0.5264384601593017,-0.001,-0.00825,-0.001,0.16415396323533205,10,1,100,-0.3119904550836306,-10,-1,-100,19179.935956928646,0.030581597717866275,0.018665051448771713,0.9993579847759447,57.34958081564477,3.5084091916916997,285.5606756443085,-88.36038445976668,-158.9051513671875,4761.76025390625,True
1599384719.3707223,0.0,10,0.5,0.5,0.553610120010376,-0.001,-0.00825,-0.001,0.15428324026048973,10,1,100,-0.27349691437113904,-10,-1,-100,19174.612462330493,0.030010712359570042,0.018180467988684203,0.9993842242738195,56.92499568143486,3.482307357347915,285.2881469465233,-88.9071680882996,-162.77703857421875,4761.76025390625,True
1599384719.4024014,0.0,10,0.5,0.5,0.5756037460327148,-0.001,-0.00825,-0.001,0.17997911212085116,10,1,100,-0.27412454240178286,-10,-1,-100,19171.045239167637,0.029496947214343188,0.017978334838164554,0.9994031766917099,56.63219229284807,3.4643199852272435,285.04374091124174,-89.2717067935948,-165.17254638671875,4761.76025390625,True
1599384719.4352758,0.0,10,0.5,0.5,0.5993241390228271,-0.001,-0.00825,-0.001,0.18652788655195568,10,1,100,-0.2593080998219417,-10,-1,-100,19167.463434057543,0.028895463561456773,0.017858665840140238,0.9994228935940875,56.34464090300063,3.44669010501675,284.8144918698139,-89.63625811667026,-167.40829467773438,4761.76025390625,True
1599384719.4681983,0.0,10,0.5,0.5,0.6191872776031495,-0.001,-0.00825,-0.001,0.19802530770063317,10,1,100,-0.31933904012008874,-10,-1,-100,19167.463434057543,0.028895463561456773,0.017858665840140238,0.9994228935940875,56.34464090300063,3.44669010501675,284.8144918698139,-89.63625811667026,-167.40829467773438,4761.76025390625,True
1599384719.5041354,0.0,10,0.5,0.5,0.6406677066802978,-0.001,-0.00825,-0.001,0.19507901695460303,10,1,100,-0.281415951384241,-10,-1,-100,19165.66706332343,0.028552174966737617,0.01783541337190178,0.9994331750219833,56.20585308351877,3.4381998153059747,284.72093449640874,-89.81853823744568,-168.46347045898438,4761.76025390625,True
1599384719.5351677,0.0,10,0.5,0.5,0.661162453842163,-0.001,-0.00825,-0.001,0.19915766825993722,10,1,100,-0.2328433287722019,-10,-1,-100,19162.06338455144,0.027800561859419735,0.017854191610054478,0.9994540292591011,55.94551817850904,3.4223219582147073,284.6134165332642,-90.1831063915296,-170.44467163085938,4761.76025390625,True
1599384719.5682726,0.0,10,0.5,0.5,0.6807086994171143,-0.001,-0.00825,-0.001,0.2116471484970469,10,1,100,-0.21423677069138847,-10,-1,-100,19158.44512283185,0.026950925667910512,0.017987294610123324,0.999474914561767,55.71752706231393,3.4084953482229654,284.6610336500243,-90.54768370012107,-172.2451934814453,4761.76025390625,True
1599384719.6023967,0.0,10,0.5,0.5,0.6974553730010987,-0.001,-0.00825,-0.001,0.20831050844222915,10,1,100,-0.24863197966405703,-10,-1,-100,19156.630523259402,0.026494851688691725,0.018079737338941103,0.9994854405801763,55.61962874428413,3.402596138468935,284.7639770713812,-90.72997511782253,-173.07568359375,4761.76025390625,True
1599384719.6373281,0.0,10,0.5,0.5,0.7161710865020752,-0.001,-0.00825,-0.001,0.24360549488325112,10,1,100,-0.12773804372995778,-10,-1,-100,19151.164849228575,0.024985210078676056,0.018485808106216018,0.999516890390545,55.40325849826618,3.389750868033202,285.46013021217107,-91.2768564125507,-175.27806091308594,4761.76025390625,True
1599384719.6694171,0.0,10,0.5,0.5,0.7321851516723632,-0.001,-0.00825,-0.001,0.24547720361308517,10,1,100,-0.15471687682718194,-10,-1,-100,19147.50283718761,0.02386337721661068,0.018872542283048847,0.9995370760384991,55.33312881651095,3.385822331515946,286.30124538794666,-91.64144636890173,-176.49551391601562,4761.76025390625,True
1599384719.7020307,0.0,10,0.5,0.5,0.7454797477722168,-0.001,-0.00825,-0.001,0.20682453501322998,10,1,100,-0.2662283409835941,-10,-1,-100,19147.50283718761,0.02386337721661068,0.018872542283048847,0.9995370760384991,55.33312881651095,3.385822331515946,286.30124538794666,-91.64144636890173,-176.49551391601562,4761.76025390625,True
1599384719.7363496,0.0,10,0.5,0.5,0.760412907409668,-0.001,-0.00825,-0.001,0.31257671545637167,10,1,100,0.013120651222975288,-10,-1,-100,19140.135062468238,0.021329429410317284,0.01983329658317344,0.9995757579031588,55.40556515647674,3.3912006920924602,289.08729985643595,-92.37061812804598,-178.30322265625,4761.76025390625,True
1599384719.770674,0.0,10,0.5,0.5,0.7694380065917968,-0.001,-0.00825,-0.001,0.21668678161841323,10,1,100,-0.23945737762596164,-10,-1,-100,19140.135062468238,0.021329429410317284,0.01983329658317344,0.9995757579031588,55.40556515647674,3.3912006920924602,289.08729985643595,-92.37061812804598,-178.30322265625,4761.76025390625,True
1599384719.8023298,0.0,10,0.5,0.5,0.7790587074279786,-0.001,-0.00825,-0.001,0.25081476125431323,10,1,100,-0.16330352930110714,-10,-1,-100,19138.284004180226,0.020643999911137825,0.0201417558246425,0.999583980934053,55.47234292183835,3.395564306938745,290.03993669028256,-92.55290691278303,-178.61941528320312,4761.76025390625,True
1599384719.8353715,0.0,10,0.5,0.5,0.788926930999756,-0.001,-0.00825,-0.001,0.285583610060243,10,1,100,-0.06950678914710673,-10,-1,-100,19134.57095060358,0.019175685877438602,0.020736178224227825,0.9996010724202844,55.67111761193464,3.4083235847105326,292.2928179405128,-92.91747638854271,-179.0870361328125,4761.76025390625,True
1599384719.8692398,0.0,10,0.5,0.5,0.7977050750732422,-0.001,-0.00825,-0.001,0.30623115311174726,10,1,100,-0.04579132192304486,-10,-1,-100,19130.843314631027,0.017633783862119928,0.021461630101726043,0.9996141496097786,55.95845816286245,3.4265488997901024,295.02241681088634,-93.28203195899036,-179.32769775390625,4761.76025390625,True
1599384719.9044154,0.0,10,0.5,0.5,0.8048627952575684,-0.001,-0.00825,-0.001,0.2741238033758272,10,1,100,-0.10904204242088596,-10,-1,-100,19128.97402844543,0.016816303832717233,0.02182596732140545,0.9996203474699236,56.13731589358353,3.437828517391633,296.57824468976514,-93.46430313795594,-179.36264038085938,4761.76025390625,True
1599384719.9354694,0.0,10,0.5,0.5,0.8104936611175537,-0.001,-0.00825,-0.001,0.3215647067920611,10,1,100,-0.0010544947580169717,-10,-1,-100,19125.224520302843,0.015100648483447969,0.022584974213342233,0.9996308765515209,56.566776225320005,3.4647980154143716,300.0830950513816,-93.82882997981586,-179.2595977783203,4761.76025390625,True
1599384719.969656,0.0,10,0.5,0.5,0.8145104751586913,-0.001,-0.00825,-0.001,0.3798190413350885,10,1,100,0.13469015994799022,-10,-1,-100,19119.57292015548,0.012317277853335157,0.023800469668335558,0.9996408466593641,57.39056447420069,3.5162670946493693,306.33649059664583,-94.3755736977335,-178.66561889648438,4761.76025390625,True
1599384720.0027726,0.0,10,0.5,0.5,0.8165150951385499,-0.001,-0.00825,-0.001,0.35076926465010205,10,1,100,0.07795416127683563,-10,-1,-100,19115.78696316015,0.010314239024993408,0.024636545147045868,0.9996432649283208,58.060721488530525,3.5579774820166765,311.1853598387858,-94.74003186893445,-177.97357177734375,4761.76025390625,True
1599384720.0386791,0.0,10,0.5,0.5,0.8184265399932862,-0.001,-0.00825,-0.001,0.2677381170654708,10,1,100,-0.12099480773817761,-10,-1,-100,19115.78696316015,0.010314239024993408,0.024636545147045868,0.9996432649283208,58.060721488530525,3.5579774820166765,311.1853598387858,-94.74003186893445,-177.97357177734375,4761.76025390625,True
1599384720.0695932,0.0,10,0.5,0.5,0.816675967025757,-0.001,-0.00825,-0.001,0.3970415903649432,10,1,100,0.2403892777049394,-10,-1,-100,19110.080695868703,0.007041246555684723,0.02580679126534653,0.9996421511578675,59.241756534283425,3.6312558689822194,319.4641578644887,-95.28665172483844,-176.48858642578125,4761.76025390625,True
1599384720.1035035,0.0,10,0.5,0.5,0.8166638774871827,-0.001,-0.00825,-0.001,0.28061432800309444,10,1,100,-0.08548115094046578,-10,-1,-100,19110.080695868703,0.007041246555684723,0.02580679126534653,0.9996421511578675,59.241756534283425,3.6312558689822194,319.4641578644887,-95.28665172483844,-176.48858642578125,4761.76025390625,True
1599384720.135421,0.0,10,0.5,0.5,0.8125855037689208,-0.001,-0.00825,-0.001,0.37036867452322814,10,1,100,0.1719389251100554,-10,-1,-100,19106.258298624773,0.004714053303275106,0.02661730942036395,0.9996345815049992,60.14012979493714,3.686848621861826,325.6292781822378,-95.65101349787122,-175.19793701171875,4761.76025390625,True
1599384720.1733167,0.0,10,0.5,0.5,0.8079967929840087,-0.001,-0.00825,-0.001,0.36011819982118654,10,1,100,0.21562852417836303,-10,-1,-100,19102.421328294324,0.0022157266701070774,0.0272550711061833,0.999626055910069,61.12393574976105,3.7476099852271316,332.2996225187761,-96.01532874956419,-173.66961669921875,4761.76025390625,True
1599384720.2042332,0.0,10,0.5,0.5,0.7995676441192627,-0.001,-0.00825,-0.001,0.4114984211787463,10,1,100,0.4023918506462388,-10,-1,-100,19096.638552585035,-0.0017379096377469724,0.028296021112104202,0.999598076658471,62.74071461695424,3.8472482767424805,343.16022172373977,-96.56170443016961,-170.92556762695312,4761.76025390625,True
1599384720.236342,0.0,10,0.5,0.5,0.7933140789031982,-0.001,-0.00825,-0.001,0.3375796978396917,10,1,100,0.1616339725186411,-10,-1,-100,19094.703676496283,-0.00312580584963625,0.02856413782257691,0.9995870744303585,63.31429870191988,3.882542489158608,346.994691937182,-96.74380159573259,-169.89263916015625,4761.76025390625,True
1599384720.269998,0.0,10,0.5,0.5,0.7843497470855714,-0.001,-0.00825,-0.001,0.3402637366804482,10,1,100,0.18080282743106924,-10,-1,-100,19092.765158697497,-0.004543662805391892,0.028826155030194273,0.9995741132674887,63.90149995105599,3.9186500099943755,350.91685811595903,-96.92588368321147,-168.80038452148438,4761.76025390625,True
1599384720.3054233,0.0,10,0.5,0.5,0.7745125526428223,-0.001,-0.00825,-0.001,0.33649756385333357,10,1,100,0.20079046761572,-10,-1,-100,19090.8229995867,-0.005996471029313082,0.02902444075613006,0.9995607156016029,64.50082097923811,3.9554799474827322,354.91892411163406,-97.10795040852659,-167.65008544921875,4761.76025390625,True
1599384720.3371575,0.0,10,0.5,0.5,0.7589727111816407,-0.001,-0.00825,-0.001,0.3743026763685766,10,1,100,0.5560376673575057,-10,-1,-100,19084.97467741184,-0.010530076913364354,0.02954363428340317,0.9995080245568453,66.34917165926554,4.068953370585129,367.28485178945783,-97.65405416426925,-163.8489227294922,4761.76025390625,True
1599384720.3697004,0.0,10,0.5,0.5,0.7454803218841554,-0.001,-0.00825,-0.001,0.342053996734117,10,1,100,0.4532549848365437,-10,-1,-100,19081.05759521888,-0.013698199406912803,0.029717997594123316,0.999464456572621,67.60785025618479,4.146168895748719,375.74486651059055,-98.0180393605205,-161.028564453125,4761.76025390625,True
1599384720.4032764,0.0,10,0.5,0.5,0.7282319988250734,-0.001,-0.00825,-0.001,0.3211767760278555,10,1,100,0.4966437501548101,-10,-1,-100,19077.125955903553,-0.01695092459627572,0.029682097277041908,0.999415648895177,68.86671281128874,4.223403273646886,384.26226950473404,-98.38195531243882,-157.98403930664062,4761.76025390625,True
1599384720.4393146,0.0,10,0.5,0.5,0.7160102725982667,-0.001,-0.00825,-0.001,0.32515433833716584,10,1,100,0.1737704483337146,-10,-1,-100,19077.125955903553,-0.01695092459627572,0.029682097277041908,0.999415648895177,68.86671281128874,4.223403273646886,384.26226950473404,-98.38195531243882,-157.98403930664062,4761.76025390625,True
1599384720.4698188,0.0,10,0.5,0.5,0.6942164333343507,-0.001,-0.00825,-0.001,0.3037539762275655,10,1,100,0.5419026582433837,-10,-1,-100,19073.179761814652,-0.020275769985316383,0.02948402552512582,0.9993595876311672,70.0975917008769,4.298993088668239,392.6792407653159,-98.74580162546098,-154.72024536132812,4761.76025390625,True
1599384720.5027635,0.0,10,0.5,0.5,0.6771618152618409,-0.001,-0.00825,-0.001,0.3039827238175191,10,1,100,0.3967217928517668,-10,-1,-100,19071.20120782347,-0.021955812632439932,0.02930343371410644,0.9993294006803823,70.6943191025101,4.335690969166068,396.8033594440781,-98.92769905068603,-153.00808715820312,4761.76025390625,True
1599384720.5368156,0.0,10,0.5,0.5,0.6546623180389405,-0.001,-0.00825,-0.001,0.2711390504998268,10,1,100,0.6083657120422337,-10,-1,-100,19067.23318711156,-0.02538518563219054,0.02883881834428442,0.999261684898868,71.83367142062266,4.405925332787417,404.786866195877,-99.29144426381586,-149.42514038085938,4761.76025390625,True
1599384720.5728254,0.0,10,0.5,0.5,0.6329353298187256,-0.001,-0.00825,-0.001,0.23275137353572128,10,1,100,0.6417008025952636,-10,-1,-100,19063.2506183699,-0.028784346204269146,0.028066968401834185,0.9991915265344893,72.88332844799622,4.470949172767716,412.3142299974634,-99.65512729082472,-145.63909912109375,4761.76025390625,True
1599384720.6030006,0.0,10,0.5,0.5,0.6127757991790772,-0.001,-0.00825,-0.001,0.26255399831445675,10,1,100,0.494412065704053,-10,-1,-100,19061.253879319294,-0.030512177715916296,0.02763667156070497,0.9991522513591599,73.36369494475721,4.500874985231865,415.84372525075787,-99.83694758565133,-143.6708984375,4761.76025390625,True
1599384720.6369998,0.0,10,0.5,0.5,0.5858484775543212,-0.001,-0.00825,-0.001,0.18808765608038186,10,1,100,0.6999350373080521,-10,-1,-100,19057.24949303211,-0.03392771654571322,0.026569607215249993,0.9990710515385886,74.22013149431383,4.554670290498449,422.3422024878234,-100.20055068120422,-139.58905029296875,4761.76025390625,True
1599384720.6728647,0.0,10,0.5,0.5,0.5582434116363525,-0.001,-0.00825,-0.001,0.149967638977145,10,1,100,0.7277498951555219,-10,-1,-100,19053.230563780176,-0.03726022214821797,0.025255234776207752,0.9989864107993982,74.90773932663623,4.598630792888167,427.9160671182642,-100.56411318009052,-135.32077026367188,4761.76025390625,True
1599384720.7032557,0.0,10,0.5,0.5,0.5300789627075196,-0.001,-0.00825,-0.001,0.115081820199296,10,1,100,0.7628317732476997,-10,-1,-100,19049.19709283265,-0.040584398728392215,0.023747105478649992,0.9988938790288189,75.39254342041075,4.630719620567216,432.35994601418685,-100.92764839154971,-130.8722686767578,4761.76025390625,True
1599384720.7372322,0.0,10,0.5,0.5,0.5050704257965088,-0.001,-0.00825,-0.001,0.17037687691393189,10,1,100,0.6063080364615643,-10,-1,-100,19047.17490450351,-0.04215899237656623,0.02288418926201733,0.9988488039956862,75.55135591959042,4.64185137360259,434.11085819813405,-101.10941046578519,-128.58322143554688,4761.76025390625,True
1599384720.7702146,0.0,10,0.5,0.5,0.4688719104766846,-0.001,-0.00825,-0.001,-0.06168811530707771,10,1,100,0.9491607852138656,-10,-1,-100,19041.086528172134,-0.04668436789285417,0.019996218143083028,0.9987095278680478,75.63833674688283,4.652126954830497,437.1400668092127,-101.65470153530622,-121.46727752685547,4761.76025390625,True
1599384720.8060596,0.0,10,0.5,0.5,0.43598612918853763,-0.001,-0.00825,-0.001,-0.012777695947325474,10,1,100,0.8098600702585405,-10,-1,-100,19037.009433429805,-0.049504945095979726,0.017824235373807736,0.9986148191592107,75.33377644087649,4.637206881658263,437.06540535421425,-102.01825637316878,-116.52957916259766,4761.76025390625,True
1599384720.8364055,0.0,10,0.5,0.5,0.40941652793884276,-0.001,-0.00825,-0.001,0.20325460196507192,10,1,100,0.5307252674570512,-10,-1,-100,19037.009433429805,-0.049504945095979726,0.017824235373807736,0.9986148191592107,75.33377644087649,4.637206881658263,437.06540535421425,-102.01825637316878,-116.52957916259766,4761.76025390625,True
1599384720.8705096,0.0,10,0.5,0.5,0.36916314373016357,-0.001,-0.00825,-0.001,-0.05327484131756144,10,1,100,0.8025663717514686,-10,-1,-100,19032.917795244954,-0.051951183196416666,0.015502585160638613,0.9985292907160158,74.71183880086672,4.602939928649827,435.13424227569635,-102.38185616828572,-111.45027160644531,4761.76025390625,True
1599384720.8914163,0.0,10,0.5,0.5,0.33773480930328376,-0.001,-0.00825,-0.001,0.044069051752246124,10,1,100,0.6895559686901023,-10,-1,-100,19030.866521557327,-0.053123517807561256,0.014289062388559157,0.9984857107399211,74.27152365312426,4.577825102620864,433.4056141802804,-102.56367910373459,-108.861083984375,4761.76025390625,True
1599384720.9373283,0.0,10,0.5,0.5,0.2994385705947876,-0.001,-0.00825,-0.001,-0.11630172715141002,10,1,100,0.8153045179510889,-10,-1,-100,19026.753063532175,-0.05531031865497141,0.011740469065738482,0.9984001853146874,73.28631274678156,4.520929348087284,429.31042390219915,-102.92737743855227,-103.58930206298828,4761.76025390625,True
1599384720.9705358,0.0,10,0.5,0.5,0.2608713527679444,-0.001,-0.00825,-0.001,-0.14734011551836748,10,1,100,0.7974084389696684,-10,-1,-100,19022.625055262703,-0.0571130840337504,0.009155849971197316,0.998325731434114,72.08300846528492,4.450029127287888,423.89384424057374,-103.29115244628944,-98.20346069335938,4761.76025390625,True
1599384721.015386,0.0,10,0.5,0.5,0.2155799030303955,-0.001,-0.00825,-0.001,-0.33161742743270506,10,1,100,0.8689031960023537,-10,-1,-100,19016.405753923696,-0.05938083638067568,0.005146778647160508,0.9982221330647245,69.93860102086752,4.321035735793595,413.66761511020513,-103.83696804437709,-89.93637084960938,4761.76025390625,True
1599384721.0463371,0.0,10,0.5,0.5,0.18080537605285643,-0.001,-0.00825,-0.001,-0.07746353405469612,10,1,100,0.7106276297389947,-10,-1,-100,19014.325374613283,-0.059983450989820435,0.0038309387070444424,0.998192020362803,69.0519512554566,4.266844205581327,409.20961789805204,-104.01895102736346,-87.13662719726562,4761.76025390625,True
1599384721.071234,0.0,10,0.5,0.5,0.14188521499633794,-0.001,-0.00825,-0.001,-0.09257300214945799,10,1,100,0.7113942617429715,-10,-1,-100,19012.24135609134,-0.060520616332477795,0.0025154673849607347,0.998163777855404,69.22753159866673,4.277970324026039,411.03886351721223,-104.20092870735368,-84.317626953125,4761.76025390625,True
1599384721.1032686,0.0,10,0.5,0.5,0.09680668182373048,-0.001,-0.00825,-0.001,-0.23796706802946863,10,1,100,0.7519905336242423,-10,-1,-100,19008.06240302697,-0.0613613130938543,1.6337149500045782e-05,0.9981156190484625,72.09319772323562,4.454735207149639,429.6969776131419,-104.56476675212639,-78.62841796875,4761.76025390625,True
1599384721.1391406,0.0,10,0.5,0.5,0.06142153186798095,-0.001,-0.00825,-0.001,-0.13051708998519573,10,1,100,0.7067606489223864,-10,-1,-100,19005.96747043263,-0.061701059429451525,-0.0012606179177948422,0.9980938784041051,73.43819323619235,4.537290788427095,438.55026038178164,-104.74662662509861,-75.76226806640625,4761.76025390625,True
1599384721.1738262,0.0,10,0.5,0.5,0.01911223068237305,-0.001,-0.00825,-0.001,-0.27166711362894147,10,1,100,0.7244690509562288,-10,-1,-100,19001.766696808045,-0.06215981783090805,-0.0036873183272864265,0.9980593973961578,75.92118884508763,4.68896297566907,455.10656820207794,-105.11022980703598,-69.99105834960938,4761.76025390625,True
1599384721.204713,0.0,10,0.5,0.5,-0.03094681339263916,-0.001,-0.00825,-0.001,-0.39564267069162645,10,1,100,0.7064254222987523,-10,-1,-100,18995.438275929424,-0.062401333505586985,-0.007000904169484008,0.9980265832719758,79.04966747900679,4.878687743343459,476.5547127027043,-105.65536031513572,-61.2730712890625,4761.76025390625,True
1599384721.2373557,0.0,10,0.5,0.5,-0.0636250165939331,-0.001,-0.00825,-0.001,-0.06653443540488053,10,1,100,0.6833188698617756,-10,-1,-100,18995.438275929424,-0.062401333505586985,-0.007000904169484008,0.9980265832719758,79.04966747900679,4.878687743343459,476.5547127027043,-105.65536031513572,-61.2730712890625,4761.76025390625,True
1599384721.2714345,0.0,10,0.5,0.5,-0.12037688732147217,-0.001,-0.00825,-0.001,-0.38174958357437777,10,1,100,0.6659926339089928,-10,-1,-100,18989.077158827335,-0.0622353878917453,-0.00984714191051758,0.9980129209034111,81.35895834739561,5.0179209206882165,493.2431045351139,-106.20021044484292,-52.527191162109375,4761.76025390625,True
1599384721.3074565,0.0,10,0.5,0.5,-0.16539567642211916,-0.001,-0.00825,-0.001,-0.289117823284275,10,1,100,0.6419391487250959,-10,-1,-100,18984.818256341503,-0.061859564678184,-0.011572898753386933,0.9980177665113328,82.40309680205517,5.080894517438042,501.4390237882925,-106.56332684225798,-46.707977294921875,4761.76025390625,True
1599384721.3373775,0.0,10,0.5,0.5,-0.20786272659301758,-0.001,-0.00825,-0.001,-0.1971494283512016,10,1,100,0.6599803847358066,-10,-1,-100,18982.683359008864,-0.06167760346536707,-0.012286847975945146,0.9980204940769428,82.76715122019661,5.102968368325758,504.59120568657033,-106.74486071547663,-43.806732177734375,4761.76025390625,True
1599384721.3713782,0.0,10,0.5,0.5,-0.2545683601379395,-0.001,-0.00825,-0.001,-0.2693746142838117,10,1,100,0.6272602426172376,-10,-1,-100,18978.402673353907,-0.06121264037346951,-0.013576636571637154,0.9980324080899927,83.18029089595633,5.128469165911941,508.9937271718508,-107.10789908163659,-38.031768798828125,4761.76025390625,True
1599384721.4045212,0.0,10,0.5,0.5,-0.30075906753540044,-0.001,-0.00825,-0.001,-0.25864312273447315,10,1,100,0.6114670003895724,-10,-1,-100,18974.10746633052,-0.060645254279326,-0.014635787576109827,0.9980520762241933,83.17209963462051,5.12905552768623,510.82987470177346,-107.47092502558188,-32.3046875,4761.76025390625,True
1599384721.441208,0.0,10,0.5,0.5,-0.3379426612854004,-0.001,-0.00825,-0.001,-0.15444314778331286,10,1,100,0.668218073598608,-10,-1,-100,18974.10746633052,-0.060645254279326,-0.014635787576109827,0.9980520762241933,83.17209963462051,5.12905552768623,510.82987470177346,-107.47092502558188,-32.3046875,4761.76025390625,True
1599384721.471183,0.0,10,0.5,0.5,-0.3930856422424317,-0.001,-0.00825,-0.001,-0.27671173727322657,10,1,100,0.5722244135811795,-10,-1,-100,18967.63742754818,-0.05977323560536259,-0.015734000094449398,0.9980879728492342,82.37811907783606,5.083437448776165,508.7645081169632,-108.01550886189044,-23.84173583984375,4761.76025390625,True
1599384721.5051622,0.0,10,0.5,0.5,-0.4274571296691895,-0.001,-0.00825,-0.001,-0.168337823656935,10,1,100,0.659233498595112,-10,-1,-100,18967.63742754818,-0.05977323560536259,-0.015734000094449398,0.9980879728492342,82.37811907783606,5.083437448776165,508.7645081169632,-108.01550886189044,-23.84173583984375,4761.76025390625,True
1599384721.5376709,0.0,10,0.5,0.5,-0.4766022201538086,-0.001,-0.00825,-0.001,-0.21526280594697073,10,1,100,0.5916350748956072,-10,-1,-100,18963.305913343094,-0.059160874101026675,-0.016149639313661392,0.9981178187597098,81.35236630409737,5.023111434786252,504.28787563940364,-108.37863623056856,-18.3057861328125,4761.76025390625,True
1599384721.5735428,0.0,10,0.5,0.5,-0.5227169174194336,-0.001,-0.00825,-0.001,-0.19375647267824522,10,1,100,0.5619685513800766,-10,-1,-100,18956.781401675195,-0.05833743202822062,-0.01632366399673463,0.9981634545594597,79.12976491204682,4.890469530972981,493.23424312626975,-108.92349204436478,-10.2044677734375,4761.76025390625,True
1599384721.604601,0.0,10,0.5,0.5,-0.5672399948120117,-0.001,-0.00825,-0.001,-0.15647327317813925,10,1,100,0.5891468792155196,-10,-1,-100,18952.413561174762,-0.057839618489153116,-0.016134454840593657,0.9981955008414063,77.46708184515262,4.790314251139864,484.6557496611786,-109.28685517856027,-4.95806884765625,4761.76025390625,True
1599384721.6374445,0.0,10,0.5,0.5,-0.6012381217956543,-0.001,-0.00825,-0.001,-0.1760229200852443,10,1,100,0.6384886561820109,-10,-1,-100,18952.413561174762,-0.057839618489153116,-0.016134454840593657,0.9981955008414063,77.46708184515262,4.790314251139864,484.6557496611786,-109.28685517856027,-4.95806884765625,4761.76025390625,True
1599384721.6713922,0.0,10,0.5,0.5,-0.6458850433349609,-0.001,-0.00825,-0.001,-0.13295279457767142,10,1,100,0.5919296013927334,-10,-1,-100,18948.03118317877,-0.05742000885124062,-0.01573876137590008,0.9982260435261522,75.72325632074045,4.684310452288251,475.49589438379945,-109.65031940682829,0.1435546875,4761.76025390625,True
1599384721.7074554,0.0,10,0.5,0.5,-0.6917417472839356,-0.001,-0.00825,-0.001,-0.05921627404585579,10,1,100,0.5820869942062225,-10,-1,-100,18941.430349621223,-0.05695293783745564,-0.014705569936434907,0.9982685555923955,72.85992017676419,4.507962784554899,460.0469009516879,-110.19569531320474,7.49322509765625,4761.76025390625,True
1599384721.737842,0.0,10,0.5,0.5,-0.7219501968383789,-0.001,-0.00825,-0.001,-0.16264831132885274,10,1,100,0.6283681253311191,-10,-1,-100,18941.430349621223,-0.05695293783745564,-0.014705569936434907,0.9982685555923955,72.85992017676419,4.507962784554899,460.0469009516879,-110.19569531320474,7.49322509765625,4761.76025390625,True
1599384721.7709067,0.0,10,0.5,0.5,-0.7686648529052734,-0.001,-0.00825,-0.001,0.0005174409780936973,10,1,100,0.6011389493955139,-10,-1,-100,18934.79679357633,-0.05670875652571548,-0.01322218147695328,0.9983032058699889,75.50881577583021,4.670052022390581,479.39634204578806,-110.74100576154868,14.433914184570312,4761.76025390625,True
1599384721.8039768,0.0,10,0.5,0.5,-0.8002835102081298,-0.001,-0.00825,-0.001,-0.14768004436015333,10,1,100,0.6251634307941694,-10,-1,-100,18934.79679357633,-0.05670875652571548,-0.01322218147695328,0.9983032058699889,75.50881577583021,4.670052022390581,479.39634204578806,-110.74100576154868,14.433914184570312,4761.76025390625,True
1599384721.84087,0.0,10,0.5,0.5,-0.8406145225524903,-0.001,-0.00825,-0.001,-0.010475402966115557,10,1,100,0.6252425443572751,-10,-1,-100,18930.35625224258,-0.056712261629997936,-0.011977150026659751,0.9983187202782734,77.73586321891102,4.805475199377856,495.33459921999076,-111.10435653442087,18.810714721679688,4761.76025390625,True
1599384721.8707945,0.0,10,0.5,0.5,-0.8837301624298096,-0.001,-0.00825,-0.001,0.11117584046089121,10,1,100,0.6478681898472847,-10,-1,-100,18923.668198467232,-0.056923918478323315,-0.009742798177118109,0.9983309798802966,80.52696572125082,4.973635791465426,515.9102262778841,-111.64912552533794,24.962799072265625,4761.76025390625,True
1599384721.903802,0.0,10,0.5,0.5,-0.9132746608734131,-0.001,-0.00825,-0.001,-0.1116186603796187,10,1,100,0.6264788094524764,-10,-1,-100,18923.668198467232,-0.056923918478323315,-0.009742798177118109,0.9983309798802966,80.52696572125082,4.973635791465426,515.9102262778841,-111.64912552533794,24.962799072265625,4761.76025390625,True
1599384721.938044,0.0,10,0.5,0.5,-0.9570197727203369,-0.001,-0.00825,-0.001,0.2936317571759406,10,1,100,0.709565617521599,-10,-1,-100,18914.699967699707,-0.05768053810945161,-0.00606468607735813,0.998316670754419,83.31445040279968,5.139934419873998,537.6094791605174,-112.3750784100169,32.328857421875,4761.76025390625,True
1599384721.9739368,0.0,10,0.5,0.5,-0.9804154285430909,-0.001,-0.00825,-0.001,-0.07317247592373372,10,1,100,0.6338877463707993,-10,-1,-100,18914.699967699707,-0.05768053810945161,-0.00606468607735813,0.998316670754419,83.31445040279968,5.139934419873998,537.6094791605174,-112.3750784100169,32.328857421875,4761.76025390625,True
1599384722.004242,0.0,10,0.5,0.5,-1.0177619205474853,-0.001,-0.00825,-0.001,0.15596407920296418,10,1,100,0.7070619027521334,-10,-1,-100,18910.194079054752,-0.058345902331445286,-0.003990780820536545,0.9982884499730386,84.35641750008477,5.201891120417968,546.274739305573,-112.73791522843594,35.621246337890625,4761.76025390625,True
1599384722.0372624,0.0,10,0.5,0.5,-1.0468275249481203,-0.001,-0.00825,-0.001,0.079751815411499,10,1,100,0.6758218305334809,-10,-1,-100,18907.935692827334,-0.058665936519015235,-0.0028089311493078454,0.998273718875813,84.80349019668736,5.228531459844068,550.1455383067455,-112.91930523297783,37.16569519042969,4761.76025390625,True
1599384722.071163,0.0,10,0.5,0.5,-1.075509171295166,-0.001,-0.00825,-0.001,0.22237603027170758,10,1,100,0.7423009923564512,-10,-1,-100,18903.408038419904,-0.05955967543457714,-0.0004487537119954286,0.9982246459000269,85.56387252154123,5.274094676035428,557.0470542338995,-113.2820371854747,40.038848876953125,4761.76025390625,True
1599384722.1072137,0.0,10,0.5,0.5,-1.102142712402344,-0.001,-0.00825,-0.001,0.13085833678859307,10,1,100,0.7055317583915315,-10,-1,-100,18901.138770588324,-0.06003552983304585,0.0008519223664198735,0.9981958772635493,85.88732553796363,5.2936688790594815,560.1410631449443,-113.46338215472379,41.36712646484375,4761.76025390625,True
1599384722.1384847,0.0,10,0.5,0.5,-1.1321886013031006,-0.001,-0.00825,-0.001,0.6262883632583337,10,1,100,0.91825597316014,-10,-1,-100,18892.02543495735,-0.06239895689927082,0.006525469856664723,0.9980299536692437,86.89004405692492,5.35611111907104,570.6833057357043,-114.18865286497905,45.94425964355469,4761.76025390625,True
1599384722.1726944,0.0,10,0.5,0.5,-1.1536075031280517,-0.001,-0.00825,-0.001,0.06090837936721048,10,1,100,0.6824822865749984,-10,-1,-100,18892.02543495735,-0.06239895689927082,0.006525469856664723,0.9980299536692437,86.89004405692492,5.35611111907104,570.6833057357043,-114.18865286497905,45.94425964355469,4761.76025390625,True
1599384722.204785,0.0,10,0.5,0.5,-1.1813139057159423,-0.001,-0.00825,-0.001,0.6015376587691382,10,1,100,0.9251664331156846,-10,-1,-100,18885.152360557113,-0.064600006690305,0.011423460924061045,0.9978458516605303,87.44321297997983,5.392924644252915,577.3439499698126,-114.73251852755668,48.60487365722656,4761.76025390625,True
1599384722.240448,0.0,10,0.5,0.5,-1.198158003234863,-0.001,-0.00825,-0.001,0.11385517793962406,10,1,100,0.7058290628334656,-10,-1,-100,18885.152360557113,-0.064600006690305,0.011423460924061045,0.9978458516605303,87.44321297997983,5.392924644252915,577.3439499698126,-114.73251852755668,48.60487365722656,4761.76025390625,True
1599384722.2707639,0.0,10,0.5,0.5,-1.220471491622925,-0.001,-0.00825,-0.001,0.4935963791733211,10,1,100,0.8965830475179948,-10,-1,-100,18880.552183299675,-0.06632715556178982,0.014856411608820855,0.9976873234982949,87.76870774996843,5.415843569768368,581.523013329919,-115.09506373760655,50.00926208496094,4761.76025390625,True
1599384722.3047807,0.0,10,0.5,0.5,-1.2348406623840333,-0.001,-0.00825,-0.001,0.3673082754373882,10,1,100,0.822136818074855,-10,-1,-100,18878.246656564064,-0.06721264643415445,0.01681018301765204,0.9975970518732652,87.93002947403254,5.4275209877759165,583.6101348730306,-115.27632759194097,50.602874755859375,4761.76025390625,True
1599384722.337793,0.0,10,0.5,0.5,-1.2525981994628907,-0.001,-0.00825,-0.001,1.085169903115024,10,1,100,1.1796208206239909,-10,-1,-100,18868.98829948483,-0.07125882715191016,0.025091558305390702,0.9971422131545435,88.61904034657671,5.478911337106499,592.2986249019162,-116.00132688267641,52.24041748046875,4761.76025390625,True
1599384722.3746886,0.0,10,0.5,0.5,-1.264671472930908,-0.001,-0.00825,-0.001,0.2599406082537502,10,1,100,0.7762940413304661,-10,-1,-100,18868.98829948483,-0.07125882715191016,0.025091558305390702,0.9971422131545435,88.61904034657671,5.478911337106499,592.2986249019162,-116.00132688267641,52.24041748046875,4761.76025390625,True
1599384722.404836,0.0,10,0.5,0.5,-1.277559717941284,-0.001,-0.00825,-0.001,0.5090939183673486,10,1,100,0.9006465774796982,-10,-1,-100,18866.66464823077,-0.07237785667087328,0.027331224316010053,0.9970027332164734,88.81665170444272,5.493814755865704,594.6532830115209,-116.18256182627809,52.466217041015625,4761.76025390625,True
1599384722.4372787,0.0,10,0.5,0.5,-1.287929331588745,-0.001,-0.00825,-0.001,1.3706402051935553,10,1,100,1.3230349950560194,-10,-1,-100,18857.33379878837,-0.0772233980467733,0.037174268771331336,0.9963205410586626,89.77763760358273,5.565951748840912,605.2793834402084,-116.90743064208225,52.63763427734375,4761.76025390625,True
1599384722.471364,0.0,10,0.5,0.5,-1.2970560832977296,-0.001,-0.00825,-0.001,0.3899679943019181,10,1,100,0.8401996442873894,-10,-1,-100,18857.33379878837,-0.0772233980467733,0.037174268771331336,0.9963205410586626,89.77763760358273,5.565951748840912,605.2793834402084,-116.90743064208225,52.63763427734375,4761.76025390625,True
1599384722.5083027,0.0,10,0.5,0.5,-1.3022983322143555,-0.001,-0.00825,-0.001,0.6900053051120529,10,1,100,0.9852853810625399,-10,-1,-100,18854.99202619202,-0.07852888252550422,0.03987401814331923,0.9961140884890655,90.07211309431949,5.587850790929099,608.3191500443967,-117.08862707920471,52.49774169921875,4761.76025390625,True
1599384722.5383992,0.0,10,0.5,0.5,-1.3068475330352785,-0.001,-0.00825,-0.001,1.0537709460405869,10,1,100,1.150339729452423,-10,-1,-100,18850.29761001095,-0.08120151710459832,0.04560497926421612,0.9956538050377863,90.74292433645,5.6373571758693695,614.9777581431803,-117.45098961747676,51.99908447265625,4761.76025390625,True
1599384722.5715992,0.0,10,0.5,0.5,-1.307548880004883,-0.001,-0.00825,-0.001,1.4829210409544622,10,1,100,1.3633354173124672,-10,-1,-100,18843.228811651352,-0.08555241705667127,0.054685234311212014,0.994831799393289,91.9660688789697,5.726766307508559,626.5115364956715,-117.99444429028482,50.7003173828125,4761.76025390625,True
1599384722.6055694,0.0,10,0.5,0.5,-1.3081169155120849,-0.001,-0.00825,-0.001,1.3148765124409856,10,1,100,1.2573582188342058,-10,-1,-100,18838.49816654995,-0.08852530392660216,0.06137300520982472,0.994181384253506,92.94993804089391,5.798057858720805,635.4061105543703,-118.35667563630511,49.4705810546875,4761.76025390625,True
1599384722.641681,0.0,10,0.5,0.5,-1.3058593322753906,-0.001,-0.00825,-0.001,1.4364110139211284,10,1,100,1.2953426499972553,-10,-1,-100,18833.753034412977,-0.09155306122950813,0.06851536822783666,0.9934403259864729,94.06905495006687,5.878830946852062,645.2795540747318,-118.71883919544854,47.949127197265625,4761.76025390625,True
1599384722.6716547,0.0,10,0.5,0.5,-1.3051914443969728,-0.001,-0.00825,-0.001,0.7273452306409529,10,1,100,0.9950009611861936,-10,-1,-100,18833.753034412977,-0.09155306122950813,0.06851536822783666,0.9934403259864729,94.06905495006687,5.878830946852062,645.2795540747318,-118.71883919544854,47.949127197265625,4761.76025390625,True
1599384722.705339,0.0,10,0.5,0.5,-1.2999110786437988,-0.001,-0.00825,-0.001,1.144366774692879,10,1,100,1.1652935888452292,-10,-1,-100,18831.375036375364,-0.09308272672270154,0.07226699698292467,0.9930322689283249,94.6794932845563,5.92281493637857,650.5874542122973,-118.89989264882813,47.0791015625,4761.76025390625,True
1599384722.7384124,0.0,10,0.5,0.5,-1.2881060569763183,-0.001,-0.00825,-0.001,2.5587477366607922,10,1,100,1.6932621189992476,-10,-1,-100,18821.826842477312,-0.0992532057183041,0.08849269056118796,0.9911194907133458,97.47790346481428,6.124115645114538,674.4424293386369,-119.62389014970184,42.87062072753906,4761.76025390625,True
1599384722.7742934,0.0,10,0.5,0.5,-1.284398170852661,-0.001,-0.00825,-0.001,0.9422945254589816,10,1,100,1.0789017543437354,-10,-1,-100,18821.826842477312,-0.0992532057183041,0.08849269056118796,0.9911194907133458,97.47790346481428,6.124115645114538,674.4424293386369,-119.62389014970184,42.87062072753906,4761.76025390625,True
1599384722.8052106,0.0,10,0.5,0.5,-1.2685001747131348,-0.001,-0.00825,-0.001,2.4396124545042577,10,1,100,1.5720561140874265,-10,-1,-100,18814.62769825803,-0.10371640007263626,0.10205801862360878,0.9893568967721383,99.97334275092294,6.303433330850947,695.2778657748858,-120.16662567865652,38.95051574707031,4761.76025390625,True
1599384722.8387907,0.0,10,0.5,0.5,-1.261128406906128,-0.001,-0.00825,-0.001,1.0895680232474032,10,1,100,1.1283859788567963,-10,-1,-100,18814.62769825803,-0.10371640007263626,0.10205801862360878,0.9893568967721383,99.97334275092294,6.303433330850947,695.2778657748858,-120.16662567865652,38.95051574707031,4761.76025390625,True
1599384722.8730936,0.0,10,0.5,0.5,-1.2408008529663086,-0.001,-0.00825,-0.001,2.7091437888817915,10,1,100,1.603763900995172,-10,-1,-100,18807.396000250825,-0.10801511980339683,0.11672490376530295,0.9872730274523045,102.78416688320785,6.505752771058039,718.5061049503515,-120.70910068696388,34.374969482421875,4761.76025390625,True
1599384722.9091642,0.0,10,0.5,0.5,-1.2240083183288575,-0.001,-0.00825,-0.001,2.395822056541036,10,1,100,1.4698577927115546,-10,-1,-100,18802.55679077981,-0.11068134257178373,0.12714540185056253,0.9856894476430019,104.81334054360092,6.652200067869611,735.1986741257631,-121.07059300819148,30.96087646484375,4761.76025390625,True
1599384722.939149,0.0,10,0.5,0.5,-1.2037272773742678,-0.001,-0.00825,-0.001,2.5619754047871517,10,1,100,1.4772840854993663,-10,-1,-100,18797.7031257723,-0.11314984872701092,0.1380631940325456,0.9839388528697228,106.94180487845078,6.806304937782664,752.6928353400476,-121.43195328084083,27.255828857421875,4761.76025390625,True
1599384722.9732356,0.0,10,0.5,0.5,-1.1891051544189453,-0.001,-0.00825,-0.001,1.4778652054711163,10,1,100,1.2328959244566882,-10,-1,-100,18797.7031257723,-0.11314984872701092,0.1380631940325456,0.9839388528697228,106.94180487845078,6.806304937782664,752.6928353400476,-121.43195328084083,27.255828857421875,4761.76025390625,True
1599384723.0053344,0.0,10,0.5,0.5,-1.1681099655151368,-0.001,-0.00825,-0.001,2.105538744657278,10,1,100,1.3609770294937233,-10,-1,-100,18795.270874133217,-0.11429458896598624,0.14370609181987007,0.9829981211105927,108.03434566804444,6.885645304707794,761.6802749322361,-121.61258321304416,25.294219970703125,4761.76025390625,True
1599384723.043232,0.0,10,0.5,0.5,-1.1430985610961915,-0.001,-0.00825,-0.001,2.829426534581109,10,1,100,1.4779290575722888,-10,-1,-100,18790.395535477553,-0.11637778804964487,0.1553484417862071,0.9809806685573724,110.25335496523464,7.047408996600234,779.9800618663455,-121.9737434319035,21.152862548828125,4761.76025390625,True
1599384723.0721574,0.0,10,0.5,0.5,-1.1169866355895997,-0.001,-0.00825,-0.001,3.0047821435715267,10,1,100,1.4666026224184998,-10,-1,-100,18785.50575433974,-0.11814746047763923,0.16745100961478704,0.9787754272363366,112.4794804849712,7.210786151492846,798.4475842046943,-122.33477515965471,16.720794677734375,4761.76025390625,True
1599384723.1053526,0.0,10,0.5,0.5,-1.095195042037964,-0.001,-0.00825,-0.001,2.4861708162322236,10,1,100,1.37434350214413,-10,-1,-100,18783.05544941721,-0.11890035772354043,0.17366691528399913,0.9776003822978765,113.57820536254106,7.291969059768692,807.6246018664501,-122.5152455706752,14.395767211914062,4761.76025390625,True
1599384723.138165,0.0,10,0.5,0.5,-1.0539759777069093,-0.001,-0.00825,-0.001,4.719323415425194,10,1,100,1.5205840914984337,-10,-1,-100,18773.21814558399,-0.12089640862121226,0.19954169477165276,0.9724027819942462,117.67792182513575,7.600532537514975,842.5308816805821,-123.23687001156823,4.369598388671875,4761.76025390625,True
