Timestamp,Input Throttle,horizon,dT,dt,Input Roll,Roll P,Roll I,Roll D,Input Pitch,Pitch P,Pitch I,Pitch D,Input Yaw,Yaw P,Yaw I,Yaw D,Altitude,Direction X,Direction Y,Direction Z,Drag X,Drag Y,Drag Z,Vertical Velocity,Roll,Mass,Has Fuel
1599388092.8733187,0.0,10,0.5,0.5,-11.215199943542482,-0.2,-0.00825,-0.12575,-0.00012264798892620702,10,1,100,0.4981661726787274,-10,-1,-100,19349.722297967994,-0.048846186138769704,-0.0001742559628794695,0.9988062974043347,61.07648660659341,3.6862953242566303,233.73136818197816,-68.66499542105522,-33.922637939453125,4761.76025390625,True
1599388092.9112177,0.0,10,0.5,0.5,-11.261358473968505,-0.2,-0.00825,-0.12575,-0.0008280885541765886,10,1,100,0.4989358060881627,-10,-1,-100,19348.345348829404,-0.04889699819410233,-0.00016578417496214174,0.9988038126094702,61.16630834402664,3.6923897094146296,234.72069255448622,-68.84745212856909,-33.923797607421875,4761.76025390625,True
1599388092.9460928,0.0,10,0.5,0.5,-11.292517520141603,-0.2,-0.00825,-0.12575,0.011931695836588272,10,1,100,0.5096841077430728,-10,-1,-100,19344.192607129575,-0.048996450988363804,-4.1933796780379475e-05,0.9987989517576106,61.43715525845735,3.710778674860294,237.70644570897863,-69.39480155722043,-33.970611572265625,4761.76025390625,True
1599388092.983026,0.0,10,0.5,0.5,-11.344628621673584,-0.2,-0.00825,-0.12575,-0.00045753536126599386,10,1,100,0.5046384734157616,-10,-1,-100,19344.192607129575,-0.048996450988363804,-4.1933796780379475e-05,0.9987989517576106,61.43715525845735,3.710778674860294,237.70644570897863,-69.39480155722043,-33.970611572265625,4761.76025390625,True
1599388093.019893,0.0,10,0.5,0.5,-11.298997093200684,-0.2,-0.00825,-0.12575,0.023570029923857292,10,1,100,0.5077721751540352,-10,-1,-100,19341.405868347734,-0.048980396957813234,0.00017653673653599618,0.9987997244436122,61.627597295866565,3.723646147181006,239.74578007937424,-69.75968352809645,-34.252593994140625,4761.76025390625,True
1599388093.0588682,0.0,10,0.5,0.5,-10.915900339508058,-0.2,-0.00825,-0.12575,0.08763700781954767,10,1,100,0.4860449164199574,-10,-1,-100,19335.788606855785,-0.04872375421704127,0.0009574128961148539,0.9988118336981916,62.04590756584375,3.751590362174766,243.99765180978122,-70.48939886319435,-35.678680419921875,4761.76025390625,True
1599388093.0957632,0.0,10,0.5,0.5,-11.140045796203614,-0.2,-0.00825,-0.12575,0.009645133151273386,10,1,100,0.5165815659188582,-10,-1,-100,19335.788606855785,-0.04872375421704127,0.0009574128961148539,0.9988118336981916,62.04590756584375,3.751590362174766,243.99765180978122,-70.48939886319435,-35.678680419921875,4761.76025390625,True
1599388093.1336315,0.0,10,0.5,0.5,-10.809445143890382,-0.2,-0.00825,-0.12575,0.07655317514414565,10,1,100,0.48981260167300517,-10,-1,-100,19332.958085752325,-0.04843610567460893,0.0015647974479626793,0.9988250572928299,62.26400558585073,3.766030000731272,246.17304817957276,-70.85422975859058,-36.831146240234375,4761.76025390625,True
1599388093.174552,0.0,10,0.5,0.5,-10.527133186340334,-0.2,-0.00825,-0.12575,0.09599761410098254,10,1,100,0.4780349195429392,-10,-1,-100,19330.11297189095,-0.048023504338783836,0.002292310306115617,0.9988435755134452,62.476229815633786,3.7800299093504,248.33482689853219,-71.21904205303262,-38.27734375,4761.76025390625,True
1599388093.213001,0.0,10,0.5,0.5,-10.185080599975587,-0.2,-0.00825,-0.12575,0.12197486804270503,10,1,100,0.46765613627135316,-10,-1,-100,19327.25326629996,-0.04751040190889316,0.0031877585672647505,0.998865656585395,62.670148464760686,3.7928071873745384,250.43291288550628,-71.58383569677434,-40.01666259765625,4761.76025390625,True
1599388093.2518995,0.0,10,0.5,0.5,-9.782700398254395,-0.2,-0.00825,-0.12575,0.14162043034348973,10,1,100,0.45123149427423137,-10,-1,-100,19324.37896937912,-0.046851438952737905,0.004177500499619038,0.9988931330015407,62.83176527065063,3.8034819989597874,252.40992173967484,-71.94861198064314,-42.0499267578125,4761.76025390625,True
1599388093.2918167,0.0,10,0.5,0.5,-8.85882724838257,-0.2,-0.00825,-0.12575,0.22927228432207677,10,1,100,0.3802159961438704,-10,-1,-100,19320.040166719,-0.04560859968885351,0.005870144786598728,0.9989421389823367,62.974661842401105,3.8131215864556327,254.9862322416888,-72.49574821985502,-45.650390625,4761.76025390625,True
1599388093.330688,0.0,10,0.5,0.5,-9.301911140441895,-0.2,-0.00825,-0.12575,0.06061144852026386,10,1,100,0.5041710826817851,-10,-1,-100,19320.040166719,-0.04560859968885351,0.005870144786598728,0.9989421389823367,62.974661842401105,3.8131215864556327,254.9862322416888,-72.49574821985502,-45.650390625,4761.76025390625,True
1599388093.370613,0.0,10,0.5,0.5,-8.390696984100341,-0.2,-0.00825,-0.12575,0.19664635207870776,10,1,100,0.392295463006395,-10,-1,-100,19317.12939424615,-0.04459462846571315,0.007101451111145146,0.9989799239745116,62.97355980733541,3.813438472343233,256.3173264659087,-72.86049241568034,-48.4180908203125,4761.76025390625,True
1599388093.7274404,0.0,10,0.5,0.5,-7.72927632598877,-0.2,-0.00825,-0.12575,0.212224030181493,10,1,100,0.364705595951946,-10,-1,-100,19314.204032322043,-0.043426021128292976,0.008355941766296369,0.999021700928545,62.86817873094607,3.807195663185615,257.2224493508239,-73.2252320990767,-51.480377197265625,4761.76025390625,True
1599388093.7613509,0.0,10,0.5,0.5,-7.565662617492676,-0.2,-0.00825,-0.12575,0.16414302617283405,10,1,100,0.41035369060850635,-10,-1,-100,19312.735880186665,-0.042783682932815655,0.009051851957237162,0.9990433526383371,62.76833317008694,3.8011235693942296,257.4802228308218,-73.40760226918331,-53.12115478515625,4761.76025390625,True
1599388093.7982364,0.0,10,0.5,0.5,-7.199139122772218,-0.2,-0.00825,-0.12575,0.17243614084741626,10,1,100,0.3986159533295871,-10,-1,-100,19311.264080605702,-0.042098432481013574,0.00975253095598761,0.9990658687607109,62.63288577771025,3.7928327895640814,257.5897030326623,-73.58997412320886,-54.835540771484375,4761.76025390625,True
1599388093.8341134,0.0,10,0.5,0.5,-6.209734416961671,-0.2,-0.00825,-0.12575,0.2501726825695212,10,1,100,0.3034387816418652,-10,-1,-100,19308.309538754285,-0.040616253529246964,0.01108821213590727,0.9991132926254545,62.24184219179598,3.7687984543058546,257.3041874355333,-73.95472685427346,-58.48614501953125,4761.76025390625,True
1599388093.8879712,0.0,10,0.5,0.5,-5.366075036621094,-0.2,-0.00825,-0.12575,0.2716484496814253,10,1,100,0.2695957069996674,-10,-1,-100,19305.340406389674,-0.03896826276011676,0.012489044350771594,0.9991623983460662,61.66658443673233,3.733408129693503,256.237900936269,-74.31949982534873,-62.430450439453125,4761.76025390625,True
1599388093.9403446,0.0,10,0.5,0.5,-2.9843370399475093,-0.2,-0.00825,-0.12575,0.4313018628716331,10,1,100,0.021344322042214647,-10,-1,-100,19299.3583645256,-0.03522149059909306,0.015204653089609544,0.9992638616123385,59.850605491102236,3.622038337734313,251.24306516028128,-75.04914838688887,-71.20346069335938,4761.76025390625,True
1599388093.9792407,0.0,10,0.5,0.5,-4.061813970947266,-0.2,-0.00825,-0.12575,0.16094267844007254,10,1,100,0.39479264701360434,-10,-1,-100,19299.3583645256,-0.03522149059909306,0.015204653089609544,0.9992638616123385,59.850605491102236,3.622038337734313,251.24306516028128,-75.04914838688887,-71.20346069335938,4761.76025390625,True
1599388094.0171726,0.0,10,0.5,0.5,-0.7950347816467285,-0.2,-0.00825,-0.12575,0.4233457022794256,10,1,100,-0.06658858003243695,-10,-1,-100,19293.31794102525,-0.03103768848808691,0.017580110440340035,0.99936359830155,56.96605784896128,3.4463834360641954,241.56884802459984,-75.77900341076129,-81.15811157226562,4761.76025390625,True
1599388094.0560725,0.0,10,0.5,0.5,-0.2521875900268554,-0.2,-0.00825,-0.12575,0.3111989389506995,10,1,100,0.09146162684944253,-10,-1,-100,19290.275830059312,-0.02868429836900819,0.01870945566923957,0.9994134116048465,55.062739417575855,3.3311612180693477,234.67658231208412,-76.14403027906293,-86.57745361328125,4761.76025390625,True
1599388094.0949624,0.0,10,0.5,0.5,-0.8999050247192383,-0.2,-0.00825,-0.12575,0.19954834714901007,10,1,100,0.3251082086253299,-10,-1,-100,19290.275830059312,-0.02868429836900819,0.01870945566923957,0.9994134116048465,55.062739417575855,3.3311612180693477,234.67658231208412,-76.14403027906293,-86.57745361328125,4761.76025390625,True
1599388094.1348555,0.0,10,0.5,0.5,0.9839042980194093,-0.2,-0.00825,-0.12575,0.2945060386966367,10,1,100,0.08046276453382031,-10,-1,-100,19287.219115969492,-0.026474712813718743,0.01956215467916518,0.9994580589928422,52.83114621195172,3.196584881593094,226.29766217605226,-76.50912997547249,-92.26380157470703,4761.76025390625,True
1599388094.1727607,0.0,10,0.5,0.5,4.170179636192322,-0.2,-0.00825,-0.12575,0.37065607374746634,10,1,100,-0.23090876608555383,-10,-1,-100,19281.061877723085,-0.021650758674474548,0.02101942117691158,0.9995446106013514,55.32480806911232,3.3501633218556788,239.35045627891955,-77.23922678893777,-104.13697814941406,4761.76025390625,True
1599388094.210148,0.0,10,0.5,0.5,2.7192157361984255,-0.2,-0.00825,-0.12575,0.22612618089479394,10,1,100,0.2493733554130315,-10,-1,-100,19281.061877723085,-0.021650758674474548,0.02101942117691158,0.9995446106013514,55.32480806911232,3.3501633218556788,239.35045627891955,-77.23922678893777,-104.13697814941406,4761.76025390625,True
1599388094.2450497,0.0,10,0.5,0.5,4.71428255519867,-0.2,-0.00825,-0.12575,0.2829666620986643,10,1,100,-0.012989207244897272,-10,-1,-100,19277.961361170397,-0.01928423326286296,0.021525910196745924,0.9995822895278131,56.99996970229048,3.4536038459479848,247.81812021178507,-77.6041324164952,-110.13665008544922,4761.76025390625,True
1599388094.2839093,0.0,10,0.5,0.5,4.9501206413269045,-0.2,-0.00825,-0.12575,0.2575605530757363,10,1,100,0.0971284243398523,-10,-1,-100,19276.405630107503,-0.01815330864877413,0.021745901316331584,0.999598706062109,57.69721689597378,3.496919687301232,251.46675774151,-77.78655069552619,-113.04589080810547,4761.76025390625,True
1599388094.3228397,0.0,10,0.5,0.5,8.183352540779115,-0.2,-0.00825,-0.12575,0.29841695714106664,10,1,100,-0.3029750033489803,-10,-1,-100,19270.1462302187,-0.013506814160714304,0.02230889977385286,0.9996598816408048,59.989134827016656,3.6400624662826484,264.01975205480056,-78.51602100064382,-123.96626281738281,4761.76025390625,True
1599388094.3646953,0.0,10,0.5,0.5,6.853645072364808,-0.2,-0.00825,-0.12575,0.24282753605736335,10,1,100,0.15950297781316458,-10,-1,-100,19270.1462302187,-0.013506814160714304,0.02230889977385286,0.9996598816408048,59.989134827016656,3.6400624662826484,264.01975205480056,-78.51602100064382,-123.96626281738281,4761.76025390625,True
1599388094.4035888,0.0,10,0.5,0.5,10.071228781700134,-0.2,-0.00825,-0.12575,0.26627076114745046,10,1,100,-0.31688500213127613,-10,-1,-100,19263.828484557802,-0.00919575495798155,0.022515561595867976,0.9997042000395794,60.9877440558312,3.7038103864655705,271.01837965128465,-79.24527245025347,-133.71009826660156,4761.76025390625,True
1599388094.4425187,0.0,10,0.5,0.5,8.889296862983704,-0.2,-0.00825,-0.12575,0.24609812406149165,10,1,100,0.11203672478898866,-10,-1,-100,19263.828484557802,-0.00919575495798155,0.022515561595867976,0.9997042000395794,60.9877440558312,3.7038103864655705,271.01837965128465,-79.24527245025347,-133.71009826660156,4761.76025390625,True
1599388094.4824073,0.0,10,0.5,0.5,11.056605828666687,-0.2,-0.00825,-0.12575,0.23628373539718073,10,1,100,-0.22884229287657923,-10,-1,-100,19259.051892784773,-0.0061145716550318665,0.022422879784440942,0.9997298767545401,61.08497299762884,3.7111004766416062,273.4063253496959,-79.79214797190461,-140.2440185546875,4761.76025390625,True
1599388094.5213108,0.0,10,0.5,0.5,10.940353313255311,-0.2,-0.00825,-0.12575,0.2453019852032995,10,1,100,-0.024949697922401662,-10,-1,-100,19257.45240408834,-0.0051875829034919285,0.022417231841276353,0.9997352433020422,61.021281149866695,3.707516833516532,273.77279568984926,-79.97443673291586,-142.27352905273438,4761.76025390625,True
1599388094.5602088,0.0,10,0.5,0.5,11.977254347610474,-0.2,-0.00825,-0.12575,0.22318207011931612,10,1,100,-0.14486838111062855,-10,-1,-100,19254.242488870514,-0.0032740479457537648,0.022208411685670414,0.9997480017786725,60.785617768668835,3.6935439454617094,274.0141631088212,-80.33901707600893,-146.1134490966797,4761.76025390625,True
1599388094.6020918,0.0,10,0.5,0.5,12.682858710098266,-0.2,-0.00825,-0.12575,0.23373104872577655,10,1,100,-0.14313911024784365,-10,-1,-100,19251.017990465043,-0.0015668974563159523,0.022113394085624873,0.9997542411184737,60.42915187876818,3.671980890812769,273.6993054202613,-80.70360738534282,-149.6555633544922,4761.76025390625,True
1599388094.6419847,0.0,10,0.5,0.5,14.294465711593627,-0.2,-0.00825,-0.12575,0.19929285084216453,10,1,100,-0.3262620195609662,-10,-1,-100,19244.525240519084,0.0016315531994575742,0.02171294540217908,0.9997629149133904,59.50498195106188,3.615533859527291,272.0614525328012,-81.43283558755812,-155.8550262451172,4761.76025390625,True
1599388094.6808758,0.0,10,0.5,0.5,14.417730204963686,-0.2,-0.00825,-0.12575,0.2179047824221069,10,1,100,-0.16603783421219476,-10,-1,-100,19241.25698759267,0.0030636377592971123,0.02151793049049562,0.9997637684928804,58.99587780100284,3.584329627466356,270.99860388508245,-81.79747730673884,-158.51083374023438,4761.76025390625,True
1599388094.7207768,0.0,10,0.5,0.5,14.121270990371706,-0.2,-0.00825,-0.12575,0.23738347650786912,10,1,100,-0.024951072869048067,-10,-1,-100,19241.25698759267,0.0030636377592971123,0.02151793049049562,0.9997637684928804,58.99587780100284,3.584329627466356,270.99860388508245,-81.79747730673884,-158.51083374023438,4761.76025390625,True
1599388094.759671,0.0,10,0.5,0.5,14.918048375701904,-0.2,-0.00825,-0.12575,0.2261392694895638,10,1,100,-0.17102989885738756,-10,-1,-100,19237.974148538196,0.004376563039263825,0.021416429489677716,0.9997610625763923,58.49140074956165,3.5533864071390586,269.936396027067,-82.16213709593458,-160.86932373046875,4761.76025390625,True
1599388094.7995677,0.0,10,0.5,0.5,15.899889290237429,-0.2,-0.00825,-0.12575,0.2051688419219389,10,1,100,-0.2985826847572719,-10,-1,-100,19231.364709243993,0.006713444640868895,0.021134326938577735,0.9997541047107071,57.58481151644729,3.49777765129924,268.2268895719723,-82.89150329335271,-164.70040893554688,4761.76025390625,True
1599388094.8404493,0.0,10,0.5,0.5,15.443697332000733,-0.2,-0.00825,-0.12575,0.233240973566208,10,1,100,-0.0664854445566499,-10,-1,-100,19231.364709243993,0.006713444640868895,0.021134326938577735,0.9997541047107071,57.58481151644729,3.49777765129924,268.2268895719723,-82.89150329335271,-164.70040893554688,4761.76025390625,True
1599388094.880355,0.0,10,0.5,0.5,16.330760157394412,-0.2,-0.00825,-0.12575,0.22948290992574405,10,1,100,-0.27731668926592257,-10,-1,-100,19224.69691847812,0.008615629411317874,0.02110141839153469,0.9997402167921986,56.904857767791356,3.4561052570539816,267.5083998715656,-83.62091133170793,-167.34506225585938,4761.76025390625,True
1599388094.920245,0.0,10,0.5,0.5,16.02055336341858,-0.2,-0.00825,-0.12575,0.23264161849075787,10,1,100,-0.0885712323276597,-10,-1,-100,19224.69691847812,0.008615629411317874,0.02110141839153469,0.9997402167921986,56.904857767791356,3.4561052570539816,267.5083998715656,-83.62091133170793,-167.34506225585938,4761.76025390625,True
1599388094.9601476,0.0,10,0.5,0.5,16.517217297744754,-0.2,-0.00825,-0.12575,0.24034123737875407,10,1,100,-0.25399161324755404,-10,-1,-100,19217.970773924375,0.01010690268121254,0.02117261112092533,0.9997247476463282,56.54624827512416,3.434124017476037,268.258819999587,-84.35033162919255,-168.80624389648438,4761.76025390625,True
1599388095.00203,0.0,10,0.5,0.5,16.41103166885376,-0.2,-0.00825,-0.12575,0.2356946637753103,10,1,100,-0.14060952221363351,-10,-1,-100,19216.280120154493,0.010419694871147536,0.021196031842671645,0.9997210401871697,56.513373399815244,3.432097270591361,268.71197290804537,-84.53268476872604,-168.9868621826172,4761.76025390625,True
1599388095.039549,0.0,10,0.5,0.5,16.435646326446534,-0.2,-0.00825,-0.12575,0.25907634867516016,10,1,100,-0.19400784755396383,-10,-1,-100,19211.18627708126,0.011178593826611932,0.021430718145387797,0.9997078390008916,56.553589456102145,3.434476012555183,270.73271903893226,-85.07973067753954,-169.08319091796875,4761.76025390625,True
1599388095.0804768,0.0,10,0.5,0.5,16.33505509529114,-0.2,-0.00825,-0.12575,0.2555106530174784,10,1,100,-0.16095605582337777,-10,-1,-100,19207.77214696037,0.011559352006185915,0.02161191048483882,0.9996996082355901,56.699850816229564,3.443323608283243,272.6564215537372,-85.4444114170306,-168.778076171875,4761.76025390625,True
1599388095.1203685,0.0,10,0.5,0.5,16.38189374961853,-0.2,-0.00825,-0.12575,0.23740081707181038,10,1,100,-0.12372980929066839,-10,-1,-100,19207.77214696037,0.011559352006185915,0.02161191048483882,0.9996996082355901,56.699850816229564,3.443323608283243,272.6564215537372,-85.4444114170306,-168.778076171875,4761.76025390625,True
1599388095.1592662,0.0,10,0.5,0.5,16.194449975204467,-0.2,-0.00825,-0.12575,0.26607466361181475,10,1,100,-0.15269197718472166,-10,-1,-100,19204.343430644483,0.011814921064998318,0.021872496380662184,0.9996909530161339,56.938164814172055,3.4577545342954115,275.03157760762383,-85.80907387290469,-168.17665100097656,4761.76025390625,True
1599388095.2001545,0.0,10,0.5,0.5,15.983973568725585,-0.2,-0.00825,-0.12575,0.27157512845396325,10,1,100,-0.14448230792693031,-10,-1,-100,19200.900128052686,0.011965861072460823,0.022158982269165697,0.9996828485442719,57.266131575839495,3.4776136308194103,277.8524600064954,-86.17371360289818,-167.27984619140625,4761.76025390625,True
1599388095.241048,0.0,10,0.5,0.5,15.225981517791748,-0.2,-0.00825,-0.12575,0.3168545993590174,10,1,100,-0.1261716211385338,-10,-1,-100,19193.969770019874,0.011931843548048958,0.022830124034823394,0.9996681532119044,58.15996836373642,3.5317095417808106,284.7024320329596,-86.90290866414207,-164.60020446777344,4761.76025390625,True
1599388095.2809381,0.0,10,0.5,0.5,15.562863795852662,-0.2,-0.00825,-0.12575,0.24991000250287226,10,1,100,-0.13009521347043834,-10,-1,-100,19193.969770019874,0.011931843548048958,0.022830124034823394,0.9996681532119044,58.15996836373642,3.5317095417808106,284.7024320329596,-86.90290866414207,-164.60020446777344,4761.76025390625,True
1599388095.6303537,0.0,10,0.5,0.5,14.979954486083985,-0.2,-0.00825,-0.12575,0.2912874044996336,10,1,100,-0.10913670851997422,-10,-1,-100,19190.482716801227,0.01173829694473862,0.023204710684209144,0.9996618197104956,58.707046796003176,3.56480678887639,288.64929175734517,-87.26745647754386,-162.81771850585938,4761.76025390625,True
1599388095.6622663,0.0,10,0.5,0.5,14.52374090423584,-0.2,-0.00825,-0.12575,0.295997462384884,10,1,100,-0.09250057347430143,-10,-1,-100,19186.981082944083,0.011408269107192722,0.023586150625977853,0.9996567135245111,59.30519979278218,3.600995788092276,292.87222823174955,-87.63196652889987,-160.74058532714844,4761.76025390625,True
1599388095.696176,0.0,10,0.5,0.5,14.778286233139038,-0.2,-0.00825,-0.12575,0.2580948221585184,10,1,100,-0.1256334938714892,-10,-1,-100,19186.981082944083,0.011408269107192722,0.023586150625977853,0.9996567135245111,59.30519979278218,3.600995788092276,292.87222823174955,-87.63196652889987,-160.74058532714844,4761.76025390625,True
1599388095.7312262,0.0,10,0.5,0.5,13.998855708694458,-0.2,-0.00825,-0.12575,0.30208558658161966,10,1,100,-0.07805821836906221,-10,-1,-100,19183.464869941236,0.010974867898774254,0.023983893830930313,0.9996521020391599,59.93943126333594,3.6393857807425833,297.3001133980807,-87.99643641465585,-158.36874389648438,4761.76025390625,True
1599388095.7890317,0.0,10,0.5,0.5,12.94964644355774,-0.2,-0.00825,-0.12575,0.3267393783509852,10,1,100,-0.02315552323796341,-10,-1,-100,19178.163218041766,0.010081936595318237,0.024567282873621744,0.9996473393985978,60.91601134771561,3.698590259904013,304.1194747481793,-88.54306221854648,-154.25936889648438,4761.76025390625,True
1599388095.8418875,0.0,10,0.5,0.5,12.96036460456848,-0.2,-0.00825,-0.12575,0.28862815890235544,10,1,100,-0.07271043575954794,-10,-1,-100,19176.388712857733,0.009722023174564325,0.02474848421527297,0.9996464348930774,61.2374403439277,3.718120455383892,306.38619376567624,-88.72524950081464,-152.74269104003906,4761.76025390625,True
1599388095.8778284,0.0,10,0.5,0.5,11.512308686828614,-0.2,-0.00825,-0.12575,0.32405880954243793,10,1,100,0.029580905662418625,-10,-1,-100,19171.04333715758,0.008466578168980728,0.025232458101019897,0.9996457573122036,62.14610345266372,3.773558543922753,312.94804806646437,-89.27174955734435,-147.7525177001953,4761.76025390625,True
1599388095.9147344,0.0,10,0.5,0.5,12.122973074340821,-0.2,-0.00825,-0.12575,0.27599741713978115,10,1,100,-0.0956287606063393,-10,-1,-100,19171.04333715758,0.008466578168980728,0.025232458101019897,0.9996457573122036,62.14610345266372,3.773558543922753,312.94804806646437,-89.27174955734435,-147.7525177001953,4761.76025390625,True
1599388095.9506402,0.0,10,0.5,0.5,9.605239619064331,-0.2,-0.00825,-0.12575,0.32884825866545403,10,1,100,0.13097580950144416,-10,-1,-100,19163.865169345518,0.006409717788822223,0.025710126227769782,0.9996488908247834,63.092154324583234,3.8321585479850984,320.4411963946105,-90.00028928019978,-140.07293701171875,4761.76025390625,True
1599388095.9855464,0.0,10,0.5,0.5,9.15668620300293,-0.2,-0.00825,-0.12575,0.3008931232357438,10,1,100,0.0578755627727011,-10,-1,-100,19160.254230580875,0.0052094125278114535,0.02588761420073327,0.9996512859253016,63.37799340627175,3.850562254927734,323.26453775502046,-90.36451974050036,-135.7935028076172,4761.76025390625,True
1599388096.0214465,0.0,10,0.5,0.5,8.938594227600097,-0.2,-0.00825,-0.12575,0.2844148314052762,10,1,100,0.005427369895154348,-10,-1,-100,19158.44329794566,0.004601138981252304,0.025896384713908635,0.9996540435464784,63.45914196892565,3.856147591282597,324.3654719099385,-90.54662941328552,-133.54495239257812,4761.76025390625,True
1599388096.0573108,0.0,10,0.5,0.5,9.197199410247803,-0.2,-0.00825,-0.12575,0.2838069474907096,10,1,100,-0.054686268964412005,-10,-1,-100,19158.44329794566,0.004601138981252304,0.025896384713908635,0.9996540435464784,63.45914196892565,3.856147591282597,324.3654719099385,-90.54662941328552,-133.54495239257812,4761.76025390625,True
1599388096.0942118,0.0,10,0.5,0.5,7.638276372146607,-0.2,-0.00825,-0.12575,0.28249275220750236,10,1,100,0.08785877591527567,-10,-1,-100,19154.810506219743,0.003311463237005998,0.025882337271254087,0.9996595114480765,63.47109791025655,3.8584609408364625,325.8018971138674,-90.91084534696061,-128.82818603515625,4761.76025390625,True
1599388096.131113,0.0,10,0.5,0.5,6.573367078781128,-0.2,-0.00825,-0.12575,0.2746616125147676,10,1,100,0.11144789440262703,-10,-1,-100,19151.1631454773,0.0019319449431426953,0.025796287247411204,0.9996653535823804,63.25097583799485,3.847013838779247,326.04427911686923,-91.2750692953865,-123.81908416748047,4761.76025390625,True
1599388096.1690273,0.0,10,0.5,0.5,4.549097156715393,-0.2,-0.00825,-0.12575,0.24617303044965494,10,1,100,0.2137468252516672,-10,-1,-100,19145.664786070818,-0.0002439320381282796,0.02545742521294712,0.9996758774716372,62.403991558371494,3.798884784391219,323.7134631990215,-91.82145699971699,-115.75872802734375,4761.76025390625,True
1599388096.2019706,0.0,10,0.5,0.5,4.608240616416931,-0.2,-0.00825,-0.12575,0.2612013265267965,10,1,100,0.07804395204103262,-10,-1,-100,19143.824713676237,-0.0009789523840657184,0.025285180471099854,0.9996797993861701,61.96403970573313,3.7733058915351476,322.1062529811594,-92.00360901459274,-112.92623901367188,4761.76025390625,True
1599388096.2398493,0.0,10,0.5,0.5,3.014982955360413,-0.2,-0.00825,-0.12575,0.23193076198568024,10,1,100,0.1695440301124631,-10,-1,-100,19140.133638718748,-0.0024692434305140037,0.024862010395177804,0.9996878429169732,60.96315848926273,3.7147230066445545,318.23381376047644,-92.36795729192053,-107.0426025390625,4761.76025390625,True
1599388096.2767262,0.0,10,0.5,0.5,0.6684568037033081,-0.2,-0.00825,-0.12575,0.18092482938297222,10,1,100,0.26684258855187193,-10,-1,-100,19134.569695596583,-0.004698644166189348,0.024013956800411178,0.9997005814851704,58.98036641528232,3.596946570545122,309.81952396497604,-92.91460955937328,-97.67097473144531,4761.76025390625,True
1599388096.3136637,0.0,10,0.5,0.5,-0.3481749814987183,-0.2,-0.00825,-0.12575,0.1884646800936532,10,1,100,0.20225444615571378,-10,-1,-100,19130.842175379978,-0.006126238792897159,0.0233126508128119,0.9997094525462547,57.32555023616713,3.497416159967801,302.38427885076624,-93.27914220839405,-91.05916595458984,4761.76025390625,True
1599388096.3505678,0.0,10,0.5,0.5,0.4428236110687256,-0.2,-0.00825,-0.12575,0.25835553131208533,10,1,100,0.060748579143104574,-10,-1,-100,19130.842175379978,-0.006126238792897159,0.0233126508128119,0.9997094525462547,57.32555023616713,3.497416159967801,302.38427885076624,-93.27914220839405,-91.05916595458984,4761.76025390625,True
1599388096.38643,0.0,10,0.5,0.5,-1.826602505302429,-0.2,-0.00825,-0.12575,0.17243738112816903,10,1,100,0.2101115240704639,-10,-1,-100,19127.100074249553,-0.007473778609217964,0.022533917596038042,0.9997181428738178,59.30808141700879,3.6191193886093354,314.14399540133024,-93.64363734304199,-84.2056884765625,4761.76025390625,True
1599388096.4193425,0.0,10,0.5,0.5,-3.253612907600403,-0.2,-0.00825,-0.12575,0.15419394986252372,10,1,100,0.22021314723952018,-10,-1,-100,19123.343397375545,-0.008779670545964234,0.021663185721208553,0.9997267745586855,61.920054577883285,3.7786999695927777,329.3386816044405,-94.00799913949812,-77.30429077148438,4761.76025390625,True
1599388096.456275,0.0,10,0.5,0.5,-3.558219034004212,-0.2,-0.00825,-0.12575,0.18745827567072443,10,1,100,0.16168672633302772,-10,-1,-100,19121.459594622953,-0.009422622289740714,0.02117786261415875,0.9997313200676873,63.084863515667685,3.849734634160084,336.22630657971695,-94.19013149486699,-73.84747314453125,4761.76025390625,True
1599388096.4951766,0.0,10,0.5,0.5,-5.425662365913392,-0.2,-0.00825,-0.12575,0.12671185788648698,10,1,100,0.22894518582585555,-10,-1,-100,19117.681063659955,-0.010606987974447998,0.02018869642303595,0.9997399203507122,65.13296242865485,3.9745027310747787,348.570701672095,-94.55430538765722,-66.91952514648438,4761.76025390625,True
1599388096.5340354,0.0,10,0.5,0.5,-6.786329882049562,-0.2,-0.00825,-0.12575,0.1132397445310816,10,1,100,0.23190305423082655,-10,-1,-100,19113.887969002477,-0.011699174734302,0.019172078483170058,0.9997477485431869,66.74120963011606,4.072508012003605,358.64002779094227,-94.91837316308568,-60.212188720703125,4761.76025390625,True
1599388096.5729644,0.0,10,0.5,0.5,-10.075634048461914,-0.2,-0.00825,-0.12575,-0.0223886492777898,10,1,100,0.3371590552777686,-10,-1,-100,19106.258101433865,-0.013638530668508592,0.017020608909329306,0.9997621163824721,68.61441725356332,4.187736338875679,371.7111996675043,-95.6462882820332,-47.665985107421875,4761.76025390625,True
1599388096.612261,0.0,10,0.5,0.5,-8.551788653564454,-0.2,-0.00825,-0.12575,0.1919318509501084,10,1,100,0.14448941968555384,-10,-1,-100,19106.258101433865,-0.013638530668508592,0.017020608909329306,0.9997621163824721,68.61441725356332,4.187736338875679,371.7111996675043,-95.6462882820332,-47.665985107421875,4761.76025390625,True
1599388096.6491303,0.0,10,0.5,0.5,-12.3011901802063,-0.2,-0.00825,-0.12575,-0.0323643371759946,10,1,100,0.3214944918629156,-10,-1,-100,19098.570008277078,-0.015237513790813704,0.014988681200442777,0.999771552710591,68.96758428527883,4.212414309456815,376.64889214283363,-96.37408053071762,-36.306304931640625,4761.76025390625,True
1599388096.6830852,0.0,10,0.5,0.5,-10.923336250686646,-0.2,-0.00825,-0.12575,0.16992590615266143,10,1,100,0.16265006659486683,-10,-1,-100,19098.570008277078,-0.015237513790813704,0.014988681200442777,0.999771552710591,68.96758428527883,4.212414309456815,376.64889214283363,-96.37408053071762,-36.306304931640625,4761.76025390625,True
1599388096.7219694,0.0,10,0.5,0.5,-11.832896040534973,-0.2,-0.00825,-0.12575,0.11039397705464199,10,1,100,0.20099220235976567,-10,-1,-100,19096.63888761506,-0.01557779568413286,0.01445504909010839,0.9997741664183097,68.86307926838285,4.207125477324478,376.83452374315607,-96.55603060309903,-33.65277099609375,4761.76025390625,True
1599388096.7608645,0.0,10,0.5,0.5,-14.76308726425171,-0.2,-0.00825,-0.12575,-0.043693845506847157,10,1,100,0.30012804399346155,-10,-1,-100,19088.878012002446,-0.01677978545937366,0.012577182968084232,0.9997801024567976,67.85336362697313,4.150544747706701,374.2978249909245,-97.28390296269507,-23.778594970703125,4761.76025390625,True
1599388096.7983584,0.0,10,0.5,0.5,-15.03461194152832,-0.2,-0.00825,-0.12575,0.04903059974754803,10,1,100,0.23704327818579357,-10,-1,-100,19084.9757358426,-0.01729054555965908,0.011722033027309457,0.9997817916805428,67.07619250193686,4.105737112899453,371.49287510809387,-97.64790154472844,-19.286346435546875,4761.76025390625,True
1599388096.8372436,0.0,10,0.5,0.5,-14.517576492309571,-0.2,-0.00825,-0.12575,0.13355147855563565,10,1,100,0.1868183556586209,-10,-1,-100,19084.9757358426,-0.01729054555965908,0.011722033027309457,0.9997817916805428,67.07619250193686,4.105737112899453,371.49287510809387,-97.64790154472844,-19.286346435546875,4761.76025390625,True
1599388096.8751452,0.0,10,0.5,0.5,-16.57684538040161,-0.2,-0.00825,-0.12575,0.009569427464275845,10,1,100,0.2672003580507263,-10,-1,-100,19079.09501835471,-0.01801413837843284,0.010603519680648776,0.9997815042242305,65.82936165386755,4.033285504152114,366.7752348888368,-98.19399100085653,-13.1029052734375,4761.76025390625,True
1599388096.912576,0.0,10,0.5,0.5,-17.065815449523924,-0.2,-0.00825,-0.12575,0.04522392471503332,10,1,100,0.24054504879103478,-10,-1,-100,19075.15633507236,-0.018422895265499076,0.00991953495572994,0.9997810759142716,64.99670526638275,3.9845467493811224,363.5795756586642,-98.55810811330859,-9.35113525390625,4761.76025390625,True
1599388096.9514706,0.0,10,0.5,0.5,-17.21091443710327,-0.2,-0.00825,-0.12575,0.07822670367595216,10,1,100,0.22128812971916884,-10,-1,-100,19073.181531080394,-0.018613317061695785,0.009606167326837025,0.9997806089224023,64.63229719008478,3.9632267933443703,362.2598018542371,-98.74018177809438,-7.586212158203125,4761.76025390625,True
1599388096.9894009,0.0,10,0.5,0.5,-18.099785761260986,-0.2,-0.00825,-0.12575,0.05065306741971007,10,1,100,0.24817689850375696,-10,-1,-100,19069.220998579287,-0.019026348605013423,0.00907735864513444,0.9997777751174448,63.878169397843095,3.9187419694261667,359.45507408998725,-99.10435708349304,-4.2777099609375,4761.76025390625,True
1599388097.0233207,0.0,10,0.5,0.5,-18.700842906188964,-0.2,-0.00825,-0.12575,0.05093216251913129,10,1,100,0.24819253854691176,-10,-1,-100,19065.245897860965,-0.01939707599211586,0.008606381844730641,0.9997748164634368,63.114248608420546,3.873246818212307,356.5631954649669,-99.46856768300707,-1.2652587890625,4761.76025390625,True
1599388097.0622141,0.0,10,0.5,0.5,-18.805463057708742,-0.2,-0.00825,-0.12575,0.07468986004323862,10,1,100,0.23094091513919057,-10,-1,-100,19063.252884070505,-0.01957348652922852,0.008400002275815175,0.9997731335592372,62.73664840946657,3.850611577667723,355.129710454425,-99.650685205052,0.13006591796875,4761.76025390625,True
1599388097.100077,0.0,10,0.5,0.5,-19.87933702850342,-0.2,-0.00825,-0.12575,0.04227612656093609,10,1,100,0.27272952531724287,-10,-1,-100,19057.251988073345,-0.020109814407551035,0.007923703889620753,0.9997663778509276,63.05700362004936,3.8713293897681207,359.0548662783461,-100.1970372083952,3.873046875,4761.76025390625,True
1599388097.1385593,0.0,10,0.5,0.5,-19.79792307891846,-0.2,-0.00825,-0.12575,0.07650364054294781,10,1,100,0.2390547414153446,-10,-1,-100,19055.244405588484,-0.020287130789896593,0.007807802161280919,0.9997637073577555,63.62554145418351,3.906419413908482,363.00293603564285,-100.37912675503057,4.972991943359375,4761.76025390625,True
1599388097.1765654,0.0,10,0.5,0.5,-20.876147822570804,-0.2,-0.00825,-0.12575,0.0612921576549153,10,1,100,0.2993428386652099,-10,-1,-100,19047.177663049777,-0.02099321261672722,0.007568486546359687,0.9997509705098698,65.54971191908271,4.024666471340946,376.91185330763807,-101.10734090052578,8.634765625,4761.76025390625,True
1599388097.5500436,0.0,10,0.5,0.5,-20.438714699554446,-0.2,-0.00825,-0.12575,0.08480836449894355,10,1,100,0.22910492268785412,-10,-1,-100,19047.177663049777,-0.02099321261672722,0.007568486546359687,0.9997509705098698,65.54971191908271,4.024666471340946,376.91185330763807,-101.10734090052578,8.634765625,4761.76025390625,True
1599388097.5879772,0.0,10,0.5,0.5,-20.91395042266846,-0.2,-0.00825,-0.12575,0.08540554431700281,10,1,100,0.26778007154181394,-10,-1,-100,19043.122448203503,-0.021341438818074973,0.007577691405142907,0.999743527902103,66.32451065243346,4.071997561659329,382.85089001125925,-101.47137092514345,10.02294921875,4761.76025390625,True
1599388097.624877,0.0,10,0.5,0.5,-21.11472440490723,-0.2,-0.00825,-0.12575,0.09854387183435541,10,1,100,0.2740865788912675,-10,-1,-100,19039.052673314232,-0.021712315158441017,0.007708249552626773,0.9997345438961759,66.98833451357764,4.112377272150419,388.1823160727446,-101.83535675989685,11.116607666015625,4761.76025390625,True
1599388097.6697226,0.0,10,0.5,0.5,-21.41839876022339,-0.2,-0.00825,-0.12575,0.1414052351007061,10,1,100,0.3180249432804931,-10,-1,-100,19030.869450484985,-0.022445924762409523,0.008218597794036296,0.9997142767370385,68.01867095684227,4.174618330207857,397.2008955245989,-102.56321698555548,12.419189453125,4761.76025390625,True
1599388097.705659,0.0,10,0.5,0.5,-21.271103556823732,-0.2,-0.00825,-0.12575,0.09023165400647369,10,1,100,0.24504724365371378,-10,-1,-100,19030.869450484985,-0.022445924762409523,0.008218597794036296,0.9997142767370385,68.01867095684227,4.174618330207857,397.2008955245989,-102.56321698555548,12.419189453125,4761.76025390625,True
1599388097.7385783,0.0,10,0.5,0.5,-21.351404347229003,-0.2,-0.00825,-0.12575,0.16353089265951815,10,1,100,0.3058841341067715,-10,-1,-100,19024.693824319867,-0.022995878697294234,0.00888573520074679,0.9996960704498551,68.5517655739879,4.206480678727513,402.6207227690871,-103.10903448818397,12.6234130859375,4761.76025390625,True
1599388097.774443,0.0,10,0.5,0.5,-21.337181379699707,-0.2,-0.00825,-0.12575,0.09684508732407042,10,1,100,0.25124862088881833,-10,-1,-100,19024.693824319867,-0.022995878697294234,0.00888573520074679,0.9996960704498551,68.5517655739879,4.206480678727513,402.6207227690871,-103.10903448818397,12.6234130859375,4761.76025390625,True
1599388097.814373,0.0,10,0.5,0.5,-21.271995669555665,-0.2,-0.00825,-0.12575,0.15952315502108505,10,1,100,0.2919498280796863,-10,-1,-100,19020.558546943008,-0.023362778406149337,0.009455094240787894,0.999682340435222,68.79900033576467,4.221086413893364,405.61779933082516,-103.47288552998963,12.39166259765625,4761.76025390625,True
1599388097.8512363,0.0,10,0.5,0.5,-20.869902769470215,-0.2,-0.00825,-0.12575,0.26550836542333883,10,1,100,0.3317629254915204,-10,-1,-100,19012.244332663366,-0.02405530360521738,0.010934803107799235,0.9996508252632288,69.03028495039139,4.234282620840034,410.0862797903035,-104.20054468952179,11.0462646484375,4761.76025390625,True
1599388097.8874676,0.0,10,0.5,0.5,-21.044097011566162,-0.2,-0.00825,-0.12575,0.11785017881685658,10,1,100,0.26288722286624827,-10,-1,-100,19012.244332663366,-0.02405530360521738,0.010934803107799235,0.9996508252632288,69.03028495039139,4.234282620840034,410.0862797903035,-104.20054468952179,11.0462646484375,4761.76025390625,True
1599388097.9203787,0.0,10,0.5,0.5,-20.683435131073,-0.2,-0.00825,-0.12575,0.21885965664838175,10,1,100,0.29733922481697794,-10,-1,-100,19008.065395931946,-0.02436571990387084,0.0118500108003027,0.9996328770791798,69.00759095704439,4.232523127418418,411.5059211188651,-104.56436362722097,9.9329833984375,4761.76025390625,True
1599388097.9732373,0.0,10,0.5,0.5,-20.1011967048645,-0.2,-0.00825,-0.12575,0.30228408879939406,10,1,100,0.3098874366485527,-10,-1,-100,19001.76970486052,-0.02475892527630908,0.013436529427356923,0.9996031489026583,68.78162617216653,4.218376795675081,412.48596104686465,-105.11009387541489,7.712554931640625,4761.76025390625,True
1599388098.0111365,0.0,10,0.5,0.5,-19.7768442489624,-0.2,-0.00825,-0.12575,0.2766400396449123,10,1,100,0.2928860701416466,-10,-1,-100,18997.554386045667,-0.02495872002259176,0.01464036515234528,0.9995812733355102,68.48972743358996,4.20052484537378,412.2829197108269,-105.47392399248784,5.86553955078125,4761.76025390625,True
1599388098.048038,0.0,10,0.5,0.5,-20.004774301910402,-0.2,-0.00825,-0.12575,0.15694967870604856,10,1,100,0.2732312359997939,-10,-1,-100,18997.554386045667,-0.02495872002259176,0.01464036515234528,0.9995812733355102,68.48972743358996,4.20052484537378,412.2829197108269,-105.47392399248784,5.86553955078125,4761.76025390625,True
1599388098.0849392,0.0,10,0.5,0.5,-19.302198122406004,-0.2,-0.00825,-0.12575,0.30338558997532317,10,1,100,0.28569490667965697,-10,-1,-100,18993.32451354072,-0.025069741760353984,0.01596576273901295,0.9995582036421045,68.07184319482054,4.175200453008048,411.3073830770078,-105.83776913441402,3.725341796875,4761.76025390625,True
1599388098.1228719,0.0,10,0.5,0.5,-17.883274431610108,-0.2,-0.00825,-0.12575,0.49747764061426275,10,1,100,0.2823690504159645,-10,-1,-100,18984.821104419883,-0.02513805026774249,0.018928099946387576,0.999504780109208,66.80337446739044,4.099010272297952,406.6708489491745,-106.56553022502099,-1.4346923828125,4761.76025390625,True
1599388098.1597388,0.0,10,0.5,0.5,-18.52055079269409,-0.2,-0.00825,-0.12575,0.20224815635136417,10,1,100,0.27575241683415874,-10,-1,-100,18984.821104419883,-0.02513805026774249,0.018928099946387576,0.999504780109208,66.80337446739044,4.099010272297952,406.6708489491745,-106.56553022502099,-1.4346923828125,4761.76025390625,True
1599388098.1926506,0.0,10,0.5,0.5,-16.99772655258179,-0.2,-0.00825,-0.12575,0.47690610464623845,10,1,100,0.24522043637824723,-10,-1,-100,18978.405337043223,-0.024858539380351978,0.02141586096293585,0.9994615620018068,66.69918356687552,4.094999475419575,408.30770808427997,-107.11140026652771,-6.07391357421875,4761.76025390625,True
1599388098.2315469,0.0,10,0.5,0.5,-17.01438199386597,-0.2,-0.00825,-0.12575,0.3248865542541376,10,1,100,0.2550962709673322,-10,-1,-100,18976.259470556863,-0.024692859105375737,0.02228459255012232,0.9994466767387228,67.26510815603012,4.130806163471166,412.53602535618774,-107.29332914763154,-7.76690673828125,4761.76025390625,True
1599388098.26745,0.0,10,0.5,0.5,-15.414085828399658,-0.2,-0.00825,-0.12575,0.5377009919721238,10,1,100,0.20122533048702995,-10,-1,-100,18969.80004266335,-0.024051925255121717,0.024998707254598695,0.9993981036239366,68.96053902706187,4.23897544397045,425.28414089475484,-107.83900399244617,-13.28546142578125,4761.76025390625,True
1599388098.3043516,0.0,10,0.5,0.5,-14.77023769454956,-0.2,-0.00825,-0.12575,0.4762893489030401,10,1,100,0.19975319417735798,-10,-1,-100,18965.475571468356,-0.02345587813239386,0.026895011226997546,0.9993630372152744,70.05612082211744,4.309677541827308,433.6319038842263,-108.20269039153513,-17.3306884765625,4761.76025390625,True
1599388098.3432493,0.0,10,0.5,0.5,-15.256432466888429,-0.2,-0.00825,-0.12575,0.28816345170582447,10,1,100,0.2592669222729961,-10,-1,-100,18965.475571468356,-0.02345587813239386,0.026895011226997546,0.9993630372152744,70.05612082211744,4.309677541827308,433.6319038842263,-108.20269039153513,-17.3306884765625,4761.76025390625,True
1599388098.3811462,0.0,10,0.5,0.5,-13.822286393737794,-0.2,-0.00825,-0.12575,0.49623376979130657,10,1,100,0.16551739690454048,-10,-1,-100,18961.136555217206,-0.022604794308266004,0.028774324589774983,0.9993303065146596,71.22224477353356,4.385238520658972,442.46664453250077,-108.56629304314754,-21.66986083984375,4761.76025390625,True
1599388098.414058,0.0,10,0.5,0.5,-12.836240998840333,-0.2,-0.00825,-0.12575,0.5194769212241483,10,1,100,0.14182893870453966,-10,-1,-100,18956.782997758128,-0.021617872053344606,0.030681243605837186,0.999295416230198,72.34629198761724,4.458627500524868,451.09033442969246,-108.92980828424281,-26.30218505859375,4761.76025390625,True
1599388098.4519565,0.0,10,0.5,0.5,-12.601999272155762,-0.2,-0.00825,-0.12575,0.4382237209769928,10,1,100,0.18129356404687674,-10,-1,-100,18954.60076700058,-0.021082476459227534,0.03166155827414369,0.9992762755684732,72.9497216446405,4.497987387122722,455.6791713291064,-109.11153181467681,-28.72802734375,4761.76025390625,True
1599388098.4878638,0.0,10,0.5,0.5,-9.479732406616211,-0.2,-0.00825,-0.12575,0.7511297320245993,10,1,100,-0.060226899471733014,-10,-1,-100,18945.83550812141,-0.018403737401043858,0.03538308462255046,0.999204353359345,74.97806187021143,4.6318645837751085,471.7406923594804,-109.83821133734595,-39.167144775390625,4761.76025390625,True
1599388098.5264497,0.0,10,0.5,0.5,-10.761322150421144,-0.2,-0.00825,-0.12575,0.38062259565153916,10,1,100,0.20697357505996475,-10,-1,-100,18945.83550812141,-0.018403737401043858,0.03538308462255046,0.999204353359345,74.97806187021143,4.6318645837751085,471.7406923594804,-109.83821133734595,-39.167144775390625,4761.76025390625,True
1599388098.566342,0.0,10,0.5,0.5,-6.94609287109375,-0.2,-0.00825,-0.12575,0.7477929206216924,10,1,100,-0.16124896555061166,-10,-1,-100,18937.01212925557,-0.015062381861735617,0.03870603759075534,0.9991371113649389,76.1002471633472,4.708796267060685,482.2356545145451,-110.56462537144412,-50.783721923828125,4761.76025390625,True
1599388098.6052384,0.0,10,0.5,0.5,-6.3346408805847165,-0.2,-0.00825,-0.12575,0.5924264140586639,10,1,100,-0.03736331448985061,-10,-1,-100,18932.57864911412,-0.013159924706115603,0.0402987627961615,0.9991010089569662,76.19400382945821,4.717525889054797,484.5481587740122,-110.9277815201508,-57.03192138671875,4761.76025390625,True
1599388098.6441343,0.0,10,0.5,0.5,-7.0797083259582525,-0.2,-0.00825,-0.12575,0.4349553105426518,10,1,100,0.1517291076322247,-10,-1,-100,18932.57864911412,-0.013159924706115603,0.0402987627961615,0.9991010089569662,76.19400382945821,4.717525889054797,484.5481587740122,-110.9277815201508,-57.03192138671875,4761.76025390625,True
1599388098.6831634,0.0,10,0.5,0.5,-4.910913318634034,-0.2,-0.00825,-0.12575,0.5640602766104994,10,1,100,-0.06764156573283017,-10,-1,-100,18928.13064296858,-0.011175547676023292,0.041458535164467784,0.9990777232008317,75.91047829020602,4.702237560453648,484.4580884028778,-111.29093842129788,-63.5789794921875,4761.76025390625,True
1599388098.721095,0.0,10,0.5,0.5,-3.4677631706237793,-0.2,-0.00825,-0.12575,0.5684696384813621,10,1,100,-0.1009925308483865,-10,-1,-100,18923.668109713006,-0.00907954190257647,0.042539719221810914,0.9990535191907233,75.20111550072755,4.659972797607055,481.63028102448925,-111.65412573112573,-70.41946411132812,4761.76025390625,True
1599388098.7551498,0.0,10,0.5,0.5,-0.7614471771240237,-0.2,-0.00825,-0.12575,0.5975148673607344,10,1,100,-0.2555821919728055,-10,-1,-100,18916.947066712426,-0.00578179094942993,0.04377243889284913,0.9990247967326882,73.24326265569637,4.540497446581092,471.5803326803251,-112.1990309770826,-81.23361206054688,4761.76025390625,True
1599388098.7940457,0.0,10,0.5,0.5,0.3966663825988769,-0.2,-0.00825,-0.12575,0.5324319121299843,10,1,100,-0.16748535917963597,-10,-1,-100,18912.448203654378,-0.003600009475015376,0.044287795260510625,0.9990123278131972,71.29557181741296,4.42101115946236,460.6602429744129,-112.56242614193476,-88.81259155273438,4761.76025390625,True
1599388098.8329425,0.0,10,0.5,0.5,2.048458167266846,-0.2,-0.00825,-0.12575,0.5151806346884953,10,1,100,-0.18145140393143896,-10,-1,-100,18907.93480115349,-0.0015059876028751444,0.04458710166195783,0.9990043655393737,68.81673775752787,4.268968284158312,446.21073625044687,-112.92595022017909,-96.65074157714844,4761.76025390625,True
1599388098.8713496,0.0,10,0.5,0.5,1.1188470409393312,-0.2,-0.00825,-0.12575,0.4865425488825559,10,1,100,0.02599313439694892,-10,-1,-100,18907.93480115349,-0.0015059876028751444,0.04458710166195783,0.9990043655393737,68.81673775752787,4.268968284158312,446.21073625044687,-112.92595022017909,-96.65074157714844,4761.76025390625,True
1599388098.9102461,0.0,10,0.5,0.5,3.737588991928101,-0.2,-0.00825,-0.12575,0.4992240457644055,10,1,100,-0.20218648996146857,-10,-1,-100,18903.406853256165,0.0005530110278394068,0.04469402070902973,0.9990005699155852,65.84322743229889,4.086860661345503,428.43076981967255,-113.28962023958083,-104.54427337646484,4761.76025390625,True
1599388098.9481974,0.0,10,0.5,0.5,5.311392590904235,-0.2,-0.00825,-0.12575,0.47951330049447705,10,1,100,-0.209110223568262,-10,-1,-100,18898.86435842584,0.0024705375899790453,0.04460356676201713,0.9990017108474453,67.0231026481917,4.163365172889843,437.63408043551004,-113.653274420295,-112.2571792602539,4761.76025390625,True
1599388098.9841313,0.0,10,0.5,0.5,6.8144838188171395,-0.2,-0.00825,-0.12575,0.4565656333255613,10,1,100,-0.22392794529373225,-10,-1,-100,18894.307321827044,0.004332511099017796,0.044307359354859834,0.9990085521428614,69.08495633858803,4.295362702577441,452.6672619326549,-114.0167787462526,-119.69316864013672,4761.76025390625,True
1599388099.0220325,0.0,10,0.5,0.5,8.257691640663147,-0.2,-0.00825,-0.12575,0.44213364159158286,10,1,100,-0.21764338976336944,-10,-1,-100,18889.73574884748,0.005952179751681423,0.04390323579026367,0.9990180566152688,70.69429427293572,4.399558319572092,464.8153924983758,-114.38015246408773,-126.83541870117188,4761.76025390625,True
1599388099.0600622,0.0,10,0.5,0.5,11.78094695491791,-0.2,-0.00825,-0.12575,0.35727819837378294,10,1,100,-0.36469351768701763,-10,-1,-100,18880.549011816038,0.008744050503901707,0.04276116081774707,0.9990470583042141,72.96690114085942,4.548575667437225,483.05921210216667,-115.1066002731681,-140.23159790039062,4761.76025390625,True
1599388099.0939696,0.0,10,0.5,0.5,11.190110368156434,-0.2,-0.00825,-0.12575,0.4352917439123464,10,1,100,-0.15145049746484107,-10,-1,-100,18878.243248335668,0.009325433187373154,0.04243094068794321,0.9990558801029119,73.2607278171317,4.568451375463923,485.8323386029684,-115.28817169713122,-143.39505004882812,4761.76025390625,True
1599388099.4387214,0.0,10,0.5,0.5,10.852511118888856,-0.2,-0.00825,-0.12575,0.4683028790393457,10,1,100,-0.09515272662669123,-10,-1,-100,18878.243248335668,0.009325433187373154,0.04243094068794321,0.9990558801029119,73.2607278171317,4.568451375463923,485.8323386029684,-115.28817169713122,-143.39505004882812,4761.76025390625,True
1599388099.4710348,0.0,10,0.5,0.5,11.910082261466982,-0.2,-0.00825,-0.12575,0.4306554569197142,10,1,100,-0.15509582151187015,-10,-1,-100,18875.933853491442,0.009856636573477687,0.0420899109397692,0.9990652061364867,73.45536620405895,4.5819958783378905,487.9532732578132,-115.4697345825221,-146.48419189453125,4761.76025390625,True
1599388099.5058234,0.0,10,0.5,0.5,12.551059444999696,-0.2,-0.00825,-0.12575,0.43050241832503433,10,1,100,-0.15617938571876347,-10,-1,-100,18873.620827377308,0.010337166011773117,0.04178049071267823,0.9990733374455816,73.55740941784933,4.589616910980112,489.462697127859,-115.65129254353207,-149.4983367919922,4761.76025390625,True
1599388099.539732,0.0,10,0.5,0.5,14.107267437553405,-0.2,-0.00825,-0.12575,0.3788129258686298,10,1,100,-0.20058871172146864,-10,-1,-100,18868.983882209053,0.011166965597871148,0.04103184658476393,0.9990954341028591,73.51311210010427,4.588942698505594,490.83140441804017,-116.01440603408818,-155.30535888671875,4761.76025390625,True
1599388099.594349,0.0,10,0.5,0.5,15.21988268222809,-0.2,-0.00825,-0.12575,0.37472112301892185,10,1,100,-0.18863118645507423,-10,-1,-100,18864.33241215523,0.011801103216265093,0.0403172948562783,0.9991172352123404,73.17948075057558,4.569740891220538,490.2623169326173,-116.37753394184094,-160.81405639648438,4761.76025390625,True
1599388099.647026,0.0,10,0.5,0.5,16.271109078598023,-0.2,-0.00825,-0.12575,0.3668306716222522,10,1,100,-0.17564261328665814,-10,-1,-100,18859.66641582665,0.012249288484011783,0.03959994984118778,0.9991405301078576,72.60988959269456,4.535484403715751,488.09515636310897,-116.74069333989483,-166.02517700195312,4761.76025390625,True
1599388099.68293,0.0,10,0.5,0.5,17.260557299232484,-0.2,-0.00825,-0.12575,0.3635457219374997,10,1,100,-0.16309623059835052,-10,-1,-100,18854.98589210387,0.012533781838529583,0.03892250357299031,0.9991636217499287,71.85535571288771,4.489517706237816,484.6581553101246,-117.10389650903817,-170.9381103515625,4761.76025390625,True
1599388099.7188783,0.0,10,0.5,0.5,18.18839589958191,-0.2,-0.00825,-0.12575,0.35958688072730594,10,1,100,-0.14775924549899677,-10,-1,-100,18850.290838629357,0.012645529322879358,0.03827554918706528,0.9991872061443605,70.96367368896588,4.434976839862332,480.2620011364432,-117.46715129212281,-175.55319213867188,4761.76025390625,True
1599388099.754739,0.0,10,0.5,0.5,18.363503750228883,-0.2,-0.00825,-0.12575,0.3902281121124193,10,1,100,-0.13686430742333816,-10,-1,-100,18847.93786266097,0.012641988190172076,0.037971081563910096,0.9991988676432066,70.48033036594556,4.405401764116369,477.79561322938326,-117.64879957279219,-177.74893188476562,4761.76025390625,True
1599388099.7911954,0.0,10,0.5,0.5,-97.79398763694763,-0.2,-0.00825,-0.12575,0.35852617591809927,10,1,100,-0.1240373619155192,-10,-1,-100,18843.22101046599,0.012518616803379583,0.037410448013142326,0.9992215683284593,69.46371600164397,4.343271904969137,472.4921761381081,-118.01213901381442,178.08323669433594,4761.76025390625,True
1599388099.8300917,0.0,10,0.5,0.5,-50.889273938751224,-0.2,-0.00825,-0.12575,0.31286594572441284,10,1,100,-0.05986035185135022,-10,-1,-100,18833.743697955855,0.011820130738788502,0.036490252231297024,0.9992641022279417,67.3556639438083,4.215120674254958,461.23979757883205,-118.73898724973694,170.64183044433594,4761.76025390625,True
1599388099.8679929,0.0,10,0.5,0.5,-50.91958576850891,-0.2,-0.00825,-0.12575,0.36580314239300366,10,1,100,-0.06902792134920999,-10,-1,-100,18828.98323324602,0.011266217041366777,0.03614035847974907,0.9992832165319961,66.45754295459952,4.161264166121757,456.61450757069747,-119.10248698241838,167.06692504882812,4761.76025390625,True
1599388099.9058893,0.0,10,0.5,0.5,-51.62780979347229,-0.2,-0.00825,-0.12575,0.4001975623017969,10,1,100,-0.12456024913817147,-10,-1,-100,18828.98323324602,0.011266217041366777,0.03614035847974907,0.9992832165319961,66.45754295459952,4.161264166121757,456.61450757069747,-119.10248698241838,167.06692504882812,4761.76025390625,True
1599388099.9407957,0.0,10,0.5,0.5,-50.644101752471926,-0.2,-0.00825,-0.12575,0.366857351524141,10,1,100,-0.0498452437207723,-10,-1,-100,18824.208230234333,0.010586145127545335,0.03584239304743668,0.9993013841639425,67.84023251545963,4.250644869528355,467.6721175296549,-119.46592758453325,163.245361328125,4761.76025390625,True
1599388099.9776976,0.0,10,0.5,0.5,-50.73046533508301,-0.2,-0.00825,-0.12575,0.3839529445491118,10,1,100,-0.07383387004330874,-10,-1,-100,18821.81527768774,0.010186504372885562,0.035731647548777265,0.9993095038535915,68.53092496738387,4.295480970929712,473.2204058378801,-119.64761315664997,161.2284698486328,4761.76025390625,True
1599388100.0145986,0.0,10,0.5,0.5,-49.864914525985725,-0.2,-0.00825,-0.12575,0.37820094113603914,10,1,100,-0.015843944640852148,-10,-1,-100,18817.018473744392,0.009297481273030143,0.035582847652883956,0.9993234800578286,69.89837674403364,4.384630570462091,484.2681016700144,-120.01091382263537,156.9771728515625,4761.76025390625,True
1599388100.0534945,0.0,10,0.5,0.5,-47.61125075950623,-0.2,-0.00825,-0.12575,0.38683129253316934,10,1,100,0.13130070735796912,-10,-1,-100,18807.381282706163,0.007154283261545917,0.03552968467130786,0.9993430130531614,72.81074452213822,4.575220961864995,507.78831695111944,-120.7372120791953,147.599609375,4761.76025390625,True
1599388100.0903955,0.0,10,0.5,0.5,-48.23021940422059,-0.2,-0.00825,-0.12575,0.3966150717949283,10,1,100,-0.014766494168097263,-10,-1,-100,18804.962908318383,0.006538695536412663,0.03557338251671075,0.9993456758884794,73.58517636037033,4.6259411913067225,514.0333802037973,-120.91872062599938,145.07296752929688,4761.76025390625,True
1599388100.1272964,0.0,10,0.5,0.5,-47.96570803184509,-0.2,-0.00825,-0.12575,0.39997705079900275,10,1,100,-0.004920930122913836,-10,-1,-100,18802.540903971298,0.005895116871141189,0.03564612779135983,0.9993470874378718,74.33122578366678,4.674904229186452,520.0974034246351,-121.10020264301022,142.47357177734375,4761.76025390625,True
1599388100.1661932,0.0,10,0.5,0.5,-44.93263283500672,-0.2,-0.00825,-0.12575,0.45139908845966437,10,1,100,0.2509257420898735,-10,-1,-100,18792.816600874066,0.0029903000383409016,0.03618184652320369,0.9993407487378126,76.92051180816968,4.84567705715912,541.7419763904069,-121.8258917650999,131.3480682373047,4761.76025390625,True
1599388100.2190511,0.0,10,0.5,0.5,-44.33908059349061,-0.2,-0.00825,-0.12575,0.4473914277304991,10,1,100,0.13845583323864208,-10,-1,-100,18787.932683071704,0.0013806732860473247,0.03663354718324201,0.99932781256305,77.88248958532014,4.909627871520688,550.3033710572331,-122.18862012317351,125.34951782226562,4761.76025390625,True
1599388100.2559524,0.0,10,0.5,0.5,-43.007315364837645,-0.2,-0.00825,-0.12575,0.46278112895651013,10,1,100,0.1779581113514756,-10,-1,-100,18783.034257740364,-0.0004322449648337399,0.03718396025355699,0.9993083439380219,78.54560509873178,4.954213276935128,556.7924594684639,-122.55129964805626,119.06028747558594,4761.76025390625,True
1599388100.2908592,0.0,10,0.5,0.5,-42.698908935928344,-0.2,-0.00825,-0.12575,0.44589943564082857,10,1,100,0.09860575178642601,-10,-1,-100,18780.579604782863,-0.0013483324132195292,0.03752991710390641,0.999294594862735,78.74973293354712,4.968252067680997,559.144973352251,-122.73262945772811,115.80726623535156,4761.76025390625,True
1599388100.3306804,0.0,10,0.5,0.5,-43.0656871383667,-0.2,-0.00825,-0.12575,0.4114427064683026,10,1,100,0.008258461893305714,-10,-1,-100,18780.579604782863,-0.0013483324132195292,0.03752991710390641,0.999294594862735,78.74973293354712,4.968252067680997,559.144973352251,-122.73262945772811,115.80726623535156,4761.76025390625,True
1599388100.3685448,0.0,10,0.5,0.5,-38.55203129310608,-0.2,-0.00825,-0.12575,0.6038353081682494,10,1,100,0.4453292389420661,-10,-1,-100,18770.724727356806,-0.005310853588625747,0.039277406642945496,0.9992142313646083,78.52215128571264,4.957311890930052,561.154757049044,-123.45797323352012,102.07121276855469,4761.76025390625,True
1599388100.4094348,0.0,10,0.5,0.5,-40.230535279464725,-0.2,-0.00825,-0.12575,0.4294409301737573,10,1,100,0.05062685719759551,-10,-1,-100,18770.724727356806,-0.005310853588625747,0.039277406642945496,0.9992142313646083,78.52215128571264,4.957311890930052,561.154757049044,-123.45797323352012,102.07121276855469,4761.76025390625,True
1599388100.4483304,0.0,10,0.5,0.5,-35.33462173919678,-0.2,-0.00825,-0.12575,0.7050807148306345,10,1,100,0.5325533977423333,-10,-1,-100,18760.811812222702,-0.009678723652794586,0.04177986417710796,0.9990799593915369,76.24169060177267,4.816472516200726,548.4070675858213,-124.1835584581252,87.18060302734375,4761.76025390625,True
1599388100.4862282,0.0,10,0.5,0.5,-37.15727023391724,-0.2,-0.00825,-0.12575,0.4554599793649681,10,1,100,0.09744969201688353,-10,-1,-100,18760.811812222702,-0.009678723652794586,0.04177986417710796,0.9990799593915369,76.24169060177267,4.816472516200726,548.4070675858213,-124.1835584581252,87.18060302734375,4761.76025390625,True
1599388100.5251236,0.0,10,0.5,0.5,-34.54315414428711,-0.2,-0.00825,-0.12575,0.6214745185276097,10,1,100,0.3362769561433636,-10,-1,-100,18755.8335812937,-0.011835137491045125,0.043283445004349795,0.9989927291572865,74.21247645774015,4.690794178139951,535.5486679709821,-124.5465227941698,79.30230712890625,4761.76025390625,True
1599388100.563022,0.0,10,0.5,0.5,-32.822563581085205,-0.2,-0.00825,-0.12575,0.6822729483648184,10,1,100,0.38692373388244783,-10,-1,-100,18750.84082818858,-0.014239820546753485,0.045196106648350644,0.9988766387570726,73.4365797689866,4.645509172405993,531.6726534382249,-124.90957980527422,71.13908386230469,4761.76025390625,True
1599388100.6010811,0.0,10,0.5,0.5,-31.04584581985474,-0.2,-0.00825,-0.12575,0.7097554053123959,10,1,100,0.39497554744626384,-10,-1,-100,18745.833557979786,-0.016483430611082053,0.047176535696851984,0.9987505549409889,76.82695388474147,4.865237939717783,558.021451967975,-125.27244956870783,62.686065673828125,4761.76025390625,True
1599388100.6409743,0.0,10,0.5,0.5,-29.21076453781128,-0.2,-0.00825,-0.12575,0.7745795358757009,10,1,100,0.4269304286115473,-10,-1,-100,18740.811780090327,-0.018797334949340484,0.04955665148377997,0.9985944114066118,80.10400901873511,5.079090659356226,583.7011124703511,-125.63508808250323,53.94822692871094,4761.76025390625,True
1599388100.6808681,0.0,10,0.5,0.5,-27.316172164154054,-0.2,-0.00825,-0.12575,0.8296432814280501,10,1,100,0.441438073416683,-10,-1,-100,18735.775503185345,-0.021016076491454375,0.052209724712162925,0.9984149784405207,83.09617821142996,5.275536777635736,607.4482625124705,-125.99751026903253,44.9239501953125,4761.76025390625,True
1599388100.7192762,0.0,10,0.5,0.5,-25.359635288619998,-0.2,-0.00825,-0.12575,0.8888713179616896,10,1,100,0.45238391025338276,-10,-1,-100,18730.724735199823,-0.02311474209727497,0.05514670088135483,0.9982106741964238,85.60240538764043,5.441013858985666,627.7696962176625,-126.35974476816016,35.613555908203125,4761.76025390625,True
1599388100.7571743,0.0,10,0.5,0.5,-23.338397619628907,-0.2,-0.00825,-0.12575,0.9542666295305976,10,1,100,0.45599370428910047,-10,-1,-100,18725.659481652663,-0.02503564858499653,0.05839516679144895,0.9979795693276128,87.32728861843907,5.5560482218006495,642.462050633726,-126.72185248698857,26.017669677734375,4761.76025390625,True
1599388100.793078,0.0,10,0.5,0.5,-21.263427494430545,-0.2,-0.00825,-0.12575,1.0195446543917859,10,1,100,0.45091504104382657,-10,-1,-100,18720.579745768453,-0.02671782591251694,0.06192437442650123,0.9977231728442488,88.1307784248345,5.611418778003304,650.4426456764156,-127.08390755602258,16.136138916015625,4761.76025390625,True
1599388100.830264,0.0,10,0.5,0.5,-20.790785964202882,-0.2,-0.00825,-0.12575,0.8737982407617451,10,1,100,0.36502777129500175,-10,-1,-100,18718.03444691014,-0.027446823783160823,0.06378718945465424,0.9975860195119477,88.14672424190609,5.614228278539086,651.5998443920771,-127.26494050612702,11.0882568359375,4761.76025390625,True
1599388100.8711562,0.0,10,0.5,0.5,-14.552261838531493,-0.2,-0.00825,-0.12575,1.5632635520564406,10,1,100,0.5156796740594147,-10,-1,-100,18707.81703525246,-0.029462959054213228,0.07172851746903826,0.9969889436826587,85.33748699712878,5.442784791795986,634.8964581453005,-127.98933378276456,-9.818939208984375,4761.76025390625,True
1599388100.9100926,0.0,10,0.5,0.5,-13.555803538513183,-0.2,-0.00825,-0.12575,1.2271823320335002,10,1,100,0.3676410717971661,-10,-1,-100,18702.6865881196,-0.02993201815696641,0.07586539670618615,0.9966687091865902,82.09440066015316,5.241869832018543,612.7399107737647,-128.35179869438593,-20.703094482421875,4761.76025390625,True
1599388100.9479911,0.0,10,0.5,0.5,-11.202922266387942,-0.2,-0.00825,-0.12575,1.2792995980636603,10,1,100,0.31805662340215546,-10,-1,-100,18697.541638439638,-0.02989121610072746,0.08007036938413857,0.9963409311810427,81.84251292667922,5.23446421125433,612.8250595154691,-128.7143681093819,-31.874420166015625,4761.76025390625,True
1599388100.9888825,0.0,10,0.5,0.5,-8.789369704055785,-0.2,-0.00825,-0.12575,1.3116364588147555,10,1,100,0.27861684120149904,-10,-1,-100,18692.38219509716,-0.029481351306364287,0.08415533940480001,0.9960164299723242,86.22558313845744,5.526109116555986,647.7054481225243,-129.07661518085263,-43.335235595703125,4761.76025390625,True
1599388101.3618844,0.0,10,0.5,0.5,-10.143099670791626,-0.2,-0.00825,-0.12575,0.9068373371194066,10,1,100,0.32090311270734445,-10,-1,-100,18692.38219509716,-0.029481351306364287,0.08415533940480001,0.9960164299723242,86.22558313845744,5.526109116555986,647.7054481225243,-129.07661518085263,-43.335235595703125,4761.76025390625,True
