Timestamp,Input Throttle,horizon,dT,dt,Input Roll,Roll P,Roll I,Roll D,Input Pitch,Pitch P,Pitch I,Pitch D,Input Yaw,Yaw P,Yaw I,Yaw D,Altitude,Direction X,Direction Y,Direction Z,Drag X,Drag Y,Drag Z,Vertical Velocity,Roll,Mass,Has Fuel
1599388417.4252431,0.0,10,0.5,0.5,-11.215445800781252,-0.2,-0.02275,-0.001,-0.00012713631235893984,10,1,100,0.4982066464674701,-10,-1,-100,19348.346773542697,-0.04884837520490535,-0.0001732898792251349,0.9988061905146858,61.166328403689704,3.691903068422178,234.7101753331749,-68.8481175386873,-33.922760009765625,4761.76025390625,True
1599388417.4601476,0.0,10,0.5,0.5,-11.342545264434815,-0.2,-0.02275,-0.001,0.00015698753086012098,10,1,100,0.5048371304082133,-10,-1,-100,19345.58190146333,-0.04895263466707507,-0.00015595155821573504,0.9988010889252491,61.34629214201397,3.704120386896313,236.69616872004002,-69.21302068487657,-33.925140380859375,4761.76025390625,True
1599388417.4990385,0.0,10,0.5,0.5,-11.470117950439453,-0.2,-0.02275,-0.001,-0.0015924397259014374,10,1,100,0.49930644765794874,-10,-1,-100,19345.58190146333,-0.04895263466707507,-0.00015595155821573504,0.9988010889252491,61.34629214201397,3.704120386896313,236.69616872004002,-69.21302068487657,-33.925140380859375,4761.76025390625,True
1599388417.537952,0.0,10,0.5,0.5,-11.531839409637453,-0.2,-0.02275,-0.001,0.03536451863679498,10,1,100,0.5074672144006271,-10,-1,-100,19340.008371013682,-0.04898232106049299,0.0001801625646798831,0.9987996294377451,61.71792443159079,3.7292998102406556,240.7387315860373,-69.9427850584656,-34.25274658203125,4761.76025390625,True
1599388417.5788035,0.0,10,0.5,0.5,-11.54502168045044,-0.2,-0.02275,-0.001,0.03663070198108858,10,1,100,0.501167307006094,-10,-1,-100,19337.199713353184,-0.0489075074226858,0.0004970678317470415,0.9988031881413227,61.92199386503599,3.7429862652124877,242.84437470388033,-70.30764436454427,-34.81976318359375,4761.76025390625,True
1599388417.6201763,0.0,10,0.5,0.5,-11.671123735809326,-0.2,-0.02275,-0.001,0.004989882057547447,10,1,100,0.5135394215290814,-10,-1,-100,19337.199713353184,-0.0489075074226858,0.0004970678317470415,0.9988031881413227,61.92199386503599,3.7429862652124877,242.84437470388033,-70.30764436454427,-34.81976318359375,4761.76025390625,True
1599388417.6611063,0.0,10,0.5,0.5,-11.62396120376587,-0.2,-0.02275,-0.001,0.05535725578255234,10,1,100,0.497866842745998,-10,-1,-100,19334.37646209437,-0.04872056806336442,0.0009545011675818614,0.9988119919059363,62.13663384238992,3.75727949561878,245.00091899177477,-70.67248658831322,-35.678955078125,4761.76025390625,True
1599388417.7014685,0.0,10,0.5,0.5,-11.516736740875244,-0.2,-0.02275,-0.001,0.0758279427745126,10,1,100,0.48964487350555186,-10,-1,-100,19331.538617611397,-0.048431586590828773,0.0015555790808426256,0.9988252908261877,62.35439684724316,3.771704330032027,247.17946405202588,-71.037310457617,-36.831512451171875,4761.76025390625,True
1599388417.742052,0.0,10,0.5,0.5,-10.998564953613283,-0.2,-0.02275,-0.001,0.1950177217531499,10,1,100,0.42187504221855987,-10,-1,-100,19325.819152327138,-0.047508758070832054,0.0031841428299028934,0.9988657463047804,62.76047487294477,3.798487149418201,251.44770614500206,-71.76690246325336,-40.016998291015625,4761.76025390625,True
1599388417.7819452,0.0,10,0.5,0.5,-11.115461768341065,-0.2,-0.02275,-0.001,0.03247976113011341,10,1,100,0.5189087700253151,-10,-1,-100,19325.819152327138,-0.047508758070832054,0.0031841428299028934,0.9988657463047804,62.76047487294477,3.798487149418201,251.44770614500206,-71.76690246325336,-40.016998291015625,4761.76025390625,True
1599388417.8229747,0.0,10,0.5,0.5,-10.820511537170411,-0.2,-0.02275,-0.001,0.1426916993955763,10,1,100,0.45181500354618553,-10,-1,-100,19322.937532848446,-0.04685562495913921,0.00418317486610719,0.9988929129079493,62.92225783969894,3.8091766419989956,253.42927346160835,-72.13167161242987,-42.050140380859375,4761.76025390625,True
1599388417.8648646,0.0,10,0.5,0.5,-10.336224444580079,-0.2,-0.02275,-0.001,0.15945950863564842,10,1,100,0.4283435626704034,-10,-1,-100,19320.041323062964,-0.04605030244077112,0.00523986001507054,0.9989253793512988,63.03390187492439,3.816650189481129,255.21519128231347,-72.49642526478478,-44.377655029296875,4761.76025390625,True
1599388417.904793,0.0,10,0.5,0.5,-9.78811053161621,-0.2,-0.02275,-0.001,0.19012458024828005,10,1,100,0.4063805675702025,-10,-1,-100,19317.13052357675,-0.04512116595245858,0.006474350972812704,0.9989605413441371,63.07488028230666,3.819632945673527,256.71879124139457,-72.86116684676884,-46.99786376953125,4761.76025390625,True
1599388417.9436517,0.0,10,0.5,0.5,-9.175079711151124,-0.2,-0.02275,-0.001,0.2045757146496428,10,1,100,0.37815340272225795,-10,-1,-100,19314.205134561053,-0.044023368981479155,0.007721961881198852,0.9990006578016981,63.024105919861,3.8168219969577724,257.84940573970766,-73.22590101798005,-49.912841796875,4761.76025390625,True
1599388417.9855406,0.0,10,0.5,0.5,-7.793291648101807,-0.2,-0.02275,-0.001,0.3748584537612445,10,1,100,0.19537020515918313,-10,-1,-100,19308.310588712222,-0.04136821444099628,0.010397322335913076,0.9990898690919686,62.546834216789705,3.787694763303514,258.5536287399774,-73.95537322215192,-56.624664306640625,4761.76025390625,True
1599388418.0269775,0.0,10,0.5,0.5,-6.987096630859376,-0.2,-0.02275,-0.001,0.25859499530745356,10,1,100,0.2881999820069043,-10,-1,-100,19305.34143097268,-0.03980519855097449,0.011763527441069574,0.9991382114554825,62.06645788489566,3.758142276225508,257.88778684844215,-74.32012784915287,-60.42218017578125,4761.76025390625,True
1599388418.0688329,0.0,10,0.5,0.5,-6.109860104370117,-0.2,-0.02275,-0.001,0.26142380749221195,10,1,100,0.25823995987529225,-10,-1,-100,19302.357682449976,-0.03812018600327794,0.013021006320519356,0.9991883229969596,61.387328031115395,3.7163824967485444,256.37286839840755,-74.68490776328125,-64.51565551757812,4761.76025390625,True
1599388418.1115172,0.0,10,0.5,0.5,-6.048350086212158,-0.2,-0.02275,-0.001,0.13688257006252755,10,1,100,0.4256811764389383,-10,-1,-100,19302.357682449976,-0.03812018600327794,0.013021006320519356,0.9991883229969596,61.387328031115395,3.7163824967485444,256.37286839840755,-74.68490776328125,-64.51565551757812,4761.76025390625,True
1599388418.152408,0.0,10,0.5,0.5,-4.162156105804444,-0.2,-0.02275,-0.001,0.409015921327319,10,1,100,0.005628870618396398,-10,-1,-100,19296.346406485536,-0.03431090267817079,0.015484522761799572,0.9992912445890078,59.31612901995285,3.589545651568951,250.2533424722575,-75.41458741519952,-73.58636474609375,4761.76025390625,True
1599388418.1923018,0.0,10,0.5,0.5,-3.0943650207519533,-0.2,-0.02275,-0.001,0.2927358609039852,10,1,100,0.14885579653673148,-10,-1,-100,19293.318875343073,-0.032161978850415204,0.01665580954099501,0.9993438803159598,57.8688670381776,3.501385546467553,245.38433038511954,-75.77950819099478,-78.56393432617188,4761.76025390625,True
1599388418.2351856,0.0,10,0.5,0.5,-3.011648310852051,-0.2,-0.02275,-0.001,0.17695434965555062,10,1,100,0.36221350139024816,-10,-1,-100,19293.318875343073,-0.032161978850415204,0.01665580954099501,0.9993438803159598,57.8688670381776,3.501385546467553,245.38433038511954,-75.77950819099478,-78.56393432617188,4761.76025390625,True
1599388418.2770755,0.0,10,0.5,0.5,-1.8683117904663087,-0.2,-0.02275,-0.001,0.2809101878005396,10,1,100,0.12932179244490638,-10,-1,-100,19290.276745291776,-0.030058139356465483,0.01758952385624501,0.9993933744571942,56.114944300986075,3.394982097609246,239.14813568619064,-76.1444947039145,-83.83889770507812,4761.76025390625,True
1599388418.3180962,0.0,10,0.5,0.5,0.5144503295898437,-0.2,-0.02275,-0.001,0.3784103831306612,10,1,100,-0.17663630571730848,-10,-1,-100,19284.14867799636,-0.02537865907238588,0.019313493496890505,0.9994913269421768,52.811029924313374,3.1959887960936575,227.33144931449144,-76.87466440939653,-95.27304077148438,4761.76025390625,True
1599388418.3609812,0.0,10,0.5,0.5,1.8512345100402834,-0.2,-0.02275,-0.001,0.2777162495235033,10,1,100,0.030111978373589754,-10,-1,-100,19281.062740033027,-0.023022063675758108,0.019953665462390358,0.9995358101732645,54.70077203041112,3.311719411901362,236.63876729219547,-77.23970267843109,-101.43419647216797,4761.76025390625,True
1599388418.4019046,0.0,10,0.5,0.5,1.9622844362258913,-0.2,-0.02275,-0.001,0.21492222333163727,10,1,100,0.26367138750579483,-10,-1,-100,19281.062740033027,-0.023022063675758108,0.019953665462390358,0.9995358101732645,54.70077203041112,3.311719411901362,236.63876729219547,-77.23970267843109,-101.43419647216797,4761.76025390625,True
1599388418.4427633,0.0,10,0.5,0.5,4.530023126602172,-0.2,-0.02275,-0.001,0.31938868816896493,10,1,100,-0.25104898310940116,-10,-1,-100,19274.847071823315,-0.018359465898133816,0.02089467301261472,0.9996130964786483,57.988120906215336,3.5147746963548863,253.34353410585715,-77.96948580737461,-113.70184326171875,4761.76025390625,True
1599388418.484687,0.0,10,0.5,0.5,5.797030777359009,-0.2,-0.02275,-0.001,0.2546763513532779,10,1,100,-0.051576360720033604,-10,-1,-100,19271.717349653598,-0.015953624242608565,0.02115353940942922,0.9996489432015517,59.33102761759863,3.598323935549291,260.47909524640863,-78.33423956092871,-119.4633560180664,4761.76025390625,True
1599388418.5265386,0.0,10,0.5,0.5,5.916275283241273,-0.2,-0.02275,-0.001,0.22960296498071908,10,1,100,0.18679114865642457,-10,-1,-100,19271.717349653598,-0.015953624242608565,0.02115353940942922,0.9996489432015517,59.33102761759863,3.598323935549291,260.47909524640863,-78.33423956092871,-119.4633560180664,4761.76025390625,True
1599388418.567429,0.0,10,0.5,0.5,7.140403440856934,-0.2,-0.02275,-0.001,0.2548378126078311,10,1,100,-0.05143970783737917,-10,-1,-100,19268.57303912274,-0.013808040603356412,0.021375553903231228,0.999676159418652,60.286618214011895,3.658255409330266,265.9622554994908,-78.69892080195675,-124.93162536621094,4761.76025390625,True
1599388418.611311,0.0,10,0.5,0.5,9.272633548355104,-0.2,-0.02275,-0.001,0.23797488579357307,10,1,100,-0.32296128687497305,-10,-1,-100,19262.240663051838,-0.009407770996489796,0.021418730443702134,0.999726328467475,61.209060048323565,3.717171750528882,272.6451419824257,-79.4281433539663,-134.9857940673828,4761.76025390625,True
1599388418.6522021,0.0,10,0.5,0.5,9.390939110565187,-0.2,-0.02275,-0.001,0.2341335238367531,10,1,100,0.11479025302629596,-10,-1,-100,19262.240663051838,-0.009407770996489796,0.021418730443702134,0.999726328467475,61.209060048323565,3.717171750528882,272.6451419824257,-79.4281433539663,-134.9857940673828,4761.76025390625,True
1599388418.69313,0.0,10,0.5,0.5,11.302431623458864,-0.2,-0.02275,-0.001,0.2228956697851418,10,1,100,-0.31940475848950245,-10,-1,-100,19255.84995348216,-0.0054812292625770155,0.02131223820604866,0.9997578429942021,61.10199180203716,3.7120387090347067,274.77783413756293,-80.15729381201018,-143.8571014404297,4761.76025390625,True
1599388418.739968,0.0,10,0.5,0.5,11.430101729583741,-0.2,-0.02275,-0.001,0.23391716498546947,10,1,100,0.07079172389238676,-10,-1,-100,19255.84995348216,-0.0054812292625770155,0.02131223820604866,0.9997578429942021,61.10199180203716,3.7120387090347067,274.77783413756293,-80.15729381201018,-143.8571014404297,4761.76025390625,True
1599388418.7808576,0.0,10,0.5,0.5,13.086314824295044,-0.2,-0.02275,-0.001,0.19775729452733903,10,1,100,-0.3292242459383773,-10,-1,-100,19249.400911079487,-0.0018628090184880778,0.02098169507033006,0.99977812459292,60.34023520619628,3.6659046096070034,273.93280171099246,-80.88646996718293,-151.5470733642578,4761.76025390625,True
1599388418.822746,0.0,10,0.5,0.5,13.19263164730072,-0.2,-0.02275,-0.001,0.23091441105999322,10,1,100,0.030501853004789494,-10,-1,-100,19249.400911079487,-0.0018628090184880778,0.02098169507033006,0.99977812459292,60.34023520619628,3.6659046096070034,273.93280171099246,-80.88646996718293,-151.5470733642578,4761.76025390625,True
1599388418.868659,0.0,10,0.5,0.5,13.990567809295655,-0.2,-0.02275,-0.001,0.20040436823200075,10,1,100,-0.15766024221575858,-10,-1,-100,19246.15451371204,-0.00017148020253515895,0.020703396472250182,0.9997856470109245,59.81437630970857,3.633750676926333,272.8263572134465,-81.25108549099683,-154.94970703125,4761.76025390625,True
1599388418.9105458,0.0,10,0.5,0.5,14.704853644561767,-0.2,-0.02275,-0.001,0.21814569635739822,10,1,100,-0.15694031047028584,-10,-1,-100,19242.893530879403,0.0013430120818308344,0.020611856435626966,0.9997866510875333,59.23384826091133,3.598186299361843,271.44812411274967,-81.61572342919233,-158.05343627929688,4761.76025390625,True
1599388418.9514294,0.0,10,0.5,0.5,15.354456135749816,-0.2,-0.02275,-0.001,0.19807389248598165,10,1,100,-0.1688287296935428,-10,-1,-100,19239.61796209996,0.0028121755729891285,0.02034665971529644,0.999789030299381,58.63500096535963,3.5614792335898526,269.9618912328269,-81.98038443725463,-160.86395263671875,4761.76025390625,True
1599388418.9942858,0.0,10,0.5,0.5,16.39655191688538,-0.2,-0.02275,-0.001,0.19139724194842084,10,1,100,-0.3088566191791119,-10,-1,-100,19233.02306213521,0.00540369974226039,0.020045608491649165,0.9997844635766725,57.46658751409555,3.489921856876168,267.0517783288799,-82.70977143186039,-165.59390258789062,4761.76025390625,True
1599388419.0347261,0.0,10,0.5,0.5,16.870429233551025,-0.2,-0.02275,-0.001,0.20783686876218838,10,1,100,-0.1790426280359118,-10,-1,-100,19229.70372932381,0.006562038394527339,0.019922585755196422,0.9997799909124685,56.94229302942753,3.4578709289492355,265.8402720570303,-83.07449249711273,-167.51480102539062,4761.76025390625,True
1599388419.0755835,0.0,10,0.5,0.5,17.26886692848206,-0.2,-0.02275,-0.001,0.21746163097900348,10,1,100,-0.180390451481125,-10,-1,-100,19226.369807451847,0.007612808464825579,0.019899604873745435,0.9997729996719988,56.48106479732884,3.429723815621849,264.9028752349735,-83.43922751186517,-169.13845825195312,4761.76025390625,True
1599388419.1169446,0.0,10,0.5,0.5,17.611893707275392,-0.2,-0.02275,-0.001,0.2166637181443284,10,1,100,-0.1825791697823616,-10,-1,-100,19223.02129578637,0.008572478168324934,0.01987284043353836,0.9997657639823224,56.098839752130864,3.4064480514201168,264.3186461850453,-83.80397248756168,-170.46658325195312,4761.76025390625,True
1599388419.1588333,0.0,10,0.5,0.5,17.878407939529417,-0.2,-0.02275,-0.001,0.22489971845844234,10,1,100,-0.18239597584595751,-10,-1,-100,19219.658194035757,0.009430463674419853,0.019924690397817066,0.9997570070109218,55.803388447238845,3.3885090050490265,264.1293844951833,-84.16872324242001,-171.49795532226562,4761.76025390625,True
1599388419.199733,0.0,10,0.5,0.5,18.08799769973755,-0.2,-0.02275,-0.001,0.23156036933223137,10,1,100,-0.18193693458946406,-10,-1,-100,19216.280502408626,0.01019272131132257,0.020033639507657817,0.9997473489438954,55.60241983050553,3.376363600775278,264.3772900553569,-84.53347554354359,-172.23297119140625,4761.76025390625,True
1599388419.2416263,0.0,10,0.5,0.5,18.222518230819702,-0.2,-0.02275,-0.001,0.2384263736211908,10,1,100,-0.1796707416745211,-10,-1,-100,19212.88822043629,0.01085412147261664,0.020195964242469652,0.9997371209849991,55.50107342690722,3.370309921970811,265.09296926094595,-84.89822483125832,-172.6717529296875,4761.76025390625,True
1599388419.2815228,0.0,10,0.5,0.5,18.270138095092772,-0.2,-0.02275,-0.001,0.22211532705722128,10,1,100,-0.11480241859422462,-10,-1,-100,19212.88822043629,0.01085412147261664,0.020195964242469652,0.9997371209849991,55.50107342690722,3.370309921970811,265.09296926094595,-84.89822483125832,-172.6717529296875,4761.76025390625,True
1599388419.3204482,0.0,10,0.5,0.5,18.33913235473633,-0.2,-0.02275,-0.001,0.2459292458919743,10,1,100,-0.1775902748126709,-10,-1,-100,19209.48134893668,0.011414896891261468,0.020412915715721753,0.9997264690908931,55.502526866547804,3.3705255095957996,266.29807782284104,-85.26296650663483,-172.81442260742188,4761.76025390625,True
1599388419.3608892,0.0,10,0.5,0.5,18.341741278076174,-0.2,-0.02275,-0.001,0.2539764474403166,10,1,100,-0.17279851302666235,-10,-1,-100,19206.059888195246,0.01187197499669357,0.020683481560681234,0.9997155844540021,55.607907944667176,3.3770628581304343,268.0046762122171,-85.62769621107505,-172.66104125976562,4761.76025390625,True
1599388419.400744,0.0,10,0.5,0.5,18.27850447463989,-0.2,-0.02275,-0.001,0.2595186749007795,10,1,100,-0.16823948336968744,-10,-1,-100,19202.623838785454,0.012237818641637796,0.020979528194970985,0.9997050040845102,55.81579944980857,3.3898204173542394,270.21260983485075,-85.99240931271623,-172.21214294433594,4761.76025390625,True
1599388419.4396405,0.0,10,0.5,0.5,18.144247449111937,-0.2,-0.02275,-0.001,0.270751912724807,10,1,100,-0.15964075983707635,-10,-1,-100,19199.173201183672,0.012486020724109375,0.021349932824813442,0.9996940930378919,56.12147693436553,3.4084968253441628,272.9055210127041,-86.35710151929516,-171.46705627441406,4761.76025390625,True
1599388419.4785602,0.0,10,0.5,0.5,17.67627767868042,-0.2,-0.02275,-0.001,0.32771185101367417,10,1,100,-0.15464535729879314,-10,-1,-100,19192.228166656336,0.012660860792072253,0.02220318433905118,0.9996733072405254,57.01016312726959,3.4625865645493468,279.69287160314343,-87.08640508956908,-169.0904083251953,4761.76025390625,True
1599388419.5204256,0.0,10,0.5,0.5,17.35063493309021,-0.2,-0.02275,-0.001,0.2961176924482629,10,1,100,-0.12812476518705024,-10,-1,-100,19188.733771885978,0.01257412087799789,0.022689553747340562,0.9996634811949929,57.577266931660745,3.497020493116213,283.7208404796166,-87.45100792594236,-167.45901489257812,4761.76025390625,True
1599388419.5603175,0.0,10,0.5,0.5,16.95820712852478,-0.2,-0.02275,-0.001,0.30443953372360166,10,1,100,-0.11194471143416139,-10,-1,-100,19185.22479448514,0.012344537155895233,0.02320480020891235,0.9996545151449431,58.21199464825971,3.5355171158968264,288.10831098158513,-87.81557279465383,-165.53256225585938,4761.76025390625,True
1599388419.6012096,0.0,10,0.5,0.5,16.500084437179567,-0.2,-0.02275,-0.001,0.31210666469629605,10,1,100,-0.09791454937524616,-10,-1,-100,19181.701235405868,0.012005628595737701,0.023739925355719293,0.9996460777825951,58.901496774690095,3.5773054734492518,292.7957289029982,-88.18009621245547,-163.311279296875,4761.76025390625,True
1599388419.6411085,0.0,10,0.5,0.5,16.48200887107849,-0.2,-0.02275,-0.001,0.25896477860040795,10,1,100,-0.13198669611944086,-10,-1,-100,19181.701235405868,0.012005628595737701,0.023739925355719293,0.9996460777825951,58.901496774690095,3.5773054734492518,292.7957289029982,-88.18009621245547,-163.311279296875,4761.76025390625,True
1599388419.6810024,0.0,10,0.5,0.5,15.955033297348024,-0.2,-0.02275,-0.001,0.3191992947423895,10,1,100,-0.07970498223974083,-10,-1,-100,19178.16309684445,0.011529293463083045,0.024284290083270717,0.9996386090219773,59.62801282090591,3.621326083697819,297.6979043650766,-88.54457511350586,-160.7954559326172,4761.76025390625,True
1599388419.721476,0.0,10,0.5,0.5,15.061104946899414,-0.2,-0.02275,-0.001,0.35562857024688455,10,1,100,-0.022729016892581916,-10,-1,-100,19172.82855644636,0.010577684410249671,0.025106625680321237,0.9996288160809819,60.743306363607914,3.6889471224847936,305.2384395182757,-89.09120616974562,-156.46995544433594,4761.76025390625,True
1599388419.7613702,0.0,10,0.5,0.5,14.708866077804567,-0.2,-0.02275,-0.001,0.30431609481481897,10,1,100,-0.07626068288528098,-10,-1,-100,19171.04308840353,0.010199997882590243,0.02538345943738057,0.9996257499835555,61.11027667444817,3.7112291908950894,307.74389466805405,-89.27339290368501,-154.88099670410156,4761.76025390625,True
1599388419.8032565,0.0,10,0.5,0.5,13.98706978149414,-0.2,-0.02275,-0.001,0.3331644768631397,10,1,100,-0.018830230631804612,-10,-1,-100,19167.461222290178,0.009336071452517435,0.025893111800713152,0.9996211204907134,61.81747837896733,3.754261246280629,312.64338401436385,-89.63773147228396,-151.48330688476562,4761.76025390625,True
1599388419.8441474,0.0,10,0.5,0.5,12.808384412002564,-0.2,-0.02275,-0.001,0.3586418938093204,10,1,100,0.06229686502044894,-10,-1,-100,19162.06110056385,0.007815802689420868,0.026583578118157376,0.9996160395885791,62.756226594087,3.8117518032392357,319.4288393807919,-90.18415782012491,-145.8369140625,4761.76025390625,True
1599388419.8820465,0.0,10,0.5,0.5,12.347934770965576,-0.2,-0.02275,-0.001,0.31372551076051475,10,1,100,-0.026880219916222747,-10,-1,-100,19160.253774823155,0.007248686602425267,0.02679818615603267,0.99961458260736,63.020572104881985,3.828094935624949,321.45654784295743,-90.3662807086693,-143.80812072753906,4761.76025390625,True
1599388419.9169526,0.0,10,0.5,0.5,11.432862818145752,-0.2,-0.02275,-0.001,0.33112648272738654,10,1,100,0.05096223512143826,-10,-1,-100,19156.62819650001,0.0060303879995320265,0.027147297752148154,0.9996132545366389,63.450355814990985,3.8550179490108305,325.0228042036723,-90.73050304500346,-139.53158569335938,4761.76025390625,True
1599388419.9558487,0.0,10,0.5,0.5,9.974130910491946,-0.2,-0.02275,-0.001,0.33610045428857493,10,1,100,0.15111634193328233,-10,-1,-100,19151.162513910444,0.004018300783047286,0.027505837359168662,0.9996135664195379,63.774512433987006,3.876632207646985,328.75634273815257,-91.27679837847572,-132.56903076171875,4761.76025390625,True
1599388419.9947443,0.0,10,0.5,0.5,9.906101431274415,-0.2,-0.02275,-0.001,0.3006765973015497,10,1,100,-0.04925975607790698,-10,-1,-100,19151.162513910444,0.004018300783047286,0.027505837359168662,0.9996135664195379,63.774512433987006,3.876632207646985,328.75634273815257,-91.27679837847572,-132.56903076171875,4761.76025390625,True
1599388420.0326433,0.0,10,0.5,0.5,7.765067845153808,-0.2,-0.02275,-0.001,0.3092518809272084,10,1,100,0.2736206832211208,-10,-1,-100,19143.823950177524,0.0010902852692494783,0.027580370926671514,0.999618994626242,63.39645009351657,3.8575330224844726,329.5605143382,-92.00519464707062,-122.26507568359375,4761.76025390625,True
1599388420.0725365,0.0,10,0.5,0.5,7.6819916870117195,-0.2,-0.02275,-0.001,0.30218256873401844,10,1,100,-0.018089333826011043,-10,-1,-100,19143.823950177524,0.0010902852692494783,0.027580370926671514,0.999618994626242,63.39645009351657,3.8575330224844726,329.5605143382,-92.00519464707062,-122.26507568359375,4761.76025390625,True
1599388420.1114328,0.0,10,0.5,0.5,6.4707933467864995,-0.2,-0.02275,-0.001,0.29176945032776846,10,1,100,0.15956797788327934,-10,-1,-100,19140.132815208635,-0.0005152911933860401,0.02748270977675706,0.9996221461824024,62.765561037074434,3.821527478324498,327.6472546000288,-92.36943293118746,-116.6753158569336,4761.76025390625,True
1599388420.1503286,0.0,10,0.5,0.5,4.591068990516662,-0.2,-0.02275,-0.001,0.25060794979698675,10,1,100,0.2572236901920524,-10,-1,-100,19134.56879114837,-0.0028526008389493248,0.027017571377376415,0.9996308886310596,61.29933646052533,3.7359440486051647,322.0005285387007,-92.91589173600423,-107.74605560302734,4761.76025390625,True
1599388420.190204,0.0,10,0.5,0.5,3.2230842605590824,-0.2,-0.02275,-0.001,0.24697214325817918,10,1,100,0.20111620804588448,-10,-1,-100,19130.841223570053,-0.004455493771113021,0.026560179944004857,0.9996372869279125,59.98217770131966,3.6579117139794586,316.39483054661883,-93.28028311705201,-101.42922973632812,4761.76025390625,True
1599388420.2300925,0.0,10,0.5,0.5,2.4587693939208983,-0.2,-0.02275,-0.001,0.2619800037078939,10,1,100,0.1277978838022526,-10,-1,-100,19128.97197341395,-0.0052336011570255185,0.02628019821944331,0.9996409158295172,59.26289548613162,3.6150180330386568,313.2505522356313,-93.46250815162705,-98.16177368164062,4761.76025390625,True
1599388420.2690213,0.0,10,0.5,0.5,0.9961496284484863,-0.2,-0.02275,-0.001,0.2201026559769556,10,1,100,0.2169253357304984,-10,-1,-100,19125.22253757948,-0.006739357976433254,0.025645242017650383,0.9996483894929865,57.55614695982397,3.5123708774291234,305.49287938340666,-93.82702106296628,-91.40840911865234,4761.76025390625,True
1599388420.30988,0.0,10,0.5,0.5,-2.006556984138489,-0.2,-0.02275,-0.001,0.10576986852177306,10,1,100,0.3864624303722803,-10,-1,-100,19117.679932541098,-0.00963675772302116,0.02402966826109914,0.9996647977916644,62.50402704328982,3.8154052464827735,334.50260965163335,-94.55581331149232,-77.029052734375,4761.76025390625,True
1599388420.3477771,0.0,10,0.5,0.5,-3.6671799112319947,-0.2,-0.02275,-0.001,0.1648830740775937,10,1,100,0.2410070621699955,-10,-1,-100,19113.88677370001,-0.010934193103787073,0.02310119183246097,0.9996733358238025,64.87192937933187,3.959857407873475,348.5996880441184,-94.92000414355607,-69.40313720703125,4761.76025390625,True
1599388420.3866737,0.0,10,0.5,0.5,-4.573874994850159,-0.2,-0.02275,-0.001,0.20728408915805946,10,1,100,0.17800863735261188,-10,-1,-100,19111.984732676763,-0.011527373684428202,0.02264659034854569,0.999677073660052,65.89815901563699,4.022433770708364,354.83735231920195,-95.10205200396263,-65.5692138671875,4761.76025390625,True
1599388420.426567,0.0,10,0.5,0.5,-5.482797472572328,-0.2,-0.02275,-0.001,0.20084229386119026,10,1,100,0.18330017956024106,-10,-1,-100,19110.079050974105,-0.012100601255564516,0.022179171994115374,0.9996807789384117,66.78668601891145,4.07665113804493,360.35414753521087,-95.28407192779974,-61.786468505859375,4761.76025390625,True
1599388420.465496,0.0,10,0.5,0.5,-8.518166882514954,-0.2,-0.02275,-0.001,0.02250839906328153,10,1,100,0.3563317727242822,-10,-1,-100,19102.419929240597,-0.014182739997611708,0.020137939172772786,0.9996966106234599,68.91355941282315,4.207611110982547,374.85075323948183,-96.01195227019284,-47.350830078125,4761.76025390625,True
1599388420.504358,0.0,10,0.5,0.5,-8.674161152839662,-0.2,-0.02275,-0.001,0.22588743802215047,10,1,100,0.14964520104624907,-10,-1,-100,19102.419929240597,-0.014182739997611708,0.020137939172772786,0.9996966106234599,68.91355941282315,4.207611110982547,374.85075323948183,-96.01195227019284,-47.350830078125,4761.76025390625,True
1599388420.5422564,0.0,10,0.5,0.5,-10.19374627571106,-0.2,-0.02275,-0.001,0.11237226952658302,10,1,100,0.24671345621397955,-10,-1,-100,19098.568534674123,-0.015052753727496326,0.019112660159725795,0.9997040166103356,69.18632638425423,4.225815009108128,377.8517480674868,-96.37583299693964,-40.575347900390625,4761.76025390625,True
1599388420.5801563,0.0,10,0.5,0.5,-10.998438236808777,-0.2,-0.02275,-0.001,0.1637790966339326,10,1,100,0.20538116860438635,-10,-1,-100,19096.63737925468,-0.015456836182860088,0.01865510940449321,0.999706493481123,69.14852621719336,4.224525928421076,378.4043292472396,-96.55777301416845,-37.2984619140625,4761.76025390625,True
1599388420.6200497,0.0,10,0.5,0.5,-12.413275736045838,-0.2,-0.02275,-0.001,0.10126243816618678,10,1,100,0.24695951961631488,-10,-1,-100,19092.764151298674,-0.016192167658379452,0.01767800734142909,0.9997126095848543,68.76185557878078,4.203337041517405,377.80012398418114,-96.92166995013471,-30.969024658203125,4761.76025390625,True
1599388420.6610994,0.0,10,0.5,0.5,-14.925129810142518,-0.2,-0.02275,-0.001,0.0007997338305050783,10,1,100,0.30887976659503363,-10,-1,-100,19084.974021859,-0.01741359982092963,0.01588425560002643,0.9997221898934271,66.95471211742809,4.098485259014863,370.8260987157031,-97.64960983380868,-19.201263427734375,4761.76025390625,True
1599388420.699835,0.0,10,0.5,0.5,-16.170834568786624,-0.2,-0.02275,-0.001,0.09170213245417583,10,1,100,0.2447274797064155,-10,-1,-100,19081.05711525958,-0.017931086231674633,0.01508883126480068,0.9997253639463264,65.83301266215086,4.032550976670533,366.0720310371911,-98.01367746727033,-13.762451171875,4761.76025390625,True
1599388420.7387319,0.0,10,0.5,0.5,-16.30932727508545,-0.2,-0.02275,-0.001,0.1703504822771211,10,1,100,0.19380827148278068,-10,-1,-100,19081.05711525958,-0.017931086231674633,0.01508883126480068,0.9997253639463264,65.83301266215086,4.032550976670533,366.0720310371911,-98.01367746727033,-13.762451171875,4761.76025390625,True
1599388420.7796223,0.0,10,0.5,0.5,-17.469574172973633,-0.2,-0.02275,-0.001,0.09264923259053565,10,1,100,0.2492007684229752,-10,-1,-100,19077.125644020038,-0.01842829357374196,0.014389740231802322,0.9997266293202463,64.58868788808192,3.958700692502339,360.5869800814346,-98.37781405911791,-8.619842529296875,4761.76025390625,True
1599388420.81828,0.0,10,0.5,0.5,-18.567989980316163,-0.2,-0.02275,-0.001,0.09011226122320984,10,1,100,0.2468711058966838,-10,-1,-100,19073.179605390993,-0.018852847934573865,0.013738645780388801,0.9997278728418434,63.3860252629141,3.8868506230654605,355.28282305693614,-98.74201450295985,-3.774078369140625,4761.76025390625,True
1599388420.8571653,0.0,10,0.5,0.5,-19.609565671539308,-0.2,-0.02275,-0.001,0.09127389987181803,10,1,100,0.2462215068615457,-10,-1,-100,19069.218996719923,-0.019226762592575244,0.013164975290649063,0.9997284706488084,62.0705584123136,3.8074439021930475,349.2922250118544,-99.10627682506521,0.775390625,4761.76025390625,True
1599388420.8970573,0.0,10,0.5,0.5,-20.569495572662355,-0.2,-0.02275,-0.001,0.09684952117216494,10,1,100,0.2513997089215202,-10,-1,-100,19065.24381811614,-0.01960917409803539,0.012700483188054385,0.9997270517586202,63.309313669363675,3.884095662847774,357.6744941884903,-99.47051349025269,5.029083251953125,4761.76025390625,True
1599388420.9359527,0.0,10,0.5,0.5,-21.479867608642582,-0.2,-0.02275,-0.001,0.09973184650933845,10,1,100,0.25226419851386783,-10,-1,-100,19061.254072898068,-0.01995974679556557,0.01231118192147418,0.9997249838368316,65.03940897955185,3.9903965708340436,368.89927432617407,-99.83465320562041,8.986602783203125,4761.76025390625,True
1599388420.9738524,0.0,10,0.5,0.5,-22.67034507598877,-0.2,-0.02275,-0.001,0.09245389611704144,10,1,100,0.2733526110204539,-10,-1,-100,19055.24215084198,-0.020465701186045543,0.011897291655778797,0.9997197654974221,67.21688948346566,4.12351867278243,383.4980661700859,-100.38069544752884,14.36810302734375,4761.76025390625,True
1599388421.0127473,0.0,10,0.5,0.5,-23.11334409179688,-0.2,-0.02275,-0.001,0.12313253481272085,10,1,100,0.2417077578895905,-10,-1,-100,19053.23089727899,-0.02063342572619841,0.011806067963969819,0.9997173993194435,67.84228227715617,4.161595522577581,387.8224109437828,-100.56266854838614,16.014068603515625,4761.76025390625,True
1599388421.0516515,0.0,10,0.5,0.5,-23.835692939758307,-0.2,-0.02275,-0.001,0.11935760367353321,10,1,100,0.2624814732992247,-10,-1,-100,19049.19747350854,-0.020970717031817857,0.01169415790594855,0.9997116962895064,68.95949215722625,4.229427915436433,395.7460633054508,-100.92655879551361,19.084259033203125,4761.76025390625,True
1599388421.0895832,0.0,10,0.5,0.5,-24.47745928192139,-0.2,-0.02275,-0.001,0.12916883562146558,10,1,100,0.2679144755968276,-10,-1,-100,19045.14949589013,-0.021323502678531118,0.011685423686995945,0.9997043358447407,69.91726874842752,4.287386652093269,402.80064998907307,-101.29038143967526,21.85906982421875,4761.76025390625,True
1599388421.1290457,0.0,10,0.5,0.5,-25.493055844116213,-0.2,-0.02275,-0.001,0.15937175677730173,10,1,100,0.3121358178938806,-10,-1,-100,19037.00989031291,-0.022043145090564695,0.011955149505344636,0.9996855376341207,71.44104591415346,4.379283719512091,414.76277673681597,-102.01785240278939,26.522415161132812,4761.76025390625,True
1599388421.1679735,0.0,10,0.5,0.5,-25.58004056968689,-0.2,-0.02275,-0.001,0.132085806766487,10,1,100,0.2405827825764119,-10,-1,-100,19037.00989031291,-0.022043145090564695,0.011955149505344636,0.9996855376341207,71.44104591415346,4.379283719512091,414.76277673681597,-102.01785240278939,26.522415161132812,4761.76025390625,True
1599388421.2068706,0.0,10,0.5,0.5,-26.360130822753906,-0.2,-0.02275,-0.001,0.2102093467255437,10,1,100,0.327184864991299,-10,-1,-100,19028.812096573063,-0.022827150520230193,0.012667576769269204,0.9996591687659956,72.57096263985088,4.447352977972979,424.5569924418055,-102.74513337610378,30.005706787109375,4761.76025390625,True
1599388421.2472715,0.0,10,0.5,0.5,-26.433496542358398,-0.2,-0.02275,-0.001,0.13885951343197495,10,1,100,0.2491817522833148,-10,-1,-100,19028.812096573063,-0.022827150520230193,0.012667576769269204,0.9996591687659956,72.57096263985088,4.447352977972979,424.5569924418055,-102.74513337610378,30.005706787109375,4761.76025390625,True
1599388421.6378427,0.0,10,0.5,0.5,-26.76109676895142,-0.2,-0.02275,-0.001,0.19340048720140895,10,1,100,0.29523133667580187,-10,-1,-100,19024.69138364517,-0.023242510025682207,0.013163855984010767,0.9996431856534302,73.03149597862874,4.475167725745576,428.8793038097296,-103.10871555447491,31.304718017578125,4761.76025390625,True
1599388421.6727543,0.0,10,0.5,0.5,-27.021611478424074,-0.2,-0.02275,-0.001,0.21711797731647023,10,1,100,0.3008851566130718,-10,-1,-100,19020.55612818408,-0.023668204906497722,0.01383021120500733,0.999624200054465,73.44024538703832,4.499937967520966,432.9175928310226,-103.47226419345614,32.30987548828125,4761.76025390625,True
1599388421.7096488,0.0,10,0.5,0.5,-27.216362780761724,-0.2,-0.02275,-0.001,0.23103709816513218,10,1,100,0.308377215928761,-10,-1,-100,19016.406331828446,-0.02411993855728088,0.01456114520518883,0.9996030220113915,73.80882812174526,4.522371683614977,436.7373103287284,-103.83578243331503,33.019805908203125,4761.76025390625,True
1599388421.757487,0.0,10,0.5,0.5,-27.30729882278443,-0.2,-0.02275,-0.001,0.2055756932881063,10,1,100,0.2884675560203433,-10,-1,-100,19014.325981013943,-0.024346286570306106,0.014991741657790495,0.9995911694349358,73.98100416553055,4.532889846063853,438.5818868615968,-104.01753096732921,33.2646484375,4761.76025390625,True
1599388421.805403,0.0,10,0.5,0.5,-27.400364418029785,-0.2,-0.02275,-0.001,0.2672104086290882,10,1,100,0.31711846771813706,-10,-1,-100,19010.154375125654,-0.024809144996814338,0.015940612505352007,0.999565107032794,74.3057593008518,4.552803591318929,442.16679830241907,-104.38100833363107,33.53363037109375,4761.76025390625,True
1599388421.8562634,0.0,10,0.5,0.5,-27.363797330474856,-0.2,-0.02275,-0.001,0.42351115043983234,10,1,100,0.37577320265828956,-10,-1,-100,19001.767549591954,-0.02575966076767321,0.018220277788142506,0.9995021067283737,74.89267453505278,4.589047368615971,449.0086841924816,-105.10788995214718,33.18949890136719,4761.76025390625,True
1599388421.8931665,0.0,10,0.5,0.5,-27.389918188095095,-0.2,-0.02275,-0.001,0.196198107570897,10,1,100,0.2811652413813165,-10,-1,-100,19001.767549591954,-0.02575966076767321,0.018220277788142506,0.9995021067283737,74.89267453505278,4.589047368615971,449.0086841924816,-105.10788995214718,33.18949890136719,4761.76025390625,True
1599388421.9300623,0.0,10,0.5,0.5,-27.281991092300416,-0.2,-0.02275,-0.001,0.3467491830074354,10,1,100,0.33294859462976234,-10,-1,-100,18997.55233139405,-0.02622703987386171,0.019583228357308493,0.9994641762197185,75.15923261076013,4.605608936611652,452.28960441641505,-105.4712975533829,32.57708740234375,4761.76025390625,True
1599388421.9679585,0.0,10,0.5,0.5,-26.87334428329468,-0.2,-0.02275,-0.001,0.5619908151440879,10,1,100,0.38359366202078704,-10,-1,-100,18989.078288912773,-0.02710853613323939,0.022772081822472628,0.9993730832667964,75.62674555510884,4.634793706798313,458.4945394058981,-106.19805497277562,30.472442626953125,4761.76025390625,True
1599388422.0048785,0.0,10,0.5,0.5,-26.57671294631958,-0.2,-0.02275,-0.001,0.4484467902316711,10,1,100,0.33745964771366543,-10,-1,-100,18984.819466079585,-0.027486604070233442,0.02462963519609696,0.9993187017497438,75.81954693900838,4.646886732869056,461.3663162572378,-106.56140876369584,28.980911254882812,4761.76025390625,True
1599388422.0427651,0.0,10,0.5,0.5,-26.575873067855838,-0.2,-0.02275,-0.001,0.2638876587119208,10,1,100,0.30011879936926067,-10,-1,-100,18984.819466079585,-0.027486604070233442,0.02462963519609696,0.9993187017497438,75.81954693900838,4.646886732869056,461.3663162572378,-106.56140876369584,28.980911254882812,4761.76025390625,True
1599388422.0776706,0.0,10,0.5,0.5,-26.212067501831054,-0.2,-0.02275,-0.001,0.4923864355067155,10,1,100,0.3308592198425958,-10,-1,-100,18980.546109073097,-0.027762204170859624,0.026696473367675014,0.9992580038855353,75.97329265112228,4.656576897077125,464.0103336214642,-106.92474976661433,27.197235107421875,4761.76025390625,True
1599388422.1155722,0.0,10,0.5,0.5,-26.000842678070068,-0.2,-0.02275,-0.001,0.4050594644083986,10,1,100,0.3186247342519585,-10,-1,-100,18978.40398057329,-0.027897805303091848,0.027769839002613393,0.9992249739178058,76.03037044460045,4.660204500264043,465.2146620639825,-107.1064163638612,26.195358276367188,4761.76025390625,True
1599388422.1544662,0.0,10,0.5,0.5,-25.03400414772034,-0.2,-0.02275,-0.001,0.8234548761672105,10,1,100,0.33828663368819856,-10,-1,-100,18969.799134396715,-0.02819638917568168,0.0325372126923671,0.9990727167867537,76.09881480592846,4.664913117780456,469.0657238167212,-107.8330702387213,21.457473754882812,4761.76025390625,True
1599388422.1943574,0.0,10,0.5,0.5,-24.447604861450195,-0.2,-0.02275,-0.001,0.6379550384200372,10,1,100,0.310395157189917,-10,-1,-100,18965.474911463098,-0.028210770089319534,0.03516887618441018,0.998983134291512,76.01275300842507,4.65992704565635,470.2536325350803,-108.1963984529581,18.650131225585938,4761.76025390625,True
1599388422.2322512,0.0,10,0.5,0.5,-24.41655224342346,-0.2,-0.02275,-0.001,0.37671151558363436,10,1,100,0.3092972283353821,-10,-1,-100,18965.474911463098,-0.028210770089319534,0.03516887618441018,0.998983134291512,76.01275300842507,4.65992704565635,470.2536325350803,-108.1963984529581,18.650131225585938,4761.76025390625,True
1599388422.26912,0.0,10,0.5,0.5,-23.76068065681458,-0.2,-0.02275,-0.001,0.6928645961663862,10,1,100,0.27771331119461173,-10,-1,-100,18961.13615538273,-0.02792141528865649,0.038027587282074955,0.9988865286776984,75.82292668843735,4.648649650894174,470.79648042689035,-108.55973569792542,15.551651000976562,4761.76025390625,True
1599388422.3090134,0.0,10,0.5,0.5,-23.042066866683964,-0.2,-0.02275,-0.001,0.7366617729213013,10,1,100,0.26641816828476,-10,-1,-100,18956.782865229412,-0.027553717121126902,0.04100656506000222,0.9987788815822993,75.50053063620615,4.6293749986681725,470.5078636941092,-108.92308913353861,12.160675048828125,4761.76025390625,True
1599388422.3469458,0.0,10,0.5,0.5,-21.866661841201783,-0.2,-0.02275,-0.001,0.9637535327047762,10,1,100,0.20602473395489634,-10,-1,-100,18950.225676804315,-0.026669208768331003,0.04575972145914706,0.9985964155732047,74.73989584247653,4.583896634149862,468.31790084408806,-109.4681670368707,6.527099609375,4761.76025390625,True
1599388422.3848493,0.0,10,0.5,0.5,-21.411035215377808,-0.2,-0.02275,-0.001,0.6721852867142384,10,1,100,0.24633484093104618,-10,-1,-100,18948.03267915605,-0.026231965172267828,0.04740925445878595,0.998531044382128,74.40417047837455,4.563857433943747,467.06219202235354,-109.6498764982772,4.5032958984375,4761.76025390625,True
1599388422.4257016,0.0,10,0.5,0.5,-20.49977939605713,-0.2,-0.02275,-0.001,0.8805751180007342,10,1,100,0.1761921351491944,-10,-1,-100,18943.635780537385,-0.025197950613191713,0.05078257417991428,0.9983918035744068,73.58794730574456,4.515217910255329,463.6181138145493,-110.01332704957241,0.236663818359375,4761.76025390625,True
1599388422.4646375,0.0,10,0.5,0.5,-18.547205324935913,-0.2,-0.02275,-0.001,1.3090575722766795,10,1,100,-0.046129481119907,-10,-1,-100,18934.79836256453,-0.02223891236927345,0.05772074811164516,0.9980850394701165,71.28838223251363,4.378654240160163,452.3923151992237,-110.74038434789705,-9.17352294921875,4761.76025390625,True
1599388422.5035248,0.0,10,0.5,0.5,-18.473872037124636,-0.2,-0.02275,-0.001,0.6183426065779887,10,1,100,0.2492220140917605,-10,-1,-100,18934.79836256453,-0.02223891236927345,0.05772074811164516,0.9980850394701165,71.28838223251363,4.378654240160163,452.3923151992237,-110.74038434789705,-9.17352294921875,4761.76025390625,True
1599388422.540948,0.0,10,0.5,0.5,-16.820163264465332,-0.2,-0.02275,-0.001,1.1885621128653856,10,1,100,-0.09292721216121605,-10,-1,-100,18928.13212133583,-0.01913360930600441,0.06287733370597692,0.9978378354727547,68.91245672563922,4.2380020883347145,439.68278642914754,-111.28584460027486,-17.0006103515625,4761.76025390625,True
1599388422.5808775,0.0,10,0.5,0.5,-15.618092815017702,-0.2,-0.02275,-0.001,1.0508843110071457,10,1,100,-0.047973936978104426,-10,-1,-100,18923.669777859468,-0.016727511550033273,0.06628594048300943,0.9976604454681094,69.6278037208637,4.286668052265883,445.8410346911192,-111.64948302615274,-22.584716796875,4761.76025390625,True
1599388422.6237237,0.0,10,0.5,0.5,-15.529867642211915,-0.2,-0.02275,-0.001,0.7131353397337553,10,1,100,0.19148751276508053,-10,-1,-100,18923.669777859468,-0.016727511550033273,0.06628594048300943,0.9976604454681094,69.6278037208637,4.286668052265883,445.8410346911192,-111.64948302615274,-22.584716796875,4761.76025390625,True
1599388422.6646502,0.0,10,0.5,0.5,-13.013102979660035,-0.2,-0.02275,-0.001,1.3933787719944186,10,1,100,-0.454456844307813,-10,-1,-100,18914.701468927437,-0.010865729448042682,0.07244168344510764,0.9973134604642618,72.48281262116042,4.474361683284388,467.43300425128496,-112.37642322441927,-34.63922119140625,4761.76025390625,True
1599388422.7045476,0.0,10,0.5,0.5,-12.910973249816895,-0.2,-0.02275,-0.001,0.7812458854009007,10,1,100,0.13001579730718463,-10,-1,-100,18914.701468927437,-0.010865729448042682,0.07244168344510764,0.9973134604642618,72.48281262116042,4.474361683284388,467.43300425128496,-112.37642322441927,-34.63922119140625,4761.76025390625,True
1599388422.7444673,0.0,10,0.5,0.5,-11.504548499298096,-0.2,-0.02275,-0.001,1.1061299476248023,10,1,100,-0.23851147520931448,-10,-1,-100,18910.195512440405,-0.0075306524139591305,0.07536659753952028,0.997127456872759,73.77600058120541,4.560867549036139,477.45154053158035,-112.73972345633024,-41.106658935546875,4761.76025390625,True
1599388422.7843673,0.0,10,0.5,0.5,-8.623465908813477,-0.2,-0.02275,-0.001,1.3379238883195335,10,1,100,-0.7111493123566582,-10,-1,-100,18901.14001693169,-0.00021945527832038762,0.08010591265341081,0.9967863334723971,75.90392934558695,4.705866315607363,494.66433323715205,-113.4660205200934,-54.933441162109375,4761.76025390625,True
1599388422.8242633,0.0,10,0.5,0.5,-7.769909777069091,-0.2,-0.02275,-0.001,0.9712242851299038,10,1,100,-0.19390866396506376,-10,-1,-100,18898.867066008854,0.001701252123342204,0.0810510239477741,0.9967085016484158,76.24237644592095,4.729950812657204,497.7320362886255,-113.64754458109451,-58.5760498046875,4761.76025390625,True
1599388422.8641229,0.0,10,0.5,0.5,-6.892714094543458,-0.2,-0.02275,-0.001,0.9758203437394795,10,1,100,-0.21914653222072092,-10,-1,-100,18896.590484808432,0.0036523311065082306,0.0819244816120388,0.9966318476699845,76.48080508639258,4.747688160308045,500.15277683307363,-113.8290557713858,-62.29266357421875,4761.76025390625,True
1599388422.9040468,0.0,10,0.5,0.5,-3.6379469375610354,-0.2,-0.02275,-0.001,1.1696239502419372,10,1,100,-0.8841541011743972,-10,-1,-100,18887.447859905893,0.011448025133078238,0.08445838160821052,0.9963612419683305,76.31811330559445,4.747497294855259,502.5376885087514,-114.55505771201682,-77.90280151367188,4761.76025390625,True
1599388422.942956,0.0,10,0.5,0.5,-1.8385492546081543,-0.2,-0.02275,-0.001,0.9900523294222867,10,1,100,-0.5356639583403059,-10,-1,-100,18882.85476644663,0.015336303006466186,0.08510515083955475,0.9962539390690862,75.46726645199678,4.698497215930256,498.64314582809476,-114.91809767155651,-86.15478515625,4761.76025390625,True
1599388422.982843,0.0,10,0.5,0.5,0.02902911758422867,-0.2,-0.02275,-0.001,0.9556189171578066,10,1,100,-0.5348461688324636,-10,-1,-100,18878.247149064555,0.01883233033919078,0.08535988474097825,0.9961721906432655,74.04417246930588,4.613430715252325,490.91966821594605,-115.28121299522762,-94.70455932617188,4761.76025390625,True
1599388423.0237427,0.0,10,0.5,0.5,1.9627852081298829,-0.2,-0.02275,-0.001,0.9198750683395711,10,1,100,-0.5703486483241395,-10,-1,-100,18873.62500406918,0.022300959689874535,0.08524917698550841,0.9961100566805879,72.03660922766447,4.4918291904531795,479.2469316743245,-115.6444364776626,-103.5514907836914,4761.76025390625,True
1599388423.0646245,0.0,10,0.5,0.5,3.9448527601242067,-0.2,-0.02275,-0.001,0.8852059272404148,10,1,100,-0.5700180380333922,-10,-1,-100,18868.988325847196,0.02541577312308942,0.08481612025554122,0.9960724191650692,69.43088128589275,4.333112601668198,463.492215083928,-116.00779462107306,-112.54012298583984,4761.76025390625,True
1599388423.1055195,0.0,10,0.5,0.5,5.893545489501954,-0.2,-0.02275,-0.001,0.8543053921876512,10,1,100,-0.566211759152649,-10,-1,-100,18864.33710909891,0.028179835979304256,0.08413026887617281,0.9960562206537351,66.32347246702028,4.143419417756542,444.2582535143085,-116.37130408359182,-121.39811706542969,4761.76025390625,True
1599388423.1454046,0.0,10,0.5,0.5,6.082063983535767,-0.2,-0.02275,-0.001,0.9240593886675991,10,1,100,-0.2937100300739,-10,-1,-100,18864.33710909891,0.028179835979304256,0.08413026887617281,0.9960562206537351,66.32347246702028,4.143419417756542,444.2582535143085,-116.37130408359182,-121.39811706542969,4761.76025390625,True
1599388423.185268,0.0,10,0.5,0.5,9.658595611572265,-0.2,-0.02275,-0.001,0.7159797739910599,10,1,100,-0.7853568899614396,-10,-1,-100,18854.99105322326,0.032616888807015285,0.08223066904153459,0.9960794424309402,68.45898074386417,4.287273795280503,461.6690739816056,-117.09824648828611,-138.2830352783203,4761.76025390625,True
1599388423.2242064,0.0,10,0.5,0.5,9.831331019973755,-0.2,-0.02275,-0.001,0.9061522330936945,10,1,100,-0.34493524159887023,-10,-1,-100,18854.99105322326,0.032616888807015285,0.08223066904153459,0.9960794424309402,68.45898074386417,4.287273795280503,461.6690739816056,-117.09824648828611,-138.2830352783203,4761.76025390625,True
1599388423.2650878,0.0,10,0.5,0.5,11.62097724761963,-0.2,-0.02275,-0.001,0.7734586214223877,10,1,100,-0.5327169444875255,-10,-1,-100,18850.29622518376,0.03429589007265427,0.08102329107625565,0.996121989631439,70.0375056049777,4.391505317925706,473.89734301076896,-117.46150734820971,-146.2845916748047,4761.76025390625,True
1599388423.303991,0.0,10,0.5,0.5,13.351615631484988,-0.2,-0.02275,-0.001,0.7843383182228651,10,1,100,-0.5064406887481502,-10,-1,-100,18845.586869523628,0.03555552202654434,0.08002540034285713,0.996158491482849,71.30942887938521,4.476296979455152,484.11308837969125,-117.82466735829945,-153.98388671875,4761.76025390625,True
1599388423.3418882,0.0,10,0.5,0.5,15.00529514732361,-0.2,-0.02275,-0.001,0.750714222248112,10,1,100,-0.4820165118117674,-10,-1,-100,18840.86298990948,0.03645668810621051,0.07881658333205649,0.9962222925051354,72.13550637523042,4.532658191635607,491.3488801527975,-118.18775830871323,-161.38833618164062,4761.76025390625,True
1599388423.3807795,0.0,10,0.5,0.5,17.96373095588684,-0.2,-0.02275,-0.001,0.6636998878597367,10,1,100,-0.4786603508794538,-10,-1,-100,18831.371663210215,0.03722621909279531,0.07693233625280477,0.9963411184181552,72.48552351490686,4.5620283817566625,497.00968849371833,-118.91387157893126,-175.292236328125,4761.76025390625,True
1599388423.4196565,0.0,10,0.5,0.5,-52.920182628250124,-0.2,-0.02275,-0.001,0.769677739225806,10,1,100,-0.3937566689184237,-10,-1,-100,18826.604216063162,0.0371372193457234,0.07619048078271126,0.9964014439859904,72.12632334008097,4.542548509046923,496.1822295232915,-119.27694878703522,178.20700073242188,4761.76025390625,True
1599388423.4585738,0.0,10,0.5,0.5,-51.961674727821354,-0.2,-0.02275,-0.001,0.7827505216215843,10,1,100,-0.36687635439348315,-10,-1,-100,18821.82224436407,0.036798456480289614,0.07564314537368133,0.9964557130944879,71.48702798463306,4.5052947953875755,493.4093861154672,-119.64006613135022,172.00794982910156,4761.76025390625,True
1599388423.499464,0.0,10,0.5,0.5,-51.36930955734254,-0.2,-0.02275,-0.001,0.7978345233444567,10,1,100,-0.3309469644711887,-10,-1,-100,18817.025746735744,0.03615351152754968,0.07529103408557283,0.9965059878347708,70.60668661793882,4.452898487876039,488.94218566128745,-120.00323674448896,165.80938720703125,4761.76025390625,True
1599388423.539349,0.0,10,0.5,0.5,-50.734403361129765,-0.2,-0.02275,-0.001,0.8194508931250357,10,1,100,-0.30049030804712196,-10,-1,-100,18812.214720116113,0.03528307044343254,0.07517548103510728,0.9965459106289202,69.43035884228327,4.382051687996825,482.38178817444907,-120.36647399620831,159.36907958984375,4761.76025390625,True
1599388423.5792155,0.0,10,0.5,0.5,-50.0287277130127,-0.2,-0.02275,-0.001,0.8440437983299522,10,1,100,-0.26754681413863307,-10,-1,-100,18807.389161631,0.034185816572826946,0.07530214538912972,0.9965745917115504,67.90951463604324,4.289815106036126,473.368466146858,-120.72979211014363,152.64837646484375,4761.76025390625,True
1599388423.6191072,0.0,10,0.5,0.5,-50.697317377853395,-0.2,-0.02275,-0.001,0.8306845105624683,10,1,100,-0.3774290939757736,-10,-1,-100,18807.389161631,0.034185816572826946,0.07530214538912972,0.9965745917115504,67.90951463604324,4.289815106036126,473.368466146858,-120.72979211014363,152.64837646484375,4761.76025390625,True
1599388423.6599987,0.0,10,0.5,0.5,-49.950836852264416,-0.2,-0.02275,-0.001,0.8731287599601314,10,1,100,-0.2337340786892661,-10,-1,-100,18802.549068052438,0.032878071954071594,0.07569430085970157,0.9965888847473384,66.53388836531178,4.207213919829152,465.30177092841603,-121.09318914077201,145.64166259765625,4761.76025390625,True
1599388423.6988974,0.0,10,0.5,0.5,-47.63269886283875,-0.2,-0.02275,-0.001,1.0196566244670033,10,1,100,-0.023823066919032743,-10,-1,-100,18792.825287982123,0.029782220210126956,0.07738772186502622,0.9965561498801244,71.29371433820195,4.5190778675598695,501.8475752898516,-121.81959791122291,130.76963806152344,4761.76025390625,True
1599388423.7547448,0.0,10,0.5,0.5,-48.295385156250006,-0.2,-0.02275,-0.001,0.8500507560867544,10,1,100,-0.33283091113185487,-10,-1,-100,18792.825287982123,0.029782220210126956,0.07738772186502622,0.9965561498801244,71.29371433820195,4.5190778675598695,501.8475752898516,-121.81959791122291,130.76963806152344,4761.76025390625,True
1599388423.7936437,0.0,10,0.5,0.5,-47.37919377861023,-0.2,-0.02275,-0.001,0.9949724111878673,10,1,100,-0.13804039333022194,-10,-1,-100,18787.94161459303,0.02801746501910855,0.07870649042182455,0.9965040441560598,73.42776274502377,4.660224354837872,518.5444443958824,-122.1825672169317,122.90470886230469,4761.76025390625,True
1599388423.833567,0.0,10,0.5,0.5,-44.731993089294434,-0.2,-0.02275,-0.001,1.2728165525949802,10,1,100,0.09820447866352061,-10,-1,-100,18778.13072876446,0.0242738330583066,0.08242961389155222,0.9963012294393433,77.05802304003075,4.901983558007247,547.6957709962215,-122.90811433328608,106.3203125,4761.76025390625,True
1599388423.8734608,0.0,10,0.5,0.5,-42.83260025711059,-0.2,-0.02275,-0.001,1.1694926458119834,10,1,100,-0.061510081184837695,-10,-1,-100,18773.203524324577,0.022334175807369374,0.084869291408633,0.9961417509404985,78.11354327905582,4.9740629211572465,556.9835877838916,-123.27076420572027,97.60173034667969,4761.76025390625,True
1599388423.9113667,0.0,10,0.5,0.5,-42.6720446899414,-0.2,-0.02275,-0.001,0.9264475087074003,10,1,100,-0.25402937821126836,-10,-1,-100,18773.203524324577,0.022334175807369374,0.084869291408633,0.9961417509404985,78.11354327905582,4.9740629211572465,556.9835877838916,-123.27076420572027,97.60173034667969,4761.76025390625,True
1599388423.9488199,0.0,10,0.5,0.5,-39.78116093635559,-0.2,-0.02275,-0.001,1.4083641395146398,10,1,100,0.0625122886034866,-10,-1,-100,18765.78552028665,0.019469087323344493,0.08924164418204149,0.9958197043554029,78.50115135028211,5.005458818751772,562.4522964114913,-123.81471481325983,83.99122619628906,4761.76025390625,True
1599388423.9857588,0.0,10,0.5,0.5,-38.682853657531744,-0.2,-0.02275,-0.001,1.153726178114768,10,1,100,-0.12464430877314511,-10,-1,-100,18763.305599332787,0.018580261389582242,0.09088883236046225,0.9956876990496802,78.26928796848188,4.992911271248584,561.6944615622707,-123.99604958866233,79.31245422363281,4761.76025390625,True
1599388424.0236201,0.0,10,0.5,0.5,-37.56590333518982,-0.2,-0.02275,-0.001,1.1789399506502043,10,1,100,-0.12122822919586886,-10,-1,-100,18760.82205105014,0.017755369412898816,0.0926013225575566,0.9955449472111255,77.83840939249986,4.9677680696494155,559.5030716210342,-124.17740310565607,74.562255859375,4761.76025390625,True
1599388424.0665452,0.0,10,0.5,0.5,-35.44072886161804,-0.2,-0.02275,-0.001,1.4195622086872028,10,1,100,-0.026984347261290398,-10,-1,-100,18755.844071572414,0.01616364182301765,0.09632988037600743,0.9952182126698452,76.33674019985928,4.877181823707316,550.4818000138744,-124.54018768511955,64.84942626953125,4761.76025390625,True
1599388424.1063964,0.0,10,0.5,0.5,-33.25719755058289,-0.2,-0.02275,-0.001,1.49392011524214,10,1,100,-0.040910214460355115,-10,-1,-100,18750.851576808374,0.014858410470509046,0.10037669974372006,0.9948385526239164,73.94336116196796,4.730659682473904,534.944174070406,-124.90310543340199,54.852203369140625,4761.76025390625,True
1599388424.1453302,0.0,10,0.5,0.5,-31.02778267364502,-0.2,-0.02275,-0.001,1.566952988593982,10,1,100,-0.05835119726606021,-10,-1,-100,18745.844563101185,0.013843958002589104,0.10469866258313129,0.9944076301397361,74.6453432488503,4.7836397686891265,541.7590459898449,-125.26605703058647,44.57011413574219,4761.76025390625,True
1599388424.1852245,0.0,10,0.5,0.5,-28.71802424621582,-0.2,-0.02275,-0.001,1.6420815831809012,10,1,100,-0.08240215269132073,-10,-1,-100,18740.82304011262,0.013154862864898378,0.10928587880546067,0.9939233100580367,78.73355028302268,5.055317111308529,573.2560072054978,-125.62871774150277,34.003265380859375,4761.76025390625,True
1599388424.2251112,0.0,10,0.5,0.5,-26.344924753189087,-0.2,-0.02275,-0.001,1.7098047040997486,10,1,100,-0.11780531583115127,-10,-1,-100,18735.787018686417,0.012863771133863642,0.11404394066285542,0.9933924214479909,82.26834002301058,5.292663183513164,600.8942807206222,-125.99111320249052,23.15045166015625,4761.76025390625,True
1599388424.265972,0.0,10,0.5,0.5,-21.63081048774719,-0.2,-0.02275,-0.001,2.3123726055041463,10,1,100,-0.2194407844476971,-10,-1,-100,18725.67151538178,0.013533473876641064,0.12381860115800762,0.9922125775720163,87.37756730714493,5.641246535328988,642.2514904060029,-126.71532219885381,0.584503173828125,4761.76025390625,True
1599388424.3058655,0.0,10,0.5,0.5,-21.432662244415283,-0.2,-0.02275,-0.001,1.3388014869638638,10,1,100,-0.151590439976882,-10,-1,-100,18725.67151538178,0.013533473876641064,0.12381860115800762,0.9922125775720163,87.37756730714493,5.641246535328988,642.2514904060029,-126.71532219885381,0.584503173828125,4761.76025390625,True
1599388424.3477845,0.0,10,0.5,0.5,-18.857233788681032,-0.2,-0.02275,-0.001,1.8760192719218522,10,1,100,-0.25808477397643637,-10,-1,-100,18720.592042684788,0.014509604823846766,0.12866699073967172,0.9915817045820546,88.1584583985968,5.700489011410456,650.0430629191308,-127.07731548763488,-11.1304931640625,4761.76025390625,True
1599388424.3879976,0.0,10,0.5,0.5,-13.768335203552246,-0.2,-0.02275,-0.001,2.4039339878940065,10,1,100,-0.5034641275748895,-10,-1,-100,18710.389648635522,0.01763222661083743,0.13783800109860628,0.9902978289574732,85.34817992343108,5.5378667720404025,633.3377822796178,-127.80155081387801,-35.4300537109375,4761.76025390625,True
1599388424.4313643,0.0,10,0.5,0.5,-13.531595558547973,-0.2,-0.02275,-0.001,1.4915278688743652,10,1,100,-0.19110714539794862,-10,-1,-100,18710.389648635522,0.01763222661083743,0.13783800109860628,0.9902978289574732,85.34817992343108,5.5378667720404025,633.3377822796178,-127.80155081387801,-35.4300537109375,4761.76025390625,True
1599388424.4712183,0.0,10,0.5,0.5,-10.751448534011839,-0.2,-0.02275,-0.001,1.953797128846646,10,1,100,-0.4144915617491782,-10,-1,-100,18705.266715290956,0.01966310598021412,0.14199932466331697,0.9896714374267718,81.57022798051833,5.3049778588143095,607.2308570595849,-128.1639350135859,-48.016693115234375,4761.76025390625,True
1599388424.508159,0.0,10,0.5,0.5,-5.271100658798218,-0.2,-0.02275,-0.001,2.3361022995585685,10,1,100,-0.7165955708473151,-10,-1,-100,18694.977369644912,0.024252578704033082,0.14921632996108297,0.988507106347319,87.24500185315092,5.706158889645415,653.5538034852267,-128.88835166019535,-74.0672607421875,4761.76025390625,True
1599388424.5466113,0.0,10,0.5,0.5,-5.0038594455719,-0.2,-0.02275,-0.001,1.6192857328037042,10,1,100,-0.258587715288771,-10,-1,-100,18694.977369644912,0.024252578704033082,0.14921632996108297,0.988507106347319,87.24500185315092,5.706158889645415,653.5538034852267,-128.88835166019535,-74.0672607421875,4761.76025390625,True
1599388424.5860949,0.0,10,0.5,0.5,-2.0275810302734376,-0.2,-0.02275,-0.001,1.9546364086931778,10,1,100,-0.5160308157988269,-10,-1,-100,18689.81098337483,0.026583508144395914,0.15222450186246186,0.987988369429247,90.8207962447709,5.955923320970743,682.4416635760524,-129.25006982843237,-87.53182983398438,4761.76025390625,True
1599388424.62599,0.0,10,0.5,0.5,1.0004434844970704,-0.2,-0.02275,-0.001,1.9521353379128883,10,1,100,-0.5204724466262292,-10,-1,-100,18684.63013339357,0.02873070551108442,0.1548974314720246,0.9875126998090732,92.79556242941676,6.0995581610176846,699.4312442451143,-129.6116312316463,-101.28803253173828,4761.76025390625,True
1599388424.6678767,0.0,10,0.5,0.5,4.093472005271911,-0.2,-0.02275,-0.001,1.941320096511527,10,1,100,-0.5447299222592018,-10,-1,-100,18679.43482066726,0.030888801137121703,0.15719190756724272,0.9870848930865483,92.61736392397056,6.100640316721017,700.2527983732513,-129.973211405527,-115.33622741699219,4761.76025390625,True
1599388424.7087672,0.0,10,0.5,0.5,7.22495214252472,-0.2,-0.02275,-0.001,1.9448031114820812,10,1,100,-0.5230757556940044,-10,-1,-100,18674.225040130783,0.03263807262178064,0.15927911932952857,0.986693933477421,90.07389227476092,5.9462127057622505,683.1481842274197,-130.33496407043108,-129.673583984375,4761.76025390625,True
1599388424.7477012,0.0,10,0.5,0.5,10.386224181556702,-0.2,-0.02275,-0.001,1.9509319769761102,10,1,100,-0.5122161770483186,-10,-1,-100,18669.000781260664,0.03411222816674149,0.1612000646923055,0.9863320409642468,85.14035060652333,5.635313685569295,647.7471742810549,-130.69699646666953,-143.99832153320312,4761.76025390625,True
1599388424.7875562,0.0,10,0.5,0.5,16.269718583869935,-0.2,-0.02275,-0.001,2.1777937359861252,10,1,100,-0.5757147455593598,-10,-1,-100,18658.508814470842,0.036011808718312735,0.164979182764055,0.9856393959696114,89.90983367952569,5.988040624133779,688.2354954562542,-131.42090754703307,-171.83685302734375,4761.76025390625,True
1599388424.8296232,0.0,10,0.5,0.5,17.913206405830383,-0.2,-0.02275,-0.001,1.9130071731280351,10,1,100,-0.41640007617809394,-10,-1,-100,18655.876781745,0.03627367624163193,0.1659829202745124,0.9854612577818886,92.15577461986226,6.146585470249622,706.4942319592627,-131.60163952685318,-178.60800170898438,4761.76025390625,True
1599388424.869519,0.0,10,0.5,0.5,-50.13760950832367,-0.2,-0.02275,-0.001,2.186214487121155,10,1,100,-0.4311853583459031,-10,-1,-100,18647.959005692508,0.03662920251014692,0.16935352548470575,0.9848744513537608,96.38779975621684,6.453646837979323,742.2998806280442,-132.14354951110866,161.54013061523438,4761.76025390625,True
1599388424.9094098,0.0,10,0.5,0.5,-50.27420314998627,-0.2,-0.02275,-0.001,1.8518893861839576,10,1,100,-0.3973293411473974,-10,-1,-100,18647.959005692508,0.03662920251014692,0.16935352548470575,0.9848744513537608,96.38779975621684,6.453646837979323,742.2998806280442,-132.14354951110866,161.54013061523438,4761.76025390625,True
1599388424.9503012,0.0,10,0.5,0.5,-45.64657468090058,-0.2,-0.02275,-0.001,2.4585173930718636,10,1,100,-0.36569550609174595,-10,-1,-100,18637.351391074946,0.0363303707152718,0.17485001900593797,0.983924577910987,94.37146895240109,6.350699489892112,731.245440947197,-132.86623131778387,135.85040283203125,4761.76025390625,True
1599388424.9891636,0.0,10,0.5,0.5,-43.522068609428416,-0.2,-0.02275,-0.001,2.274781855425743,10,1,100,-0.3633725598052204,-10,-1,-100,18632.02589250414,0.036026607942770336,0.17815320487477992,0.9833430322695039,90.10536340094706,6.0830501314754475,700.3438624780739,-133.22788880026474,122.7769775390625,4761.76025390625,True
1599388425.0270987,0.0,10,0.5,0.5,-41.331289197349555,-0.2,-0.02275,-0.001,2.3534447064945585,10,1,100,-0.36185037949977766,-10,-1,-100,18626.685922689037,0.03572803732881191,0.181847646398887,0.9826774347912016,89.34245549553486,6.054142819219615,696.5310041161733,-133.58966188321543,109.43217468261719,4761.76025390625,True
