Timestamp,Input Throttle,horizon,dT,dt,Input Roll,Roll P,Roll I,Roll D,Input Pitch,Pitch P,Pitch I,Pitch D,Input Yaw,Yaw P,Yaw I,Yaw D,Altitude,Direction X,Direction Y,Direction Z,Drag X,Drag Y,Drag Z,Vertical Velocity,Roll,Mass,Has Fuel
1599565557.0550492,0.0,10,0.5,0.5,-0.0548641357421875,-0.001,-0.0155,-0.5,-0.068573589877571,10,1,100,0.6815940841307073,-10,-1,-100,6483.617967298953,-0.06725832094977126,-0.007002678762752775,0.9977110206633799,205.07308533016038,21.498763074102392,-156.76513639214545,9.590824174196733,-35.944580078125,4381.2578125,True
1599565557.1158807,0.0,10,0.5,0.5,-0.13950785522460937,-0.001,-0.0155,-0.5,-0.06734494411951271,10,1,100,0.6999316247343851,-10,-1,-100,6483.99788315536,-0.06744579897833212,-0.006971932295622863,0.9976985799129111,204.61210197510803,21.456737025379407,-150.26668641911644,9.210801802869888,-35.941253662109375,4381.2578125,True
1599565557.1996572,0.0,10,0.5,0.5,-0.2229658737182617,-0.001,-0.0155,-0.5,-0.05217011305058005,10,1,100,0.7006768903998413,-10,-1,-100,6484.316760309157,-0.06756169432945676,-0.00679968983188208,0.9976919272388263,204.14962262876693,21.414372198557867,-143.78946241240396,8.830798094048546,-35.9385986328125,4381.2578125,True
1599565557.2505212,0.0,10,0.5,0.5,-0.2899301742553711,-0.001,-0.0155,-0.5,-0.010806844332182236,10,1,100,0.6991114030167906,-10,-1,-100,6484.856805249467,-0.0675914023139701,-0.006260894522103313,0.9976934416608211,203.516809252574,21.356799833490733,-134.15592701630516,8.260812924909327,-35.96954345703125,4381.2578125,True
1599565557.3163443,0.0,10,0.5,0.5,-0.37519065704345705,-0.001,-0.0155,-0.5,-0.036210746259330136,10,1,100,0.6990431028819784,-10,-1,-100,6485.016950734076,-0.06755634193292577,-0.005996333444803867,0.9976974414369622,203.32000318202017,21.338956567885624,-130.96391200261775,8.070819533476651,-35.997406005859375,4381.2578125,True
1599565557.372199,0.0,10,0.5,0.5,-0.45223125610351567,-0.001,-0.0155,-0.5,-0.028232303932019052,10,1,100,0.7018402129460064,-10,-1,-100,6485.175625587814,-0.0674884822762558,-0.005677840868424448,0.9977038973979806,203.12960071942027,21.321705330440693,-127.78055280363759,7.880825662209421,-36.03851318359375,4381.2578125,True
1599565557.4290478,0.0,10,0.5,0.5,-0.4875468231201172,-0.001,-0.0155,-0.5,0.026672311756003077,10,1,100,0.6885182190038355,-10,-1,-100,6485.493931303034,-0.06724432947773949,-0.004884007619217116,0.9977245845536055,202.76926591141287,21.289078324579393,-121.43943673251977,7.500832200838209,-36.175994873046875,4381.2578125,True
1599565557.4858954,0.0,10,0.5,0.5,-0.4443481155395508,-0.001,-0.0155,-0.5,0.12441223526573904,10,1,100,0.6530268610845698,-10,-1,-100,6485.909331386909,-0.06663859247120613,-0.003269356262922654,0.9977718222635288,202.2796522432791,21.244650162973116,-111.98714615498994,6.930812918631444,-36.565948486328125,4381.2578125,True
1599565557.5427434,0.0,10,0.5,0.5,-0.38419286804199226,-0.001,-0.0155,-0.5,0.19164187757820222,10,1,100,0.616584689659519,-10,-1,-100,6486.261204286711,-0.06569604945915605,-0.0011873406850299115,0.9978389746384724,201.8413334436887,21.20437105371955,-102.59403315106668,6.360733974069035,-37.240509033203125,4381.2578125,True
1599565557.60161,0.0,10,0.5,0.5,-0.8032503524780273,-0.001,-0.0155,-0.5,-0.01667841427957502,10,1,100,0.7174085958104419,-10,-1,-100,6486.261204286711,-0.06569604945915605,-0.0011873406850299115,0.9978389746384724,201.8413334436887,21.20437105371955,-102.59403315106668,6.360733974069035,-37.240509033203125,4381.2578125,True
1599565557.6749785,0.0,10,0.5,0.5,-0.20411829223632805,-0.001,-0.0155,-0.5,0.35367164452919986,10,1,100,0.5187095420596819,-10,-1,-100,6486.772120236885,-0.06382997074373173,0.002180557432036251,0.9979584059489354,201.26158894499727,21.148864446676967,-90.1167090945239,5.600483874298682,-38.599609375,4381.2578125,True
1599565557.7457895,0.0,10,0.5,0.5,-0.8795531677246093,-0.001,-0.0155,-0.5,0.017800156442062516,10,1,100,0.7049745785815104,-10,-1,-100,6486.772120236885,-0.06382997074373173,0.002180557432036251,0.9979584059489354,201.26158894499727,21.148864446676967,-90.1167090945239,5.600483874298682,-38.599609375,4381.2578125,True
1599565557.8161554,0.0,10,0.5,0.5,-0.4165700454711915,-0.001,-0.0155,-0.5,0.24058254986324845,10,1,100,0.5766974431166366,-10,-1,-100,6486.965295125265,-0.06266710208335524,0.004197531472476433,0.998025658510848,200.92946212348423,21.115611659093332,-83.87954291770404,5.220276007836581,-39.5155029296875,4381.2578125,True
1599565557.8824937,0.0,10,0.5,0.5,-0.048533137512207,-0.001,-0.0155,-0.5,0.38517279207474997,10,1,100,0.45374004679828966,-10,-1,-100,6487.254539817222,-0.06049660387306992,0.0073356035099771955,0.9981414478123676,200.30725510611515,21.05133300423873,-74.50654607419422,4.649830710804832,-41.153106689453125,4381.2578125,True
1599565557.971777,0.0,10,0.5,0.5,-0.19551524658203123,-0.001,-0.0155,-0.5,0.3261695179499857,10,1,100,0.4856733952245755,-10,-1,-100,6487.447683929,-0.05882017666617759,0.009639642417450868,0.9982220515050864,199.75410048106704,20.993103812107663,-68.23621701279541,4.269428320105087,-42.47802734375,4381.2578125,True
1599565558.040593,0.0,10,0.5,0.5,0.25195153045654306,-0.001,-0.0155,-0.5,0.4864087198669559,10,1,100,0.3310372417470635,-10,-1,-100,6487.674398543197,-0.05589831068763149,0.013176728736342794,0.9983495142894986,198.61370866983933,20.872049368181827,-58.79297137591545,3.6986335413937073,-44.67340087890625,4381.2578125,True
1599565558.1143956,0.0,10,0.5,0.5,-0.8323511611938476,-0.001,-0.0155,-0.5,0.13458554493823996,10,1,100,0.6220648224428105,-10,-1,-100,6487.674398543197,-0.05589831068763149,0.013176728736342794,0.9983495142894986,198.61370866983933,20.872049368181827,-58.79297137591545,3.6986335413937073,-44.67340087890625,4381.2578125,True
1599565558.1877105,0.0,10,0.5,0.5,0.6820768371582032,-0.001,-0.0155,-0.5,0.6681816393673576,10,1,100,0.11116204750449099,-10,-1,-100,6487.935167766525,-0.051264054568910505,0.01801118347082972,0.9985227057904772,196.48155043911513,20.645072850970553,-46.20366236102274,2.9371522328011372,-47.669921875,4381.2578125,True
1599565558.2595189,0.0,10,0.5,0.5,-0.41421710052490224,-0.001,-0.0155,-0.5,0.3298261386078667,10,1,100,0.43112651597169094,-10,-1,-100,6487.968744891346,-0.04997383920877715,0.01931083727733723,0.9985638221758205,195.86719145492415,20.579686830157222,-43.07612914551495,2.746696940650103,-48.437896728515625,4381.2578125,True
1599565558.3333237,0.0,10,0.5,0.5,0.42208349151611324,-0.001,-0.0155,-0.5,0.5898899006982735,10,1,100,0.09917689650029715,-10,-1,-100,6488.132477364736,-0.04579748525914359,0.022837922049563787,0.9986896513233711,193.7665976103612,20.356511860066306,-33.754120460118315,2.1751051468389413,-50.838958740234375,4381.2578125,True
1599565558.411114,0.0,10,0.5,0.5,-0.3679818557739257,-0.001,-0.0155,-0.5,0.37636186306065317,10,1,100,0.34985607759072934,-10,-1,-100,6488.167527559679,-0.044297791100480655,0.02408135762512357,0.9987280880793076,193.00560792257704,20.27582223099377,-30.67756760473318,1.9844964608450222,-51.616180419921875,4381.2578125,True
1599565558.4719503,0.0,10,0.5,0.5,0.4418381164550782,-0.001,-0.0155,-0.5,0.625986878916925,10,1,100,-0.0242764327947389,-10,-1,-100,6488.269768806174,-0.03955098466150396,0.027461162110513943,0.9988401294440695,190.43996226593922,20.004519895967817,-21.548710269405436,1.4124301929483867,-53.967987060546875,4381.2578125,True
1599565558.5467503,0.0,10,0.5,0.5,-0.7102442184448242,-0.001,-0.0155,-0.5,0.29053449084573524,10,1,100,0.44797631249470776,-10,-1,-100,6488.269768806174,-0.03955098466150396,0.027461162110513943,0.9988401294440695,190.43996226593922,20.004519895967817,-21.548710269405436,1.4124301929483867,-53.967987060546875,4381.2578125,True
1599565558.6085858,0.0,10,0.5,0.5,0.8653519256591797,-0.001,-0.0155,-0.5,0.7512347450152552,10,1,100,-0.31686132431397857,-10,-1,-100,6488.341695095529,-0.03261892988817213,0.03162819748420227,0.9989672980317479,186.47348830949602,19.586797014032175,-9.699771222416581,0.6491232956326347,-57.06817626953125,4381.2578125,True
1599565558.6764035,0.0,10,0.5,0.5,-0.2709155990600586,-0.001,-0.0155,-0.5,0.4529216781535582,10,1,100,0.16775082672534042,-10,-1,-100,6488.3123259987915,-0.030747970261850548,0.032682390312472394,0.9989927045220298,185.40805819602895,19.474839846113287,-6.808211055058983,0.45820280885966147,-57.844940185546875,4381.2578125,True
1599565558.741231,0.0,10,0.5,0.5,-0.22589360656738267,-0.001,-0.0155,-0.5,0.4607262430836111,10,1,100,0.1422747150932751,-10,-1,-100,6488.345952301985,-0.028841017047088812,0.033690750066722966,0.9990160804990234,184.296635676246,19.35816714579867,-3.9473511538747874,0.26724676551835946,-58.6624755859375,4381.2578125,True
1599565558.7990766,0.0,10,0.5,0.5,0.16304580688476555,-0.001,-0.0155,-0.5,0.5328612105858311,10,1,100,-0.07954101698737509,-10,-1,-100,6488.35120744782,-0.025115514099881817,0.03524456407394332,0.9990630769149345,181.8794801605467,19.10488511085651,1.6731396854485914,-0.11476635236960409,-60.21142578125,4381.2578125,True
1599565558.8698869,0.0,10,0.5,0.5,0.5458063201904297,-0.001,-0.0155,-0.5,0.6430536420341253,10,1,100,-0.37148117103005296,-10,-1,-100,6488.328616972547,-0.019102676198930885,0.03763880997063941,0.9991088067603212,178.93569096558087,18.79759615237881,9.86958972013592,-0.6879890858763504,-62.47320556640625,4381.2578125,True
1599565558.9327183,0.0,10,0.5,0.5,-0.16983016357421876,-0.001,-0.0155,-0.5,0.4811448380600425,10,1,100,0.0015869380777500663,-10,-1,-100,6488.2992909704335,-0.0170572258066555,0.03832565563468982,0.9991197101288473,178.18637646057138,18.71969997487103,12.5591321753923,-0.8790945325281316,-63.256256103515625,4381.2578125,True
1599565558.9926016,0.0,10,0.5,0.5,0.6180961791992187,-0.001,-0.0155,-0.5,0.5990205474316872,10,1,100,-0.47291018798583967,-10,-1,-100,6488.212327871239,-0.01091403940710172,0.04000437194324392,0.9991398970961207,175.7286862354599,18.464105233486702,20.468390689628674,-1.4524598208361348,-65.56460571289062,4381.2578125,True
1599565559.0624158,0.0,10,0.5,0.5,-0.1550407073974609,-0.001,-0.0155,-0.5,0.48149808127150917,10,1,100,-0.0883240532175648,-10,-1,-100,6488.184979450074,-0.00885727431072082,0.04044648575875177,0.9991424475426673,174.88594570999257,18.376359904948362,23.052333306286425,-1.643591244500502,-66.27960205078125,4381.2578125,True
1599565559.120263,0.0,10,0.5,0.5,0.5686222579956055,-0.001,-0.0155,-0.5,0.5601648319076382,10,1,100,-0.5782294434787618,-10,-1,-100,6488.098575597396,-0.00256602114508163,0.04154868229851132,0.9991331855837542,172.3599826148027,18.1126365313595,30.651852058201857,-2.2170011042296958,-68.39224243164062,4381.2578125,True
1599565559.1830926,0.0,10,0.5,0.5,-0.13793512420654302,-0.001,-0.0155,-0.5,0.4744153103177365,10,1,100,-0.17726107754951545,-10,-1,-100,6488.007285025204,-0.0005254897425086249,0.041758331210940906,0.9991276022786119,171.47530316615192,18.019904875359185,33.12590801072151,-2.4081430868588654,-69.04574584960938,4381.2578125,True
1599565559.241936,0.0,10,0.5,0.5,0.5219405899047851,-0.001,-0.0155,-0.5,0.4983817442898796,10,1,100,-0.6608328392503598,-10,-1,-100,6487.85649106605,0.005690168007184516,0.04215380037735053,0.9990949299750232,168.96611736489422,17.755664890796513,40.422429083705396,-2.9816004127160802,-70.96841430664062,4381.2578125,True
1599565559.3017406,0.0,10,0.5,0.5,-0.12036423034667965,-0.001,-0.0155,-0.5,0.45778964104818454,10,1,100,-0.2616072474573386,-10,-1,-100,6487.764242971782,0.007676615947064125,0.04213472995107737,0.9990824460971932,168.11215653106984,17.66529293041726,42.79973057884015,-3.172768812053769,-71.56219482421875,4381.2578125,True
1599565559.3645732,0.0,10,0.5,0.5,0.47870848846435543,-0.001,-0.0155,-0.5,0.42715963060414,10,1,100,-0.727103664916728,-10,-1,-100,6487.553439912386,0.013679331881850115,0.041830345523484455,0.9990310796329873,165.6040288780763,17.398544189948055,49.79381535803684,-3.7463551100271975,-73.30810546875,4381.2578125,True
1599565559.4179413,0.0,10,0.5,0.5,-0.10168984527587888,-0.001,-0.0155,-0.5,0.43182663962450685,10,1,100,-0.338882306209214,-10,-1,-100,6487.525169888046,0.015568406426197307,0.04158866012998808,0.9990135174610707,164.7330717578534,17.305574905681436,52.06403267013662,-3.9375858416309844,-73.84674072265625,4381.2578125,True
1599565559.4794087,0.0,10,0.5,0.5,0.44295426177978514,-0.001,-0.0155,-0.5,0.34843033066010354,10,1,100,-0.7762206406303085,-10,-1,-100,6487.2504349529045,0.021224564578953723,0.04060503051253676,0.9989498232421435,162.20278096819908,17.034431926742986,58.74831653360229,-4.511416682701875,-75.42922973632812,4381.2578125,True
1599565559.5392845,0.0,10,0.5,0.5,-0.08396173400878904,-0.001,-0.0155,-0.5,0.39740942418684255,10,1,100,-0.407339072429458,-10,-1,-100,6487.15820802527,0.0229763966061992,0.04015338969187692,0.9989293220720108,161.3823421121676,16.946237384962316,60.934788432785766,-4.702745576773035,-75.916748046875,4381.2578125,True
1599565559.5960336,0.0,10,0.5,0.5,0.17504496307373046,-0.001,-0.0155,-0.5,0.33036932371337985,10,1,100,-0.6299130567746936,-10,-1,-100,6486.913212272339,0.02655597683191282,0.03913169009237542,0.9988811195157395,159.8335733687481,16.77931137519634,65.27214159217232,-5.085487661294345,-76.881103515625,4381.2578125,True
1599565559.6518836,0.0,10,0.5,0.5,0.16365929565429682,-0.001,-0.0155,-0.5,0.29618087642871427,10,1,100,-0.6268398927567358,-10,-1,-100,6486.727785761352,0.02974813916763557,0.037892861555559695,0.9988389155710715,158.2697498943751,16.610704989249808,69.51100268082327,-5.4683425407724435,-77.78579711914062,4381.2578125,True
1599565559.7262099,0.0,10,0.5,0.5,0.16365390167236327,-0.001,-0.0155,-0.5,0.26367393906083514,10,1,100,-0.6641452039868683,-10,-1,-100,6486.481812492129,0.03295414828994986,0.03647345765893122,0.9987911248088293,156.828866274228,16.455079220942185,73.71480101281534,-5.851302860944262,-78.653076171875,4381.2578125,True
1599565559.7850413,0.0,10,0.5,0.5,0.3737740447998047,-0.001,-0.0155,-0.5,0.1354326847047373,10,1,100,-0.816750921336133,-10,-1,-100,6486.143117528642,0.03722373567756068,0.03402187473570407,0.9987276433250835,154.67420833170232,16.22284254168115,79.86392528628146,-6.42592030820775,-79.90628051757812,4381.2578125,True
1599565559.842889,0.0,10,0.5,0.5,-0.037523809814453135,-0.001,-0.0155,-0.5,0.2810079890140469,10,1,100,-0.540264208604922,-10,-1,-100,6485.989364247071,0.03855734570926854,0.03312360798692332,0.9987072432328629,153.9758453282731,16.147700715435985,81.88168675873139,-6.6175057536083575,-80.30242919921875,4381.2578125,True
1599565559.9017289,0.0,10,0.5,0.5,0.1588088424682617,-0.001,-0.0155,-0.5,0.16044921753857377,10,1,100,-0.6834936593732731,-10,-1,-100,6485.680383030209,0.04104192512898607,0.031219222285882364,0.9986695752557857,152.62339961753298,16.00240376548679,85.8802413847687,-7.00074387549828,-81.060791015625,4381.2578125,True
1599565559.961538,0.0,10,0.5,0.5,0.2957635696411133,-0.001,-0.0155,-0.5,0.011223387278450181,10,1,100,-0.7954974432343711,-10,-1,-100,6485.277676008176,0.044288517810028426,0.02814128728953964,0.9986223486082606,150.7793836426356,15.80477300622241,91.84101822854322,-7.575760215949558,-82.06161499023438,4381.2578125,True
1599565560.023371,0.0,10,0.5,0.5,-0.031032015991210943,-0.001,-0.0155,-0.5,0.1963890386699404,10,1,100,-0.5832913790830396,-10,-1,-100,6485.1239033730235,0.045282993131483755,0.027038933267545206,0.9986082047634134,150.22829498062126,15.745825351212968,93.83159788042184,-7.767471647739502,-82.38107299804688,4381.2578125,True
1599565560.0891948,0.0,10,0.5,0.5,0.4060753189086914,-0.001,-0.0155,-0.5,-0.1933397847775572,10,1,100,-0.8346483681461228,-10,-1,-100,6484.441875303979,0.048445111881830004,0.02250703096790251,0.9985722330867042,148.18811254805178,15.52870914324799,101.74603106110699,-8.534489984637734,-83.54595947265625,4381.2578125,True
1599565560.1789536,0.0,10,0.5,0.5,0.09632998657226563,-0.001,-0.0155,-0.5,-0.011118550728498044,10,1,100,-0.6624366568422505,-10,-1,-100,6484.069341436727,0.04972945832728878,0.02006012918644117,0.9985612510965453,147.62209368006208,15.46860831384045,105.94035904843507,-8.91808664009775,-84.06515502929688,4381.2578125,True
1599565560.24581,0.0,10,0.5,0.5,-0.03078488616943359,-0.001,-0.0155,-0.5,0.10417882225951268,10,1,100,-0.5881914971472422,-10,-1,-100,6483.913584314287,0.05019776904255023,0.01890209755819045,0.9985604111374792,147.5277572094959,15.458546716282264,108.16423321203865,-9.109901893597375,-84.30438232421875,4381.2578125,True
1599565560.3405254,0.0,10,0.5,0.5,0.06895038299560546,-0.001,-0.0155,-0.5,-0.047351011967040335,10,1,100,-0.6320626729809256,-10,-1,-100,6483.541508458788,0.05100084238926628,0.016490188123661296,0.9985624606258896,147.8839880956976,15.495924526149729,113.02278920435093,-9.493557656088775,-84.71923828125,4381.2578125,True
1599565560.877331,0.0,10,0.5,0.5,-0.03221846313476562,-0.001,-0.0155,-0.5,0.05620722108847841,10,1,100,-0.5888856743618563,-10,-1,-100,6483.323236949509,0.05131907025954239,0.015258438641350326,0.9985657379851987,148.356967191419,15.545694002154734,115.6919115878323,-9.685395212698609,-84.90988159179688,4381.2578125,True
1599565560.9373276,0.0,10,0.5,0.5,-0.023476469421386717,-0.001,-0.0155,-0.5,0.039552341845600636,10,1,100,-0.5877565853730349,-10,-1,-100,6483.167460479424,0.05158140849446812,0.014006544772511993,0.9985705658596503,148.8429252923066,15.596939547490487,118.38715064018304,-9.87723738747907,-85.09823608398438,4381.2578125,True
1599565560.9848945,0.0,10,0.5,0.5,0.17096788177490235,-0.001,-0.0155,-0.5,-0.2481927590462692,10,1,100,-0.6054480319004767,-10,-1,-100,6482.5145600235555,0.05196767670118016,0.010270790638153957,0.9985959500408303,150.65823931477712,15.788840606799544,126.87125292487765,-10.452780028936496,-85.65826416015625,4381.2578125,True
1599565561.0407462,0.0,10,0.5,0.5,-0.006684797668457032,-0.001,-0.0155,-0.5,-0.01610433657621077,10,1,100,-0.5698400095406224,-10,-1,-100,6482.296755644027,0.05198292911219978,0.009005320554236973,0.9986073699320626,151.29429301796443,15.85629164401753,129.76579318211853,-10.64462980726158,-85.84600830078125,4381.2578125,True
1599565561.1095617,0.0,10,0.5,0.5,0.09270174102783202,-0.001,-0.0155,-0.5,-0.1648436079357343,10,1,100,-0.5527083121976982,-10,-1,-100,6481.858694903436,0.05183110587002448,0.006522912467163724,0.9986345618279171,152.60789205420735,15.995919995008968,135.65474626302873,-11.02832783644805,-86.21694946289062,4381.2578125,True
1599565561.1674085,0.0,10,0.5,0.5,0.08373488616943359,-0.001,-0.0155,-0.5,-0.19321623190016302,10,1,100,-0.5274341136851967,-10,-1,-100,6481.423548857449,0.0514564624015151,0.004027897965440851,0.9986671159676289,153.91175182198393,16.135025137753036,141.62150035881388,-11.412019375757204,-86.556396484375,4381.2578125,True
1599565561.222261,0.0,10,0.5,0.5,0.0040391876220703254,-0.001,-0.0155,-0.5,-0.08487373857660672,10,1,100,-0.5359431870760847,-10,-1,-100,6481.204262364772,0.05118762039799644,0.0027655538443633917,0.9986852252987047,154.55919606076483,16.20428434682008,144.63305519663254,-11.603861021646601,-86.72317504882812,4381.2578125,True
1599565561.2811031,0.0,10,0.5,0.5,0.08406354217529297,-0.001,-0.0155,-0.5,-0.22740098674097367,10,1,100,-0.4854603168939875,-10,-1,-100,6480.706109308754,0.05048179020358207,0.0003402128210928556,0.9987249236466855,155.88471561026077,16.34637323701687,150.75023547929047,-11.987531845453487,-87.03952026367188,4381.2578125,True
1599565561.3389492,0.0,10,0.5,0.5,0.21575379486083984,-0.001,-0.0155,-0.5,-0.5138799226036588,10,1,100,-0.331362678956862,-10,-1,-100,6479.708794630715,0.04843855483479852,-0.004451069420299907,0.9988162465571593,158.53112446763154,16.631432999002225,163.24405058908323,-12.754802628068854,-87.60888671875,4381.2578125,True
1599565561.400294,0.0,10,0.5,0.5,0.0028845046997070384,-0.001,-0.0155,-0.5,-0.16290644920806324,10,1,100,-0.46596404205434777,-10,-1,-100,6479.488513002638,0.047806316176979474,-0.0055948824570801955,0.9988409550193055,159.20679745458023,16.70444897208231,166.43731928222695,-12.94660164843158,-87.74200439453125,4381.2578125,True
1599565561.468113,0.0,10,0.5,0.5,0.004874388122558589,-0.001,-0.0155,-0.5,-0.17570786680644254,10,1,100,-0.4536527870399075,-10,-1,-100,6479.207683280809,0.04712253737538751,-0.006731011677246868,0.9988664374945762,159.88525301973056,16.77786471276489,169.6560769952834,-13.138391925769588,-87.86947631835938,4381.2578125,True
1599565561.522479,0.0,10,0.5,0.5,0.05279681243896484,-0.001,-0.0155,-0.5,-0.29548238316820885,10,1,100,-0.36195764856354823,-10,-1,-100,6478.646510048886,0.045671143144958966,-0.008832725253124812,0.9989174788982499,161.23012230544305,16.92374155915908,176.14842659583894,-13.521944422392298,-88.08319091796875,4381.2578125,True
1599565561.5912948,0.0,10,0.5,0.5,0.043800384521484374,-0.001,-0.0155,-0.5,-0.3256960266473546,10,1,100,-0.3211396290490561,-10,-1,-100,6478.083378764102,0.04398599390839173,-0.010997280471891871,0.9989716172955633,162.52644152440809,17.06488318332538,182.67629978205244,-13.905457056318225,-88.269287109375,4381.2578125,True
1599565561.6471457,0.0,10,0.5,0.5,0.04375256042480469,-0.001,-0.0155,-0.5,-0.33373594858574257,10,1,100,-0.28699751325270817,-10,-1,-100,6477.52073250839,0.042150913261357253,-0.013018813532838137,0.9990264315849859,163.84444318485293,17.208643797412368,189.3165055678107,-14.288926437220855,-88.44683837890625,4381.2578125,True
1599565561.7039945,0.0,10,0.5,0.5,0.11728311462402344,-0.001,-0.0155,-0.5,-0.5412200670578087,10,1,100,-0.019608486411883674,-10,-1,-100,6476.333428208833,0.038060786989001,-0.01672276817972891,0.999135489069518,166.54909105656935,17.504390671650956,202.94752254075016,-15.055722989037804,-88.76275634765625,4381.2578125,True
1599565561.7726812,0.0,10,0.5,0.5,-0.03672986907958984,-0.001,-0.0155,-0.5,-0.17314917043342049,10,1,100,-0.4272440817594068,-10,-1,-100,6476.333428208833,0.038060786989001,-0.01672276817972891,0.999135489069518,166.54909105656935,17.504390671650956,202.94752254075016,-15.055722989037804,-88.76275634765625,4381.2578125,True
1599565561.8285308,0.0,10,0.5,0.5,0.0343298812866211,-0.001,-0.0155,-0.5,-0.3621024749174794,10,1,100,-0.1787342129658142,-10,-1,-100,6475.769809058285,0.03581378425034335,-0.0184216612512702,0.9991886785059232,167.9167688435203,17.65436796276116,209.9194995845164,-15.4390451953247,-88.89776611328125,4381.2578125,True
1599565561.8853793,0.0,10,0.5,0.5,0.07240462951660157,-0.001,-0.0155,-0.5,-0.5240781680443186,10,1,100,0.12397290078785533,-10,-1,-100,6474.456554446835,0.031033147850300907,-0.02141935469464661,0.9992888246042614,170.63431418150978,17.95335791275736,224.1189923294541,-16.205528282748176,-89.10177612304688,4381.2578125,True
1599565561.9462168,0.0,10,0.5,0.5,0.018454946899414064,-0.001,-0.0155,-0.5,-0.3664065814575435,10,1,100,-0.07873143865513699,-10,-1,-100,6473.830454048468,0.02854756206551978,-0.022691371067367443,0.9993348479759916,172.00027055434973,18.104037216481327,231.36761788895674,-16.588685444525318,-89.19131469726562,4381.2578125,True
1599565562.0050583,0.0,10,0.5,0.5,-0.02386157684326172,-0.001,-0.0155,-0.5,-0.24102897435016685,10,1,100,-0.32530091785632187,-10,-1,-100,6473.830454048468,0.02854756206551978,-0.022691371067367443,0.9993348479759916,172.00027055434973,18.104037216481327,231.36761788895674,-16.588685444525318,-89.19131469726562,4381.2578125,True
1599565562.0679212,0.0,10,0.5,0.5,0.029359402465820316,-0.001,-0.0155,-0.5,-0.42270775227576207,10,1,100,0.09268745417776503,-10,-1,-100,6472.7985474704765,0.024765175732583952,-0.024327454058863503,0.999397248870512,174.06129348915596,18.33185544934573,242.43314948979344,-17.163310741440263,-89.29306030273438,4381.2578125,True
1599565562.1347568,0.0,10,0.5,0.5,0.02234122619628906,-0.001,-0.0155,-0.5,-0.4160736151379132,10,1,100,0.16082622227323018,-10,-1,-100,6471.766172225936,0.02072752423054061,-0.02573849512953255,0.9994538006369975,176.09460034621554,18.557348845599606,253.67172473256605,-17.737798525229106,-89.37619018554688,4381.2578125,True
1599565562.1945548,0.0,10,0.5,0.5,0.007656135559082032,-0.001,-0.0155,-0.5,-0.35406372355673976,10,1,100,0.04493491946160155,-10,-1,-100,6471.014620361384,0.018133165271438215,-0.026442164570424285,0.999485867959157,177.45975148043584,18.709027241995383,261.29567058357725,-18.120711521876828,-89.42584228515625,4381.2578125,True
1599565562.2564065,0.0,10,0.5,0.5,-0.015377253723144533,-0.001,-0.0155,-0.5,-0.28524126787741966,10,1,100,-0.21191569358494272,-10,-1,-100,6471.014620361384,0.018133165271438215,-0.026442164570424285,0.999485867959157,177.45975148043584,18.709027241995383,261.29567058357725,-18.120711521876828,-89.42584228515625,4381.2578125,True
1599565562.322211,0.0,10,0.5,0.5,0.006352665710449217,-0.001,-0.0155,-0.5,-0.35188528662053703,10,1,100,0.0806901835835751,-10,-1,-100,6470.264055626467,0.01549494615898798,-0.027035816239873,0.9995143677225327,178.83310700424772,18.86184184835074,269.0268929513976,-18.50355999191744,-89.4661865234375,4381.2578125,True
1599565562.3935363,0.0,10,0.5,0.5,0.02040279083251953,-0.001,-0.0155,-0.5,-0.38507395025011526,10,1,100,0.4168954485227053,-10,-1,-100,6468.76149107411,0.010060668048977503,-0.027867839201404232,0.9995609868820676,181.53633754833544,19.163690318738347,284.70886464518446,-19.26905743927707,-89.53231811523438,4381.2578125,True
1599565562.469333,0.0,10,0.5,0.5,0.0038497009277343765,-0.001,-0.0155,-0.5,-0.324956862287901,10,1,100,0.1666422865941705,-10,-1,-100,6468.0099793548,0.007420898620081952,-0.028067572847665517,0.9995784819703311,182.881497657397,19.31434972445769,292.6820086125137,-19.651704288833116,-89.56289672851562,4381.2578125,True
1599565562.5381486,0.0,10,0.5,0.5,-0.010408653259277343,-0.001,-0.0155,-0.5,-0.30594808882141206,10,1,100,-0.0944953677323584,-10,-1,-100,6468.0099793548,0.007420898620081952,-0.028067572847665517,0.9995784819703311,182.881497657397,19.31434972445769,292.6820086125137,-19.651704288833116,-89.56289672851562,4381.2578125,True
1599565562.6109538,0.0,10,0.5,0.5,0.0027668685913085946,-0.001,-0.0155,-0.5,-0.3139709451128116,10,1,100,0.18613977296029457,-10,-1,-100,6467.195978203323,0.004891135749448943,-0.028134464070175495,0.9995921812031968,184.23206686328223,19.465869956674588,300.75907700565773,-20.03428218797847,-89.5877685546875,4381.2578125,True
1599565562.6897433,0.0,10,0.5,0.5,0.005699639892578124,-0.001,-0.0155,-0.5,-0.29671138139754316,10,1,100,0.3664747271001377,-10,-1,-100,6465.975724908174,0.0009734484897076973,-0.028033420881406847,0.9996065124396318,186.21920552909882,19.689600661071356,312.9892852684582,-20.608016157795394,-89.61721801757812,4381.2578125,True
1599565562.794379,0.0,10,0.5,0.5,0.0009462463378906247,-0.001,-0.0155,-0.5,-0.28241241696326025,10,1,100,0.2549622137112444,-10,-1,-100,6465.099733352661,-0.0015492678850891218,-0.02780671644238365,0.999612117918602,187.51395380722215,19.835949552870325,321.20959136895846,-20.990415674419047,-89.63580322265625,4381.2578125,True
1599565562.8781486,0.0,10,0.5,0.5,0.004049397277832031,-0.001,-0.0155,-0.5,-0.2443300560502701,10,1,100,0.4014722906231806,-10,-1,-100,6463.817011217121,-0.005150633976269583,-0.027251255250986723,0.9996153460491131,189.4399239487052,20.054342165073752,333.6863357127705,-21.563878775346,-89.65948486328125,4381.2578125,True
1599565562.9785829,0.0,10,0.5,0.5,-0.000991964721679687,-0.001,-0.0155,-0.5,-0.2445352953339805,10,1,100,0.30297884079572723,-10,-1,-100,6462.939085000311,-0.007505682553268781,-0.026746781106731017,0.9996140627411351,190.70234563204968,20.198046816383304,342.0816318917557,-21.94609483634276,-89.67218017578125,4381.2578125,True
1599565563.0803137,0.0,10,0.5,0.5,-0.001637118530273438,-0.001,-0.0155,-0.5,-0.22920451727759952,10,1,100,0.3097934274355014,-10,-1,-100,6462.063605119125,-0.009685278549243538,-0.02614852061458936,0.9996111495221989,191.9289816377341,20.33827862103869,350.5035060203284,-22.32823560390458,-89.68280029296875,4381.2578125,True
1599565563.171584,0.0,10,0.5,0.5,-0.0023749114990234384,-0.001,-0.0155,-0.5,-0.21197301326832174,10,1,100,0.3254481397073682,-10,-1,-100,6461.186175833573,-0.011783755526400578,-0.025448264352517905,0.9996066871260607,193.12742760023286,20.475841886160612,358.96293670698634,-22.710299957850445,-89.69113159179688,4381.2578125,True
1599565563.239808,0.0,10,0.5,0.5,-0.0025836196899414058,-0.001,-0.0155,-0.5,-0.19498308943091086,10,1,100,0.3369135891444634,-10,-1,-100,6460.2467373427935,-0.013770894408075671,-0.024658657126555898,0.9996010769781695,194.28753515345724,20.609659594990795,367.4383078071192,-23.092286744651126,-89.69833374023438,4381.2578125,True
1599565563.323584,0.0,10,0.5,0.5,-0.005927369689941406,-0.001,-0.0155,-0.5,-0.2736228938196268,10,1,100,0.14058285722265937,-10,-1,-100,6460.2467373427935,-0.013770894408075671,-0.024658657126555898,0.9996010769781695,194.28753515345724,20.609659594990795,367.4383078071192,-23.092286744651126,-89.69833374023438,4381.2578125,True
1599565563.4118469,0.0,10,0.5,0.5,0.0007958023071289065,-0.001,-0.0155,-0.5,-0.07327576156230592,10,1,100,0.5406922491613322,-10,-1,-100,6458.369331772788,-0.017388987250219826,-0.022840418574872172,0.9995878842811853,196.50594143519046,20.86746357749073,384.4490864793619,-23.856024541261455,-89.71133422851562,4381.2578125,True
1599565563.4766746,0.0,10,0.5,0.5,-0.003960722351074218,-0.001,-0.0155,-0.5,-0.19721837027340727,10,1,100,0.2782699534713333,-10,-1,-100,6457.9001028662315,-0.018269950886014248,-0.022318977383690427,0.9995839495225846,197.04015403720868,20.929954183682277,388.7137182827287,-24.046909127525513,-89.71435546875,4381.2578125,True
1599565563.5654392,0.0,10,0.5,0.5,-0.003685044860839844,-0.001,-0.0155,-0.5,-0.18933559923094045,10,1,100,0.28623542660255985,-10,-1,-100,6457.3678869274445,-0.019122184777351725,-0.021778565188308674,0.999579929844372,197.5673436848433,20.991780192594593,392.98465042114015,-24.237773395563696,-89.717529296875,4381.2578125,True
1599565563.6422324,0.0,10,0.5,0.5,0.0019166046142578127,-0.001,-0.0155,-0.5,0.010459723313206742,10,1,100,0.5400168136673936,-10,-1,-100,6455.426035644836,-0.022185777621641502,-0.01947664649273583,0.9995641307653653,199.59093116084904,21.230877398184145,410.09471499451575,-25.00102779297596,-89.7315673828125,4381.2578125,True
1599565563.726009,0.0,10,0.5,0.5,-0.0013457275390625,-0.001,-0.0155,-0.5,-0.07937056050556107,10,1,100,0.3902019586967922,-10,-1,-100,6454.424104586593,-0.023590148335138967,-0.018208204867794453,0.999555884469207,200.55356947577192,21.345707358208013,418.66425351794385,-25.382531594602398,-89.73876953125,4381.2578125,True
1599565563.7878418,0.0,10,0.5,0.5,-0.00048174743652343744,-0.001,-0.0155,-0.5,-0.06844591036229392,10,1,100,0.38833447125384557,-10,-1,-100,6453.360650392133,-0.024833108630329084,-0.016963982071439128,0.9995476677117675,201.4810390576972,21.45713737471691,427.23446255431753,-25.763952078243683,-89.7474365234375,4381.2578125,True
1599565563.853666,0.0,10,0.5,0.5,-0.0008151123046874998,-0.001,-0.0155,-0.5,-0.04717025802860769,10,1,100,0.3889586769758798,-10,-1,-100,6452.358717030031,-0.02595299492699581,-0.01564834887084195,0.9995406801285958,202.38318888512146,21.566213535244493,435.82336363338266,-26.14528854172526,-89.75518798828125,4381.2578125,True
1599565563.9334536,0.0,10,0.5,0.5,-0.0006645812988281246,-0.001,-0.0155,-0.5,-0.030653935633367407,10,1,100,0.3886515960798631,-10,-1,-100,6451.293304234161,-0.02695349290093109,-0.014311715913745738,0.9995342335348216,203.24239726915903,21.67104695504573,444.39013916316065,-26.526539860608565,-89.76300048828125,4381.2578125,True
1599565564.0002742,0.0,10,0.5,0.5,-0.0003924789428710936,-0.001,-0.0155,-0.5,-0.015262155462484578,10,1,100,0.3835702500683435,-10,-1,-100,6450.2288642666535,-0.027803051788608864,-0.012966793904321858,0.9995293155115976,204.05420210989323,21.77115388555112,452.92090030915904,-26.90770568021925,-89.7711181640625,4381.2578125,True
1599565564.0670986,0.0,10,0.5,0.5,-0.002274444580078125,-0.001,-0.0155,-0.5,-0.07406456789990773,10,1,100,0.3411850926997957,-10,-1,-100,6449.635119039915,-0.028177301930983195,-0.012289333884478754,0.9995273942862026,204.4451971621228,21.819737296103924,457.1777970050488,-27.098256453585652,-89.77523803710938,4381.2578125,True
1599565564.12652,0.0,10,0.5,0.5,-0.0021205444335937506,-0.001,-0.0155,-0.5,-0.0655253567960575,10,1,100,0.3427315295832705,-10,-1,-100,6449.102408839972,-0.028518491116152442,-0.011607076786624636,0.9995258733184085,204.82580241010427,21.867291186553096,461.42739556052805,-27.288785505619774,-89.7794189453125,4381.2578125,True
1599565564.1943393,0.0,10,0.5,0.5,0.00017553863525390616,-0.001,-0.0155,-0.5,0.017922387961350095,10,1,100,0.3739788176138962,-10,-1,-100,6448.037960490794,-0.029102611626706597,-0.01023843932877014,0.9995239928869224,205.5562333801809,21.959345617791378,469.9036508034106,-27.66977921836277,-89.7879638671875,4381.2578125,True
1599565564.2577205,0.0,10,0.5,0.5,0.00034404449462890636,-0.001,-0.0155,-0.5,0.03692266241923607,10,1,100,0.36853006233338487,-10,-1,-100,6446.911496572662,-0.02957424826035055,-0.008832475997517016,0.9995235621072615,206.24484226543308,22.047237225440604,478.34424574887606,-28.050685897256002,-89.79660034179688,4381.2578125,True
1599565564.317527,0.0,10,0.5,0.5,0.0008268951416015623,-0.001,-0.0155,-0.5,0.05317815536694173,10,1,100,0.3603399130481694,-10,-1,-100,6445.78502835019,-0.029919051057904007,-0.007418319477935754,0.9995247965507998,206.88764953241116,22.130528808639603,486.73584462758373,-28.431505429315116,-89.80593872070312,4381.2578125,True
1599565564.385346,0.0,10,0.5,0.5,0.006318055725097657,-0.001,-0.0155,-0.5,0.22140751934548775,10,1,100,0.36096192917994974,-10,-1,-100,6443.47397384746,-0.03023113259011764,-0.00461432690307037,0.999532283925612,208.04977575607649,22.284758105724016,503.38809927629325,-29.1928813932143,-89.82598876953125,4381.2578125,True
1599565564.4461877,0.0,10,0.5,0.5,0.0015807174682617186,-0.001,-0.0155,-0.5,0.09538336982158185,10,1,100,0.32796165425464724,-10,-1,-100,6442.2810865395,-0.030208803316213666,-0.003223274901559824,0.9995384128191929,208.57047375601095,22.355814850544434,511.6441739581637,-29.57343714707276,-89.83627319335938,4381.2578125,True
1599565564.506027,0.0,10,0.5,0.5,-0.0034237976074218746,-0.001,-0.0155,-0.5,-0.042347759612484846,10,1,100,0.3307321511136331,-10,-1,-100,6442.2810865395,-0.030208803316213666,-0.003223274901559824,0.9995384128191929,208.57047375601095,22.355814850544434,511.6441739581637,-29.57343714707276,-89.83627319335938,4381.2578125,True
1599565565.162782,0.0,10,0.5,0.5,0.004438273620605469,-0.001,-0.0155,-0.5,0.1749536077709101,10,1,100,0.3030596756443826,-10,-1,-100,6440.493456141325,-0.029953366440684828,-0.0012591034471373995,0.999550504225464,209.2841719344425,22.455655720331894,523.9499702643282,-30.144104219261738,-89.85171508789062,4381.2578125,True
1599565565.2136416,0.0,10,0.5,0.5,0.004239569091796874,-0.001,-0.0155,-0.5,0.19639252583437197,10,1,100,0.2729855325344358,-10,-1,-100,6438.653082596837,-0.029445022640532045,0.000709540209762996,0.9995661494840595,209.92205728129377,22.547885681611913,536.1639765985102,-30.714569479851644,-89.866455078125,4381.2578125,True
1599565565.2781737,0.0,10,0.5,0.5,0.002873150634765625,-0.001,-0.0155,-0.5,0.1374032272406805,10,1,100,0.27223311960927415,-10,-1,-100,6437.396214422653,-0.02897455909484448,0.0019505168796260831,0.999578246266475,210.28979794130854,22.603463401517107,544.2102634473533,-31.09476737849903,-89.87814331054688,4381.2578125,True
1599565565.3430007,0.0,10,0.5,0.5,0.00020053100585937494,-0.001,-0.0155,-0.5,0.07994465227067406,10,1,100,0.290175005060793,-10,-1,-100,6436.797075817711,-0.028709248232720627,0.0025433814881705543,0.9995845688467373,210.4594382930972,22.62980063812275,548.2106390460049,-31.284832518373936,-89.8841552734375,4381.2578125,True
1599565565.403877,0.0,10,0.5,0.5,0.0030445129394531248,-0.001,-0.0155,-0.5,0.15252413233941747,10,1,100,0.2498941750095484,-10,-1,-100,6435.491863973439,-0.02810169376021802,0.0037292987163133817,0.9995981128127902,210.78433045120386,22.681071947910976,556.2006116972545,-31.66489494425396,-89.8955078125,4381.2578125,True
1599565565.4636805,0.0,10,0.5,0.5,0.003176690673828125,-0.001,-0.0155,-0.5,0.16185566041262311,10,1,100,0.23332946759494655,-10,-1,-100,6434.233524647425,-0.027399693188597897,0.004879539417067745,0.999612648433506,211.081075506172,22.729497313706435,564.1506732526625,-32.0448665884627,-89.90676879882812,4381.2578125,True
1599565565.5225196,0.0,10,0.5,0.5,0.006752938842773438,-0.001,-0.0155,-0.5,0.22507011585655062,10,1,100,0.17114725376811174,-10,-1,-100,6432.257877137163,-0.026198194866037243,0.006487424180503249,0.9996357176058004,211.64567026882818,22.8153338729445,576.4638504739202,-32.61464873841464,-89.9248046875,4381.2578125,True
1599565565.5823605,0.0,10,0.5,0.5,0.000961808776855469,-0.001,-0.0155,-0.5,0.1215764533023691,10,1,100,0.24280999503285533,-10,-1,-100,6431.6064888207475,-0.02576078572629056,0.00699564453889893,0.9996436579482959,211.82649004193837,22.84323770931177,580.5674418782861,-32.80452867171763,-89.93087768554688,4381.2578125,True
1599565565.651177,0.0,10,0.5,0.5,0.004234188842773438,-0.001,-0.0155,-0.5,0.17756042286449092,10,1,100,0.18507603616399243,-10,-1,-100,6430.293457262451,-0.024842350833952847,0.00795605370487614,0.9996597215125195,212.17259134157922,22.897493524163743,588.7598869875197,-33.1842168711499,-89.94314575195312,4381.2578125,True
1599565565.717998,0.0,10,0.5,0.5,0.00707244873046875,-0.001,-0.0155,-0.5,0.23082895767255487,10,1,100,0.10976157291102356,-10,-1,-100,6428.312435207074,-0.023327611677239082,0.009303249328013788,0.9996845862997873,212.66559910263396,22.97634453921371,601.0436272065186,-33.75356873173641,-89.96072387695312,4381.2578125,True
1599565565.7808306,0.0,10,0.5,0.5,-0.0015237152099609374,-0.001,-0.0155,-0.5,0.09736204778174742,10,1,100,0.2605473694185026,-10,-1,-100,6428.312435207074,-0.023327611677239082,0.009303249328013788,0.9996845862997873,212.66559910263396,22.97634453921371,601.0436272065186,-33.75356873173641,-89.96072387695312,4381.2578125,True
1599565565.844659,0.0,10,0.5,0.5,0.004806838989257813,-0.001,-0.0155,-0.5,0.1861181845624892,10,1,100,0.14291234614999582,-10,-1,-100,6426.940320448368,-0.022264225788219426,0.010100521159861302,0.9997010971897303,212.97013794837895,23.026481905776652,609.2082375985457,-34.13301591837947,-89.9730224609375,4381.2578125,True
1599565565.9025052,0.0,10,0.5,0.5,0.004877291870117187,-0.001,-0.0155,-0.5,0.18606505122679246,10,1,100,0.12857874689401538,-10,-1,-100,6425.558440620545,-0.021173733893012928,0.010816293448534438,0.9997173004350096,213.26373399538681,23.075566118426952,617.3750563014589,-34.51236566390476,-89.985107421875,4381.2578125,True
1599565565.9623446,0.0,10,0.5,0.5,0.004886988830566406,-0.001,-0.0155,-0.5,0.19296087516997146,10,1,100,0.10449979277968696,-10,-1,-100,6424.186326575931,-0.019970569701060245,0.011521625040839908,0.9997341789206937,213.55038261717976,23.12401974337907,625.5546726562442,-34.89161758857994,-89.99685668945312,4381.2578125,True
1599565566.024218,0.0,10,0.5,0.5,0.008849884033203125,-0.001,-0.0155,-0.5,0.21902423118357173,10,1,100,0.02579548914370841,-10,-1,-100,6422.028058846714,-0.018169234655804965,0.01239161313982973,0.9997581341683672,213.94783562324017,23.193382154199984,637.7882710589887,-35.46031068587445,-90.01614379882812,4381.2578125,True
1599565566.0840604,0.0,10,0.5,0.5,0.00884210662841797,-0.001,-0.0155,-0.5,0.21308106625689768,10,1,100,-0.002501275753429344,-10,-1,-100,6419.870282542426,-0.01628344353296656,0.01312060780828388,0.999781325649489,214.33180073679333,23.261500535190667,650.0508013031055,-36.02878082744218,-90.03500366210938,4381.2578125,True
1599565566.1468904,0.0,10,0.5,0.5,0.0026917343139648436,-0.001,-0.0155,-0.5,0.16310885339764633,10,1,100,0.11662604110834981,-10,-1,-100,6419.145653339219,-0.015662169256089306,0.013321545509620626,0.9997885940934856,214.45843817287658,23.284103520909255,654.1493816558252,-36.21822099001992,-90.04115295410156,4381.2578125,True
1599565566.2017446,0.0,10,0.5,0.5,0.008229480743408204,-0.001,-0.0155,-0.5,0.1977911991560737,10,1,100,-0.02794463227423699,-10,-1,-100,6416.984465267509,-0.01379267381509551,0.0138132973619769,0.9998094593296364,214.8516439556761,23.35347414808926,666.5316444168611,-36.786390862712054,-90.0579833984375,4381.2578125,True
1599565566.2815337,0.0,10,0.5,0.5,0.002595165252685547,-0.001,-0.0155,-0.5,0.1641857975621267,10,1,100,0.08681281363141774,-10,-1,-100,6416.204662171076,-0.013147262115071825,0.013948642983425743,0.9998162755515627,214.98845511403923,23.377258508179654,670.692400592209,-36.975730458675905,-90.06314086914062,4381.2578125,True
1599565566.3578393,0.0,10,0.5,0.5,0.008087882232666016,-0.001,-0.0155,-0.5,0.18126887608577613,10,1,100,-0.052924230581692766,-10,-1,-100,6413.980979380198,-0.011300819339220999,0.014221537362886458,0.99983500606715,215.40629088445476,23.44951698310053,683.2456406228297,-37.54359753801782,-90.0788803100586,4381.2578125,True
1599565566.4421241,0.0,10,0.5,0.5,0.005167745590209961,-0.001,-0.0155,-0.5,0.16598034167736814,10,1,100,-0.005076987601530941,-10,-1,-100,6412.473624421167,-0.010068143381301735,0.014326165315015333,0.9998466849853633,215.70064871718597,23.49948633526594,691.7051495378421,-37.922048365069294,-90.08839416503906,4381.2578125,True
1599565566.506958,0.0,10,0.5,0.5,0.002963260269165039,-0.001,-0.0155,-0.5,0.1583579962257608,10,1,100,0.052392653627393176,-10,-1,-100,6411.694312712061,-0.00948203422008893,0.014347421298311515,0.9998521103288915,215.85115270216815,23.52485527737518,695.958071984431,-38.1112355421247,-90.09309387207031,4381.2578125,True
1599565566.5867364,0.0,10,0.5,0.5,0.0030508678436279297,-0.001,-0.0155,-0.5,0.15713951841492713,10,1,100,0.045968916622078346,-10,-1,-100,6410.970666322159,-0.008902430274909091,0.014351807030174602,0.9998573760142838,216.00713222805254,23.550834101227263,700.2371333159631,-38.30039692641062,-90.09758758544922,4381.2578125,True
1599565566.6595433,0.0,10,0.5,0.5,0.005144691467285157,-0.001,-0.0155,-0.5,0.1533362200769085,10,1,100,-0.02558881972046917,-10,-1,-100,6409.408139441977,-0.007736148452193446,0.014318004516448475,0.9998675646073296,216.3323390237637,23.604275359553522,708.8644665269408,-38.67864228901752,-90.10590362548828,4381.2578125,True
1599565566.745566,0.0,10,0.5,0.5,0.005352608871459961,-0.001,-0.0155,-0.5,0.146248157338934,10,1,100,-0.037396436564942986,-10,-1,-100,6407.84268439759,-0.0065796724795466124,0.014220295861374401,0.9998772380125858,216.67383442276181,23.659541861293874,717.5810758806322,-39.05678363644914,-90.1142807006836,4381.2578125,True
1599565566.8016164,0.0,10,0.5,0.5,0.010237493896484375,-0.001,-0.0155,-0.5,0.11408506770940391,10,1,100,-0.1667040933617922,-10,-1,-100,6404.714708360378,-0.00436334249914746,0.013837415648564475,0.9998947380451624,217.39632585974383,23.77451272039732,735.257130744555,-39.812750858617775,-90.13208770751953,4381.2578125,True
1599565566.8604567,0.0,10,0.5,0.5,0.003716709518432617,-0.001,-0.0155,-0.5,0.13796232978629103,10,1,100,-0.0054564112380725074,-10,-1,-100,6403.862158222706,-0.0038252215372127914,0.013705757103217807,0.9998987548259167,217.58721724178776,23.804400382201784,739.7346586894748,-40.00167626820003,-90.13654327392578,4381.2578125,True
1599565566.9352562,0.0,10,0.5,0.5,0.007741036987304687,-0.001,-0.0155,-0.5,0.09960597129298868,10,1,100,-0.11742798507022734,-10,-1,-100,6401.458320354344,-0.0023288581258152086,0.01323702406515118,0.9999096747275368,218.19450732811663,23.897898247716075,753.3456329177604,-40.56829180204606,-90.14872741699219,4381.2578125,True
1599565566.9940994,0.0,10,0.5,0.5,0.0054705192565917965,-0.001,-0.0155,-0.5,0.10380972722166655,10,1,100,-0.07778950546015823,-10,-1,-100,6399.822561078821,-0.0013392992170810165,0.012849642969257523,0.999916542994049,218.63389811180025,23.96404833353613,762.5912996879355,-40.94590037074343,-90.15607452392578,4381.2578125,True
1599565567.052941,0.0,10,0.5,0.5,0.00521674690246582,-0.001,-0.0155,-0.5,0.09649416745267062,10,1,100,-0.07568857791339739,-10,-1,-100,6398.194614678272,-0.0004695340622004776,0.012431972338739843,0.9999226098061454,219.09986751217374,24.033140166499674,771.9741784656258,-41.32340008411246,-90.16261291503906,4381.2578125,True
1599565567.1127558,0.0,10,0.5,0.5,0.0036139122009277345,-0.001,-0.0155,-0.5,0.1129065154134504,10,1,100,-0.03684611242979666,-10,-1,-100,6397.352810172713,-4.179841241183121e-05,0.012203101806116447,0.9999255385073442,219.3426140838826,24.068766360247558,776.717262956869,-41.51210891301849,-90.16567993164062,4381.2578125,True
1599565567.1885533,0.0,10,0.5,0.5,0.005089875793457032,-0.001,-0.0155,-0.5,0.08189489501493113,10,1,100,-0.08397844787703812,-10,-1,-100,6395.6623656124575,0.0007664130960355971,0.011715043921480366,0.999931082803652,219.84975832249265,24.142415155749152,786.3161799999268,-41.88944391808482,-90.17144775390625,4381.2578125,True
1599565567.247397,0.0,10,0.5,0.5,0.006509038543701172,-0.001,-0.0155,-0.5,0.04102172268458054,10,1,100,-0.12694421273779172,-10,-1,-100,6393.119377012597,0.001882431923070906,0.01090217371187786,0.9999387976563421,220.66317649778318,24.258725784627632,800.997334027973,-42.455238953437174,-90.17979431152344,4381.2578125,True
1599565567.3072379,0.0,10,0.5,0.5,0.002463180160522461,-0.001,-0.0155,-0.5,0.12196378031300144,10,1,100,-0.016420816254058824,-10,-1,-100,6393.119377012597,0.001882431923070906,0.01090217371187786,0.9999387976563421,220.66317649778318,24.258725784627632,800.997334027973,-42.455238953437174,-90.17979431152344,4381.2578125,True
1599565567.3640838,0.0,10,0.5,0.5,0.005218938446044923,-0.001,-0.0155,-0.5,0.05776878527232034,10,1,100,-0.08996279396479341,-10,-1,-100,6391.425517267431,0.0025422511928273436,0.010321688148603096,0.9999434982600944,221.2399473359858,24.340090169257863,810.9755382168494,-42.83229579838175,-90.18506622314453,4381.2578125,True
1599565567.4214406,0.0,10,0.5,0.5,0.0074629638671875,-0.001,-0.0155,-0.5,-0.024502752733900915,10,1,100,-0.1532462343636053,-10,-1,-100,6387.988971112878,0.0037090982383475098,0.009049595116217455,0.9999521725655136,222.47813790635337,24.512208178023236,831.4110014809278,-43.586070597780015,-90.19458770751953,4381.2578125,True
1599565567.4922543,0.0,10,0.5,0.5,0.004981645202636719,-0.001,-0.0155,-0.5,0.028782552317708807,10,1,100,-0.08999458200706772,-10,-1,-100,6386.233101235586,0.004187514675817778,0.00838191133318364,0.9999561031781558,223.14319577001012,24.603369531115614,841.8885491166352,-43.9627870171325,-90.19894409179688,4381.2578125,True
1599565567.5536625,0.0,10,0.5,0.5,0.0029001743316650393,-0.001,-0.0155,-0.5,0.09501854604408692,10,1,100,-0.042954211881343934,-10,-1,-100,6386.233101235586,0.004187514675817778,0.00838191133318364,0.9999561031781558,223.14319577001012,24.603369531115614,841.8885491166352,-43.9627870171325,-90.19894409179688,4381.2578125,True
1599565567.618487,0.0,10,0.5,0.5,0.005963247299194336,-0.001,-0.0155,-0.5,-0.057144143547216836,10,1,100,-0.12744263935710592,-10,-1,-100,6382.661305199144,0.0049496673139595845,0.007003027893928121,0.9999632285208282,224.554080941549,24.79467374991561,863.3382077318607,-44.71587361478485,-90.20490264892578,4381.2578125,True
1599565567.689249,0.0,10,0.5,0.5,0.0037744274139404296,-0.001,-0.0155,-0.5,0.03931737891560887,10,1,100,-0.06957712248138324,-10,-1,-100,6381.757003452163,0.005110765952917347,0.006631735530699092,0.9999649494633427,224.92486611399866,24.844510968553443,868.8108291003625,-44.904072689041335,-90.20632934570312,4381.2578125,True
1599565567.7471282,0.0,10,0.5,0.5,0.003809213638305664,-0.001,-0.0155,-0.5,0.03481741824961218,10,1,100,-0.06978774680448767,-10,-1,-100,6380.849773042952,0.005254061027620701,0.006258561227898224,0.9999666120696603,225.3039859547518,24.895277032923374,874.3327085408189,-45.09224250199239,-90.20768737792969,4381.2578125,True
1599565567.805483,0.0,10,0.5,0.5,0.0038451045989990234,-0.001,-0.0155,-0.5,-0.004589612294856327,10,1,100,-0.07839669238597756,-10,-1,-100,6379.027499306714,0.005457778001328174,0.005566470257291556,0.9999696130723987,226.08535227299618,24.999388032027515,885.5188534004054,-45.468494177011245,-90.208984375,4381.2578125,True
1599565567.870309,0.0,10,0.5,0.5,0.004084232711791992,-0.001,-0.0155,-0.5,-0.01926771516638763,10,1,100,-0.07734725480760057,-10,-1,-100,6377.212062009028,0.00562917003134491,0.004809448961239017,0.9999725904470819,226.88816096191468,25.105900863846372,896.8608521398535,-45.84462769166769,-90.21063995361328,4381.2578125,True
1599565567.9281564,0.0,10,0.5,0.5,0.004061074829101563,-0.001,-0.0155,-0.5,-0.06788118426722488,10,1,100,-0.07454896427658925,-10,-1,-100,6374.427382956841,0.00575613583734341,0.003684845995502406,0.9999766441323575,228.15153914745804,25.272287180835676,914.24811275068,-46.408604839217176,-90.21215057373047,4381.2578125,True
1599565567.9840071,0.0,10,0.5,0.5,0.0036846370697021487,-0.001,-0.0155,-0.5,-0.08043301395785149,10,1,100,-0.06108047571255455,-10,-1,-100,6371.634893434471,0.005745596943201483,0.0025549333273874046,0.9999802300203035,229.4761926503003,25.44554914491565,932.056634724595,-46.972311715851184,-90.21280670166016,4381.2578125,True
1599565568.045038,0.0,10,0.5,0.5,0.003319301986694336,-0.001,-0.0155,-0.5,-0.008497494949291452,10,1,100,-0.05877227231109039,-10,-1,-100,6370.6719996995525,0.005712120330558807,0.0021887599426526905,0.9999812903305955,229.9301783801738,25.50470191498149,938.0836143024649,-47.160153382195446,-90.212646484375,4381.2578125,True
1599565568.1018867,0.0,10,0.5,0.5,0.002777606201171875,-0.001,-0.0155,-0.5,-0.09186688850696595,10,1,100,-0.0418736902819329,-10,-1,-100,6367.786250781966,0.005526242644171115,0.0011042085925273319,0.9999841205567327,231.32130839085784,25.685465711004206,956.4090496330656,-47.723495662364286,-90.21134948730469,4381.2578125,True
1599565568.1578536,0.0,10,0.5,0.5,0.0032159934997558594,-0.001,-0.0155,-0.5,-0.02468864489436362,10,1,100,-0.05061879977997633,-10,-1,-100,6366.799919831101,0.005435546899284195,0.0007355802186558056,0.9999849567626743,231.79289968957983,25.746620441561152,962.5924916419362,-47.91121532129128,-90.21089172363281,4381.2578125,True
1599565568.2211099,0.0,10,0.5,0.5,0.002641593933105469,-0.001,-0.0155,-0.5,-0.06561961386820346,10,1,100,-0.0355903637631242,-10,-1,-100,6364.887318513705,0.005215339501757916,3.5315007296353934e-05,0.9999863994008777,232.7551730943702,25.871093226960234,975.1039910062583,-48.28656237172164,-90.2092514038086,4381.2578125,True
1599565568.278962,0.0,10,0.5,0.5,0.0024938011169433594,-0.001,-0.0155,-0.5,-0.07184108694918026,10,1,100,-0.027467176035099888,-10,-1,-100,6362.923936554231,0.004941062277217624,-0.0006515142920514532,0.9999875806392297,233.73480278495,25.99755413219238,987.7769130452168,-48.66178577399016,-90.20730590820312,4381.2578125,True
1599565568.3320315,0.0,10,0.5,0.5,0.002978804779052734,-0.001,-0.0155,-0.5,-0.04179309121207403,10,1,100,-0.03753538949666865,-10,-1,-100,6361.890732556349,0.004783402835173166,-0.0009961198303732662,0.999988063330058,234.23068197893903,26.061484348300862,994.1728009824018,-48.8493508801932,-90.20632934570312,4381.2578125,True
1599565568.4008472,0.0,10,0.5,0.5,0.0015499954223632813,-0.001,-0.0155,-0.5,-0.11564872372334806,10,1,100,0.005925670127948382,-10,-1,-100,6358.97617909743,0.004245403398720274,-0.0019742172688971588,0.9999890394480118,235.749838670873,26.256890866748943,1013.6330360076716,-49.41185893628398,-90.20250701904297,4381.2578125,True
1599565568.4597213,0.0,10,0.5,0.5,0.002770744705200195,-0.001,-0.0155,-0.5,-0.05362753282610063,10,1,100,-0.025348485375598778,-10,-1,-100,6358.004499355098,0.0040417256652522625,-0.0022927125798291857,0.9999892039030588,236.26382280632495,26.32291117511184,1020.1993165187486,-49.599298820451466,-90.2011489868164,4381.2578125,True
1599565568.5155747,0.0,10,0.5,0.5,0.0020704792022705077,-0.001,-0.0155,-0.5,-0.09238657768543083,10,1,100,0.003581768623082515,-10,-1,-100,6355.999616696383,0.0035950049115352337,-0.002928152214360332,0.999989250874376,237.30314198741502,26.456280097028067,1033.4527269236182,-49.974083825739115,-90.19842529296875,4381.2578125,True
1599565568.5753777,0.0,10,0.5,0.5,0.0017368728637695311,-0.001,-0.0155,-0.5,-0.093586771626055,10,1,100,0.011203599724424397,-10,-1,-100,6353.994734470383,0.003121570426258289,-0.0035107236468399,0.9999889652478918,238.35959679569777,26.591651731328533,1046.878046776038,-50.34874182794121,-90.19508361816406,4381.2578125,True
1599565569.0560937,0.0,10,0.5,0.5,0.0018742427825927735,-0.001,-0.0155,-0.5,-0.10093744345543743,10,1,100,0.022698861935828915,-10,-1,-100,6351.927842421341,0.0025890585345546098,-0.004101644095748232,0.9999882365766192,239.42206501380358,26.727792632864645,1060.4286055612079,-50.7232724537136,-90.19207763671875,4381.2578125,True
1599565569.1249094,0.0,10,0.5,0.5,0.0015756145477294923,-0.001,-0.0155,-0.5,-0.10231279029458301,10,1,100,0.031064171641435323,-10,-1,-100,6349.922474143328,0.0020317476918603017,-0.004645629107804038,0.9999871449831288,240.50006554296064,26.865776473579206,1074.1483017959617,-51.09767491601752,-90.18854522705078,4381.2578125,True
1599565569.182757,0.0,10,0.5,0.5,0.0024158706665039064,-0.001,-0.0155,-0.5,-0.07758178812441141,10,1,100,0.007901504222449316,-10,-1,-100,6348.887807686115,0.001738847988631086,-0.0049101065193074556,0.9999864335387965,241.04142224588452,26.935074811911733,1081.05680026813,-51.284827924439874,-90.186767578125,4381.2578125,True
1599565569.2405999,0.0,10,0.5,0.5,0.0023652336120605468,-0.001,-0.0155,-0.5,-0.07984813589705707,10,1,100,0.011916019330236005,-10,-1,-100,6347.854118816671,0.001439440574634332,-0.005166011248845556,0.9999856200659132,241.58498713323334,27.004651000840465,1088.0008343809684,-51.471948576354286,-90.18496704101562,4381.2578125,True
1599565569.3004427,0.0,10,0.5,0.5,0.0005063648223876953,-0.001,-0.0155,-0.5,-0.13486364522269956,10,1,100,0.08665869512026123,-10,-1,-100,6344.75256471266,0.0004912057810253478,-0.005894064427516814,0.9999825092077387,243.21995893847046,27.214051620404604,1109.0074140094341,-52.03311617039393,-90.17953491210938,4381.2578125,True
1599565569.3583193,0.0,10,0.5,0.5,0.0022543811798095706,-0.001,-0.0155,-0.5,-0.08792719504315158,10,1,100,0.028990612163058625,-10,-1,-100,6343.718877014471,0.000157474774170106,-0.006124469997280734,0.9999812328583711,243.76756104915592,27.28421345516576,1116.0736279584157,-52.22010698832837,-90.17768859863281,4381.2578125,True
1599565569.4191859,0.0,10,0.5,0.5,-0.0008344303131103516,-0.001,-0.0155,-0.5,-0.15622535753210193,10,1,100,0.14722609607080953,-10,-1,-100,6339.457175099989,-0.001216579696622392,-0.00695015985590484,0.9999751072960863,245.9745578143584,27.567102681852788,1144.6796255434801,-52.96774274412644,-90.16976928710938,4381.2578125,True
1599565569.478432,0.0,10,0.5,0.5,0.003074481964111328,-0.001,-0.0155,-0.5,-0.07415396592839212,10,1,100,0.010366847301094002,-10,-1,-100,6339.457175099989,-0.001216579696622392,-0.00695015985590484,0.9999751072960863,245.9745578143584,27.567102681852788,1144.6796255434801,-52.96774274412644,-90.16976928710938,4381.2578125,True
1599565569.5502734,0.0,10,0.5,0.5,0.0011873043060302737,-0.001,-0.0155,-0.5,-0.11631186186451506,10,1,100,0.09213324039589665,-10,-1,-100,6337.328279115143,-0.0019551302653370755,-0.007329179412345889,0.9999712298835338,247.07322240651303,27.708253912895074,1159.1206099435256,-53.341363415362466,-90.16609954833984,4381.2578125,True
1599565569.6230783,0.0,10,0.5,0.5,0.0010035705566406247,-0.001,-0.0155,-0.5,-0.1128797939727386,10,1,100,0.09565539567251044,-10,-1,-100,6335.196942627197,-0.0026535138892497564,-0.007638541094459797,0.9999673052425203,248.17109450977728,27.84949775507849,1173.6655942618547,-53.714851864525464,-90.16217041015625,4381.2578125,True
1599565569.7128081,0.0,10,0.5,0.5,0.0003446983337402343,-0.001,-0.0155,-0.5,-0.13082736243116022,10,1,100,0.1521149216000232,-10,-1,-100,6331.9699100869475,-0.0037964264336791207,-0.008079186139232983,0.9999601561550646,249.79461338506744,28.059113934467543,1195.5750057787718,-54.274836165864784,-90.15703582763672,4381.2578125,True
1599565569.7866166,0.0,10,0.5,0.5,0.0019364940643310543,-0.001,-0.0155,-0.5,-0.10054620119327665,10,1,100,0.07948312239562963,-10,-1,-100,6330.873726041056,-0.004169343767694752,-0.008200873312279224,0.9999576802292499,250.33661748023655,28.129182995116587,1202.9361884574712,-54.46143109360649,-90.15519714355469,4381.2578125,True
1599565569.8599312,0.0,10,0.5,0.5,0.00024318771362304712,-0.001,-0.0155,-0.5,-0.12359066698356928,10,1,100,0.1672816755296085,-10,-1,-100,6327.58370845858,-0.0053008908348728115,-0.008517761118410763,0.9999496728845338,251.9450412404812,28.337746970381183,1225.0978916906265,-55.0210156179171,-90.15008544921875,4381.2578125,True
1599565569.9287517,0.0,10,0.5,0.5,0.001958600616455078,-0.001,-0.0155,-0.5,-0.10160207144038176,10,1,100,0.09575611590273438,-10,-1,-100,6326.487524972763,-0.005672937864041733,-0.008602664933047635,0.9999469045564571,252.47480991342866,28.406667534173685,1232.5084385269029,-55.20747704084896,-90.14852142333984,4381.2578125,True
1599565570.0167615,0.0,10,0.5,0.5,0.0012583950042724611,-0.001,-0.0155,-0.5,-0.10967255608762874,10,1,100,0.14267755666399887,-10,-1,-100,6324.23168110766,-0.006431255189807998,-0.008750094030706854,0.9999410356671725,253.51713103738456,28.54275323876078,1247.3261800683074,-55.580299469153736,-90.14567565917969,4381.2578125,True
1599565570.0758018,0.0,10,0.5,0.5,0.00017103919982910205,-0.001,-0.0155,-0.5,-0.11476584929614492,10,1,100,0.22928406087207923,-10,-1,-100,6319.782006714959,-0.007901673286968211,-0.008927826758107936,0.9999289262085795,255.54901684726147,28.809751272481506,1277.0216814403652,-56.3255422951929,-90.1407699584961,4381.2578125,True
1599565570.1396313,0.0,10,0.5,0.5,0.0025666656494140625,-0.001,-0.0155,-0.5,-0.09727291223211944,10,1,100,0.08304816596217174,-10,-1,-100,6319.782006714959,-0.007901673286968211,-0.008927826758107936,0.9999289262085795,255.54901684726147,28.809751272481506,1277.0216814403652,-56.3255422951929,-90.1407699584961,4381.2578125,True
1599565570.2014656,0.0,10,0.5,0.5,0.0014132419586181644,-0.001,-0.0155,-0.5,-0.1012781703363699,10,1,100,0.162470059680851,-10,-1,-100,6317.52616405813,-0.008617613144783163,-0.0089624403164173,0.9999227027161959,256.54210848482734,28.94108247286906,1291.9144109787796,-56.69796229358794,-90.13855743408203,4381.2578125,True
1599565570.2583103,0.0,10,0.5,0.5,0.0015652343749999998,-0.001,-0.0155,-0.5,-0.09787070750233133,10,1,100,0.16583651898139823,-10,-1,-100,6315.207333457074,-0.009292343524212493,-0.008961100906879543,0.9999166720394079,257.5146107953065,29.070378855414013,1306.8084970824882,-57.070247895317635,-90.13674926757812,4381.2578125,True
1599565570.3271635,0.0,10,0.5,0.5,0.0013344615936279297,-0.001,-0.0155,-0.5,-0.09202265204583945,10,1,100,0.21526434303096378,-10,-1,-100,6311.7923198477365,-0.010348408439363502,-0.008905235556336625,0.9999067992680409,258.9272518323801,29.259674471984685,1329.1093713025193,-57.62842437989315,-90.13457489013672,4381.2578125,True
1599565570.3899858,0.0,10,0.5,0.5,0.0015188537597656251,-0.001,-0.0155,-0.5,-0.08344953699406005,10,1,100,0.2196103850849465,-10,-1,-100,6308.315295583219,-0.01134098156767325,-0.008775359924043363,0.999897182311904,260.30276238517405,29.445478781800645,1351.4497341103663,-58.186297816401265,-90.13285827636719,4381.2578125,True
1599565570.4517455,0.0,10,0.5,0.5,0.0021447467803955077,-0.001,-0.0155,-0.5,-0.09028215666748356,10,1,100,0.15558724388054992,-10,-1,-100,6307.156123901368,-0.011654433532338512,-0.008718773006458055,0.9998940729778841,260.75043531876173,29.506351487005233,1358.8910553003575,-58.372188285725564,-90.1324691772461,4381.2578125,True
