Timestamp,Input Throttle,horizon,dT,dt,Input Roll,Roll P,Roll I,Roll D,Input Pitch,Pitch P,Pitch I,Pitch D,Input Yaw,Yaw P,Yaw I,Yaw D,Altitude,Direction X,Direction Y,Direction Z,Drag X,Drag Y,Drag Z,Vertical Velocity,Roll,Mass,Has Fuel
1599572211.2976077,0.0,10,0.5,0.5,-10.811886672973634,-0.2,-0.001,-0.2505,-0.06719288123138073,10,1,100,0.6903647068168601,-10,-1,-100,6483.617967226892,-0.06725808347763408,-0.007002484928473863,0.9977110380324266,205.07320992903055,21.498776091997538,-156.76521929567974,9.590823332209736,-35.944580078125,4381.2578125,True
1599572211.3734052,0.0,10,0.5,0.5,-10.817231927490235,-0.2,-0.001,-0.2505,-0.06906766648604949,10,1,100,0.6894998541920896,-10,-1,-100,6483.776675160741,-0.06735074903279759,-0.006987417371278076,0.9977048925424795,204.8427521719509,21.477788610464867,-153.5132382640318,9.400809386970455,-35.94293212890625,4381.2578125,True
1599572211.4551892,0.0,10,0.5,0.5,-10.823750869750977,-0.2,-0.001,-0.2505,-0.06772886206476109,10,1,100,0.7080623207196596,-10,-1,-100,6484.1565918048145,-0.06754251218862159,-0.006955196445114486,0.9976921540684079,204.3811389960092,21.435607071096296,-147.02545836312964,9.020797129750997,-35.939544677734375,4381.2578125,True
1599572211.5339758,0.0,10,0.5,0.5,-10.685492379760742,-0.2,-0.001,-0.2505,-0.018514665376200667,10,1,100,0.7014671146269127,-10,-1,-100,6484.697140188655,-0.06759548362744697,-0.0064721800001196605,0.9976918168849626,203.75662392392343,21.37897175642405,-137.38151583723908,8.45080475937776,-36.256561279296875,4381.2578125,True
1599572211.609776,0.0,10,0.5,0.5,-10.517395562744142,-0.2,-0.001,-0.2505,-0.01510227465611693,10,1,100,0.6978085766122768,-10,-1,-100,6485.016949542682,-0.06754892960476658,-0.005996168607214403,0.9976979443054316,203.4463876806255,21.3516507330874,-131.04521311633349,8.070815490988503,-36.817901611328125,4381.2578125,True
1599572211.693549,0.0,10,0.5,0.5,-10.487559185791016,-0.2,-0.001,-0.2505,-0.028058934549085403,10,1,100,0.7015192008925806,-10,-1,-100,6485.175624001422,-0.06747893259614647,-0.005675767732139143,0.9977045551245798,203.31727386121295,21.340403595946125,-127.89844205267141,7.880819521652299,-37.20806884765625,4381.2578125,True
1599572211.7763295,0.0,10,0.5,0.5,-10.139814056396485,-0.2,-0.001,-0.2505,0.026235554432418096,10,1,100,0.6872961372893955,-10,-1,-100,6485.49392817507,-0.06722465388955728,-0.004885748157027838,0.9977259019261628,203.0863299700555,21.31998958182277,-121.62898136850254,7.500820084702839,-38.208648681640625,4381.2578125,True
1599572211.865674,0.0,10,0.5,0.5,-9.471376538085938,-0.2,-0.001,-0.2505,0.12171805464176472,10,1,100,0.6481159998208634,-10,-1,-100,6485.909322912921,-0.06657619503940813,-0.0032950842248807488,0.9977759030333543,202.70966320967707,21.283867264975772,-112.2244471344717,6.930787194410648,-40.260284423828125,4381.2578125,True
1599572211.9444642,0.0,10,0.5,0.5,-9.616018859863283,-0.2,-0.001,-0.2505,0.03213011823450599,10,1,100,0.6873361919195298,-10,-1,-100,6486.005457315943,-0.06628271038104278,-0.002660466359154037,0.9977973362478448,202.54274229098695,21.26678343833672,-109.07234167105075,6.740762817855323,-41.091064453125,4381.2578125,True
1599572212.0202625,0.0,10,0.5,0.5,-8.507326181030272,-0.2,-0.001,-0.2505,0.20456482120776504,10,1,100,0.5956562874967822,-10,-1,-100,6486.420286534121,-0.06512219546015743,-0.0005135342120463496,0.997877164755794,201.7693903401971,21.184593010118697,-99.50422612876147,6.170631925465548,-44.02490234375,4381.2578125,True
1599572212.107029,0.0,10,0.5,0.5,-8.739982589721679,-0.2,-0.001,-0.2505,0.0771802214926671,10,1,100,0.6653847215433322,-10,-1,-100,6486.517860654043,-0.06464187475481198,0.00028064731901615456,0.9979084874201971,201.378390468559,21.142417929620077,-96.26422007453749,5.980563818827507,-45.1500244140625,4381.2578125,True
1599572212.1838267,0.0,10,0.5,0.5,-7.907990847778319,-0.2,-0.001,-0.2505,0.19073612296541811,10,1,100,0.593081940814529,-10,-1,-100,6486.772072723717,-0.06355029993307501,0.0020283358767820858,0.9979765754926251,200.30774835970846,21.026608870116444,-89.68661003413382,5.600378492657051,-47.62042236328125,4381.2578125,True
1599572212.2621381,0.0,10,0.5,0.5,-6.607059564208985,-0.2,-0.001,-0.2505,0.32256991179430894,10,1,100,0.47632330331666817,-10,-1,-100,6487.06179625541,-0.06149997198069696,0.00480743650660643,0.998095507454376,197.74092611341464,20.749356723654202,-79.54546614301861,5.029941127190233,-51.879241943359375,4381.2578125,True
1599572212.3389916,0.0,10,0.5,0.5,-6.96652389831543,-0.2,-0.001,-0.2505,0.15631166412297967,10,1,100,0.5941054831892099,-10,-1,-100,6487.1578734300565,-0.06071227778665632,0.005811759706751277,0.9981383885890107,196.55626998432237,20.62177270483852,-76.08693507644045,4.839742449769974,-53.445892333984375,4381.2578125,True
1599572212.4222844,0.0,10,0.5,0.5,-5.8457359497070325,-0.2,-0.001,-0.2505,0.27789266281706854,10,1,100,0.47966178064922205,-10,-1,-100,6487.351967104711,-0.05896205231974747,0.007818895386186608,0.9982296034786702,193.5835356991092,20.30263356745652,-69.05834771946478,4.459244783182181,-56.80108642578125,4381.2578125,True
1599572212.5090506,0.0,10,0.5,0.5,-3.262019537353517,-0.2,-0.001,-0.2505,0.5324970845105788,10,1,100,0.1957233421782889,-10,-1,-100,6487.675173440366,-0.0547974859794446,0.011945590688347546,0.9984260305067366,184.62989010584505,19.34842351339144,-54.63572543616705,3.6977320856214995,-64.39752197265625,4381.2578125,True
1599572212.5868435,0.0,10,0.5,0.5,-4.223290246582032,-0.2,-0.001,-0.2505,0.23288777517910372,10,1,100,0.48156612811602895,-10,-1,-100,6487.7707395566395,-0.05362161594825481,0.01295739146146182,0.998477254778301,181.66068873185657,19.033673794236613,-50.99153512236054,3.507223875931728,-66.481689453125,4381.2578125,True
1599572212.6656327,0.0,10,0.5,0.5,-3.770345129394532,-0.2,-0.001,-0.2505,0.24483601402706132,10,1,100,0.4622851165941517,-10,-1,-100,6487.80526983575,-0.05238972766783003,0.013969609663257603,0.9985290013017883,178.3809952333188,18.686793519338824,-47.35380649832351,3.3166514313333297,-68.63973999023438,4381.2578125,True
1599572212.750406,0.0,10,0.5,0.5,-2.26283874206543,-0.2,-0.001,-0.2505,0.3492712661676096,10,1,100,0.30438521391804685,-10,-1,-100,6487.93487609108,-0.049847272358907985,0.015823524235360445,0.9986314963584665,170.75680464855117,17.88315431667899,-40.123032041278464,2.9352715761742947,-73.17971801757812,4381.2578125,True
1599572213.511391,0.0,10,0.5,0.5,-1.2189094482421876,-0.2,-0.001,-0.2505,0.3777168393815711,10,1,100,0.24673084698430847,-10,-1,-100,6488.003934648354,-0.04702676004960135,0.01775069361140403,0.9987358993825902,161.6836046623765,16.929791857969597,-33.054989647033125,2.55357558230238,-78.01431274414062,4381.2578125,True
1599572213.589186,0.0,10,0.5,0.5,1.091923651123047,-0.2,-0.001,-0.2505,0.46936951439764074,10,1,100,0.031647435350089015,-10,-1,-100,6488.167099178769,-0.042523804603930196,0.02031926806447751,0.9988888093213032,145.3593566255276,15.218448847781824,-23.053469249618725,1.980607324883748,-85.82452392578125,4381.2578125,True
1599572213.6669834,0.0,10,0.5,0.5,0.37934307556152347,-0.2,-0.001,-0.2505,0.30106725300867776,10,1,100,0.30703778128564135,-10,-1,-100,6488.200658792863,-0.04095386468014406,0.021106098263057867,0.9989380929686636,148.00896610897806,15.495829796813988,-21.210579043502843,1.7895596071196627,-88.57659912109375,4381.2578125,True
1599572213.7447748,0.0,10,0.5,0.5,3.5746913864135745,-0.2,-0.001,-0.2505,0.4570549328747514,10,1,100,-0.07015816218206228,-10,-1,-100,6488.301355546922,-0.03611813474995293,0.02322212484019861,0.9990776812941478,160.306673747251,16.78236886454038,-15.618293433180147,1.2164378626194985,-97.19068908691406,4381.2578125,True
1599572213.8175814,0.0,10,0.5,0.5,2.6992956092834475,-0.2,-0.001,-0.2505,0.3149649257475952,10,1,100,0.23178224312103418,-10,-1,-100,6488.273407619563,-0.03449000380456255,0.023837317401594598,0.9991207244055429,164.55156272865057,17.225779392605777,-13.515428868379885,1.0254392935633287,-100.0273208618164,4381.2578125,True
1599572213.9053462,0.0,10,0.5,0.5,5.723716291046143,-0.2,-0.001,-0.2505,0.4328587031777287,10,1,100,-0.16357851854579036,-10,-1,-100,6488.311656710808,-0.029439534451765698,0.02545195810886958,0.9992424688931548,174.91033274925547,18.30730920845698,-6.34139134491801,0.452553880062907,-108.3077621459961,4381.2578125,True
1599572213.9861312,0.0,10,0.5,0.5,4.846266456604004,-0.2,-0.001,-0.2505,0.3217953201456054,10,1,100,0.15875146589705194,-10,-1,-100,6488.345251434133,-0.02780530991494711,0.025894116121806914,0.9992779190449493,178.126471106682,18.64354516128466,-3.733238556893813,0.2615955563394259,-110.95293426513672,4381.2578125,True
1599572214.0679114,0.0,10,0.5,0.5,6.474932774353027,-0.2,-0.001,-0.2505,0.36262318983266006,10,1,100,-0.057627457752520206,-10,-1,-100,6488.350441800198,-0.02437710846290183,0.02665455992578366,0.999347432586961,183.27193376746285,19.181413493957173,1.767907255498454,-0.12038685010763928,-116.0286865234375,4381.2578125,True
1599572214.144414,0.0,10,0.5,0.5,8.39074488067627,-0.2,-0.001,-0.2505,0.3820943589646797,10,1,100,-0.2529763168489923,-10,-1,-100,6488.327754133148,-0.019511248885152148,0.027510431131995132,0.9994310818389998,188.4425357284461,19.72161701765458,10.475193168884969,-0.6936004326436982,-123.09268951416016,4381.2578125,True
1599572214.2301838,0.0,10,0.5,0.5,7.621148412322998,-0.2,-0.001,-0.2505,0.3194677884340317,10,1,100,0.049523317566918995,-10,-1,-100,6488.298391524819,-0.017867626380781338,0.027706853567846274,0.9994563913412564,189.75121067698902,19.85832000372358,13.45553254716395,-0.8847324772297269,-125.30021667480469,4381.2578125,True
1599572214.3058822,0.0,10,0.5,0.5,9.856877311706542,-0.2,-0.001,-0.2505,0.35351268962962,10,1,100,-0.298869643123744,-10,-1,-100,6488.2103384485235,-0.013235287775963781,0.028184115493732217,0.999515123843218,191.87747881621726,20.07996134246682,22.43218432677646,-1.4583066080527418,-131.47891235351562,4381.2578125,True
1599572214.3866665,0.0,10,0.5,0.5,10.003890496826171,-0.2,-0.001,-0.2505,0.3252038422482669,10,1,100,-0.16929837402947012,-10,-1,-100,6488.154106494971,-0.010232711010871798,0.028351151884814112,0.999545648688529,192.10960934094524,20.103458737,28.35471012132997,-1.8408247902200707,-135.22903442382812,4381.2578125,True
1599572214.4634612,0.0,10,0.5,0.5,9.86430325317383,-0.2,-0.001,-0.2505,0.3129317103834929,10,1,100,-0.034607201297685644,-10,-1,-100,6488.1242886420805,-0.008756916516161726,0.028384136601735766,0.9995587312421932,191.9495215686779,20.086177575927927,31.277555048550592,-2.032118472822811,-136.99346923828125,4381.2578125,True
1599572214.5552592,0.0,10,0.5,0.5,11.610940670776369,-0.2,-0.001,-0.2505,0.3249347053891981,10,1,100,-0.3395750490215945,-10,-1,-100,6487.974806942744,-0.004672120130902473,0.028516624445953972,0.9995823995167635,190.57300463803537,19.93991260508024,39.83382938899292,-2.6061081439670803,-141.8409423828125,4381.2578125,True
1599572214.6310563,0.0,10,0.5,0.5,11.690561312866212,-0.2,-0.001,-0.2505,0.3095715103213088,10,1,100,-0.22089187855373238,-10,-1,-100,6487.853690142627,-0.0020661940709373987,0.028492589349529935,0.9995918683113726,189.15551378748842,19.78939270315156,45.351166467757146,-2.9888335509732915,-144.7032012939453,4381.2578125,True
1599572214.7118394,0.0,10,0.5,0.5,12.133717873382569,-0.2,-0.001,-0.2505,0.31061793444148095,10,1,100,-0.23115364249965087,-10,-1,-100,6487.732588211307,0.0003666421924177233,0.028476020143011524,0.9995944086729964,187.48927462885047,19.61210671237213,50.7166220529184,-3.3715942117569178,-147.26853942871094,4381.2578125,True
1599572214.789357,0.0,10,0.5,0.5,12.02261710205078,-0.2,-0.001,-0.2505,0.31301434647835036,10,1,100,-0.11746218912312408,-10,-1,-100,6487.640793415485,0.0015176563314592416,0.02847999364466256,0.9995932106018226,186.60607717343098,19.517915817197483,53.34753451906263,-3.5629852658205396,-148.43972778320312,4381.2578125,True
1599572214.872134,0.0,10,0.5,0.5,13.115870168304443,-0.2,-0.001,-0.2505,0.3055350723138437,10,1,100,-0.3671398709105876,-10,-1,-100,6487.4269502614625,0.004807172686613557,0.028413261719647212,0.999584702588636,184.10247235384088,19.249313578633338,61.129477828364266,-4.137198675662389,-151.5093994140625,4381.2578125,True
1599572214.9495158,0.0,10,0.5,0.5,12.74451551437378,-0.2,-0.001,-0.2505,0.31113214871438377,10,1,100,-0.15293156141723993,-10,-1,-100,6487.336632006452,0.005823762667587488,0.0284018800261892,0.9995796201400715,183.3176690669429,19.16454930342181,63.69067137709259,-4.328617864445636,-152.38409423828125,4381.2578125,True
1599572215.032297,0.0,10,0.5,0.5,13.510007856750489,-0.2,-0.001,-0.2505,0.30889510342903354,10,1,100,-0.3660837525594302,-10,-1,-100,6487.059340170468,0.00866265074108121,0.028370385848729467,0.999559943019393,181.20213565255628,18.93401805116161,71.32749067986532,-4.902929213752923,-154.56317138671875,4381.2578125,True
1599572215.11112,0.0,10,0.5,0.5,13.22721817932129,-0.2,-0.001,-0.2505,0.3150479953902552,10,1,100,-0.17961680411351855,-10,-1,-100,6486.905065334286,0.009524185570092793,0.02839708694861274,0.9995513470262842,180.60134646954825,18.86770656675919,73.87384853056018,-5.094387510223063,-155.140625,4381.2578125,True
1599572215.2018526,0.0,10,0.5,0.5,13.50555744934082,-0.2,-0.001,-0.2505,0.3098155000375578,10,1,100,-0.27757421915276553,-10,-1,-100,6486.721029853215,0.011177230575600064,0.028373598925795846,0.9995348960394819,179.62418467158832,18.75800094305445,79.01215398951553,-5.477340830185453,-156.07431030273438,4381.2578125,True
1599572215.281159,0.0,10,0.5,0.5,13.559784463500979,-0.2,-0.001,-0.2505,0.3244723536774773,10,1,100,-0.27498476387274906,-10,-1,-100,6486.473035832518,0.012636994676618822,0.028485469895378864,0.9995143242447216,178.9638062556963,18.68069023295908,84.24276211640742,-5.860348139705008,-156.709228515625,4381.2578125,True
1599572215.3618486,0.0,10,0.5,0.5,13.555526799011231,-0.2,-0.001,-0.2505,0.31995242045675604,10,1,100,-0.27907296836471535,-10,-1,-100,6486.226996396785,0.013981769435478495,0.028545988353635376,0.9994946906674228,178.67599118580716,18.64159319711151,89.62318890169723,-6.2434129088974295,-157.04844665527344,4381.2578125,True
1599572215.4378867,0.0,10,0.5,0.5,13.375416903686524,-0.2,-0.001,-0.2505,0.35068627685001547,10,1,100,-0.3879262156312396,-10,-1,-100,6485.732480748789,0.01617690883725898,0.028880377133891216,0.999451965547657,179.27384674540465,18.68375055341332,101.0038091092458,-7.0097137453096625,-156.83389282226562,4381.2578125,True
1599572215.5239441,0.0,10,0.5,0.5,13.322562567138673,-0.2,-0.001,-0.2505,0.32903549383138814,10,1,100,-0.22016429393785691,-10,-1,-100,6485.578211680055,0.016630797093566674,0.02898718909960504,0.9994414237243402,179.67440759010898,18.720020633162136,104.0084943093239,-7.201321519289656,-156.59457397460938,4381.2578125,True
1599572215.5987446,0.0,10,0.5,0.5,13.242175231933595,-0.2,-0.001,-0.2505,0.33134401669328584,10,1,100,-0.22198993048383034,-10,-1,-100,6485.42345474218,0.017045233881626928,0.029104812759037955,0.999431023070718,180.17361840685913,18.766383848456048,107.08529027328105,-7.392940478834095,-156.28099060058594,4381.2578125,True
1599572215.6780663,0.0,10,0.5,0.5,12.696726455688479,-0.2,-0.001,-0.2505,0.3686390302704443,10,1,100,-0.2894045781159768,-10,-1,-100,6484.957226821221,0.01802073905147379,0.029550220919119886,0.9994008392070072,182.22790133513587,18.962318297866002,116.7717459600503,-7.9678508979279,-154.8941192626953,4381.2578125,True
1599572215.7548747,0.0,10,0.5,0.5,12.460887048339846,-0.2,-0.001,-0.2505,0.3597415841636759,10,1,100,-0.24404825087011472,-10,-1,-100,6484.58471720852,0.01848321935240414,0.029873217955315137,0.9993827902517459,184.0240047624414,19.136431587549737,123.6276485764823,-8.351152551423528,-153.59869384765625,4381.2578125,True
1599572215.833627,0.0,10,0.5,0.5,12.44355436859131,-0.2,-0.001,-0.2505,0.34691041959642277,10,1,100,-0.2175523273603094,-10,-1,-100,6484.429466565372,0.01865127536072003,0.030048867094036584,0.9993744020705072,185.0278305506817,19.23424402442344,127.17176156570972,-8.54280623612735,-152.83963012695312,4381.2578125,True
1599572215.9702632,0.0,10,0.5,0.5,11.407177058410646,-0.2,-0.001,-0.2505,0.39231535089319625,10,1,100,-0.2271488169745513,-10,-1,-100,6483.901204475202,0.018882213796937,0.030619794339894653,0.9993527356227676,188.365439735621,19.560833438712613,138.23709552762242,-9.117754273837237,-150.117431640625,4381.2578125,True
1599572216.0739853,0.0,10,0.5,0.5,10.562016276550292,-0.2,-0.001,-0.2505,0.39899163332477217,10,1,100,-0.1912900309089306,-10,-1,-100,6483.309450127068,0.018757661567240565,0.03119749194242424,0.999337213671657,191.96875094096947,19.91467271927367,149.83090649122806,-9.69264267137192,-146.72882080078125,4381.2578125,True
1599572216.203163,0.0,10,0.5,0.5,10.834396020507812,-0.2,-0.001,-0.2505,0.36273503487395226,10,1,100,-0.1907486444064118,-10,-1,-100,6483.155162852141,0.018632619271137598,0.03139049896515584,0.9993335089317357,193.17025767723962,20.032842554566702,153.77275005962824,-9.884250646605103,-145.45127868652344,4381.2578125,True
1599572216.3288248,0.0,10,0.5,0.5,9.902417373657228,-0.2,-0.001,-0.2505,0.3834004428932584,10,1,100,-0.16122151728439796,-10,-1,-100,6482.71914083173,0.018245065460303394,0.03175118630502392,0.9993292649345225,195.48649848998608,20.260947188509117,161.7001099437984,-10.267423058738789,-142.6746368408203,4381.2578125,True
1599572216.4505012,0.0,10,0.5,0.5,9.21258997039795,-0.2,-0.001,-0.2505,0.38403183130433105,10,1,100,-0.14030784199970442,-10,-1,-100,6482.282131305779,0.017698743769661608,0.03208190996504884,0.9993285273232072,197.57796520318098,20.46744262346517,169.5831298802218,-10.650527355563668,-139.60263061523438,4381.2578125,True
1599572216.5731726,0.0,10,0.5,0.5,7.655320945739746,-0.2,-0.001,-0.2505,0.39658237266281626,10,1,100,-0.07297949097768633,-10,-1,-100,6481.628308920655,0.016588628282575818,0.03249375318393849,0.9993342651063876,199.97088837575464,20.70518233916743,180.98673802194975,-11.22504264385494,-134.44151306152344,4381.2578125,True
1599572217.4688225,0.0,10,0.5,0.5,8.945965586853028,-0.2,-0.001,-0.2505,0.35574870718228446,10,1,100,-0.18398682280516626,-10,-1,-100,6481.628308920655,0.016588628282575818,0.03249375318393849,0.9993342651063876,199.97088837575464,20.70518233916743,180.98673802194975,-11.22504264385494,-134.44151306152344,4381.2578125,True
1599572217.5427763,0.0,10,0.5,0.5,7.227879547119141,-0.2,-0.001,-0.2505,0.3768711545143345,10,1,100,-0.08196167982623781,-10,-1,-100,6481.19078590069,0.015661542078766515,0.032682694577479944,0.999343063004327,200.83789631188844,20.79299824126608,188.03745498844071,-11.607959034204129,-130.63262939453125,4381.2578125,True
1599572217.618537,0.0,10,0.5,0.5,7.271993383789062,-0.2,-0.001,-0.2505,0.3642789067544937,10,1,100,-0.11860055893709971,-10,-1,-100,6480.973973116954,0.015153961882650172,0.03273713679773875,0.9993491068258107,200.98874345179885,20.809383049488833,191.31590010864693,-11.79939145768606,-128.61801147460938,4381.2578125,True
1599572217.6973248,0.0,10,0.5,0.5,5.859422119140625,-0.2,-0.001,-0.2505,0.3670603874712892,10,1,100,-0.044844473214525754,-10,-1,-100,6480.473935316317,0.014025042068220783,0.03280931235099724,0.9993632208651863,200.60485107935563,20.775012140788387,197.21695360410672,-12.182216070671144,-124.36776733398438,4381.2578125,True
1599572217.7741532,0.0,10,0.5,0.5,4.874241223144532,-0.2,-0.001,-0.2505,0.3560164006946621,10,1,100,-0.020748534860995982,-10,-1,-100,6479.974375886959,0.012783903009427885,0.03277201711484747,0.9993810918353766,199.58632498124325,20.680181663000305,202.45629946233475,-12.565008103407045,-119.82388305664062,4381.2578125,True
1599572217.8559012,0.0,10,0.5,0.5,3.8301673164367673,-0.2,-0.001,-0.2505,0.34364254659256677,10,1,100,0.003230514007685259,-10,-1,-100,6479.475296591758,0.011443147339707702,0.03262366620580595,0.9994021967067382,197.6146490649645,20.49151625840921,206.64225143487243,-12.947799342160323,-114.98639678955078,4381.2578125,True
1599572217.9436667,0.0,10,0.5,0.5,2.72730373916626,-0.2,-0.001,-0.2505,0.3287596124955997,10,1,100,0.02554615697310897,-10,-1,-100,6478.913708787528,0.010028058625937804,0.032352205820101794,0.9994262217986721,194.255638947303,20.162717603274334,209.21873691128766,-13.330636175479546,-109.85547637939453,4381.2578125,True
1599572218.027473,0.0,10,0.5,0.5,1.565388617706299,-0.2,-0.001,-0.2505,0.3121840134249638,10,1,100,0.04712600232192021,-10,-1,-100,6478.351625929819,0.008553256256289795,0.03195386210804228,0.9994527465087055,189.36194361071645,19.67632339648107,209.8928738901332,-13.713569531525156,-104.43116760253906,4381.2578125,True
1599572218.1032403,0.0,10,0.5,0.5,0.3445413673400879,-0.2,-0.001,-0.2505,0.2935155542767402,10,1,100,0.0665802146638099,-10,-1,-100,6477.790025343886,0.007044481089141711,0.03142183394500159,0.9994813873393128,183.83781563992468,19.12362295934972,209.55114585132688,-14.096635546079249,-98.71349334716797,4381.2578125,True
1599572218.1850212,0.0,10,0.5,0.5,0.43527017211914076,-0.2,-0.001,-0.2505,0.31179368983914024,10,1,100,0.000522486451345977,-10,-1,-100,6477.507758985506,0.006283077796102689,0.03110493691645918,0.9994963760978982,180.34737632286777,18.770236860512128,208.4121480599222,-14.288229090934465,-95.74465942382812,4381.2578125,True
1599572218.2798042,0.0,10,0.5,0.5,-1.5989296562194826,-0.2,-0.001,-0.2505,0.26291718261866937,10,1,100,0.09233370735159954,-10,-1,-100,6476.946152833756,0.004765614203779884,0.030373779385114055,0.999527249477034,171.90959713766176,17.906855926274353,204.08214934224736,-14.67154884948318,-89.58700561523438,4381.2578125,True
1599572218.3675332,0.0,10,0.5,0.5,-4.3747820350646975,-0.2,-0.001,-0.2505,0.18818077311585896,10,1,100,0.18920686316226268,-10,-1,-100,6476.0383089110255,0.002516184988915666,0.02903159606459187,0.9995753274481337,166.20656594158345,17.317960239707656,205.18754420385082,-15.246750011098353,-80.01129150390625,4381.2578125,True
1599572218.4558089,0.0,10,0.5,0.5,-4.899836554718018,-0.2,-0.001,-0.2505,0.20689797697987977,10,1,100,0.12512651185915347,-10,-1,-100,6475.413710176363,0.0010657483118763247,0.02798490498880179,0.9996077777174923,178.54539952290557,18.594290916669664,226.06597287185068,-15.630019237369032,-73.532470703125,4381.2578125,True
1599572218.567509,0.0,10,0.5,0.5,-6.103978455352784,-0.2,-0.001,-0.2505,0.18734749020170366,10,1,100,0.1327658221481302,-10,-1,-100,6474.788624583278,-0.0003094712939039797,0.02685995615992642,0.9996391583879681,189.01251575535366,19.668164267904505,245.29694275058537,-16.01299266619749,-67.26925659179688,4381.2578125,True
1599572218.663254,0.0,10,0.5,0.5,-7.233510785675049,-0.2,-0.001,-0.2505,0.16630924793395752,10,1,100,0.1407949012908766,-10,-1,-100,6474.163543439587,-0.0016196311883091101,0.025651427164143002,0.999669635969432,197.8659942986037,20.570507421455005,263.0450700206299,-16.39565072930176,-61.2919921875,4381.2578125,True
1599572218.7570028,0.0,10,0.5,0.5,-7.03831909866333,-0.2,-0.001,-0.2505,0.21667113861067866,10,1,100,0.08008107297025961,-10,-1,-100,6473.819265826256,-0.002245647621946586,0.025017073074083455,0.9996845017912221,201.58287478100243,20.94778138891053,271.17435004882316,-16.586865391232273,-58.41461181640625,4381.2578125,True
1599572218.8652794,0.0,10,0.5,0.5,-8.81499312286377,-0.2,-0.001,-0.2505,0.13719247118231523,10,1,100,0.14877593471350264,-10,-1,-100,6473.131690800074,-0.00342680785477227,0.023724769282073038,0.9997126548716081,207.518413973788,21.5487027417409,285.7235934739938,-16.96908997716089,-52.8834228515625,4381.2578125,True
1599572218.9695168,0.0,10,0.5,0.5,-10.92059077987671,-0.2,-0.001,-0.2505,0.04413757950682043,10,1,100,0.20918937333198787,-10,-1,-100,6472.099361095694,-0.005037571266163021,0.021711837216411824,0.9997515786436281,213.0753962845866,22.112684754279943,303.49069730608886,-17.542014200735863,-45.14654541015625,4381.2578125,True
1599572219.0642648,0.0,10,0.5,0.5,-11.14400685195923,-0.2,-0.001,-0.2505,0.09388823268082927,10,1,100,0.15591678133474565,-10,-1,-100,6471.350274161552,-0.006005250051522908,0.020343488571839555,0.9997750144130159,215.35073359551492,22.349477602683212,313.55468219290464,-17.923778384954726,-40.3616943359375,4381.2578125,True
1599572219.1804712,0.0,10,0.5,0.5,-10.97869249572754,-0.2,-0.001,-0.2505,0.15472030667244185,10,1,100,0.11048339433640113,-10,-1,-100,6471.006007185788,-0.006460063855373614,0.019662625336127754,0.9997858014294239,216.1008658460719,22.43062260711161,318.07345717414256,-18.11462581284902,-38.08099365234375,4381.2578125,True
1599572219.2782104,0.0,10,0.5,0.5,-13.294402099609377,-0.2,-0.001,-0.2505,0.0019365186732759332,10,1,100,0.20630319715899764,-10,-1,-100,6469.911204086035,-0.007733035392123792,0.017665117332379455,0.9998140546087844,216.73101500466322,22.51702266754063,329.3265988260466,-18.68710803323393,-31.685302734375,4381.2578125,True
1599572219.3789394,0.0,10,0.5,0.5,-13.451141961669924,-0.2,-0.001,-0.2505,0.054316895879231136,10,1,100,0.16335956334497664,-10,-1,-100,6469.1606726960745,-0.008488523163954759,0.016336939541801262,0.9998305103270766,216.06604849650395,22.469744273925954,335.1945316619621,-19.068766039206338,-27.793914794921875,4381.2578125,True
1599572219.4816658,0.0,10,0.5,0.5,-13.30784972229004,-0.2,-0.001,-0.2505,0.11384951823574199,10,1,100,0.12761972749365258,-10,-1,-100,6468.753915572655,-0.008840418350468265,0.01568225144135554,0.999837943865464,215.48336953494467,22.42187049524249,337.7257774864153,-19.259607823973266,-25.95977783203125,4381.2578125,True
1599572219.5714254,0.0,10,0.5,0.5,-15.131680966186524,-0.2,-0.001,-0.2505,-0.023483172823737797,10,1,100,0.2067305200227752,-10,-1,-100,6467.596640522126,-0.00987050648241589,0.013849785661816383,0.999855367810216,213.01459788991872,22.208118920272696,344.066080366618,-19.832208125200236,-20.902008056640625,4381.2578125,True
1599572219.6661716,0.0,10,0.5,0.5,-15.220928851318359,-0.2,-0.001,-0.2505,0.02713996859896399,10,1,100,0.17217508732493977,-10,-1,-100,6466.78362763871,-0.010484118091307488,0.01265594548471272,0.9998649460360811,210.97419231915265,22.026787509795987,347.53038096672117,-20.214012945512856,-17.901824951171875,4381.2578125,True
1599572219.7509482,0.0,10,0.5,0.5,-15.691768524169921,-0.2,-0.001,-0.2505,0.02202479907137489,10,1,100,0.17739779118838234,-10,-1,-100,6465.971596326912,-0.011081367328237512,0.011535948765894425,0.9998720544070662,208.7981312097346,21.831613476496734,350.65117294014163,-20.59587475378427,-15.19805908203125,4381.2578125,True
1599572219.8417041,0.0,10,0.5,0.5,-16.10325239562988,-0.2,-0.001,-0.2505,0.0159249549557383,10,1,100,0.18209758763558945,-10,-1,-100,6465.095117446384,-0.011659014129779151,0.010474572369833996,0.9998771678177228,206.6178126225666,21.635286436952814,353.639643068965,-20.977786494132207,-12.79083251953125,4381.2578125,True
1599572219.927473,0.0,10,0.5,0.5,-15.996380856323242,-0.2,-0.001,-0.2505,0.06426478850236765,10,1,100,0.15558123671218968,-10,-1,-100,6464.687397664064,-0.011935606026172456,0.009961183402850455,0.9998791507647325,205.62295385644978,21.546600118883656,355.2512953833975,-21.16875743263109,-11.69842529296875,4381.2578125,True
1599572220.0137932,0.0,10,0.5,0.5,-16.61024989929199,-0.2,-0.001,-0.2505,0.007688370800153527,10,1,100,0.1892213931304027,-10,-1,-100,6463.812879483798,-0.012486601867822843,0.008990817502675798,0.9998816179800626,203.9845602231363,21.404790839712927,359.00712249550753,-21.550717521319154,-9.73577880859375,4381.2578125,True
1599572220.0995638,0.0,10,0.5,0.5,-17.489681097412106,-0.2,-0.001,-0.2505,-0.08974337723780526,10,1,100,0.2515410399023652,-10,-1,-100,6462.060437563108,-0.013548157283780763,0.007233244130416635,0.9998820568514887,201.54543505795195,21.203527229859542,367.76924585272246,-22.314656133266322,-6.699127197265625,4381.2578125,True
1599572220.1863644,0.0,10,0.5,0.5,-16.73213805541992,-0.2,-0.001,-0.2505,0.08477102186754001,10,1,100,0.14609430764941392,-10,-1,-100,6462.060437563108,-0.013548157283780763,0.007233244130416635,0.9998820568514887,201.54543505795195,21.203527229859542,367.76924585272246,-22.314656133266322,-6.699127197265625,4381.2578125,True
1599572220.2781627,0.0,10,0.5,0.5,-17.21861346435547,-0.2,-0.001,-0.2505,-0.0011340346652086303,10,1,100,0.20553530004422996,-10,-1,-100,6461.183978072251,-0.014083243467468493,0.006461772592120704,0.9998799466678007,201.0100409056863,21.172217808466836,373.32114722366373,-22.696597224896315,-5.62481689453125,4381.2578125,True
1599572220.363899,0.0,10,0.5,0.5,-17.42784223022461,-0.2,-0.001,-0.2505,-0.037009243921308554,10,1,100,0.2425509624322205,-10,-1,-100,6459.777255255845,-0.014901105364981331,0.005443273988568659,0.999874155995237,200.8091322464885,21.186287917695424,382.7537290624248,-23.269427970583365,-4.56793212890625,4381.2578125,True
1599572220.4618938,0.0,10,0.5,0.5,-17.257207031249997,-0.2,-0.001,-0.2505,0.028923956218520924,10,1,100,0.18957042478975827,-10,-1,-100,6459.307535642292,-0.015157465214139243,0.005126067057022329,0.9998719791477353,200.91980475735957,21.20928911192463,386.2408148162306,-23.460342873833525,-4.36376953125,4381.2578125,True
1599572220.5450323,0.0,10,0.5,0.5,-17.284281677246092,-0.2,-0.001,-0.2505,-0.026728833909103855,10,1,100,0.2575930157016359,-10,-1,-100,6457.898379624006,-0.016004100486452847,0.004339693316824344,0.9998625084628062,201.8370716364944,21.339720801709554,397.89419123014653,-24.032974543649793,-4.193817138671875,4381.2578125,True
1599572220.6278093,0.0,10,0.5,0.5,-17.127636029052734,-0.2,-0.001,-0.2505,0.0027141277779264353,10,1,100,0.23515522840478192,-10,-1,-100,6456.896446438739,-0.016564770865498228,0.0039000316157699858,0.9998551885746103,202.92840506365982,21.477797793501626,406.6883021796795,-24.414617163402312,-4.4500732421875,4381.2578125,True
1599572221.318098,0.0,10,0.5,0.5,-17.085268566894534,-0.2,-0.001,-0.2505,0.024559508797587767,10,1,100,0.2103258704221293,-10,-1,-100,6456.427219108096,-0.016843764861572404,0.0037058752760357853,0.9998512659759583,203.61869836433746,21.562481536013014,411.40835691930596,-24.605399476248987,-4.688995361328125,4381.2578125,True
1599572221.3968868,0.0,10,0.5,0.5,-16.831109420776368,-0.2,-0.001,-0.2505,0.011100292267148142,10,1,100,0.24790124708999378,-10,-1,-100,6455.4267548422795,-0.01743427669068243,0.0034131663597223322,0.9998421856931591,205.28483525306433,21.763136129863465,421.5104182802663,-24.986876365770364,-5.3878173828125,4381.2578125,True
1599572221.468695,0.0,10,0.5,0.5,-16.799473010253905,-0.2,-0.001,-0.2505,0.026177667899334976,10,1,100,0.221342850549681,-10,-1,-100,6454.894540374749,-0.01772466686617551,0.003290087138860099,0.9998374925512153,206.25034054793312,21.87816202708285,426.8803290412653,-25.17756698058305,-5.8480224609375,4381.2578125,True
1599572221.543495,0.0,10,0.5,0.5,-16.674550201416018,-0.2,-0.001,-0.2505,0.026202762608400446,10,1,100,0.2245753004276755,-10,-1,-100,6454.424339228775,-0.01801328196551612,0.003183607553943951,0.9998326791597549,207.30083770992113,22.002732046586114,432.461691637304,-25.368223129655895,-6.382080078125,4381.2578125,True
1599572221.6172981,0.0,10,0.5,0.5,-15.887428494262696,-0.2,-0.001,-0.2505,0.01870172926335982,10,1,100,0.2931370293925808,-10,-1,-100,6452.830143162748,-0.01889488856943242,0.0030222982068620584,0.9998169076883514,210.91615661892342,22.429417748461553,450.4173402477253,-25.939964234106725,-8.42633056640625,4381.2578125,True
1599572221.6965947,0.0,10,0.5,0.5,-15.619310659790042,-0.2,-0.001,-0.2505,0.03402870994782414,10,1,100,0.2696483197776854,-10,-1,-100,6451.826755194692,-0.019477954729870323,0.0030188176665768814,0.9998057291391348,214.0057941304647,22.78967614701631,464.06992823162454,-26.320909815466514,-10.157806396484375,4381.2578125,True
1599572221.7703996,0.0,10,0.5,0.5,-15.612774383544922,-0.2,-0.001,-0.2505,0.03753065983699766,10,1,100,0.24367648743659107,-10,-1,-100,6451.29454438074,-0.01976700302601992,0.0030506194061515196,0.9997999596482329,215.66544038061878,22.98317768393074,471.2262364128446,-26.511309972457543,-11.13409423828125,4381.2578125,True
1599572221.8471932,0.0,10,0.5,0.5,-14.8776707611084,-0.2,-0.001,-0.2505,0.051581641491051496,10,1,100,0.2776018108074266,-10,-1,-100,6450.231100049568,-0.02033376269165348,0.003209441415876605,0.9997880963387179,219.16789862620615,23.391950358687307,486.11401254527766,-26.891953682785584,-13.3072509765625,4381.2578125,True
1599572221.9190032,0.0,10,0.5,0.5,-13.703703414916992,-0.2,-0.001,-0.2505,0.07848980465300186,10,1,100,0.31091280523107223,-10,-1,-100,6448.5705041405745,-0.021147120248373934,0.0036001871131363635,0.9997698925042459,225.158232100275,24.088683957188387,510.55846234984347,-27.462486837534634,-17.11956787109375,4381.2578125,True
1599572222.003776,0.0,10,0.5,0.5,-13.346742031860353,-0.2,-0.001,-0.2505,0.08181818533239413,10,1,100,0.2859393282440329,-10,-1,-100,6447.445537498104,-0.02165482912754497,0.003986340758824881,0.9997575593426694,229.18695841319914,24.559073886302933,527.2690324895206,-27.842533247312108,-20.028900146484375,4381.2578125,True
1599572222.0829637,0.0,10,0.5,0.5,-13.368952032470704,-0.2,-0.001,-0.2505,0.06857559899101937,10,1,100,0.26194885227520653,-10,-1,-100,6446.913328315946,-0.021893660092291087,0.004216923916217349,0.9997514117021532,231.16571100241526,24.790625092649226,535.6421495929668,-28.032460890887577,-21.5938720703125,4381.2578125,True
1599572222.1607566,0.0,10,0.5,0.5,-12.249930535888673,-0.2,-0.001,-0.2505,0.10466127263248753,10,1,100,0.2859827253476024,-10,-1,-100,6445.789826072403,-0.022324678092508682,0.00475413195727823,0.9997394695506419,234.96221278034128,25.23575351483478,552.2064400599643,-28.412124647692497,-24.94427490234375,4381.2578125,True
1599572222.2375512,0.0,10,0.5,0.5,-10.574786672973634,-0.2,-0.001,-0.2505,0.1565879294499638,10,1,100,0.304174234707043,-10,-1,-100,6444.067704879795,-0.022877444176517932,0.005713344360585582,0.9997219514665904,239.95608044507495,25.822628884799833,575.8412048553059,-28.981160587010237,-30.521331787109375,4381.2578125,True
1599572222.3113527,0.0,10,0.5,0.5,-11.065691198730468,-0.2,-0.001,-0.2505,0.10073037755990313,10,1,100,0.2663328901465014,-10,-1,-100,6443.468599625165,-0.02303126223205747,0.0060753567489356,0.9997162852531568,241.34949461984883,25.986525547472418,583.1743207271256,-29.17072676965426,-32.52728271484375,4381.2578125,True
1599572222.3931346,0.0,10,0.5,0.5,-7.619939135742188,-0.2,-0.001,-0.2505,0.24277418462389566,10,1,100,0.2917568794070616,-10,-1,-100,6441.092189439572,-0.023397662202856197,0.007693137394203737,0.9996966365055325,245.39214893309935,26.457672418976166,609.1747237820606,-29.928543611679228,-41.285614013671875,4381.2578125,True
1599572222.4719243,0.0,10,0.5,0.5,-8.74151633605957,-0.2,-0.001,-0.2505,0.13001147937394789,10,1,100,0.2608346166662097,-10,-1,-100,6440.498450953397,-0.023445548175362364,0.008134485352004936,0.9996920207838086,245.8868902172345,26.513916369828276,614.4732206757747,-30.117912990974563,-43.65875244140625,4381.2578125,True
1599572222.54473,0.0,10,0.5,0.5,-8.230460461425782,-0.2,-0.001,-0.2505,0.1362831438452278,10,1,100,0.2586846884004996,-10,-1,-100,6439.903247859678,-0.023465929172092885,0.008588075292758181,0.9996877488150268,246.09885132044215,26.53700485876337,619.0795012845363,-30.30726234787371,-46.105316162109375,4381.2578125,True
1599572222.6225214,0.0,10,0.5,0.5,-5.334649389648438,-0.2,-0.001,-0.2505,0.24155425421466825,10,1,100,0.24043966776783077,-10,-1,-100,6438.0600116904825,-0.023315230866872667,0.009952405827813674,0.9996786231723988,244.77742092572302,26.379364182390265,627.943560491834,-30.875276866007745,-53.885955810546875,4381.2578125,True
1599572222.7092896,0.0,10,0.5,0.5,-6.045179913330079,-0.2,-0.001,-0.2505,0.15773678158728213,10,1,100,0.24558363604375813,-10,-1,-100,6437.395955731976,-0.0232222853299307,0.010424599322695216,0.9996759741001163,243.59847468038993,26.24241905831947,628.9732975214094,-31.06463577379357,-56.62615966796875,4381.2578125,True
1599572222.786084,0.0,10,0.5,0.5,-2.825686254882813,-0.2,-0.001,-0.2505,0.26261027156397576,10,1,100,0.20414031456506565,-10,-1,-100,6435.5478242273675,-0.022759145405557565,0.011801057488548778,0.9996713241573756,237.52067684952303,25.54873839979043,625.1849709455502,-31.63291622248383,-65.28756713867188,4381.2578125,True
1599572222.8648732,0.0,10,0.5,0.5,-2.2242576782226564,-0.2,-0.001,-0.2505,0.22326113910245277,10,1,100,0.20254467239263219,-10,-1,-100,6434.233373390511,-0.02232259934885258,0.01268755941992024,0.9996703093491756,231.13695842609226,24.83403048549129,616.1501771574949,-32.01202976295787,-71.4287109375,4381.2578125,True
1599572222.9412513,0.0,10,0.5,0.5,-2.324796548461914,-0.2,-0.001,-0.2505,0.18334505182191627,10,1,100,0.21815517385786276,-10,-1,-100,6433.5810292200185,-0.022067263002207817,0.01312289616815878,0.9996703584180893,227.18955714617624,24.397419128234677,609.4597825315852,-32.20168582003185,-74.6092529296875,4381.2578125,True
1599572223.024032,0.0,10,0.5,0.5,1.3807314575195313,-0.2,-0.001,-0.2505,0.26689739198107065,10,1,100,0.14543826692413864,-10,-1,-100,6431.6689099691575,-0.02117431027412445,0.014270615609630784,0.9996739459016312,212.17657580373697,22.76508269117345,579.9755819715483,-32.77108489704666,-84.59213256835938,4381.2578125,True
1599572223.1004062,0.0,10,0.5,0.5,2.0488774253845214,-0.2,-0.001,-0.2505,0.22861916276649896,10,1,100,0.1579643704174547,-10,-1,-100,6430.355909070582,-0.02047795703844462,0.014958233680610094,0.9996784005472399,206.54945239637152,22.168828701618907,571.6284708374075,-33.15093078021199,-91.61421966552734,4381.2578125,True
1599572223.1786127,0.0,10,0.5,0.5,3.551574048614502,-0.2,-0.001,-0.2505,0.22476048624602313,10,1,100,0.14545417108148767,-10,-1,-100,6428.973569258582,-0.01973350074403927,0.015540186797739983,0.999684495999951,218.68846471094184,23.498773338979145,612.6791430753688,-33.530385712360186,-98.84134674072266,4381.2578125,True
1599572223.2564056,0.0,10,0.5,0.5,4.920489430999756,-0.2,-0.001,-0.2505,0.22060557001161846,10,1,100,0.1338676616914487,-10,-1,-100,6427.657143008779,-0.0189547214469057,0.016024329438996624,0.9996919222444985,229.56335811988552,24.70801025867273,650.9641273082121,-33.90930514486321,-105.8858642578125,4381.2578125,True
1599572223.3411782,0.0,10,0.5,0.5,4.7022266265869135,-0.2,-0.001,-0.2505,0.19569533966167982,10,1,100,0.16699636756415254,-10,-1,-100,6426.940335549531,-0.018551992890834725,0.016230829887787773,0.9996961456967473,234.04306890893187,25.21271964955888,667.6458434822786,-34.098571231498894,-109.30465698242188,4381.2578125,True
1599572223.4199746,0.0,10,0.5,0.5,6.833285063171387,-0.2,-0.001,-0.2505,0.21224908223457828,10,1,100,0.11807609503799911,-10,-1,-100,6425.558475032914,-0.01774561348624268,0.016562098178628776,0.9997053516441323,241.79062514490758,26.092573578464155,697.9534667486411,-34.47675243514161,-115.92207336425781,4381.2578125,True
1599572223.499764,0.0,10,0.5,0.5,8.02907509689331,-0.2,-0.001,-0.2505,0.20475834995671666,10,1,100,0.1100223301798565,-10,-1,-100,6424.186377811595,-0.01694438854461282,0.016789144792912023,0.9997154656770956,247.94396546051368,26.79550949689045,724.11479014455,-34.854524242100815,-122.24227142333984,4381.2578125,True
1599572223.577553,0.0,10,0.5,0.5,10.471419010925292,-0.2,-0.001,-0.2505,0.19885711993365807,10,1,100,0.05908610446497063,-10,-1,-100,6422.0867232956225,-0.015758652815527914,0.016936117309805154,0.9997323805858787,253.20853441323447,27.400248024195005,752.3436397361304,-35.420655194939435,-131.1634521484375,4381.2578125,True
1599572223.6593359,0.0,10,0.5,0.5,10.75457385635376,-0.2,-0.001,-0.2505,0.1821966943732647,10,1,100,0.09523981921424883,-10,-1,-100,6420.649191443343,-0.015015745461889645,0.016913602038412374,0.9997441960093141,254.42529589074408,27.5378400827243,764.5772369206898,-35.79788366864314,-136.73797607421875,4381.2578125,True
1599572223.734646,0.0,10,0.5,0.5,10.569961014556885,-0.2,-0.001,-0.2505,0.17970204207909649,10,1,100,0.1295479349970943,-10,-1,-100,6419.922124609817,-0.014658909696505235,0.01686661309572787,0.9997502856859752,254.44269444175634,27.53752350803498,768.9455815681418,-35.98647678909112,-139.41339111328125,4381.2578125,True
1599572223.809981,0.0,10,0.5,0.5,13.32033275527954,-0.2,-0.001,-0.2505,0.1569913090098924,10,1,100,0.05718005361820394,-10,-1,-100,6417.767290311167,-0.013683358582080134,0.016614031286360492,0.9997683429986819,252.5195245146699,27.30584570033972,776.0244963301426,-36.55228585483036,-146.9918212890625,4381.2578125,True
1599572223.883068,0.0,10,0.5,0.5,13.536327065277101,-0.2,-0.001,-0.2505,0.15168996590553377,10,1,100,0.09038302874734984,-10,-1,-100,6416.267745554913,-0.013105149117133227,0.0163340870535535,0.999780702287629,249.90408075877852,26.997418696789648,776.5341758622786,-36.92958627309555,-151.67140197753906,4381.2578125,True
1599572223.9698365,0.0,10,0.5,0.5,14.343805577087402,-0.2,-0.001,-0.2505,0.1422251756190169,10,1,100,0.09188867008214675,-10,-1,-100,6414.753064227174,-0.012599894350153566,0.015992297972603403,0.9997927230520938,246.49132413227068,26.599542045342524,774.3987572086322,-37.30700374942169,-156.05255126953125,4381.2578125,True
1599572224.047626,0.0,10,0.5,0.5,15.091402574920656,-0.2,-0.001,-0.2505,0.13174559282852302,10,1,100,0.09376344415754034,-10,-1,-100,6413.260845077806,-0.012164100332124622,0.015585900681667132,0.9998045380788444,242.49870910098218,26.13943054037415,770.2267210005319,-37.684554557908356,-160.13546752929688,4381.2578125,True
1599572224.7794292,0.0,10,0.5,0.5,15.77915304336548,-0.2,-0.001,-0.2505,0.12035629173415835,10,1,100,0.09670669847750014,-10,-1,-100,6411.750071888906,-0.011800854101475017,0.015113308069737506,0.9998161469798659,238.12469027469234,25.641618256308632,764.5927377168059,-38.06224058094152,-163.9203643798828,4381.2578125,True
1599572224.852236,0.0,10,0.5,0.5,15.638682988739014,-0.2,-0.001,-0.2505,0.13935587358674384,10,1,100,0.11551605659507191,-10,-1,-100,6410.970271969563,-0.011647761819034538,0.014857417822841397,0.999821777508494,235.84950733082238,25.3852444437982,761.390923166287,-38.251131840362945,-165.70101928710938,4381.2578125,True
1599572224.9266207,0.0,10,0.5,0.5,17.4028818687439,-0.2,-0.001,-0.2505,0.07153148390946451,10,1,100,0.09161548154713883,-10,-1,-100,6408.68067713466,-0.011296852563350354,0.014009754674374928,0.9998380408326771,228.91013553832724,24.614362080969368,750.9852409010748,-38.81797553423985,-170.59619140625,4381.2578125,True
1599572224.9994686,0.0,10,0.5,0.5,17.484053785705566,-0.2,-0.001,-0.2505,0.0864631583956939,10,1,100,0.11132527007482587,-10,-1,-100,6407.118638276355,-0.01116215816841758,0.013377421025751622,0.9998482138963509,224.36124568904498,24.11853547921396,743.935389120419,-39.19598793644002,-173.4875946044922,4381.2578125,True
1599572225.0712762,0.0,10,0.5,0.5,17.365025274658205,-0.2,-0.001,-0.2505,0.11240660182693474,10,1,100,0.12030508712654453,-10,-1,-100,6406.332004414522,-0.011125522050446238,0.01304165691845449,0.9998530581760134,222.15615156716572,23.88111125138991,740.5308633598049,-39.385020797689855,-174.82174682617188,4381.2578125,True
1599572225.1450796,0.0,10,0.5,0.5,18.13615243835449,-0.2,-0.001,-0.2505,0.06931181447582055,10,1,100,0.11882239974677716,-10,-1,-100,6404.703561985632,-0.011082274079212081,0.012348165976919658,0.9998623435244672,217.97269190820796,23.436553844346257,734.2682955747242,-39.76312538155058,-177.26686096191406,4381.2578125,True
1599572225.2308497,0.0,10,0.5,0.5,-143.2511505783081,-0.2,-0.001,-0.2505,0.012795638579679039,10,1,100,0.13296611975082484,-10,-1,-100,6402.296302588773,-0.011174788501415366,0.011208043928394713,0.9998747440821013,223.9644000730806,24.10259970211207,766.3264523859281,-40.32997878605755,179.62234497070312,4381.2578125,True
1599572225.302001,0.0,10,0.5,0.5,-53.11597307434082,-0.2,-0.001,-0.2505,0.03682741525133623,10,1,100,0.13947819247179244,-10,-1,-100,6400.727435620385,-0.011320373700955025,0.010394954569803433,0.9998818900544015,227.59538240267065,24.51546336419066,786.8145940837645,-40.70760481999956,177.91958618164062,4381.2578125,True
1599572225.374807,0.0,10,0.5,0.5,-53.242038908386235,-0.2,-0.001,-0.2505,0.07101598711916053,10,1,100,0.13527684793757866,-10,-1,-100,6399.885630677803,-0.011416152364240206,0.00997198683577681,0.9998851088718862,229.21678433503166,24.702955762496813,796.4862175788797,-40.896339224439075,177.179443359375,4381.2578125,True
1599572225.4595802,0.0,10,0.5,0.5,-52.365863710021976,-0.2,-0.001,-0.2505,-0.03543498727315779,10,1,100,0.16562881484576486,-10,-1,-100,6397.411487955833,-0.011780226977288349,0.008625207593219554,0.9998934103424912,233.7790337929758,25.239685975541345,824.8022440117492,-41.46223815304501,174.7490234375,4381.2578125,True
1599572225.5333822,0.0,10,0.5,0.5,-52.584563768005374,-0.2,-0.001,-0.2505,0.04665046684128346,10,1,100,0.14627463906349208,-10,-1,-100,6396.562849933398,-0.011935605821452214,0.008153422131106468,0.9998955260532106,235.3939930004946,25.431122225494228,834.6895355986878,-41.65076417229453,173.8087158203125,4381.2578125,True
1599572225.6111743,0.0,10,0.5,0.5,-51.9082777999878,-0.2,-0.001,-0.2505,-0.014088972804931918,10,1,100,0.17096612153115584,-10,-1,-100,6394.86557573732,-0.012301204837016327,0.007178676701436824,0.9998985683359957,238.79810477365,25.83656549149666,855.2684463605258,-42.02764249389717,171.70970153808594,4381.2578125,True
1599572225.684978,0.0,10,0.5,0.5,-50.800148434448246,-0.2,-0.001,-0.2505,-0.09031266226220298,10,1,100,0.20239546105679995,-10,-1,-100,6392.329925273778,-0.01291869480774594,0.005606582534963232,0.9999008318612117,244.83610766133248,26.554992344170714,889.9931236075229,-42.59247474221232,168.00787353515625,4381.2578125,True
1599572225.76975,0.0,10,0.5,0.5,-50.48312199249268,-0.2,-0.001,-0.2505,-0.05581044389258503,10,1,100,0.19512457219942583,-10,-1,-100,6390.632662102929,-0.01341247593493819,0.004498701798019596,0.9998999285785691,249.1373236772595,27.06943526003031,914.5183976038998,-42.96866919678561,165.17059326171875,4381.2578125,True
1599572225.8475437,0.0,10,0.5,0.5,-49.816339495849604,-0.2,-0.001,-0.2505,-0.07535343009218412,10,1,100,0.2042053864994751,-10,-1,-100,6388.886575740762,-0.013941874982598391,0.003321945543736054,0.9998972891251252,253.89772769182474,27.636953262636805,941.0507944945944,-43.34454857326994,162.03765869140625,4381.2578125,True
1599572225.9233408,0.0,10,0.5,0.5,-49.09044561004639,-0.2,-0.001,-0.2505,-0.09475156853112685,10,1,100,0.215800335847621,-10,-1,-100,6387.133659740677,-0.014525995153697945,0.0020846565189194632,0.9998923190384017,258.62135637972546,28.201755049969417,967.7794011836784,-43.72009892897119,158.60951232910156,4381.2578125,True
1599572226.0141282,0.0,10,0.5,0.5,-48.305521047973635,-0.2,-0.001,-0.2505,-0.11526348299239778,10,1,100,0.2274808050951886,-10,-1,-100,6385.373914002324,-0.015160068919607712,0.0007827068280364631,0.9998847732015795,263.0887541304462,28.737182029908016,993.8678125224006,-44.09532174928733,154.8863983154297,4381.2578125,True
1599572226.1048553,0.0,10,0.5,0.5,-46.47082762756348,-0.2,-0.001,-0.2505,-0.21656048789470084,10,1,100,0.278809079034729,-10,-1,-100,6382.717220431194,-0.0161994973058686,-0.0013122880836050576,0.9998679183707331,268.9217467676435,29.435326578919184,1030.2521068051642,-44.65757716771994,148.74908447265625,4381.2578125,True
1599572226.184642,0.0,10,0.5,0.5,-47.01736427459717,-0.2,-0.001,-0.2505,-0.08960145477475691,10,1,100,0.2162623961884466,-10,-1,-100,6381.809524572571,-0.016571390427862376,-0.0020520129361402146,0.9998605794120485,270.5361746098909,29.627366422595802,1041.2446230070057,-44.84485680492736,146.55609130859375,4381.2578125,True
1599572226.2664254,0.0,10,0.5,0.5,-46.54259771575928,-0.2,-0.001,-0.2505,-0.10021747696910183,10,1,100,0.22213921910936796,-10,-1,-100,6380.89841417002,-0.01695821416707998,-0.002810068458600841,0.9998522503287781,271.9418773324862,29.793486511966066,1051.4864502771154,-45.032076584135645,144.28961181640625,4381.2578125,True
1599572226.3442147,0.0,10,0.5,0.5,-43.845338708496094,-0.2,-0.001,-0.2505,-0.29382884099947404,10,1,100,0.3198866373623845,-10,-1,-100,6378.2344341347925,-0.01819377774395087,-0.005248917446521321,0.9998207015845608,274.61514957102895,30.100474499234068,1076.465603346669,-45.59345725654534,137.04884338378906,4381.2578125,True
1599572226.4220412,0.0,10,0.5,0.5,-43.31573620758057,-0.2,-0.001,-0.2505,-0.23970736330754522,10,1,100,0.29761074119425435,-10,-1,-100,6376.350228473311,-0.01910881996510277,-0.006961855511451834,0.9997931713946535,274.81392468643617,30.11072377443108,1087.0348013032872,-45.967577789170996,131.85519409179688,4381.2578125,True
1599572226.5058181,0.0,10,0.5,0.5,-43.393386682128906,-0.2,-0.001,-0.2505,-0.16793038285047424,10,1,100,0.26010034674495225,-10,-1,-100,6375.449392016628,-0.019593484202858037,-0.007853698900676302,0.9997771825713816,274.348988435378,30.047716428915628,1090.095000219345,-46.15463282109519,129.1484832763672,4381.2578125,True
1599572226.5898468,0.0,10,0.5,0.5,-41.52933110351563,-0.2,-0.001,-0.2505,-0.29326732118357896,10,1,100,0.3246571422041844,-10,-1,-100,6373.565212916932,-0.020614900023723924,-0.00979165571078528,0.999739540768221,272.13512097956516,29.770102078949613,1091.054676203424,-46.52879783745347,123.51429748535156,4381.2578125,True
1599572226.6716313,0.0,10,0.5,0.5,-38.88268892669678,-0.2,-0.001,-0.2505,-0.43493840321631894,10,1,100,0.4135123988940509,-10,-1,-100,6370.780243661837,-0.022344687263429166,-0.012828362322537618,0.9996680189298951,265.1414178599109,28.934932042798735,1077.3975220966458,-47.09038775480904,114.51576232910156,4381.2578125,True
1599572226.7479358,0.0,10,0.5,0.5,-38.26493727874756,-0.2,-0.001,-0.2505,-0.37344992777404606,10,1,100,0.38351609131853964,-10,-1,-100,6368.8721976146335,-0.023636888492219437,-0.015015336458413377,0.9996078416926546,257.71523830553247,28.077384592392058,1056.6418016674331,-47.46516075677323,108.15142822265625,4381.2578125,True
1599572226.832711,0.0,10,0.5,0.5,-35.30671656646729,-0.2,-0.001,-0.2505,-0.5499433841676686,10,1,100,0.501060893407359,-10,-1,-100,6365.912536145304,-0.025871923361619385,-0.018592435282808517,0.9994923536134857,241.97794965620707,26.31805315944325,1005.5338344764497,-48.02809266805816,98.05722045898438,4381.2578125,True
1599572226.9055142,0.0,10,0.5,0.5,-36.24829080505372,-0.2,-0.001,-0.2505,-0.3308323655799288,10,1,100,0.36969524456175157,-10,-1,-100,6364.927792632603,-0.026699802022075624,-0.019834811188632968,0.9994466973466335,239.85012950501087,26.08297978688156,1001.1564746377255,-48.215882266593276,94.54702758789062,4381.2578125,True
1599572226.9833055,0.0,10,0.5,0.5,-33.86083327636719,-0.2,-0.001,-0.2505,-0.49788743090414744,10,1,100,0.4892702316362262,-10,-1,-100,6362.972504264209,-0.02852991859160724,-0.022466087584961703,0.9993404418183931,253.61625386801092,27.591497040325887,1068.0836738739367,-48.5909903308422,87.30764770507812,4381.2578125,True
1599572227.0620975,0.0,10,0.5,0.5,-33.988470581054685,-0.2,-0.001,-0.2505,-0.3884357543270333,10,1,100,0.4188944068476198,-10,-1,-100,6362.000496824272,-0.029543009312954338,-0.02384458354487877,0.9992790633433215,260.5672315956422,28.36119079985598,1102.2212004353041,-48.77828155830726,83.57867431640625,4381.2578125,True
1599572227.1478674,0.0,10,0.5,0.5,-29.681314572143556,-0.2,-0.001,-0.2505,-0.7151783602293862,10,1,100,0.686344943111721,-10,-1,-100,6359.086514313822,-0.03288392866644728,-0.028049026730200877,0.99906551303453,278.43955261510416,30.361557901216802,1193.365480987482,-49.339085197307256,71.95782470703125,4381.2578125,True
1599572227.2236629,0.0,10,0.5,0.5,-28.932781704711914,-0.2,-0.001,-0.2505,-0.6179481583165931,10,1,100,0.6381765395771815,-10,-1,-100,6357.080630102893,-0.03546987881847005,-0.03096660950921042,0.9988908633039484,288.74609074471715,31.513390726095707,1248.2190746741287,-49.71210757357905,63.84895324707031,4381.2578125,True
1599572227.3024557,0.0,10,0.5,0.5,-27.174410325622556,-0.2,-0.001,-0.2505,-0.6559182228343727,10,1,100,0.7049561508851314,-10,-1,-100,6355.076285937685,-0.03841295627869633,-0.033942317391200946,0.9986853177453076,295.8471465488021,32.290117162027144,1289.8201372182955,-50.08460978944141,55.45196533203125,4381.2578125,True
1599572227.380246,0.0,10,0.5,0.5,-25.358589028930666,-0.2,-0.001,-0.2505,-0.6878379710482857,10,1,100,0.7780141701933864,-10,-1,-100,6353.070080685196,-0.04173553644345359,-0.03691396897814561,0.9984465453353312,299.1778538702821,32.61795813408358,1315.374245119686,-50.45683444166892,46.76850891113281,4381.2578125,True
1599572227.481973,0.0,10,0.5,0.5,-25.52195345916748,-0.2,-0.001,-0.2505,-0.5552436396156821,10,1,100,0.6446211874532106,-10,-1,-100,6352.037718088715,-0.04352419980794066,-0.03838541075937404,0.9983146819875547,299.26418089232885,32.59488270598114,1321.2956451041039,-50.64293427906256,42.31974792480469,4381.2578125,True
1599572228.231539,0.0,10,0.5,0.5,-20.424702951049806,-0.2,-0.001,-0.2505,-0.8803969559977163,10,1,100,1.133708987872963,-10,-1,-100,6348.9969374438515,-0.04957725604079528,-0.042655790665384885,0.9978589976575731,292.4584817487084,31.716458933273795,1307.6987958817012,-51.201653362455644,28.547393798828125,4381.2578125,True
1599572228.301352,0.0,10,0.5,0.5,-19.57117748413086,-0.2,-0.001,-0.2505,-0.7484224924487466,10,1,100,1.0282899539310955,-10,-1,-100,6346.9290325177135,-0.05409809742796561,-0.045313058680215956,0.9975069536437918,281.5858682670149,30.44301609379622,1269.875756398163,-51.574835859869964,19.012344360351562,4381.2578125,True
1599572228.375154,0.0,10,0.5,0.5,-17.529738710021974,-0.2,-0.001,-0.2505,-0.747554386594615,10,1,100,1.1270652260820695,-10,-1,-100,6344.861234462005,-0.059080250095796275,-0.04769657352829991,0.9971131134040299,265.3763025193743,28.631372342937688,1207.1347181156877,-51.94881593016431,9.196441650390625,4381.2578125,True
1599572228.4519494,0.0,10,0.5,0.5,-15.432110504150389,-0.2,-0.001,-0.2505,-0.7318892519726251,10,1,100,1.2222399302059037,-10,-1,-100,6342.793056321563,-0.06444526760579199,-0.049695666018776626,0.9966830731291507,285.0997270620546,30.75025433261407,1308.1084410352914,-52.32239826433607,-0.898956298828125,4381.2578125,True
1599572228.5377266,0.0,10,0.5,0.5,-13.278428256225588,-0.2,-0.001,-0.2505,-0.7099861588221523,10,1,100,1.3136934681449306,-10,-1,-100,6340.66149601317,-0.07012130173340271,-0.05128914963744769,0.9962190653529376,304.4014885781329,32.86183645389583,1408.685807181845,-52.694909587674275,-11.2735595703125,4381.2578125,True
1599572228.610532,0.0,10,0.5,0.5,-11.06884530029297,-0.2,-0.001,-0.2505,-0.6737387658375871,10,1,100,1.4049100223067705,-10,-1,-100,6338.5309907675255,-0.07607368480322878,-0.052383299749023005,0.9957252554735484,319.90061191819586,34.571200778067194,1492.937874180946,-53.06638480408124,-21.926025390625,4381.2578125,True
1599572228.6873267,0.0,10,0.5,0.5,-11.281632910156251,-0.2,-0.001,-0.2505,-0.6049211698745992,10,1,100,1.1491117932274397,-10,-1,-100,6337.49750100309,-0.07912024027858876,-0.05273024509350174,0.9954694916624203,326.1190101298389,35.25086010963322,1528.2971845081108,-53.251777403548154,-27.35614013671875,4381.2578125,True
1599572228.7711399,0.0,10,0.5,0.5,-7.646790202331543,-0.2,-0.001,-0.2505,-0.6038096366058631,10,1,100,1.5272678852001884,-10,-1,-100,6335.365613733302,-0.08528793667279544,-0.05301575998096273,0.9949448713631012,333.5729480789568,36.02945855714808,1576.1435578436012,-53.62212389397115,-38.42376708984375,4381.2578125,True
1599572228.8409152,0.0,10,0.5,0.5,-2.697574092102051,-0.2,-0.001,-0.2505,-0.5144371379393881,10,1,100,1.931410841337537,-10,-1,-100,6332.137799124001,-0.09452634665023732,-0.05244550221569589,0.9941399494469089,330.61054076150907,35.548168254787214,1581.4901292208403,-54.17755970544177,-55.543121337890625,4381.2578125,True
1599572228.9137216,0.0,10,0.5,0.5,-1.6787503997802737,-0.2,-0.001,-0.2505,-0.4623308995358415,10,1,100,1.6740677806937034,-10,-1,-100,6329.945393611561,-0.10053742716005255,-0.05143927341338693,0.9936026504044461,318.27530772282734,34.07547045646654,1535.2232521074243,-54.54862165178528,-67.3011474609375,4381.2578125,True
1599572228.9925117,0.0,10,0.5,0.5,-1.9180103103637696,-0.2,-0.001,-0.2505,-0.48978205813097375,10,1,100,1.400681199277653,-10,-1,-100,6328.848450156278,-0.10346488304032767,-0.05076220879610361,0.9933369096814997,308.8904597955925,33.007133356977604,1496.268648483178,-54.734561760405,-73.28375244140625,4381.2578125,True
1599572229.0673106,0.0,10,0.5,0.5,2.077537367248535,-0.2,-0.001,-0.2505,-0.38023129442992276,10,1,100,1.733759735173013,-10,-1,-100,6326.655022247578,-0.10910520450599055,-0.049143410002990384,0.9928146753563749,291.8587861163908,31.122995572983037,1425.922506654549,-55.10723573122682,-85.4569091796875,4381.2578125,True
1599572229.148605,0.0,10,0.5,0.5,7.49936230621338,-0.2,-0.001,-0.2505,-0.2120833020816833,10,1,100,2.0375880765476113,-10,-1,-100,6323.303016680991,-0.11694483884447314,-0.046139674486700935,0.9920660437218389,332.857201854587,35.554659363112535,1647.1805031011027,-55.664240944649606,-104.23771667480469,4381.2578125,True
1599572229.225439,0.0,10,0.5,0.5,8.563444464874268,-0.2,-0.001,-0.2505,-0.2669474782231184,10,1,100,1.7826500818554722,-10,-1,-100,6321.047917792224,-0.12170155684702998,-0.04390918643594321,0.9915950354895606,352.417754242671,37.70642408409507,1758.5426457898773,-56.033769812294935,-117.01758575439453,4381.2578125,True
1599572229.303932,0.0,10,0.5,0.5,8.223457389831543,-0.2,-0.001,-0.2505,-0.36393964241617893,10,1,100,1.5590549024465838,-10,-1,-100,6319.950372369611,-0.12394111131905426,-0.04276847740935749,0.9913674688353876,359.3177459534356,38.453387474418946,1800.32162527078,-56.21811337865493,-123.34335327148438,4381.2578125,True
1599572229.3817806,0.0,10,0.5,0.5,15.00507621536255,-0.2,-0.001,-0.2505,-0.11126246980022952,10,1,100,2.0262330203785113,-10,-1,-100,6316.536566613475,-0.13017521662974327,-0.03944215006343284,0.9907061773168537,364.39502944097393,38.87608161252906,1848.140893557634,-56.77059906731387,-141.8894500732422,4381.2578125,True
1599572229.4655564,0.0,10,0.5,0.5,15.768146524810792,-0.2,-0.001,-0.2505,-0.21454066556108853,10,1,100,1.8203461795637592,-10,-1,-100,6314.280829966534,-0.13392170333039324,-0.03736887348285968,0.9902871021434683,355.2252615030279,37.727226116692805,1816.536291592366,-57.13943306810194,-153.8691864013672,4381.2578125,True
1599572229.5393696,0.0,10,0.5,0.5,18.03674061660767,-0.2,-0.001,-0.2505,-0.2187681729928794,10,1,100,1.8423091012833872,-10,-1,-100,6311.963061905,-0.13747744374384274,-0.03553647336045549,0.9898672191373752,337.0322192568059,35.6373545686416,1738.1097921710457,-57.509363451112335,-165.53814697265625,4381.2578125,True
1599572229.615958,0.0,10,0.5,0.5,20.243280934906007,-0.2,-0.001,-0.2505,-0.226867632481199,10,1,100,1.8679802047046634,-10,-1,-100,6309.645314219641,-0.14089586368983475,-0.033960176777818686,0.9894417931279812,312.005586262583,32.92761714805498,1622.9652244633257,-57.88063323448643,-176.89642333984375,4381.2578125,True
1599572229.6917582,0.0,10,0.5,0.5,-142.2637194923401,-0.2,-0.001,-0.2505,-0.3079817598982645,10,1,100,1.7142775716397933,-10,-1,-100,6308.486211327603,-0.1425640674155654,-0.03328138588415662,0.989225877156254,325.3837786373782,34.354588158709916,1699.892120198743,-58.06607808097207,177.54061889648438,4381.2578125,True
1599572229.7780342,0.0,10,0.5,0.5,-48.59393073501587,-0.2,-0.001,-0.2505,-0.25038420191721633,10,1,100,1.9188896014308678,-10,-1,-100,6306.168537399499,-0.14590251958227984,-0.032157196260571785,0.9887761978871668,350.218434385751,37.08014104554053,1845.3792325380725,-58.435770162882704,166.64651489257812,4381.2578125,True
1599572229.8448565,0.0,10,0.5,0.5,-44.20613910903931,-0.2,-0.001,-0.2505,-0.23905738891594708,10,1,100,2.150080359100611,-10,-1,-100,6302.629433971946,-0.15100063058852523,-0.03104914831415179,0.98804593008161,376.2094402816302,40.033870828021286,2007.2165118791613,-58.98761026580664,150.7957763671875,4381.2578125,True
