Timestamp,Input Throttle,horizon,dT,dt,Input Roll,Roll P,Roll I,Roll D,Input Pitch,Pitch P,Pitch I,Pitch D,Input Yaw,Yaw P,Yaw I,Yaw D,Altitude,Direction X,Direction Y,Direction Z,Drag X,Drag Y,Drag Z,Vertical Velocity,Roll,Mass,Has Fuel
1599566036.1293442,0.0,10,0.5,0.5,-0.05445833587646484,-0.001,-0.03,-0.12575,-0.0671980556585523,10,1,100,0.6903765535964167,-10,-1,-100,6483.617967447848,-0.06725805078655332,-0.007002559932681734,0.9977110397097863,205.07328352158797,21.498783707302852,-156.76528545575292,9.5908239685184,-35.944610595703125,4381.2578125,True
1599566036.1871896,0.0,10,0.5,0.5,-0.21664318084716797,-0.001,-0.03,-0.12575,-0.06733554152179698,10,1,100,0.6999158350304995,-10,-1,-100,6483.997882813914,-0.06744541007824706,-0.006971738898151838,0.9976986075544624,204.61211298261122,21.456738026192404,-150.2666934344865,9.210801676242355,-35.9412841796875,4381.2578125,True
1599566036.2570026,0.0,10,0.5,0.5,-0.3786215133666992,-0.001,-0.03,-0.12575,-0.0692903899169904,10,1,100,0.6985818469620576,-10,-1,-100,6484.156591750914,-0.06754229553363894,-0.006955153180446281,0.9976921690372653,204.3812289956757,21.43561637664599,-147.0255365287715,9.020797989099336,-35.939544677734375,4381.2578125,True
1599566036.31385,0.0,10,0.5,0.5,-0.538719711303711,-0.001,-0.03,-0.12575,-0.01826984801783238,10,1,100,0.7014398782115108,-10,-1,-100,6484.697140507633,-0.06759495323577783,-0.006469929280557568,0.9976918674180709,203.72125721612252,21.375371765894222,-137.35770689860618,8.450806467694633,-35.954254150390625,4381.2578125,True
1599566036.3756864,0.0,10,0.5,0.5,-0.6931563186645506,-0.001,-0.03,-0.12575,-0.01481095060927401,10,1,100,0.6981855291525862,-10,-1,-100,6485.016949743498,-0.06755178892515407,-0.0059914903685077,0.9976977788168999,203.32379266751147,21.339345290830863,-130.96635159485555,8.070819440703023,-36.02960205078125,4381.2578125,True
1599566036.433116,0.0,10,0.5,0.5,-0.8415775833129883,-0.001,-0.03,-0.12575,0.012891148479831839,10,1,100,0.690264319046441,-10,-1,-100,6485.3357567230705,-0.06737912692459919,-0.005299261829135488,0.9977133712038468,202.96314896445242,21.30681903449448,-124.6163326016262,7.690829775256888,-36.210784912109375,4381.2578125,True
1599566036.490959,0.0,10,0.5,0.5,-0.9531865692138671,-0.001,-0.03,-0.12575,0.10231849138902416,10,1,100,0.6577091005339348,-10,-1,-100,6485.750198549475,-0.06686495118586779,-0.003852169801596151,0.9977545986317132,202.49959674835412,21.265205969457423,-115.16647141843963,7.120822985826518,-36.783111572265625,4381.2578125,True
1599566036.558304,0.0,10,0.5,0.5,-1.1474453048706055,-0.001,-0.03,-0.12575,0.021637011082212228,10,1,100,0.6888043799842629,-10,-1,-100,6485.909329234855,-0.06661941673549143,-0.0032665976249845016,0.9977731118113875,202.3643615113154,21.253035563570442,-112.03398146466392,6.9308107347933605,-37.077880859375,4381.2578125,True
1599566036.6151524,0.0,10,0.5,0.5,-1.2983624877929687,-0.001,-0.03,-0.12575,0.032982226259467215,10,1,100,0.6889485814591403,-10,-1,-100,6486.005465720547,-0.06633695141516137,-0.0026281513286125165,0.9977938172275554,202.23727255871188,21.241528855236744,-108.90870616079032,6.740791671196629,-37.4322509765625,4381.2578125,True
1599566037.1447356,0.0,10,0.5,0.5,-1.3853815155029294,-0.001,-0.03,-0.12575,0.12234078452726747,10,1,100,0.6466232137571302,-10,-1,-100,6486.261196407024,-0.06563508237082925,-0.0012330058464501527,0.997842931356813,201.99262784016892,21.2188709110295,-102.67077796200033,6.36072841479089,-38.34149169921875,4381.2578125,True
1599566037.198592,0.0,10,0.5,0.5,-1.4140013504028321,-0.001,-0.03,-0.12575,0.25702909955921,10,1,100,0.5761696072696889,-10,-1,-100,6486.675513252267,-0.06429686401484984,0.0012608683702118831,0.9979300193344265,201.5733777306315,21.17751025551888,-93.30817937395902,5.790553727940426,-40.240447998046875,4381.2578125,True
1599566037.2534459,0.0,10,0.5,0.5,-1.5411123733520509,-0.001,-0.03,-0.12575,0.1095723735893141,10,1,100,0.6507648818425964,-10,-1,-100,6486.772106052842,-0.06376113272077835,0.0021799988508120496,0.9979628077033601,201.39017923825006,21.1585983116803,-90.17387342346454,5.600469133880493,-41.0198974609375,4381.2578125,True
1599566037.3082995,0.0,10,0.5,0.5,-1.271469436645508,-0.001,-0.03,-0.12575,0.3408134397763806,10,1,100,0.4934070413127509,-10,-1,-100,6487.061855913256,-0.0618469277916761,0.005109443764195565,0.9980725680566278,200.56337790724353,21.070988017964734,-80.68541915199965,5.030114776703192,-43.80035400390625,4381.2578125,True
1599566037.4469297,0.0,10,0.5,0.5,-1.3159392547607422,-0.001,-0.03,-0.12575,0.28391699706066953,10,1,100,0.517017994362148,-10,-1,-100,6487.254513632855,-0.06032656412725218,0.007244367299906259,0.998152405598977,199.65616893704276,20.973782380865394,-74.2629997548594,4.649775357265786,-46.02197265625,4381.2578125,True
1599566037.5187364,0.0,10,0.5,0.5,-1.0725404052734373,-0.001,-0.03,-0.12575,0.4359522078130771,10,1,100,0.37226995334947216,-10,-1,-100,6487.544209630345,-0.05763513168594113,0.010554877615046537,0.9982819171727372,197.47997641454842,20.74039075686281,-64.4571048907651,4.079066529260126,-49.9080810546875,4381.2578125,True
1599566037.593537,0.0,10,0.5,0.5,-0.7318129730224608,-0.001,-0.03,-0.12575,0.6101964476107902,10,1,100,0.16101339052564662,-10,-1,-100,6487.805439451826,-0.05327687585656832,0.015133428837895495,0.9984650989546766,192.33689316418912,20.191142617322463,-51.07780116386942,3.3176293935367713,-56.12322998046875,4381.2578125,True
1599566037.6643512,0.0,10,0.5,0.5,-1.0033718185424805,-0.001,-0.03,-0.12575,0.39659477067189575,10,1,100,0.32039664857992667,-10,-1,-100,6487.935070843785,-0.05077658404042106,0.01733533953134366,0.9985595748459473,188.50951903868773,19.784376216283047,-44.31955674492809,2.936638256309363,-59.675567626953125,4381.2578125,True
1599566037.7521172,0.0,10,0.5,0.5,-0.8985610809326172,-0.001,-0.03,-0.12575,0.4041349738209094,10,1,100,0.27535288005450737,-10,-1,-100,6488.0041551172035,-0.0481087284638247,0.019386362454621265,0.9986539536778354,183.76765837231932,19.28204153085537,-37.60196064392811,2.555433407481093,-63.484954833984375,4381.2578125,True
1599566037.8199346,0.0,10,0.5,0.5,-1.2983703002929687,-0.001,-0.03,-0.12575,0.20129797750110964,10,1,100,0.5402873688869771,-10,-1,-100,6488.0041551172035,-0.0481087284638247,0.019386362454621265,0.9986539536778354,183.76765837231932,19.28204153085537,-37.60196064392811,2.555433407481093,-63.484954833984375,4381.2578125,True
1599566037.8877542,0.0,10,0.5,0.5,-0.704052520751953,-0.001,-0.03,-0.12575,0.4293106478461306,10,1,100,0.22122433080542658,-10,-1,-100,6488.133788052364,-0.04522472650213,0.02143919171795488,0.9987467572769827,177.86515636796645,18.659416747413896,-30.965833244954734,2.1739743545477204,-67.55722045898438,4381.2578125,True
1599566037.9511657,0.0,10,0.5,0.5,-0.5771681442260743,-0.001,-0.03,-0.12575,0.4317617288125072,10,1,100,0.17372086965161737,-10,-1,-100,6488.200927663944,-0.04218961175907173,0.02330707160471213,0.9988377331042474,170.68887515843323,17.905216701690858,-24.501499307671367,1.7922294034446198,-71.90692138671875,4381.2578125,True
1599566038.025482,0.0,10,0.5,0.5,-0.13597928619384758,-0.001,-0.03,-0.12575,0.5392635780804452,10,1,100,-0.06801750470395468,-10,-1,-100,6488.301652056165,-0.03725289245510972,0.025962391764895884,0.9989685561706004,157.6087793050845,16.53265729427444,-15.392778463790663,1.2191737584145619,-78.95358276367188,4381.2578125,True
1599566038.088317,0.0,10,0.5,0.5,0.04880817413330096,-0.001,-0.03,-0.12575,0.5257203763322857,10,1,100,-0.1465352255108771,-10,-1,-100,6488.341374730691,-0.032075266753504666,0.02823157881015777,0.9990866605157819,143.23158792224115,15.023983935732897,-7.411774386227365,0.6458670332342638,-86.50469970703125,4381.2578125,True
1599566038.161628,0.0,10,0.5,0.5,-0.7726317443847656,-0.001,-0.03,-0.12575,0.3011138853106932,10,1,100,0.3682501785458115,-10,-1,-100,6488.341374730691,-0.032075266753504666,0.02823157881015777,0.9990866605157819,143.23158792224115,15.023983935732897,-7.411774386227365,0.6458670332342638,-86.50469970703125,4381.2578125,True
1599566038.22845,0.0,10,0.5,0.5,0.33749583435058583,-0.001,-0.03,-0.12575,0.503665754762252,10,1,100,-0.2086097827406489,-10,-1,-100,6488.318640749552,-0.026856768284876615,0.03005388015834444,0.9991874089902855,154.21383181064235,16.17420589892292,-0.8968466192904709,0.07257445409280106,-94.304931640625,4381.2578125,True
1599566038.2882898,0.0,10,0.5,0.5,-0.1795666732788085,-0.001,-0.03,-0.12575,0.37962495110751937,10,1,100,0.11881452680950536,-10,-1,-100,6488.350787977688,-0.025117243730580757,0.030565147712068117,0.999217141472622,157.76920889554478,16.5457252885678,1.498276252412453,-0.11850425209000326,-96.91342163085938,4381.2578125,True
1599566038.3511243,0.0,10,0.5,0.5,0.29091812324523925,-0.001,-0.03,-0.12575,0.43056793706530644,10,1,100,-0.11656376192494855,-10,-1,-100,6488.355522472761,-0.021421654812840384,0.031479025616093004,0.9992748288891004,164.5305727611025,17.25162436917547,6.601998171682263,-0.5006589926663287,-102.24779510498047,4381.2578125,True
1599566038.4109616,0.0,10,0.5,0.5,0.42979164123535163,-0.001,-0.03,-0.12575,0.4152142607413575,10,1,100,-0.12238538830763626,-10,-1,-100,6488.298755167285,-0.018035790947077048,0.03215738693854814,0.9993200752062362,172.12642047193273,18.045912330319524,12.18075447695135,-0.8828473118958922,-107.62810516357422,4381.2578125,True
1599566038.4698045,0.0,10,0.5,0.5,0.5679524326324463,-0.001,-0.03,-0.12575,0.4052176742372451,10,1,100,-0.17854995048202046,-10,-1,-100,6488.241030661622,-0.014474484992540294,0.03267159096848458,0.9993613242605444,179.17451992512002,18.78431668745393,18.172251158026103,-1.265125320619422,-113.01118469238281,4381.2578125,True
1599566038.5286481,0.0,10,0.5,0.5,0.7188119831085205,-0.001,-0.03,-0.12575,0.39404542346207594,10,1,100,-0.19606779833554985,-10,-1,-100,6488.183815130382,-0.01110825754744869,0.033025405780912655,0.9993927802357117,184.72590504767382,19.366288965769137,24.4016682764007,-1.6475232390242254,-118.36978912353516,4381.2578125,True
1599566038.5894876,0.0,10,0.5,0.5,1.5134160289764405,-0.001,-0.03,-0.12575,0.39140780785555895,10,1,100,-0.5749042542178571,-10,-1,-100,6488.003526574466,-0.004635097970212333,0.0333125443648217,0.9994342350824031,191.10485388930303,20.03555458886924,36.980204987522505,-2.4127119172607,-128.7525177001953,4381.2578125,True
1599566038.6662793,0.0,10,0.5,0.5,0.6942404098510742,-0.001,-0.03,-0.12575,0.36397551841516557,10,1,100,-0.09992605660331458,-10,-1,-100,6487.975189762423,-0.003102531527210447,0.033315099107317156,0.999440082480982,191.7883150839884,20.10718028364395,40.059306276166666,-2.604080373262131,-131.2449493408203,4381.2578125,True
1599566038.7261188,0.0,10,0.5,0.5,1.1482790298461913,-0.001,-0.03,-0.12575,0.36413827043868957,10,1,100,-0.2680007071652332,-10,-1,-100,6487.854078992968,-0.0002123837202166537,0.03331221688494286,0.9994449715213769,192.1570290978309,20.145308216800117,46.04394288223611,-2.986881427068368,-136.0622100830078,4381.2578125,True
1599566038.7859595,0.0,10,0.5,0.5,1.2682768516540528,-0.001,-0.03,-0.12575,0.35596915323777234,10,1,100,-0.2848835318205383,-10,-1,-100,6487.733964708634,0.0025395373438865795,0.03323071321907172,0.9994444809237933,191.33226415061577,20.05736355877995,51.73171059413331,-3.3697445729122,-140.615234375,4381.2578125,True
1599566038.8487914,0.0,10,0.5,0.5,1.1360275344848634,-0.001,-0.03,-0.12575,0.3553434719634813,10,1,100,-0.15936841634856957,-10,-1,-100,6487.641198067926,0.0038687692577830837,0.033146386298141754,0.9994430197363953,190.55656827471523,19.974882574775403,54.45378186196422,-3.5611900544174744,-142.8082275390625,4381.2578125,True
1599566038.9106264,0.0,10,0.5,0.5,1.7869570808410644,-0.001,-0.03,-0.12575,0.34627778698758027,10,1,100,-0.4287296830465435,-10,-1,-100,6487.428833644721,0.0074979683880863415,0.03298449877375196,0.9994277379133999,187.07942912155258,19.6049839654129,62.09855528500616,-4.135544393532594,-148.97145080566406,4381.2578125,True
1599566038.9684715,0.0,10,0.5,0.5,1.4100054016113281,-0.001,-0.03,-0.12575,0.3557978299386853,10,1,100,-0.19336659967889808,-10,-1,-100,6487.337055717711,0.008627925737639193,0.032921674731987934,0.999420693317037,185.60766756871794,19.448286655021892,64.46790504594925,-4.326995579042059,-150.8799285888672,4381.2578125,True
1599566039.0318127,0.0,10,0.5,0.5,2.1895159873962404,-0.001,-0.03,-0.12575,0.3383216247406504,10,1,100,-0.5344188532615154,-10,-1,-100,6486.906974802143,0.01272831692384696,0.032704375874842234,0.9993840171560294,178.62543293349026,18.704454118670785,73.04946041189388,-5.0927999622476765,-157.77227783203125,4381.2578125,True
1599566039.0886605,0.0,10,0.5,0.5,1.4732355880737307,-0.001,-0.03,-0.12575,0.3601062093488498,10,1,100,-0.12745614542783099,-10,-1,-100,6486.906974802143,0.01272831692384696,0.032704375874842234,0.9993840171560294,178.62543293349026,18.704454118670785,73.04946041189388,-5.0927999622476765,-157.77227783203125,4381.2578125,True
1599566039.1524901,0.0,10,0.5,0.5,1.9879351959228513,-0.001,-0.03,-0.12575,0.34646413492423855,10,1,100,-0.33028967301582063,-10,-1,-100,6486.7229515034705,0.014547528263813787,0.03258032721197635,0.9993632431204251,174.78886272565933,18.295582747112714,76.86919252242971,-5.475726917488144,-160.77359008789062,4381.2578125,True
1599566039.220537,0.0,10,0.5,0.5,2.08007804107666,-0.001,-0.03,-0.12575,0.3690604672796835,10,1,100,-0.3275600760565762,-10,-1,-100,6486.476437322213,0.016153218795234806,0.032673381520392265,0.9993355410784589,170.92023748352625,17.88335617312693,80.44011361089103,-5.858696266723741,-163.47454833984375,4381.2578125,True
1599566039.2818458,0.0,10,0.5,0.5,2.416563423156738,-0.001,-0.03,-0.12575,0.37491057081878043,10,1,100,-0.47537197092189176,-10,-1,-100,6485.981953734998,0.01893778348915183,0.03281174016280255,0.9992821173542568,163.6477284696768,17.109285858831793,87.12323385226034,-6.62483789392309,-167.98709106445312,4381.2578125,True
1599566039.3457513,0.0,10,0.5,0.5,2.07869372177124,-0.001,-0.03,-0.12575,0.3715922383611378,10,1,100,-0.2639361716162901,-10,-1,-100,6485.826718273223,0.019527025658101507,0.03290781168714652,0.9992676174073246,162.00911648135997,16.935174286632943,88.7543383323385,-6.816425361371639,-168.9287567138672,4381.2578125,True
1599566039.407551,0.0,10,0.5,0.5,2.2691934700012206,-0.001,-0.03,-0.12575,0.39325616127745944,10,1,100,-0.32299038583208883,-10,-1,-100,6485.579726998112,0.020581611932400913,0.033192461831423783,0.9992370378082638,159.0380872043926,16.619912675066963,92.04484907976361,-7.199668497813979,-170.58804321289062,4381.2578125,True
1599566039.466459,0.0,10,0.5,0.5,2.3229972229003906,-0.001,-0.03,-0.12575,0.4049128247061348,10,1,100,-0.31815306579476055,-10,-1,-100,6485.269752326538,0.021479949204526012,0.03355723913137984,0.9992059464815302,156.5424509204082,16.35565519215795,95.44560510137717,-7.58300255440194,-171.94931030273438,4381.2578125,True
1599566039.5233119,0.0,10,0.5,0.5,2.3739787673950197,-0.001,-0.03,-0.12575,0.41893854336006187,10,1,100,-0.31065699274890707,-10,-1,-100,6484.960754941101,0.02221246316972585,0.034015987889254466,0.9991744187317105,154.5967427120688,16.15011756194869,99.04847887695897,-7.966422995718949,-173.0123291015625,4381.2578125,True
1599566039.5881057,0.0,10,0.5,0.5,2.3655938644409176,-0.001,-0.03,-0.12575,0.40365605245332425,10,1,100,-0.2721720910413936,-10,-1,-100,6484.803571652039,0.022515145400037725,0.03429316276170151,0.9991581692682169,153.8408494610714,16.070437908481406,100.94871644561326,-8.158163382384359,-173.43179321289062,4381.2578125,True
1599566039.6554718,0.0,10,0.5,0.5,2.483317958831787,-0.001,-0.03,-0.12575,0.4822377398410735,10,1,100,-0.31551718199632695,-10,-1,-100,6484.2768453034805,0.023171732600218462,0.035258272087424075,0.9991095660925848,152.70554018436457,15.951003107642928,107.31121652843392,-8.733490043113381,-174.2429656982422,4381.2578125,True
1599566039.7183032,0.0,10,0.5,0.5,2.452032527923584,-0.001,-0.03,-0.12575,0.4694107974547058,10,1,100,-0.27615395079668176,-10,-1,-100,6483.903396112029,0.023401288484316565,0.0360167139107389,0.9990771621933642,152.7788560526245,15.958792996349242,112.10899953383347,-9.117114450676398,-174.41107177734375,4381.2578125,True
1599566039.7801378,0.0,10,0.5,0.5,2.464312110900879,-0.001,-0.03,-0.12575,0.48819958419631637,10,1,100,-0.25893225523585506,-10,-1,-100,6483.529947246658,0.02344371208152508,0.03687400241318893,0.9990448940412392,153.45999939598818,16.03020152162055,117.38087985155286,-9.500784054302954,-174.28091430664062,4381.2578125,True
1599566039.841975,0.0,10,0.5,0.5,2.466937702178955,-0.001,-0.03,-0.12575,0.5070175818026618,10,1,100,-0.2396859129017367,-10,-1,-100,6483.157962148194,0.023299224799752008,0.03782052496165463,0.9990128898144185,154.74135722919132,16.164031148111846,123.17762654615818,-9.88448707051079,-173.85279846191406,4381.2578125,True
1599566039.8988237,0.0,10,0.5,0.5,2.3997407150268555,-0.001,-0.03,-0.12575,0.5851810428094921,10,1,100,-0.19147939072568715,-10,-1,-100,6482.503303468926,0.022723135245626476,0.039386897702648034,0.9989656307471093,157.7619169944062,16.478075237884745,132.95721483889594,-10.4600765017748,-172.6522674560547,4381.2578125,True
1599566039.9616568,0.0,10,0.5,0.5,2.5647030181884762,-0.001,-0.03,-0.12575,0.4292012844641364,10,1,100,-0.2494668813138878,-10,-1,-100,6482.503303468926,0.022723135245626476,0.039386897702648034,0.9989656307471093,157.7619169944062,16.478075237884745,132.95721483889594,-10.4600765017748,-172.6522674560547,4381.2578125,True
1599566040.0244544,0.0,10,0.5,0.5,2.3388980865478515,-0.001,-0.03,-0.12575,0.6173811455756593,10,1,100,-0.13362000685981199,-10,-1,-100,6481.849617814645,0.021667076287328037,0.04109173363455688,0.9989204208704845,162.01179332553613,16.917494245530122,144.12405002599775,-11.035665929343091,-170.7826385498047,4381.2578125,True
1599566040.08632,0.0,10,0.5,0.5,2.476773052215576,-0.001,-0.03,-0.12575,0.5124834266582917,10,1,100,-0.18805394757458066,-10,-1,-100,6481.6313953858335,0.0212008899095956,0.041680787699040545,0.9989060187043769,163.6773252489436,17.089051832439598,148.16259017363728,-11.227519707906323,-170.01092529296875,4381.2578125,True
1599566040.148152,0.0,10,0.5,0.5,2.218080635070801,-0.001,-0.03,-0.12575,0.6577434205208177,10,1,100,-0.05071481852550275,-10,-1,-100,6480.975264250883,0.019528800265115342,0.043529451748623514,0.9988612580286961,169.32066893390794,17.667917150697146,161.21382032992346,-11.80302196513734,-167.25021362304688,4381.2578125,True
1599566040.215941,0.0,10,0.5,0.5,2.2677387275695797,-0.001,-0.03,-0.12575,0.6106572783051774,10,1,100,-0.0627345537865121,-10,-1,-100,6480.477781708469,0.018120428784237565,0.04477335098823006,0.9988328173933615,173.53378520400656,18.097800423982733,170.65848266861641,-12.186616552327045,-165.03944396972656,4381.2578125,True
1599566040.294765,0.0,10,0.5,0.5,2.2028844642639163,-0.001,-0.03,-0.12575,0.6218462652986084,10,1,100,-0.022702831155081926,-10,-1,-100,6479.977856726153,0.01648016152007731,0.04599635909851581,0.9988056563846404,178.1947797248727,18.571806604870414,180.82627313297814,-12.570125105829101,-162.5330810546875,4381.2578125,True
1599566040.356598,0.0,10,0.5,0.5,1.93629736328125,-0.001,-0.03,-0.12575,0.6926471270239416,10,1,100,0.1328995298186726,-10,-1,-100,6479.197688201675,0.013580525790243077,0.04774206695354125,0.99876737249585,185.56318882214896,19.3176308705956,197.03437897690247,-13.145171565886539,-158.22039794921875,4381.2578125,True
1599566040.428372,0.0,10,0.5,0.5,2.2291785202026366,-0.001,-0.03,-0.12575,0.5788231392487991,10,1,100,-0.037049400212215367,-10,-1,-100,6478.915493874112,0.012498411547669185,0.048283651157387815,0.9987554649360858,188.0398070176889,19.567414143296393,202.61529956927396,-13.336784513622852,-156.63565063476562,4381.2578125,True
1599566040.4912362,0.0,10,0.5,0.5,1.717192909240722,-0.001,-0.03,-0.12575,0.6805739859736301,10,1,100,0.2504509728233358,-10,-1,-100,6478.0732973801205,0.008910981845491415,0.04969063572316115,0.9987249046278847,195.27258645140574,20.294831840598377,219.60846459580284,-13.91138019099099,-151.44171142578125,4381.2578125,True
1599566040.5530725,0.0,10,0.5,0.5,2.303097503662109,-0.001,-0.03,-0.12575,0.5410625404724468,10,1,100,-0.10685317309901518,-10,-1,-100,6478.0732973801205,0.008910981845491415,0.04969063572316115,0.9987249046278847,195.27258645140574,20.294831840598377,219.60846459580284,-13.91138019099099,-151.44171142578125,4381.2578125,True
1599566040.6208594,0.0,10,0.5,0.5,1.4974669723510743,-0.001,-0.03,-0.12575,0.6662195351382276,10,1,100,0.33963960400086596,-10,-1,-100,6477.2286473891,0.0048645131022198905,0.05081905954919506,0.9986960296801093,201.75520693759032,20.945257845967834,236.4118914867787,-14.485577415464952,-145.58767700195312,4381.2578125,True
1599566040.6797295,0.0,10,0.5,0.5,1.8866329345703123,-0.001,-0.03,-0.12575,0.5818955845289266,10,1,100,0.09476234942827733,-10,-1,-100,6476.9483958348865,0.0034282971245814986,0.051067925147462646,0.9986892979300214,203.64736495282634,21.135248342570865,241.83139201708136,-14.676884179613875,-143.49075317382812,4381.2578125,True
1599566040.741536,0.0,10,0.5,0.5,1.5087599525451658,-0.001,-0.03,-0.12575,0.6162718629279688,10,1,100,0.28876923419837297,-10,-1,-100,6476.321977497428,0.0003755279916936789,0.05159760895723092,0.9986678855999247,206.85178778464729,21.458106229587855,252.14464632863888,-15.059364230454367,-139.07508850097656,4381.2578125,True
1599566040.8063624,0.0,10,0.5,0.5,1.3749522590637206,-0.001,-0.03,-0.12575,0.5776238029869544,10,1,100,0.3288664201117265,-10,-1,-100,6475.759028966888,-0.00274530439930946,0.051718778401867234,0.9986579150361619,209.1272425462198,21.69028053039162,261.50204770757915,-15.44168496023055,-134.37078857421875,4381.2578125,True
1599566040.882195,0.0,10,0.5,0.5,0.5641665191650391,-0.001,-0.03,-0.12575,0.5376711770154103,10,1,100,0.7511549042328834,-10,-1,-100,6474.4456237987615,-0.009401161787991536,0.05145828190938326,0.9986308944650024,210.8649696973047,21.885561829580524,276.9702585766511,-16.206006250957753,-124.0850830078125,4381.2578125,True
1599566040.9579937,0.0,10,0.5,0.5,1.027577854156494,-0.001,-0.03,-0.12575,0.5054950981310251,10,1,100,0.46107301091431163,-10,-1,-100,6473.81918745162,-0.012789813483377108,0.05092287989824782,0.9986206892378752,209.7176818317326,21.786164947317882,282.08837665032155,-16.588119461500728,-118.50596618652344,4381.2578125,True
1599566041.0337844,0.0,10,0.5,0.5,1.229654815673828,-0.001,-0.03,-0.12575,0.5196948282610214,10,1,100,0.31202517117245127,-10,-1,-100,6473.474960937165,-0.01448881650425303,0.05056076059767036,0.9986158839534303,208.48124395796032,21.670200399033437,283.7228670465769,-16.779196721432736,-115.60722351074219,4381.2578125,True
1599566041.1220975,0.0,10,0.5,0.5,0.709802791595459,-0.001,-0.03,-0.12575,0.4491183191043513,10,1,100,0.5040701866404201,-10,-1,-100,6472.786987308762,-0.01775371089812677,0.04958739415604464,0.998611984751915,204.5642304367138,21.291584694990455,284.87421079593247,-17.161440385457325,-109.6385498046875,4381.2578125,True
1599566041.1869295,0.0,10,0.5,0.5,0.5277997360229493,-0.001,-0.03,-0.12575,0.41359918612964647,10,1,100,0.5407596308963766,-10,-1,-100,6472.098029740853,-0.02102783518356996,0.04837842914297971,0.9986077096343441,199.29510353911917,20.773787646388694,283.86715913624533,-17.543852598095036,-103.39340209960938,4381.2578125,True
1599566041.2657177,0.0,10,0.5,0.5,0.759496042251587,-0.001,-0.03,-0.12575,0.4565588740651272,10,1,100,0.39226280246489675,-10,-1,-100,6471.753305271268,-0.02262712353275117,0.04767110557286158,0.998606768940655,196.08483739422007,20.454077799957,282.4151847758191,-17.735136049064177,-100.1627426147461,4381.2578125,True
1599566041.3255596,0.0,10,0.5,0.5,-0.2653852729797366,-0.001,-0.03,-0.12575,0.2570784326856548,10,1,100,0.7316449872103512,-10,-1,-100,6470.65808593703,-0.027137643615712543,0.045216461523986534,0.9986085418752616,182.91539941840134,19.11412704126771,272.20380969430164,-18.309347673951887,-90.0854263305664,4381.2578125,True
1599566041.3974426,0.0,10,0.5,0.5,0.39779292488098145,-0.001,-0.03,-0.12575,0.4010898447842762,10,1,100,0.4400058183358936,-10,-1,-100,6470.251832155976,-0.028557758377075148,0.044299254860474147,0.9986100492460925,177.90494612025253,18.59656151429251,267.5928860954091,-18.50086432914782,-86.63345336914062,4381.2578125,True
1599566041.9439778,0.0,10,0.5,0.5,-0.6848357772827149,-0.001,-0.03,-0.12575,0.1614343355251825,10,1,100,0.7387738800778378,-10,-1,-100,6469.156595595414,-0.032535766852784594,0.04129289750973202,0.9986172041831405,189.25211484997368,19.77975852229046,293.7522167553608,-19.075281081428876,-76.01300048828125,4381.2578125,True
1599566041.9982052,0.0,10,0.5,0.5,-0.441466194152832,-0.001,-0.03,-0.12575,0.22420445192135044,10,1,100,0.6032932616133869,-10,-1,-100,6468.342610319611,-0.034890576849348647,0.0391398507139748,0.9986244137478352,201.81302227245249,21.076752180688942,319.7143730234193,-19.457785999986484,-68.88900756835938,4381.2578125,True
1599566042.0550542,0.0,10,0.5,0.5,-1.0973869705200197,-0.001,-0.03,-0.12575,0.07812040841520113,10,1,100,0.7037525450290136,-10,-1,-100,6467.184856956126,-0.037915356447776175,0.03586593407476496,0.9986371015130484,216.59691900089507,22.59060835435674,353.5381062442414,-20.030770387153083,-58.1961669921875,4381.2578125,True
1599566042.1109047,0.0,10,0.5,0.5,0.049570983886718746,-0.001,-0.03,-0.12575,0.40395283755272327,10,1,100,0.40412600465223925,-10,-1,-100,6467.184856956126,-0.037915356447776175,0.03586593407476496,0.9986371015130484,216.59691900089507,22.59060835435674,353.5381062442414,-20.030770387153083,-58.1961669921875,4381.2578125,True
1599566042.171893,0.0,10,0.5,0.5,-1.866980110168457,-0.001,-0.03,-0.12575,-0.06673042272943136,10,1,100,0.7573653103683533,-10,-1,-100,6465.557848751661,-0.041103781460682304,0.03160068347749399,0.9986550335092632,228.47391609599478,23.80958843146716,387.5506347301306,-20.793515424716585,-44.502899169921875,4381.2578125,True
1599566042.2367196,0.0,10,0.5,0.5,-1.1960449142456056,-0.001,-0.03,-0.12575,0.12101925505904643,10,1,100,0.5754019567984978,-10,-1,-100,6464.68086391245,-0.04232394192636516,0.029447234620888527,0.9986698875569424,231.10188861088753,24.091424429318018,399.4146600063892,-21.174576258062718,-37.89398193359375,4381.2578125,True
1599566042.3090503,0.0,10,0.5,0.5,-0.9927211227416992,-0.001,-0.03,-0.12575,0.23653327408190267,10,1,100,0.5176852920825755,-10,-1,-100,6464.274598962278,-0.042886145187724614,0.028557990523759666,0.9986717277104534,231.4910163079213,24.141011298854206,403.8018255313213,-21.36508300270533,-34.639434814453125,4381.2578125,True
1599566042.3741264,0.0,10,0.5,0.5,-1.1941338958740235,-0.001,-0.03,-0.12575,0.22708848936983417,10,1,100,0.5210173264788607,-10,-1,-100,6463.80534872564,-0.043407659092559295,0.02768174370045937,0.9986738687869061,231.30802081128917,24.13407062208892,407.19898077886904,-21.55559488607466,-31.448822021484375,4381.2578125,True
1599566042.446932,0.0,10,0.5,0.5,-2.525367004394531,-0.001,-0.03,-0.12575,-0.05887952298365451,10,1,100,0.6456507355784014,-10,-1,-100,6462.053353848634,-0.04499590223825955,0.024303618623220478,0.998691495359594,225.48182717420832,23.5965283874455,411.49165049368264,-22.317935075298664,-19.40692138671875,4381.2578125,True
1599566042.5147495,0.0,10,0.5,0.5,-1.223133514404297,-0.001,-0.03,-0.12575,0.2768417004501581,10,1,100,0.48861224687063065,-10,-1,-100,6462.053353848634,-0.04499590223825955,0.024303618623220478,0.998691495359594,225.48182717420832,23.5965283874455,411.49165049368264,-22.317935075298664,-19.40692138671875,4381.2578125,True
1599566042.582568,0.0,10,0.5,0.5,-2.1321112213134765,-0.001,-0.03,-0.12575,0.11914587370343388,10,1,100,0.554538020881441,-10,-1,-100,6461.177845272003,-0.04558028368939311,0.022888198049375034,0.9986984370313428,220.4268605794348,23.108543767451497,409.4170722984903,-22.69938627242876,-13.82666015625,4381.2578125,True
1599566042.6533782,0.0,10,0.5,0.5,-2.919153144836426,-0.001,-0.03,-0.12575,0.012403956196940347,10,1,100,0.6004350317403884,-10,-1,-100,6459.300873692962,-0.0465169264556535,0.020647802549875013,0.998704082200018,208.08293815865667,21.88298817984574,400.06331330475496,-23.462916856253962,-3.552886962890625,4381.2578125,True
1599566042.7172089,0.0,10,0.5,0.5,-2.1253681869506833,-0.001,-0.03,-0.12575,0.18714927120713865,10,1,100,0.5303354706469781,-10,-1,-100,6458.8311450521,-0.046720581733580756,0.020216484094207798,0.9987033999207895,204.9350301458614,21.564110772498626,397.366469395095,-23.653915371749157,-1.169189453125,4381.2578125,True
1599566042.7921462,0.0,10,0.5,0.5,-2.2894565353393554,-0.001,-0.03,-0.12575,0.18620817913692167,10,1,100,0.5315418769601541,-10,-1,-100,6458.361419155495,-0.046908685475192766,0.01983004779749068,0.9987023302422693,201.6929998797642,21.23231395147211,394.3867464521479,-23.844947982425428,1.140533447265625,4381.2578125,True
1599566042.8634708,0.0,10,0.5,0.5,-3.254366905212402,-0.001,-0.03,-0.12575,0.10777492118909004,10,1,100,0.5881745497541837,-10,-1,-100,6456.421995552606,-0.047586355602942665,0.01878029053392872,0.9986905624105454,202.5127617883321,21.32565603810232,409.29994204803137,-24.60909879015913,9.64031982421875,4381.2578125,True
1599566042.9362762,0.0,10,0.5,0.5,-2.3479484252929685,-0.001,-0.03,-0.12575,0.21146860825092975,10,1,100,0.5210557943934198,-10,-1,-100,6456.421995552606,-0.047586355602942665,0.01878029053392872,0.9986905624105454,202.5127617883321,21.32565603810232,409.29994204803137,-24.60909879015913,9.64031982421875,4381.2578125,True
1599566043.0135856,0.0,10,0.5,0.5,-3.418083755493164,-0.001,-0.03,-0.12575,0.185716418363096,10,1,100,0.5950378387576021,-10,-1,-100,6454.418646204285,-0.0482541356301838,0.01855587693866383,0.9986627147468863,217.62564837147858,22.882888503205592,454.1745988882444,-25.372256013826032,16.9581298828125,4381.2578125,True
1599566043.0943682,0.0,10,0.5,0.5,-2.6526618347167967,-0.001,-0.03,-0.12575,0.2071575665310753,10,1,100,0.5287966350777348,-10,-1,-100,6454.418646204285,-0.0482541356301838,0.01855587693866383,0.9986627147468863,217.62564837147858,22.882888503205592,454.1745988882444,-25.372256013826032,16.9581298828125,4381.2578125,True
1599566043.186635,0.0,10,0.5,0.5,-3.395231906890869,-0.001,-0.03,-0.12575,0.24703780648090828,10,1,100,0.5840323371374361,-10,-1,-100,6452.884550573537,-0.048751872488419605,0.018926720817082125,0.998631580798437,226.21325729542556,23.74468603263118,483.2749599850927,-25.943850352425635,21.670944213867188,4381.2578125,True
1599566043.2823796,0.0,10,0.5,0.5,-3.2772772064208984,-0.001,-0.03,-0.12575,0.2656354367478925,10,1,100,0.5759989141363702,-10,-1,-100,6451.820171397645,-0.049127914904760504,0.019437809070622376,0.9986033344404798,230.85470852770248,24.201209614991487,500.79852091256606,-26.324564050223813,24.443710327148438,4381.2578125,True
1599566043.3601732,0.0,10,0.5,0.5,-3.517197212219238,-0.001,-0.03,-0.12575,0.34392479996714354,10,1,100,0.6061460857296925,-10,-1,-100,6450.224610621575,-0.04974008046804016,0.020618579702699976,0.9985493470860999,236.53741145627592,24.74983713059629,524.8240592185251,-26.895158732063365,28.049575805664062,4381.2578125,True
1599566043.4589078,0.0,10,0.5,0.5,-3.323039031982422,-0.001,-0.03,-0.12575,0.2812039723539556,10,1,100,0.5695761167619409,-10,-1,-100,6449.630917253206,-0.04996035871969788,0.021123881497511245,0.9985277883900268,238.28046215467805,24.916986431630512,532.6215321404621,-27.085238979000547,29.104019165039062,4381.2578125,True
1599566043.5267262,0.0,10,0.5,0.5,-3.527696285247803,-0.001,-0.03,-0.12575,0.3615171324811589,10,1,100,0.5982467062194716,-10,-1,-100,6448.566593294148,-0.05041812300512423,0.022312933603998213,0.9984789160851739,241.38265459191456,25.21201366791734,547.522101592662,-27.465236265422,30.991851806640625,4381.2578125,True
1599566043.607022,0.0,10,0.5,0.5,-3.5887207069396974,-0.001,-0.03,-0.12575,0.4004746616078161,10,1,100,0.6066373608423157,-10,-1,-100,6447.438815983245,-0.05090718963274536,0.023746143556947076,0.9984210428020177,244.0457368924693,25.462894192849475,561.6233530273344,-27.84503268739331,32.58503723144531,4381.2578125,True
1599566043.6748416,0.0,10,0.5,0.5,-3.5696545028686524,-0.001,-0.03,-0.12575,0.3446107253991759,10,1,100,0.5873692558448755,-10,-1,-100,6446.910093916347,-0.05117299606319007,0.024537647643404353,0.9983883153973934,245.2385869037641,25.57465180403034,568.4213393278748,-28.034861592897933,33.27098083496094,4381.2578125,True
1599566043.8194537,0.0,10,0.5,0.5,-3.7592231101989744,-0.001,-0.03,-0.12575,0.5739384591249399,10,1,100,0.649824345169117,-10,-1,-100,6445.188716361648,-0.051979151229759955,0.027336760431227482,0.9982739450504354,248.36711077890996,25.866500902616977,588.0000144421412,-28.604095539775095,34.8878173828125,4381.2578125,True
1599566043.8882701,0.0,10,0.5,0.5,-3.752638801574707,-0.001,-0.03,-0.12575,0.6632080128904757,10,1,100,0.6671685774809858,-10,-1,-100,6443.466927841422,-0.05286570095163428,0.030685171209028562,0.9981300706474908,250.9786414135252,26.109748440654016,606.6635228783192,-29.172988736625214,35.842376708984375,4381.2578125,True
1599566043.9530962,0.0,10,0.5,0.5,-3.7233182220458985,-0.001,-0.03,-0.12575,0.6096336506440763,10,1,100,0.6484039017662464,-10,-1,-100,6442.279731812654,-0.05349687495109381,0.03323111471908922,0.9980149184180535,252.51127629562993,26.252892375342544,618.7548748553096,-29.552081340295228,36.111114501953125,4381.2578125,True
1599566044.0159314,0.0,10,0.5,0.5,-3.7439121246337894,-0.001,-0.03,-0.12575,0.6732292496695588,10,1,100,0.651364790693517,-10,-1,-100,6441.091117072036,-0.05409282054146774,0.036110409503211996,0.9978827611956121,253.91707705316844,26.384639033218335,630.6467014583648,-29.931050277253117,36.086883544921875,4381.2578125,True
1599566044.0867496,0.0,10,0.5,0.5,-3.715892990112305,-0.001,-0.03,-0.12575,0.9225033960439589,10,1,100,0.688727524208916,-10,-1,-100,6439.244084697566,-0.054969395066444895,0.04097845728428531,0.9976467970402296,255.81440200801995,26.562915811920355,648.1524670065327,-30.499289995489757,35.500579833984375,4381.2578125,True
1599566044.1555655,0.0,10,0.5,0.5,-3.779453063964843,-0.001,-0.03,-0.12575,0.6331620275019998,10,1,100,0.6325679612124961,-10,-1,-100,6438.650573052699,-0.05525042907994605,0.0427539967819581,0.997556758207597,256.3914362646937,26.617117188077295,653.8966602001703,-30.688650292700334,35.158660888671875,4381.2578125,True
1599566044.2183967,0.0,10,0.5,0.5,-3.5779141693115237,-0.001,-0.03,-0.12575,1.341462475040587,10,1,100,0.6994501404746224,-10,-1,-100,6436.14388577186,-0.05610892495041016,0.0507870954692121,0.9971321173619424,258.39531242514806,26.80384036912368,676.3146857853741,-31.44585564870396,33.061126708984375,4381.2578125,True
1599566044.281229,0.0,10,0.5,0.5,-3.6649919967651368,-0.001,-0.03,-0.12575,1.0328785937392526,10,1,100,0.6538130535638543,-10,-1,-100,6434.887243890902,-0.05646890352779717,0.05525763788763842,0.9968740423892314,259.17409321455705,26.87447261195893,687.0621847650218,-31.824332841866816,31.573486328125,4381.2578125,True
1599566044.3440614,0.0,10,0.5,0.5,-3.7457638244628906,-0.001,-0.03,-0.12575,0.8566838568906777,10,1,100,0.6252979723246849,-10,-1,-100,6434.229903737549,-0.056531428059135934,0.057690047292781085,0.9967326903864202,259.49545486998653,26.902751198074462,692.2821251425739,-32.01354464386379,30.7210693359375,4381.2578125,True
1599566044.4182432,0.0,10,0.5,0.5,-3.467755462646484,-0.001,-0.03,-0.12575,1.47237581983413,10,1,100,0.6180488498619927,-10,-1,-100,6432.321998281172,-0.05651725448484998,0.0654676701390005,0.9962528715702986,260.11616514827074,26.951958169675727,707.1087376039236,-32.581093337185216,27.72613525390625,4381.2578125,True
1599566044.4785988,0.0,10,0.5,0.5,-3.6827187042236327,-0.001,-0.03,-0.12575,1.0015313782491857,10,1,100,0.6118797366130488,-10,-1,-100,6431.664273856906,-0.056443428152852665,0.06822062323706811,0.9960723296947366,260.18503502109127,26.954095456246534,711.6999534382643,-32.77025308949296,26.58203125,4381.2578125,True
1599566044.5394413,0.0,10,0.5,0.5,-3.31139810180664,-0.001,-0.03,-0.12575,1.701215023562367,10,1,100,0.550386417166103,-10,-1,-100,6429.632686699042,-0.05581322469522551,0.07704690113560773,0.9954640420299069,259.8870240785869,26.908955853057783,724.1236144851997,-33.33769194478076,22.7139892578125,4381.2578125,True
1599566044.6002784,0.0,10,0.5,0.5,-3.576571960449218,-0.001,-0.03,-0.12575,1.1653076001097713,10,1,100,0.5766018328919418,-10,-1,-100,6428.975085195736,-0.05547595485512337,0.08015675743932327,0.9952373147494651,259.59222766062516,26.874151044551688,727.7252260608268,-33.52683232226316,21.279296875,4381.2578125,True
1599566044.6641078,0.0,10,0.5,0.5,-3.521431861877441,-0.001,-0.03,-0.12575,1.2100201722175798,10,1,100,0.566006489874675,-10,-1,-100,6428.317518888507,-0.05507122544586988,0.08334771778666271,0.9949976472673918,259.1852948161615,26.828149468327002,731.0085905290975,-33.715973727696515,19.771942138671875,4381.2578125,True
1599566044.7240276,0.0,10,0.5,0.5,-3.0336094055175784,-0.001,-0.03,-0.12575,1.9960493786537277,10,1,100,0.4223526841143881,-10,-1,-100,6426.283018608578,-0.05339645647154191,0.09335136788067859,0.9942003523189323,257.1939222401315,26.614372564965425,738.6137196053658,-34.28342848524089,14.813934326171875,4381.2578125,True
1599566044.7828345,0.0,10,0.5,0.5,-3.3671528701782227,-0.001,-0.03,-0.12575,1.383788934393177,10,1,100,0.5106054418941431,-10,-1,-100,6425.566516127903,-0.05267766696432781,0.09683197946323675,0.993905745609928,256.2412533638942,26.515163368734395,740.2866464948229,-34.47259831540685,13.01617431640625,4381.2578125,True
1599566044.856637,0.0,10,0.5,0.5,-3.043454917907715,-0.001,-0.03,-0.12575,1.8273444043972003,10,1,100,0.39529751035894123,-10,-1,-100,6424.1892946593,-0.05097830690937281,0.1039793324631614,0.993272123159192,253.84600925806336,26.270307935184395,742.1298299936029,-34.85097830664736,9.202850341796875,4381.2578125,True
1599566044.9085002,0.0,10,0.5,0.5,-2.6573420486450194,-0.001,-0.03,-0.12575,2.335631765409019,10,1,100,0.20757973934927043,-10,-1,-100,6422.103742990759,-0.047731573139363104,0.11504936371138767,0.9922123466452362,248.87073594375732,25.774628902733767,740.5403491708081,-35.41867407540363,2.93804931640625,4381.2578125,True
1599566044.9683392,0.0,10,0.5,0.5,-3.076178291320801,-0.001,-0.03,-0.12575,1.6517075028000212,10,1,100,0.3908659282263408,-10,-1,-100,6421.380648548482,-0.04645417809313532,0.1188411790716718,0.9918259844824324,246.80015963690565,25.571783844696956,738.6794530004958,-35.607943487747086,0.704864501953125,4381.2578125,True
1599566045.038151,0.0,10,0.5,0.5,-2.0424698410034177,-0.001,-0.03,-0.12575,2.9622501663769185,10,1,100,-0.15615923831282796,-10,-1,-100,6418.440339013585,-0.040329114946177615,0.13414671622101199,0.9901405056933976,236.21190046407995,24.553859945537134,723.5216570842871,-36.365198443910806,-8.95574951171875,4381.2578125,True
1599566045.0949998,0.0,10,0.5,0.5,-3.147246398925781,-0.001,-0.03,-0.12575,1.4385643560511008,10,1,100,0.45472826242907516,-10,-1,-100,6418.440339013585,-0.040329114946177615,0.13414671622101199,0.9901405056933976,236.21190046407995,24.553859945537134,723.5216570842871,-36.365198443910806,-8.95574951171875,4381.2578125,True
1599566045.158829,0.0,10,0.5,0.5,-2.373203483581543,-0.001,-0.03,-0.12575,2.2996351010276608,10,1,100,0.04532953967671127,-10,-1,-100,6417.00533020345,-0.03662195775134401,0.14191469927263167,0.9892012183276047,229.3781396801025,23.907182338374135,710.6432609040305,-36.74390255691056,-14.221466064453125,4381.2578125,True
1599566045.2186685,0.0,10,0.5,0.5,-2.2197887344360354,-0.001,-0.03,-0.12575,2.3527603712955623,10,1,100,-0.03174047286710796,-10,-1,-100,6415.504521680879,-0.03256862497559136,0.14940048832368774,0.9882402434407551,227.38025638460135,23.781672526066203,712.4376397997277,-37.1225163472077,-19.78179931640625,4381.2578125,True
1599566045.2785118,0.0,10,0.5,0.5,-2.054522483825684,-0.001,-0.03,-0.12575,2.4517360722632575,10,1,100,-0.1318693354966634,-10,-1,-100,6414.000427999534,-0.027994339455438024,0.15704258135082289,0.9871949881361453,234.51466225196424,24.632167082753558,743.0126213168131,-37.50070529053081,-25.630279541015625,4381.2578125,True
1599566045.3582954,0.0,10,0.5,0.5,-1.8750473098754883,-0.001,-0.03,-0.12575,2.495023469974545,10,1,100,-0.21417924679324163,-10,-1,-100,6412.506700065336,-0.023112241503502853,0.16431646511508094,0.9861368685860844,242.44369635426511,25.58822195670068,776.6076805330117,-37.87836277843581,-31.77398681640625,4381.2578125,True
1599566045.427111,0.0,10,0.5,0.5,-0.8390158386230466,-0.001,-0.03,-0.12575,3.298886173791633,10,1,100,-0.9195155699103573,-10,-1,-100,6409.439878467005,-0.012289353350649863,0.17817241575616688,0.9839225386471411,256.24572398606074,27.330230931041484,838.6204032128767,-38.63206873439552,-44.94036865234375,4381.2578125,True
1599566045.4959276,0.0,10,0.5,0.5,-1.8803230209350583,-0.001,-0.03,-0.12575,2.2803936169396466,10,1,100,-0.1594647785541995,-10,-1,-100,6408.665507584228,-0.009396633418215559,0.1814357654255061,0.9833579034638732,259.54218770682013,27.754550754745814,853.892450774716,-38.82018201594166,-48.415679931640625,4381.2578125,True
1599566045.5697417,0.0,10,0.5,0.5,-1.2361721343994136,-0.001,-0.03,-0.12575,2.636536174083324,10,1,100,-0.5120809225437544,-10,-1,-100,6407.096250928822,-0.0035990882374531095,0.1875696916144276,0.9822447033970342,265.225940977201,28.50593794583601,881.7324760456899,-39.19608614470237,-55.581878662109375,4381.2578125,True
1599566045.6584995,0.0,10,0.5,0.5,-1.0200605545043944,-0.001,-0.03,-0.12575,2.663090122342633,10,1,100,-0.5945612176154021,-10,-1,-100,6405.540121644619,0.002381107804889634,0.19332146010861992,0.9811325819618327,269.42618942717223,29.09205109581313,904.9627318894726,-39.57165300837683,-63.011474609375,4381.2578125,True
1599566045.7293189,0.0,10,0.5,0.5,-0.2818467559814455,-0.001,-0.03,-0.12575,2.9453969479841113,10,1,100,-0.9964223560909848,-10,-1,-100,6403.13330175681,0.011426537024162858,0.20104905689913824,0.9795145282085419,272.361515317319,29.585886609415027,928.8853209013402,-40.13466339338454,-74.69854736328125,4381.2578125,True
1599566045.8021233,0.0,10,0.5,0.5,-1.0417982635498046,-0.001,-0.03,-0.12575,2.4368723659915186,10,1,100,-0.42386788930713243,-10,-1,-100,6402.28947953356,0.014397563296403184,0.20339037383542394,0.9789918620714948,272.30978121596206,29.632095916044353,933.4108469461464,-40.32231445841271,-78.74169921875,4381.2578125,True
1599566045.8639984,0.0,10,0.5,0.5,-0.2918875045776368,-0.001,-0.03,-0.12575,2.687946431679817,10,1,100,-0.7683611998123514,-10,-1,-100,6400.667669781251,0.020180502113721306,0.20773838650410964,0.977976231872282,270.48031382482736,29.52820113261624,936.5200763109464,-40.697691787715215,-87.01766967773438,4381.2578125,True
1599566045.9248362,0.0,10,0.5,0.5,-0.04547142219543465,-0.001,-0.03,-0.12575,2.6918106197216636,10,1,100,-0.8166548493567519,-10,-1,-100,6399.045248013805,0.02582511379817318,0.21166641456035754,0.9770007126120606,266.2743794675979,29.158385725847264,931.255456710845,-41.0732604367262,-95.44947052001953,4381.2578125,True
1599566045.9912548,0.0,10,0.5,0.5,-0.3323929767608641,-0.001,-0.03,-0.12575,2.502968237696194,10,1,100,-0.5626148155844755,-10,-1,-100,6398.197856890736,0.028594038896314403,0.21346399484195439,0.9765323875047411,263.24210740728057,28.871607736366066,925.2719564902674,-41.26114085232988,-99.76011657714844,4381.2578125,True
1599566046.053054,0.0,10,0.5,0.5,1.0106620216369628,-0.001,-0.03,-0.12575,2.873089850803739,10,1,100,-1.1250743272279147,-10,-1,-100,6395.741926991846,0.0361730678383361,0.21841160847757363,0.9751860737548512,250.2744328965764,27.59634399265523,892.9522587311449,-41.825207727672584,-112.8782958984375,4381.2578125,True
1599566046.1193848,0.0,10,0.5,0.5,0.16171499633789066,-0.001,-0.03,-0.12575,2.5498009442649434,10,1,100,-0.6326042961746033,-10,-1,-100,6394.891003189841,0.03853219813119677,0.2199212715929089,0.9747563305812055,244.74734362173635,27.043978517211077,877.5693617018907,-42.01336081558082,-117.27554321289062,4381.2578125,True
1599566046.1802557,0.0,10,0.5,0.5,0.9474943065643311,-0.001,-0.03,-0.12575,2.7104591967737317,10,1,100,-0.8971030945757188,-10,-1,-100,6393.202748670243,0.043035195154278574,0.22271626866980562,0.9739329728722774,232.02890486924574,25.763642558896404,840.1808763947682,-42.38981066170362,-126.1254653930664,4381.2578125,True
1599566046.245051,0.0,10,0.5,0.5,1.1748540897369386,-0.001,-0.03,-0.12575,2.7405240423378583,10,1,100,-0.8841195651618869,-10,-1,-100,6391.517851659213,0.04696313142734311,0.22549296415098172,0.9731122172724698,231.41368418272245,25.842197258300068,846.095304172855,-42.76612251190297,-134.86004638671875,4381.2578125,True
1599566046.3108757,0.0,10,0.5,0.5,1.9397441444396972,-0.001,-0.03,-0.12575,2.8980821354820328,10,1,100,-1.07011633502559,-10,-1,-100,6388.915976242395,0.052178896656467445,0.22941510336923743,0.9719290473536615,250.20767826149904,28.2004190604736,927.8770327962449,-43.329088069222095,-147.68394470214844,4381.2578125,True
1599566046.3698516,0.0,10,0.5,0.5,1.1095102043151854,-0.001,-0.03,-0.12575,2.6589268621170294,10,1,100,-0.7177188835500306,-10,-1,-100,6388.009303474915,0.053671617497846685,0.23077373322500566,0.9715260374938793,255.30453272098504,28.862685620058436,951.1914857300189,-43.516396951614844,-151.8524169921875,4381.2578125,True
1599566046.4336798,0.0,10,0.5,0.5,1.845993869781494,-0.001,-0.03,-0.12575,2.83182320711917,10,1,100,-0.8670309530421721,-10,-1,-100,6386.26191779424,0.056347614275871205,0.23355361379724546,0.970709872128467,264.1062303040467,30.032179051517172,993.0868856934629,-43.89062230219688,-159.97239685058594,4381.2578125,True
1599566046.9244287,0.0,10,0.5,0.5,2.0593241195678713,-0.001,-0.03,-0.12575,2.8886166182598507,10,1,100,-0.8503141689270423,-10,-1,-100,6384.504390034359,0.058590231444865526,0.23656966056423162,0.9698463695244527,271.626385365654,31.053456630194336,1030.7181101191702,-44.26444649696402,-167.7887725830078,4381.2578125,True
1599566046.973325,0.0,10,0.5,0.5,2.270813388824463,-0.001,-0.03,-0.12575,2.936663046955608,10,1,100,-0.8348386089389488,-10,-1,-100,6382.761150906212,0.0604533694810312,0.23972209672776218,0.9689575359420223,277.0057290095245,31.824242245481212,1060.6988255379197,-44.63803807110772,-175.30029296875,4381.2578125,True
1599566047.0286,0.0,10,0.5,0.5,-43.15141287994385,-0.001,-0.03,-0.12575,3.0128050229941126,10,1,100,-0.8169431534855454,-10,-1,-100,6380.9482621348,0.06195296514098464,0.24325464240207872,0.9679819259986607,280.44475297965835,32.366823631903856,1083.6143685726872,-45.011538304871436,177.4981689453125,4381.2578125,True
1599566047.0944266,0.0,10,0.5,0.5,0.8229600830078124,-0.001,-0.03,-0.12575,2.8689638381677245,10,1,100,-0.7397758923331428,-10,-1,-100,6380.038478736649,0.0625843870702435,0.24513131801889013,0.9674677417988486,281.51308199923176,32.56208419063205,1092.6639654666756,-45.19828736645049,174.01303100585938,4381.2578125,True
1599566047.1512723,0.0,10,0.5,0.5,-0.04403826904296876,-0.001,-0.03,-0.12575,2.9001623216471577,10,1,100,-0.7406691898215567,-10,-1,-100,6379.12875553628,0.06314251760198085,0.24709671869349414,0.9669313492083043,282.18767544242894,32.71201123044554,1100.2379239415902,-45.38504833505738,170.60528564453125,4381.2578125,True
1599566047.2086358,0.0,10,0.5,0.5,-0.0266719932556152,-0.001,-0.03,-0.12575,3.41664342827951,10,1,100,-0.8297420641289227,-10,-1,-100,6376.348236455931,0.06443728937956288,0.253554024415155,0.9651726231303358,281.9338280077954,32.90583630116697,1114.2419381655902,-45.945467042711876,160.27366638183594,4381.2578125,True
1599566047.2684762,0.0,10,0.5,0.5,-1.3257269401550293,-0.001,-0.03,-0.12575,3.3027680941163173,10,1,100,-0.7683461171154943,-10,-1,-100,6374.51430682966,0.06503675320976511,0.2583610377099583,0.9638567294600197,279.79999653286137,32.82035483304449,1115.842498829809,-46.31923576465028,153.49383544921875,4381.2578125,True
1599566047.3278315,0.0,10,0.5,0.5,-2.189017948150635,-0.001,-0.03,-0.12575,3.403091499364126,10,1,100,-0.7616289430647663,-10,-1,-100,6372.603584244149,0.06550422454423105,0.2636132006860695,0.9624018271963666,276.17159655018105,32.57680805302298,1111.346988390046,-46.69312841906233,146.75352478027344,4381.2578125,True
1599566047.3856764,0.0,10,0.5,0.5,-3.493409976959228,-0.001,-0.03,-0.12575,3.188933978545154,10,1,100,-0.7385172667392794,-10,-1,-100,6371.681822260609,0.06570697840179769,0.26640991856843743,0.9616175686194924,273.7751930566146,32.393848616590134,1106.6651664919948,-46.8801138712657,143.38851928710938,4381.2578125,True
1599566047.4425242,0.0,10,0.5,0.5,-3.484034648895263,-0.001,-0.03,-0.12575,3.908021540090714,10,1,100,-0.7783996584494837,-10,-1,-100,6368.807327659801,0.06624292605067472,0.27545715248887387,0.959028274813087,263.9535298327907,31.562498385151766,1081.3226469760468,-47.44116495028531,132.98814392089844,4381.2578125,True
1599566047.5003707,0.0,10,0.5,0.5,-5.214739269256591,-0.001,-0.03,-0.12575,3.3648611315420194,10,1,100,-0.7468544209170841,-10,-1,-100,6367.839633296244,0.0664343805613822,0.278705994576381,0.9580759060046421,259.60515819516655,31.165690362830716,1068.1973211037391,-47.628192733272535,129.39031982421875,4381.2578125,True
1599566047.5592132,0.0,10,0.5,0.5,-4.64657001876831,-0.001,-0.03,-0.12575,4.597445557706776,10,1,100,-0.8434732724624296,-10,-1,-100,6363.966737436946,0.06747965226778622,0.292826494590147,0.9537814952051991,279.4698939257044,34.14487177105369,1169.842368985515,-48.37463027472243,114.30445861816406,4381.2578125,True
1599566047.6160612,0.0,10,0.5,0.5,-6.4032935256958,-0.001,-0.03,-0.12575,4.037958756318101,10,1,100,-0.8285860566250889,-10,-1,-100,6362.029904286377,0.06828817341800791,0.3005287924101623,0.9513249551566078,294.83103620369985,36.35270343831218,1244.4575653400163,-48.746349149488985,106.34281921386719,4381.2578125,True
1599566047.684878,0.0,10,0.5,0.5,-6.6731806793212884,-0.001,-0.03,-0.12575,3.7138542396022136,10,1,100,-0.806941831994779,-10,-1,-100,6361.062196507584,0.06882066768677297,0.3045324092309335,0.9500124880374732,301.9700661872313,37.40091995537799,1279.8369478048924,-48.931879850347386,102.25743103027344,4381.2578125,True
1599566047.7397301,0.0,10,0.5,0.5,-6.444978271484374,-0.001,-0.03,-0.12575,3.769698303479962,10,1,100,-0.8218785784574731,-10,-1,-100,6360.094639419811,0.06943487264384159,0.30862573320214864,0.9486458534492045,309.12438488886204,38.45604763291339,1315.5141860369351,-49.1172140290649,98.10221862792969,4381.2578125,True
1599566047.7965784,0.0,10,0.5,0.5,-5.670103565216063,-0.001,-0.03,-0.12575,4.294557048639888,10,1,100,-0.9269645168463686,-10,-1,-100,6358.097964000888,0.07094284717649223,0.3170624444824266,0.9457475977941056,322.5621393535483,40.46768552316364,1383.8691981965294,-49.48739126634385,89.58242797851562,4381.2578125,True
1599566047.854423,0.0,10,0.5,0.5,-5.414143993377685,-0.001,-0.03,-0.12575,4.417004829707965,10,1,100,-0.9910641434252017,-10,-1,-100,6356.100906531792,0.07289054284980317,0.32578760872869156,0.94262898468162,333.2799876070375,42.14526268614589,1441.4624932912557,-49.85713797209965,80.78361511230469,4381.2578125,True
1599566047.9097843,0.0,10,0.5,0.5,-5.151827178955078,-0.001,-0.03,-0.12575,4.534664495197649,10,1,100,-1.0672777396287925,-10,-1,-100,6354.104424537392,0.07534688634590028,0.33472791266518526,0.9392976478203201,340.55612196768135,43.39475735013789,1484.9655551905103,-50.226728774015186,71.70561218261719,4381.2578125,True
1599566047.9915674,0.0,10,0.5,0.5,-4.275751762390136,-0.001,-0.03,-0.12575,5.143309411386644,10,1,100,-1.3493043250543026,-10,-1,-100,6351.081147927442,0.08013485606276441,0.34832394756191665,0.9339426280016794,343.4328249344384,44.27868666188016,1516.1668361472982,-50.78133304661283,57.56367492675781,4381.2578125,True
1599566048.0573897,0.0,10,0.5,0.5,-5.181355701446533,-0.001,-0.03,-0.12575,4.2910412577152695,10,1,100,-1.0807592236458645,-10,-1,-100,6350.052462640335,0.08203312044923602,0.3528616196810295,0.9320725532411314,341.90674338459223,44.27048037802274,1515.7430959726212,-50.966336219165434,52.70947265625,4381.2578125,True
1599566048.1082537,0.0,10,0.5,0.5,-3.6516390151977536,-0.001,-0.03,-0.12575,5.325230957647655,10,1,100,-1.6232375050043613,-10,-1,-100,6346.967942643911,0.08867608136347059,0.36631813300034277,0.9262545967654694,328.86411960698564,43.21316612845069,1476.3352589106537,-51.52181226239337,37.724884033203125,4381.2578125,True
1599566048.1680942,0.0,10,0.5,0.5,-3.950008193969726,-0.001,-0.03,-0.12575,4.946774146756009,10,1,100,-1.5351550706839991,-10,-1,-100,6344.911787219695,0.09389416760913319,0.3750311630657726,0.9222448221695375,312.60250670273405,41.55784139417734,1414.9181404022918,-51.89239662386407,27.382110595703125,4381.2578125,True
1599566048.231923,0.0,10,0.5,0.5,-3.6428902053833006,-0.001,-0.03,-0.12575,5.0070415694581225,10,1,100,-1.6565285720719227,-10,-1,-100,6342.794279113878,0.09971726464931545,0.38342525363302293,0.9181729368737189,312.2388738193875,42.04002203625702,1424.4780705193912,-52.26254223358644,16.7552490234375,4381.2578125,True
1599566048.3027334,0.0,10,0.5,0.5,-3.327268112182618,-0.001,-0.03,-0.12575,5.054375490108353,10,1,100,-1.7791666984788845,-10,-1,-100,6340.676345612621,0.10609730938842506,0.39141119300805,0.91407912071579,340.21133461619553,46.39235191715623,1563.8442471195203,-52.630758588700495,5.842529296875,4381.2578125,True
1599566048.3630803,0.0,10,0.5,0.5,-2.990688629150391,-0.001,-0.03,-0.12575,5.089341352499673,10,1,100,-1.9005024225095386,-10,-1,-100,6338.558845690917,0.11296651424089278,0.3989100286581983,0.9100051404778864,364.107303347371,50.24380489075806,1685.981460983133,-52.99742733348207,-5.3575439453125,4381.2578125,True
1599566048.4219258,0.0,10,0.5,0.5,-3.3652092208862303,-0.001,-0.03,-0.12575,4.738561693781665,10,1,100,-1.6129957451477746,-10,-1,-100,6337.530557399616,0.11655797463839554,0.40245616935593664,0.9079885848927511,375.1642516247049,52.05643452235153,1743.502965671531,-53.18036282335652,-11.065704345703125,4381.2578125,True
1599566048.483758,0.0,10,0.5,0.5,-2.306603141784668,-0.001,-0.03,-0.12575,5.124388927319105,10,1,100,-2.076210581949448,-10,-1,-100,6335.414225994726,0.12399251430935698,0.40910982327251777,0.904021575459996,391.91505930886575,54.951852719056056,1834.751453011347,-53.54585846227205,-22.69854736328125,4381.2578125,True
1599566048.541603,0.0,10,0.5,0.5,-1.9478619308471679,-0.001,-0.03,-0.12575,5.132252235437192,10,1,100,-2.1822933926201142,-10,-1,-100,6333.233112204238,0.1316691195877284,0.415154336711807,0.9001722722103654,400.2177496485809,56.6981062798045,1887.7744256256913,-53.91135597698842,-34.620635986328125,4381.2578125,True
1599566048.5964563,0.0,10,0.5,0.5,-1.5803030853271485,-0.001,-0.03,-0.12575,5.132881395530338,10,1,100,-2.2782865007442825,-10,-1,-100,6331.053049386945,0.1394693142480659,0.42058195363560164,0.8964703735535463,398.7534227333747,57.12600247870343,1895.496613825763,-54.27726157970115,-46.831939697265625,4381.2578125,True
1599566048.6592891,0.0,10,0.5,0.5,-1.2182933425903317,-0.001,-0.03,-0.12575,5.128491622763156,10,1,100,-2.36295656869885,-10,-1,-100,6328.871048670961,0.14727618777688217,0.4254105547174645,0.8929364951937445,386.5646750845682,56.10076521772319,1852.0448826328739,-54.6437026231954,-59.33209228515625,4381.2578125,True
1599566048.7161837,0.0,10,0.5,0.5,-0.009019439697265597,-0.001,-0.03,-0.12575,5.33714110797897,10,1,100,-2.852748331976754,-10,-1,-100,6325.599063240923,0.15876668604439823,0.4316310519892686,0.8879683408551887,348.2048737270858,51.68751066796794,1687.2883336375914,-55.19393648832029,-78.62237548828125,4381.2578125,True
1599566048.7740283,0.0,10,0.5,0.5,-1.2525065689086912,-0.001,-0.03,-0.12575,4.923361660223237,10,1,100,-2.1205597040226527,-10,-1,-100,6324.444517567987,0.1624926145746656,0.43346504278495757,0.8863995751872425,354.2630713092265,52.99335680232308,1722.6490009108786,-55.37684602007411,-85.19613647460938,4381.2578125,True
1599566048.838854,0.0,10,0.5,0.5,1.6631060142517091,-0.001,-0.03,-0.12575,5.45258046897975,10,1,100,-3.30760211441768,-10,-1,-100,6320.015669279383,0.1766087547448948,0.43989026551544386,0.8805145666326083,417.10344215714866,64.07915072519357,2054.823862656806,-56.10276605774271,-112.05632019042969,4381.2578125,True
1599566048.9106982,0.0,10,0.5,0.5,-1.3281273803710938,-0.001,-0.03,-0.12575,4.815704697119363,10,1,100,-1.9036772464043186,-10,-1,-100,6320.015669279383,0.1766087547448948,0.43989026551544386,0.8805145666326083,417.10344215714866,64.07915072519357,2054.823862656806,-56.10276605774271,-112.05632019042969,4381.2578125,True
1599566048.985462,0.0,10,0.5,0.5,2.482651435852051,-0.001,-0.03,-0.12575,5.436323401472797,10,1,100,-3.2935905245553645,-10,-1,-100,6315.458596415352,0.18918022868685297,0.4454881818527411,0.8750720661200019,434.1015004363074,68.20641320290926,2167.8037646978164,-56.826799235147234,-139.3311309814453,4381.2578125,True
1599566049.0652494,0.0,10,0.5,0.5,-0.5452352600097656,-0.001,-0.03,-0.12575,4.881189583062529,10,1,100,-2.0440645018041432,-10,-1,-100,6315.458596415352,0.18918022868685297,0.4454881818527411,0.8750720661200019,434.1015004363074,68.20641320290926,2167.8037646978164,-56.826799235147234,-139.3311309814453,4381.2578125,True
1599566049.1440392,0.0,10,0.5,0.5,1.5689357299804687,-0.001,-0.03,-0.12575,5.190111358658742,10,1,100,-2.6748097826538997,-10,-1,-100,6313.2111286738655,0.19484825646362489,0.44825744161952774,0.8724101231564209,420.7322142261318,66.97279926064708,2116.322134226909,-57.189987549228235,-152.97511291503906,4381.2578125,True
1599566049.227918,0.0,10,0.5,0.5,1.9644412117004393,-0.001,-0.03,-0.12575,5.235898606264326,10,1,100,-2.697501671194784,-10,-1,-100,6310.901246522204,0.20014288457273988,0.4511556094599782,0.8697134251049011,393.2635160229465,63.54864636085486,1992.394917034147,-57.553954501699025,-166.54833984375,4381.2578125,True
1599566049.304155,0.0,10,0.5,0.5,-41.56524767303467,-0.001,-0.03,-0.12575,5.666583921731799,10,1,100,-3.2508839888372876,-10,-1,-100,6306.280957846553,0.20992468231869899,0.45767290011668454,0.8639833009104844,413.33473442719753,68.80731620525832,2120.612401259773,-58.27910518370344,166.53756713867188,4381.2578125,True
1599566049.3656065,0.0,10,0.5,0.5,-0.31980339050292966,-0.001,-0.03,-0.12575,5.018563950709271,10,1,100,-2.27974975104844,-10,-1,-100,6306.280957846553,0.20992468231869899,0.45767290011668454,0.8639833009104844,413.33473442719753,68.80731620525832,2120.612401259773,-58.27910518370344,166.53756713867188,4381.2578125,True
1599566049.43281,0.0,10,0.5,0.5,0.6624061126708984,-0.001,-0.03,-0.12575,5.43296313208492,10,1,100,-2.800316803523868,-10,-1,-100,6303.909332445939,0.2146001568916194,0.4614108359970093,0.8608407594245484,446.4775196436369,75.23309674235047,2304.0376318234144,-58.63837218678963,153.44235229492188,4381.2578125,True
1599566049.4966397,0.0,10,0.5,0.5,-0.02352430725097654,-0.001,-0.03,-0.12575,5.511768212621572,10,1,100,-2.853285634255273,-10,-1,-100,6301.536920307903,0.2192813654456078,0.46549829681672167,0.8574537995886663,467.412167182984,79.65946832317617,2426.8347290905635,-58.9970845358025,140.36947631835938,4381.2578125,True
1599566049.5634618,0.0,10,0.5,0.5,-0.6729252548217777,-0.001,-0.03,-0.12575,5.593908925174903,10,1,100,-2.918487630998458,-10,-1,-100,6299.166740039946,0.2240781288733799,0.4699317828996434,0.8537875096189728,472.8672474949253,81.58306012975248,2471.280083247829,-59.35619636437633,127.18438720703125,4381.2578125,True
1599566049.6242976,0.0,10,0.5,0.5,-0.5633000946044922,-0.001,-0.03,-0.12575,5.948989233641692,10,1,100,-3.2855905942936188,-10,-1,-100,6295.579357453622,0.23173296858846648,0.47716291712710285,0.8477118506827248,453.0835351763343,79.97073314796192,2392.4030485316935,-59.89620691529388,107.575927734375,4381.2578125,True
