Timestamp,Input Throttle,horizon,dT,dt,Input Roll,Roll P,Roll I,Roll D,Input Pitch,Pitch P,Pitch I,Pitch D,Input Yaw,Yaw P,Yaw I,Yaw D,Altitude,Direction X,Direction Y,Direction Z,Drag X,Drag Y,Drag Z,Vertical Velocity,Roll,Mass,Has Fuel
1599564714.3717349,0.0,10,0.5,0.5,-0.05425875091552734,-0.001,-0.001,-0.12575,-0.06858134109432665,10,1,100,0.681590486797854,-10,-1,-100,6483.617967276485,-0.06725855565770092,-0.007002560211095198,0.9977110056731509,205.07315283769697,21.498769848956787,-156.7651880015348,9.59082414841338,-35.94464111328125,4381.2578125,True
1599564714.4305754,0.0,10,0.5,0.5,-0.060102999877929685,-0.001,-0.001,-0.12575,-0.06553887031449832,10,1,100,0.7105887629386318,-10,-1,-100,6484.1565919258865,-0.06754289521039049,-0.0069554057763900785,0.9976921266789089,204.38121252118907,21.435614530170053,-147.0255216458579,9.020797799950216,-35.9395751953125,4381.2578125,True
1599564714.493678,0.0,10,0.5,0.5,-0.06487200317382813,-0.001,-0.001,-0.12575,-0.0709498543626493,10,1,100,0.688909097190714,-10,-1,-100,6484.1565919258865,-0.06754289521039049,-0.0069554057763900785,0.9976921266789089,204.38121252118907,21.435614530170053,-147.0255216458579,9.020797799950216,-35.9395751953125,4381.2578125,True
1599564714.554514,0.0,10,0.5,0.5,-0.07008850860595703,-0.001,-0.001,-0.12575,-0.037427256524268454,10,1,100,0.7002017766865417,-10,-1,-100,6484.538935749326,-0.06758415330107038,-0.006644331790789898,0.9976914528438295,203.93182920919617,21.394521448498093,-140.56853575754346,8.640801011477484,-35.941070556640625,4381.2578125,True
1599564714.6185372,0.0,10,0.5,0.5,-0.06955536804199218,-0.001,-0.001,-0.12575,0.03746240364689524,10,1,100,0.6926909832923303,-10,-1,-100,6485.175624982221,-0.06749194057692194,-0.005674681864332982,0.9977036814319669,203.12322080527545,21.321058761229278,-127.7765385786577,7.8808254542705605,-35.989410400390625,4381.2578125,True
1599564714.6803727,0.0,10,0.5,0.5,-0.08103516235351563,-0.001,-0.001,-0.12575,-0.06007005718522964,10,1,100,0.7086614497648668,-10,-1,-100,6485.175624982221,-0.06749194057692194,-0.005674681864332982,0.9977036814319669,203.12322080527545,21.321058761229278,-127.7765385786577,7.8808254542705605,-35.989410400390625,4381.2578125,True
1599564714.7452362,0.0,10,0.5,0.5,-0.07619348449707032,-0.001,-0.001,-0.12575,0.07996495211778203,10,1,100,0.6700458350512237,-10,-1,-100,6485.590086792945,-0.06707953322445526,-0.004396477523519846,0.9977379451578327,202.56393413585835,21.270124278647625,-118.26043677877543,7.310831186826884,-36.070220947265625,4381.2578125,True
1599564714.8240232,0.0,10,0.5,0.5,-0.08201237335205078,-0.001,-0.001,-0.12575,0.07617501171323965,10,1,100,0.6698747370543303,-10,-1,-100,6485.909331668634,-0.06664208061930973,-0.0032649307832550893,0.9977716037840072,202.20555508842565,21.237263663333746,-111.94617435512774,6.930814701235869,-36.14703369140625,4381.2578125,True
1599564714.886855,0.0,10,0.5,0.5,-0.09121990509033204,-0.001,-0.001,-0.12575,0.034543745740667244,10,1,100,0.6910077308621702,-10,-1,-100,6486.00546989846,-0.0663759308486857,-0.0026117498638711916,0.9977912680348626,202.0285873673237,21.220931124196667,-108.79648097418077,6.7407971972021645,-36.193084716796875,4381.2578125,True
1599564714.9606588,0.0,10,0.5,0.5,-0.07236342926025391,-0.001,-0.001,-0.12575,0.3034035897852098,10,1,100,0.5583935202594552,-10,-1,-100,6486.517894105287,-0.06486805102368583,0.00042860569039534867,0.9978937579990921,201.3244846261793,21.155071544035636,-96.24070856332898,5.980640418011552,-36.42999267578125,4381.2578125,True
1599564715.0214949,0.0,10,0.5,0.5,-0.08824845275878906,-0.001,-0.001,-0.12575,0.20142032343047522,10,1,100,0.608122969639548,-10,-1,-100,6486.772125552641,-0.06389036613075616,0.00226505504042153,0.9979543529848155,200.96486541248092,21.120787221782944,-89.98412823289244,5.600493991482006,-36.58197021484375,4381.2578125,True
1599564715.0913084,0.0,10,0.5,0.5,-0.09650388793945312,-0.001,-0.001,-0.12575,0.12744312972542765,10,1,100,0.644967215687707,-10,-1,-100,6486.869206344127,-0.06333957136446422,0.0032536094019889744,0.9979867297340307,200.7814084865026,21.103121943584927,-86.86064254318363,5.410399733425503,-36.6671142578125,4381.2578125,True
1599564715.156135,0.0,10,0.5,0.5,-0.07036007385253906,-0.001,-0.001,-0.12575,0.3726067335920147,10,1,100,0.48336816630906565,-10,-1,-100,6487.157984963502,-0.061373587786071104,0.0063717742974934615,0.9980945261920673,200.20479091876973,21.046818435069675,-77.50634238350736,4.840018755280877,-36.957275390625,4381.2578125,True
1599564715.220961,0.0,10,0.5,0.5,-0.1067460662841797,-0.001,-0.001,-0.12575,0.062122962048954344,10,1,100,0.6793495934059453,-10,-1,-100,6487.157984963502,-0.061373587786071104,0.0063717742974934615,0.9980945261920673,200.20479091876973,21.046818435069675,-77.50634238350736,4.840018755280877,-36.957275390625,4381.2578125,True
1599564715.2877831,0.0,10,0.5,0.5,-0.0783570083618164,-0.001,-0.001,-0.12575,0.31694644092502855,10,1,100,0.5112231003289489,-10,-1,-100,6487.350653233007,-0.05985081109038477,0.008676518554468424,0.9981696240807957,199.7912511147533,21.005787079346895,-71.28309940907674,4.459670475975502,-37.180450439453125,4381.2578125,True
1599564715.3585937,0.0,10,0.5,0.5,-0.07501308135986329,-0.001,-0.001,-0.12575,0.3440673659757113,10,1,100,0.46997937024477043,-10,-1,-100,6487.544290336664,-0.058098472120346974,0.011005247924525686,0.9982501951191399,199.34964460261733,20.961488455777836,-65.07122759379435,4.079235180624323,-37.42730712890625,4381.2578125,True
1599564715.445362,0.0,10,0.5,0.5,-0.03408084716796875,-0.001,-0.001,-0.12575,0.6844889017128285,10,1,100,0.20174583321506506,-10,-1,-100,6487.805590863922,-0.05407548950954854,0.01620185228601621,0.9984053993327585,198.39554892663784,20.86463164960052,-52.695641149859235,3.3180638674279637,-37.9940185546875,4381.2578125,True
1599564715.501213,0.0,10,0.5,0.5,-0.08532066497802736,-0.001,-0.001,-0.12575,0.31409572380282236,10,1,100,0.47795731594228763,-10,-1,-100,6487.838692291756,-0.0529410679279019,0.017540101606544324,0.998443582863992,198.16207142747683,20.840813688578905,-49.618356445309786,3.12770115261849,-38.150482177734375,4381.2578125,True
1599564715.5670362,0.0,10,0.5,0.5,-0.08430241088867188,-0.001,-0.001,-0.12575,0.3323829442367122,10,1,100,0.45976724007027714,-10,-1,-100,6487.935272982228,-0.051756866720924326,0.01890402569061452,0.9984807782626169,197.9152320067005,20.815549760267384,-46.54393264061873,2.9373082938282518,-38.312164306640625,4381.2578125,True
1599564715.6328604,0.0,10,0.5,0.5,-0.016337588500976566,-0.001,-0.001,-0.12575,0.8062671113453774,10,1,100,-0.0029850812424073725,-10,-1,-100,6488.132652873057,-0.046486770942763725,0.0244324347629803,0.9986200660205401,196.7945114116684,20.70018826500619,-34.287253670046304,2.175414282001609,-39.007110595703125,4381.2578125,True
1599564715.6956146,0.0,10,0.5,0.5,-0.10346937255859374,-0.001,-0.001,-0.12575,0.25582658701605765,10,1,100,0.5221863685655606,-10,-1,-100,6488.132652873057,-0.046486770942763725,0.0244324347629803,0.9986200660205401,196.7945114116684,20.70018826500619,-34.287253670046304,2.175414282001609,-39.007110595703125,4381.2578125,True
1599564715.7564518,0.0,10,0.5,0.5,-0.05501482238769531,-0.001,-0.001,-0.12575,0.5695826326729897,10,1,100,0.1964817473066534,-10,-1,-100,6488.20134008443,-0.043541641290580926,0.027264610287386446,0.9986795114047345,196.17652748045398,20.63637957049194,-28.195375066830614,1.7942596392145278,-39.387481689453125,4381.2578125,True
1599564715.826449,0.0,10,0.5,0.5,-0.02644631500244142,-0.001,-0.001,-0.12575,0.7331245887399274,10,1,100,-0.04217990309549041,-10,-1,-100,6488.302202736726,-0.03871259744864424,0.03130423218210474,0.9987599210252021,195.23341878388808,20.53901784035672,-19.118645493683346,1.2222484902685644,-39.98809814453125,4381.2578125,True
1599564715.8753207,0.0,10,0.5,0.5,-0.047629484558105464,-0.001,-0.001,-0.12575,0.6322545211664747,10,1,100,0.05670084091097094,-10,-1,-100,6488.3079553772695,-0.03524207434724911,0.03403694923764943,0.9987990199646257,194.5340878736505,20.466763861839052,-13.105400596448497,0.8407130828289495,-40.414459228515625,4381.2578125,True
1599564715.9404736,0.0,10,0.5,0.5,-0.01541746368408202,-0.001,-0.001,-0.12575,0.784616793031975,10,1,100,-0.21389742872823592,-10,-1,-100,6488.346421493683,-0.029650824997841493,0.03788119887333992,0.9988422514836194,193.35724143619055,20.34511763308861,-4.154957241994081,0.2681057873988464,-41.0888671875,4381.2578125,True
1599564715.9983199,0.0,10,0.5,0.5,-0.040663050842285164,-0.001,-0.001,-0.12575,0.6738990412326169,10,1,100,-0.09408970984901777,-10,-1,-100,6488.3522431772435,-0.025684486657366137,0.04034289654368359,0.9988557242382972,192.48180350272509,20.25460417541891,1.7565122331639296,-0.11384135834383224,-41.555694580078125,4381.2578125,True
1599564716.0591562,0.0,10,0.5,0.5,-0.03821293487548827,-0.001,-0.001,-0.12575,0.670168611515112,10,1,100,-0.1547550201648909,-10,-1,-100,6488.3566248053685,-0.021556688968119676,0.04252021992963764,0.9988630236713475,191.6947548043259,20.173521428162456,7.622130838933385,-0.49595602268286454,-42.034912109375,4381.2578125,True
1599564716.1179988,0.0,10,0.5,0.5,-0.09807044982910157,-0.001,-0.001,-0.12575,0.4550681096840685,10,1,100,0.2547728687056123,-10,-1,-100,6488.3566248053685,-0.021556688968119676,0.04252021992963764,0.9988630236713475,191.6947548043259,20.173521428162456,7.622130838933385,-0.49595602268286454,-42.034912109375,4381.2578125,True
1599564716.1736753,0.0,10,0.5,0.5,-0.03568405151367187,-0.001,-0.001,-0.12575,0.6855794260147181,10,1,100,-0.22201714584044518,-10,-1,-100,6488.299997388618,-0.017250765544028046,0.04459306815234983,0.9988562806334577,191.781106686438,20.184465417608227,13.504729279854745,-0.8782027487927864,-42.5240478515625,4381.2578125,True
1599564716.232537,0.0,10,0.5,0.5,0.03332809448242188,-0.001,-0.001,-0.12575,0.8811491128930706,10,1,100,-0.7960387546458412,-10,-1,-100,6488.185377425398,-0.008149280624965598,0.048232028196926166,0.9988029138330078,191.81971447540002,20.192476582696745,25.27878241093908,-1.6430451429654205,-43.55047607421875,4381.2578125,True
1599564716.2859151,0.0,10,0.5,0.5,-0.02597064361572264,-0.001,-0.001,-0.12575,0.6749354293355119,10,1,100,-0.4099628429237446,-10,-1,-100,6488.127395246876,-0.0034198367053986127,0.049643867847441445,0.998761128149296,191.76682469102437,20.188931620699403,31.161122924080384,-2.0256281758035506,-44.097381591796875,4381.2578125,True
1599564716.3427331,0.0,10,0.5,0.5,-0.0942349853515625,-0.001,-0.001,-0.12575,0.5362726075924301,10,1,100,0.05867485560921748,-10,-1,-100,6488.127395246876,-0.0034198367053986127,0.049643867847441445,0.998761128149296,191.76682469102437,20.188931620699403,31.161122924080384,-2.0256281758035506,-44.097381591796875,4381.2578125,True
1599564716.4010959,0.0,10,0.5,0.5,0.011436802673339838,-0.001,-0.001,-0.12575,0.7096363310900105,10,1,100,-0.7388454417559657,-10,-1,-100,6487.980647839606,0.0037938734482983413,0.0511995569178194,0.9986812363790947,191.5662668415296,20.170786470457433,39.95981236647776,-2.599686880111246,-44.9273681640625,4381.2578125,True
1599564716.455874,0.0,10,0.5,0.5,-0.05706241149902344,-0.001,-0.001,-0.12575,0.6026323739845494,10,1,100,-0.29264702989194913,-10,-1,-100,6487.887472553877,0.006256800324807292,0.05162296980380815,0.9986470454761935,191.4816275225825,20.162820197445356,42.886362259268225,-2.7910853928390953,-45.20648193359375,4381.2578125,True
1599564716.5107274,0.0,10,0.5,0.5,-0.01882217712402344,-0.001,-0.001,-0.12575,0.6459750985177775,10,1,100,-0.6077265220746434,-10,-1,-100,6487.767560177599,0.011322457528138053,0.05238592808631258,0.9985627253678455,191.30876258433824,20.146396084666822,48.733368942148665,-3.1739458438598236,-45.78131103515625,4381.2578125,True
1599564716.577549,0.0,10,0.5,0.5,0.06121242828369142,-0.001,-0.001,-0.12575,0.607712873889957,10,1,100,-1.2121126516475316,-10,-1,-100,6487.465809847345,0.021384771361350474,0.052718502001779174,0.9983804140208837,190.93523310187334,20.10994638700196,60.39727822710056,-3.939897431450999,-46.979339599609375,4381.2578125,True
1599564716.634397,0.0,10,0.5,0.5,-0.08889729919433594,-0.001,-0.001,-0.12575,0.5756930428891072,10,1,100,-0.21058819412816113,-10,-1,-100,6487.465809847345,0.021384771361350474,0.052718502001779174,0.9983804140208837,190.93523310187334,20.10994638700196,60.39727822710056,-3.939897431450999,-46.979339599609375,4381.2578125,True
1599564716.68925,0.0,10,0.5,0.5,-0.009683091735839852,-0.001,-0.001,-0.12575,0.5445865148868827,10,1,100,-0.7703727812561707,-10,-1,-100,6487.345494016772,0.02643468446221468,0.052426444218057006,0.9982748496301176,190.7732587798896,20.09385508353687,66.2259300963503,-4.322973910457177,-47.60040283203125,4381.2578125,True
1599564716.7441041,0.0,10,0.5,0.5,-0.008377832031250004,-0.001,-0.001,-0.12575,0.49999182792332186,10,1,100,-0.8123871638547442,-10,-1,-100,6487.1617131034145,0.03136383496532341,0.051746525238378645,0.998167624691375,190.5534497775236,20.071246862852824,72.02629577464516,-4.70610521624218,-48.22247314453125,4381.2578125,True
1599564716.8009527,0.0,10,0.5,0.5,-0.00613766326904297,-0.001,-0.001,-0.12575,0.48300213546333015,10,1,100,-0.8908276459505766,-10,-1,-100,6486.91887807427,0.0365137810776486,0.05096746218259291,0.9980325954547173,190.30564662444485,20.045183211266583,77.80521030452483,-5.0892820760703925,-48.852813720703125,4381.2578125,True
1599564716.8607924,0.0,10,0.5,0.5,-0.002350646972656245,-0.001,-0.001,-0.12575,0.4193567232515969,10,1,100,-0.9162394753890155,-10,-1,-100,6486.734169904725,0.04138596411856402,0.04967814162633043,0.9979074527322316,190.0057239340681,20.013042269978776,83.5494601471959,-5.472495548158619,-49.503875732421875,4381.2578125,True
1599564716.9153903,0.0,10,0.5,0.5,0.08490635681152345,-0.001,-0.001,-0.12575,0.1672955914415264,10,1,100,-1.4843194620347155,-10,-1,-100,6486.244188332814,0.05093885239724443,0.04621453603711036,0.9976319210887985,189.23290206423206,19.928478470036882,94.90630263864966,-6.239000798257658,-50.833953857421875,4381.2578125,True
1599564716.969245,0.0,10,0.5,0.5,-0.08167731018066407,-0.001,-0.001,-0.12575,0.5133132171825003,10,1,100,-0.5344665030769382,-10,-1,-100,6486.244188332814,0.05093885239724443,0.04621453603711036,0.9976319210887985,189.23290206423206,19.928478470036882,94.90630263864966,-6.239000798257658,-50.833953857421875,4381.2578125,True
1599564717.0240986,0.0,10,0.5,0.5,0.08992991943359374,-0.001,-0.001,-0.12575,-0.00792679808158192,10,1,100,-1.510666969725792,-10,-1,-100,6485.689768364187,0.05977054302228042,0.0414805222809648,0.9973499127478379,188.24969103420247,19.818547420075287,106.063353677611,-7.005562199317586,-52.183197021484375,4381.2578125,True
1599564717.0740023,0.0,10,0.5,0.5,-0.07903973693847657,-0.001,-0.001,-0.12575,0.46446033278068954,10,1,100,-0.6328492814919401,-10,-1,-100,6485.689768364187,0.05977054302228042,0.0414805222809648,0.9973499127478379,188.24969103420247,19.818547420075287,106.063353677611,-7.005562199317586,-52.183197021484375,4381.2578125,True
1599564717.127859,0.0,10,0.5,0.5,0.00783980865478516,-0.001,-0.001,-0.12575,0.15288660470971654,10,1,100,-1.1155449343696129,-10,-1,-100,6485.443578513339,0.06411464160708277,0.03865794784923354,0.9971934996778113,187.70958934530805,19.75713889774527,111.57284398752742,-7.388849170046241,-52.86358642578125,4381.2578125,True
1599564717.188662,0.0,10,0.5,0.5,0.009089282226562509,-0.001,-0.001,-0.12575,0.09960637163391539,10,1,100,-1.1060597820631575,-10,-1,-100,6485.136356692878,0.06793874814480283,0.03562038765983652,0.997053416063292,187.11602201569744,19.68916010936143,117.0191199646232,-7.772133830089819,-53.5438232421875,4381.2578125,True
1599564717.241554,0.0,10,0.5,0.5,0.011679232788085941,-0.001,-0.001,-0.12575,0.030387791538699582,10,1,100,-1.1614276533384205,-10,-1,-100,6484.763718675938,0.07187623112088395,0.03224525322710267,0.9968921963001703,186.48652075893324,19.616441236653714,122.40873740053196,-8.155411633787539,-54.23394775390625,4381.2578125,True
1599564717.2993634,0.0,10,0.5,0.5,0.014595425415039054,-0.001,-0.001,-0.12575,-0.02966848776301162,10,1,100,-1.1551887346461558,-10,-1,-100,6484.454559203121,0.07535773315952014,0.028649329559139028,0.99674491619916,185.80218609124142,19.5369889451713,127.72537962170382,-8.538678793501123,-54.9364013671875,4381.2578125,True
1599564717.358207,0.0,10,0.5,0.5,0.01659590454101563,-0.001,-0.001,-0.12575,-0.09496537242010217,10,1,100,-1.173370998413993,-10,-1,-100,6484.0833828551695,0.07864803386690229,0.024807697451088746,0.9965937311241958,185.06352787819336,19.450849495964302,132.9643120645949,-8.921931022720596,-55.643798828125,4381.2578125,True
1599564717.4191296,0.0,10,0.5,0.5,0.0183343978881836,-0.001,-0.001,-0.12575,-0.16105733211799367,10,1,100,-1.1783527034745196,-10,-1,-100,6483.711219545919,0.08164620068980971,0.0207382502326363,0.9964455945460382,184.28948390741007,19.360021529832956,138.13468376123257,-9.305165090449602,-56.353973388671875,4381.2578125,True
1599564717.469994,0.0,10,0.5,0.5,0.06502120056152341,-0.001,-0.001,-0.12575,-0.4706418235978597,10,1,100,-1.310852527578329,-10,-1,-100,6483.121455342509,0.08553975053287723,0.014250657285493195,0.996232839172502,183.0784010526018,19.216753069229224,145.76752906474604,-9.879976230471513,-57.421478271484375,4381.2578125,True
1599564717.5244348,0.0,10,0.5,0.5,-0.023445100402832042,-0.001,-0.001,-0.12575,-0.07334515271341879,10,1,100,-1.0494225723188577,-10,-1,-100,6482.966363625601,0.08667124998045647,0.011993691504086761,0.996164768394732,182.66317428140735,19.167324198785977,148.27932765153312,-10.071568437045014,-57.77740478515625,4381.2578125,True
1599564717.5792897,0.0,10,0.5,0.5,0.11126747131347656,-0.001,-0.001,-0.12575,-0.8727808015384205,10,1,100,-1.3320832798430466,-10,-1,-100,6482.096917775925,0.09023704463976367,0.0027054174812472815,0.9959166413364793,180.96791997844343,18.96383634820974,158.17743430161337,-10.837874850510891,-59.1878662109375,4381.2578125,True
1599564718.0297973,0.0,10,0.5,0.5,-0.06539758605957031,-0.001,-0.001,-0.12575,0.052169090265555704,10,1,100,-0.9785504640740748,-10,-1,-100,6482.096917775925,0.09023704463976367,0.0027054174812472815,0.9959166413364793,180.96791997844343,18.96383634820974,158.17743430161337,-10.837874850510891,-59.1878662109375,4381.2578125,True
1599564718.07468,0.0,10,0.5,0.5,0.024191888427734384,-0.001,-0.001,-0.12575,-0.4949374058468243,10,1,100,-1.1235002724451704,-10,-1,-100,6481.661669738125,0.09152707335075774,-0.002233027842683702,0.9958000845704418,180.12906078898,18.861757765629317,163.06145555311548,-11.22098847874464,-59.88916015625,4381.2578125,True
1599564718.1245782,0.0,10,0.5,0.5,-0.06329326782226563,-0.001,-0.001,-0.12575,-0.005181971022917616,10,1,100,-0.9972386445201311,-10,-1,-100,6481.661669738125,0.09152707335075774,-0.002233027842683702,0.9958000845704418,180.12906078898,18.861757765629317,163.06145555311548,-11.22098847874464,-59.88916015625,4381.2578125,True
1599564718.1774035,0.0,10,0.5,0.5,0.11298408813476561,-0.001,-0.001,-0.12575,-1.0900405390032109,10,1,100,-1.1354295038348992,-10,-1,-100,6480.728579628514,0.09276190995797749,-0.012060966264774986,0.9956152676379104,178.45693866229635,18.655823236145157,172.69084588742547,-11.98713199323084,-61.27490234375,4381.2578125,True
1599564718.2307892,0.0,10,0.5,0.5,0.02884617309570313,-0.001,-0.001,-0.12575,-0.6847223494834576,10,1,100,-1.0280145327242343,-10,-1,-100,6480.229773231549,0.09288900197368295,-0.017270466544231235,0.9955266768387866,177.64356900326754,18.554115581461932,177.4565803498776,-12.370161993830315,-61.9803466796875,4381.2578125,True
1599564718.2806556,0.0,10,0.5,0.5,0.028074401855468757,-0.001,-0.001,-0.12575,-0.7046639998056546,10,1,100,-0.9637530080094151,-10,-1,-100,6479.730436309474,0.09240440697344941,-0.02214591835020837,0.9954752552787594,176.8196000542056,18.450614496255955,182.16519059384333,-12.753165353014984,-62.6685791015625,4381.2578125,True
1599564718.3385005,0.0,10,0.5,0.5,0.027790223693847663,-0.001,-0.001,-0.12575,-0.7791929085221423,10,1,100,-0.9244146738480143,-10,-1,-100,6479.169528462109,0.09159373905076387,-0.027212997693245384,0.9954245525017192,176.0637875933797,18.353586825948522,186.89939631989375,-13.136143023780484,-63.343597412109375,4381.2578125,True
1599564718.392392,0.0,10,0.5,0.5,0.02753186492919922,-0.001,-0.001,-0.12575,-0.822141854607741,10,1,100,-0.8657310196384482,-10,-1,-100,6478.670584064326,0.09031423722972555,-0.03216628638048822,0.9953937254042248,175.3600388580418,18.26141463466498,191.6481445855255,-13.519096152828183,-64.0057373046875,4381.2578125,True
1599564718.449238,0.0,10,0.5,0.5,-0.05507380065917969,-0.001,-0.001,-0.12575,-0.3314546802500556,10,1,100,-0.9941586504119653,-10,-1,-100,6478.670584064326,0.09031423722972555,-0.03216628638048822,0.9953937254042248,175.3600388580418,18.26141463466498,191.6481445855255,-13.519096152828183,-64.0057373046875,4381.2578125,True
1599564718.5060813,0.0,10,0.5,0.5,0.06866301574707032,-0.001,-0.001,-0.12575,-1.12986812224473,10,1,100,-0.6906282844840279,-10,-1,-100,6477.8273560656235,0.08755155846015406,-0.0393844449641811,0.9953811280640504,174.42529757882957,18.134778613378238,198.8360724553646,-14.093481881298356,-64.97705078125,4381.2578125,True
1599564718.5599093,0.0,10,0.5,0.5,0.028112814331054684,-0.001,-0.001,-0.12575,-0.9389195109461421,10,1,100,-0.7063130712344046,-10,-1,-100,6477.264341622824,0.0851850626275285,-0.044172247335327985,0.9953855120858907,174.09534696377193,18.080251891329862,203.92936789326404,-14.476376221102917,-65.6162109375,4381.2578125,True
1599564718.620747,0.0,10,0.5,0.5,-0.01064392547607422,-0.001,-0.001,-0.12575,-0.7291718209552238,10,1,100,-0.7953502013447447,-10,-1,-100,6476.983072617557,0.08384772394615583,-0.04657538170480174,0.9953895182329886,173.9652029946032,18.05644360202132,206.51170247720665,-14.667814343425643,-65.93948364257812,4381.2578125,True
1599564718.683581,0.0,10,0.5,0.5,0.10727515563964843,-0.001,-0.001,-0.12575,-1.4608200963043183,10,1,100,-0.22739774643920496,-10,-1,-100,6475.731939946767,0.07747573859977087,-0.055371086040349536,0.9954554499118141,173.58040302165784,17.974247496183168,216.98458734670268,-15.433509686475091,-67.18576049804688,4381.2578125,True
1599564718.73748,0.0,10,0.5,0.5,0.028585671997070308,-0.001,-0.001,-0.12575,-1.0577851073058668,10,1,100,-0.4477890920909578,-10,-1,-100,6475.10584855394,0.07369935627693774,-0.059654919119772824,0.995494698885523,173.52042468250693,17.94631338479997,222.38181834443944,-15.816323259883696,-67.79562377929688,4381.2578125,True
1599564718.793285,0.0,10,0.5,0.5,-0.009920359802246093,-0.001,-0.001,-0.12575,-0.8491373282406637,10,1,100,-0.6104480398160931,-10,-1,-100,6474.8245358655695,0.07176232873884617,-0.061609247606969425,0.9955171865835771,173.512606044609,17.93451885484158,225.1102031517805,-16.007721789221367,-68.09173583984375,4381.2578125,True
1599564718.8491297,0.0,10,0.5,0.5,0.06130900421142577,-0.001,-0.001,-0.12575,-1.2776200042452304,10,1,100,-0.09352715531985778,-10,-1,-100,6473.790639265091,0.0653213199117379,-0.0672408989398599,0.9955961965951596,173.66889543950782,17.917251788262075,233.54567876873062,-16.581883833334317,-68.94265747070312,4381.2578125,True
1599564718.8999925,0.0,10,0.5,0.5,-0.009905926513671878,-0.001,-0.001,-0.12575,-0.9165416598601603,10,1,100,-0.47937007571812407,-10,-1,-100,6473.446326093166,0.0629981412425889,-0.06903705612936002,0.9956229803901528,173.76632873221183,17.91604033843714,236.42594902652434,-16.7732596332932,-69.22006225585938,4381.2578125,True
1599564718.9638214,0.0,10,0.5,0.5,-0.009249752807617181,-0.001,-0.001,-0.12575,-0.930622015778644,10,1,100,-0.44540561425932845,-10,-1,-100,6473.164512043586,0.06060338880083547,-0.07075990766594988,0.9956506740483636,173.88306939231217,17.91675844707267,239.33766475109812,-16.964629627553002,-69.49581909179688,4381.2578125,True
1599564719.0216672,0.0,10,0.5,0.5,0.02440360260009765,-0.001,-0.001,-0.12575,-1.103078521894795,10,1,100,-0.15120107749110567,-10,-1,-100,6472.474905236275,0.055778764290829314,-0.07385883764455524,0.9957075883792307,174.16888094627075,17.923419449113798,245.25141724857954,-17.347352811730815,-70.03057861328125,4381.2578125,True
1599564719.075523,0.0,10,0.5,0.5,0.08997183837890625,-0.001,-0.001,-0.12575,-1.4101119661743922,10,1,100,0.551017346543378,-10,-1,-100,6471.034656399977,0.0450403340386365,-0.07942935752649821,0.9958224467607747,175.04523583636833,17.967538142137062,257.60496579427183,-18.11272900615912,-71.07366943359375,4381.2578125,True
1599564719.134366,0.0,10,0.5,0.5,0.023870898437499996,-0.001,-0.001,-0.12575,-1.1077139049832225,10,1,100,0.10145637274716929,-10,-1,-100,6470.2825579196215,0.039403689229719034,-0.0817079887605609,0.9958770776796662,175.6028724290076,18.001657635148998,264.01540066711186,-18.495382231090076,-71.58221435546875,4381.2578125,True
1599564719.1912372,0.0,10,0.5,0.5,-0.03948202514648438,-0.001,-0.001,-0.12575,-0.8836043557194768,10,1,100,-0.4576299708047961,-10,-1,-100,6470.2825579196215,0.039403689229719034,-0.0817079887605609,0.9958770776796662,175.6028724290076,18.001657635148998,264.01540066711186,-18.495382231090076,-71.58221435546875,4381.2578125,True
1599564719.2470927,0.0,10,0.5,0.5,0.022438098144531245,-0.001,-0.001,-0.12575,-1.0938678564630413,10,1,100,0.1607920649681044,-10,-1,-100,6469.530472535058,0.0338220743906167,-0.08358753639726989,0.9959262979974728,176.2718161583276,18.047089349470777,270.6409240894087,-18.87801163645691,-72.0662841796875,4381.2578125,True
1599564719.3099248,0.0,10,0.5,0.5,0.04982162780761719,-0.001,-0.001,-0.12575,-1.1629281693642557,10,1,100,0.593188948653784,-10,-1,-100,6468.370620105648,0.024856683470843993,-0.08589838577487371,0.9959937814103565,177.48100117771466,18.136145027364925,281.0019384069784,-19.45190573272566,-72.75872802734375,4381.2578125,True
1599564719.3647788,0.0,10,0.5,0.5,-0.007657136535644534,-0.001,-0.001,-0.12575,-1.0024197037862,10,1,100,0.039862966265556576,-10,-1,-100,6467.96334046335,0.021780966722585504,-0.08651613237048114,0.9960123233817356,177.9142639144324,18.16889180895988,284.53434358719346,-19.64318956463946,-72.98831176757812,4381.2578125,True
1599564719.4246204,0.0,10,0.5,0.5,0.021109719848632816,-0.001,-0.001,-0.12575,-1.0363035568751013,10,1,100,0.3983822313089272,-10,-1,-100,6467.211778423982,0.0157710321437892,-0.08736311259023835,0.9960516859599531,178.81560719917923,18.237930133723903,291.7049189151271,-20.02573651467427,-73.43917846679688,4381.2578125,True
1599564719.4784744,0.0,10,0.5,0.5,0.019975616455078123,-0.001,-0.001,-0.12575,-1.0064877963478698,10,1,100,0.4632717376161888,-10,-1,-100,6466.395774483099,0.009762596367333771,-0.08784374931826973,0.9960864256769477,179.84393322890355,18.319924377182325,299.15463641704537,-20.408254262489308,-73.87399291992188,4381.2578125,True
1599564719.533328,0.0,10,0.5,0.5,0.04595660400390625,-0.001,-0.001,-0.12575,-0.9700954088218698,10,1,100,0.8951025168587575,-10,-1,-100,6465.110507785808,0.00042304361823753317,-0.08793275491789015,0.9961263231371046,181.55425692406885,18.460057233063587,310.7601264145033,-20.98196938354801,-74.50668334960938,4381.2578125,True
1599564719.5921717,0.0,10,0.5,0.5,0.043961085510253906,-0.001,-0.001,-0.12575,-0.87008067564953,10,1,100,0.9777497486783613,-10,-1,-100,6463.826237310539,-0.008764087947316718,-0.08708883257302205,0.9961619978715911,183.43737449527006,18.61788626056008,322.8599454909185,-21.555606126677272,-75.11468505859375,4381.2578125,True
1599564719.6470244,0.0,10,0.5,0.5,-0.007219255065917973,-0.001,-0.001,-0.12575,-0.9007187943884898,10,1,100,0.39064396702208315,-10,-1,-100,6463.4180043730885,-0.011720025126183376,-0.08658813152537935,0.9961752539036418,184.11053227707623,18.67515159106206,327.0202549518614,-21.746799393348862,-75.31008911132812,4381.2578125,True
1599564719.6978886,0.0,10,0.5,0.5,-0.007176556396484374,-0.001,-0.001,-0.12575,-0.88535148546566,10,1,100,0.42460061142542616,-10,-1,-100,6462.947758850991,-0.01466433718412453,-0.0859867379700431,0.996188354734295,184.8020648124292,18.734301766488755,331.23824009182607,-21.937982721591197,-75.50094604492188,4381.2578125,True
1599564719.7549057,0.0,10,0.5,0.5,0.015918533325195307,-0.001,-0.001,-0.12575,-0.7828027128973314,10,1,100,0.7680844233863057,-10,-1,-100,6462.070738029084,-0.020414411866975533,-0.08450386521528944,0.9962140074059397,186.25538384791406,18.859793807392943,339.87865252081014,-22.32031687795152,-75.86941528320312,4381.2578125,True
1599564719.80873,0.0,10,0.5,0.5,0.03794000396728516,-0.001,-0.001,-0.12575,-0.6089972698006526,10,1,100,1.1466394522387784,-10,-1,-100,6460.722005495336,-0.029028781749047387,-0.08157320788603928,0.9962445189738046,188.5316389578347,19.057977696425013,353.2197590710807,-22.89372997435124,-76.40533447265625,4381.2578125,True
1599564719.8636215,0.0,10,0.5,0.5,-0.006598403930664062,-0.001,-0.001,-0.12575,-0.7729388947874427,10,1,100,0.5976372890777296,-10,-1,-100,6460.251762803062,-0.03181196119843075,-0.08040118356706562,0.9962548111832257,189.31177513404475,19.12626785302704,357.7629652154257,-23.084843007374445,-76.58221435546875,4381.2578125,True
1599564719.9324012,0.0,10,0.5,0.5,0.015745980834960933,-0.001,-0.001,-0.12575,-0.6023778774746829,10,1,100,0.913463184209295,-10,-1,-100,6459.311768839485,-0.037161751885730517,-0.07779014966716248,0.9962769177349959,190.92658545646407,19.268478883389097,367.04044406439783,-23.467030083036157,-76.93096923828125,4381.2578125,True
1599564719.98828,0.0,10,0.5,0.5,0.05696483154296875,-0.001,-0.001,-0.12575,-0.1801295275504361,10,1,100,1.5088405050739895,-10,-1,-100,6457.4308203281835,-0.04738413477421997,-0.07158579383403313,0.9963082946020523,194.43976909850727,19.58202624544132,386.51671201082746,-24.231233131367038,-77.59906005859375,4381.2578125,True
1599564720.0480902,0.0,10,0.5,0.5,-0.00581733856201172,-0.001,-0.001,-0.12575,-0.6049640461815137,10,1,100,0.7625270608295016,-10,-1,-100,6456.8995535790455,-0.049835128664335024,-0.06982194535397643,0.9963138842242417,195.34667948589416,19.663414424113867,391.52387520181463,-24.4222450129267,-77.76327514648438,4381.2578125,True
1599564720.1069336,0.0,10,0.5,0.5,0.03478614349365234,-0.001,-0.001,-0.12575,-0.1710664880027738,10,1,100,1.2678811765554658,-10,-1,-100,6455.424913795781,-0.05660325350282869,-0.06429030693772206,0.996324660001321,198.09397878029398,19.910590131736868,406.80071459207613,-24.99518189288945,-78.24346923828125,4381.2578125,True
1599564720.1667736,0.0,10,0.5,0.5,0.01362277374267578,-0.001,-0.001,-0.12575,-0.266195359362699,10,1,100,1.074562896727421,-10,-1,-100,6454.422468048986,-0.0609468132692761,-0.06014784579710847,0.996327116261666,199.91769079755457,20.07489332382819,417.1384811124778,-25.3770531454925,-78.54995727539062,4381.2578125,True
1599564720.2385807,0.0,10,0.5,0.5,0.013638420104980467,-0.001,-0.001,-0.12575,-0.2192413293771433,10,1,100,1.0735399095896208,-10,-1,-100,6453.357533950475,-0.06483876524177377,-0.05597960902102371,0.996324353760248,201.752040346298,20.240543735147636,427.63462850460223,-25.75885124122833,-78.8514404296875,4381.2578125,True
1599564720.2914395,0.0,10,0.5,0.5,0.013203233337402344,-0.001,-0.001,-0.12575,-0.14484032502624378,10,1,100,1.0892213114107874,-10,-1,-100,6452.355105698225,-0.06847117183322264,-0.05154175602366971,0.9963208047681138,203.5593189972758,20.403786963919906,438.2096303953002,-26.140572944048092,-79.14431762695312,4381.2578125,True
1599564720.357431,0.0,10,0.5,0.5,-0.004957873535156251,-0.001,-0.001,-0.12575,-0.33455838728147247,10,1,100,0.9174955648805392,-10,-1,-100,6451.822397697833,-0.07016330118912927,-0.049263367484710316,0.9963183385797484,204.45749770603686,20.48498540737439,443.53620879281385,-26.331404040288508,-79.28872680664062,4381.2578125,True
1599564720.4250865,0.0,10,0.5,0.5,0.013391366577148438,-0.001,-0.001,-0.12575,-0.04828799622301433,10,1,100,1.0967162127816583,-10,-1,-100,6450.7569834759925,-0.0732856529578526,-0.04462168389215268,0.9963122594835266,206.23663408865383,20.645933222346248,454.2530800461497,-26.713004599951823,-79.57406616210938,4381.2578125,True
1599564720.4919393,0.0,10,0.5,0.5,0.013432704162597654,-0.001,-0.001,-0.12575,0.02207070913542064,10,1,100,1.097584752344349,-10,-1,-100,6449.6920568206115,-0.07609181686070844,-0.03979593923565441,0.9963063377431605,208.06756436478412,20.812461163064203,465.22055951253384,-27.094518931477072,-79.85498046875,4381.2578125,True
1599564720.5766804,0.0,10,0.5,0.5,-0.0038220046997070323,-0.001,-0.001,-0.12575,-0.18326425914392644,10,1,100,0.962916606137556,-10,-1,-100,6449.0978263337165,-0.07737836466536811,-0.037312494027133145,0.9963033506273019,208.97532273146936,20.895116229397953,470.7389392449707,-27.285242499281324,-79.99496459960938,4381.2578125,True
1599564720.6330445,0.0,10,0.5,0.5,0.048998493957519526,-0.001,-0.001,-0.12575,0.6742472996957721,10,1,100,1.2995689745233185,-10,-1,-100,6446.904494193033,-0.0815718690978569,-0.027296054807789308,0.9962936091152106,212.55469234417927,21.221792321913128,493.03814363396606,-28.047901945390976,-80.54815673828125,4381.2578125,True
1599564720.6908906,0.0,10,0.5,0.5,0.013935127258300782,-0.001,-0.001,-0.12575,0.2533282005182387,10,1,100,1.060015868701734,-10,-1,-100,6445.776572189061,-0.0831753105887199,-0.022057001636387255,0.9962907991080124,214.29103408843366,21.38062529983308,504.26766886288567,-28.429084467017987,-80.81802368164062,4381.2578125,True
1599564720.749249,0.0,10,0.5,0.5,-0.019695166015625,-0.001,-0.001,-0.12575,-0.2658006222502077,10,1,100,0.9030057378078726,-10,-1,-100,6445.776572189061,-0.0831753105887199,-0.022057001636387255,0.9962907991080124,214.29103408843366,21.38062529983308,504.26766886288567,-28.429084467017987,-80.81802368164062,4381.2578125,True
1599564720.8070943,0.0,10,0.5,0.5,0.0466217529296875,-0.001,-0.001,-0.12575,0.8453033434294983,10,1,100,1.1282759971333678,-10,-1,-100,6443.461141957436,-0.08519906562160086,-0.011994450407754778,0.996291750631622,217.61640182629208,21.68547879780302,526.7720288446592,-29.19113728306626,-81.33920288085938,4381.2578125,True
1599564720.8689623,0.0,10,0.5,0.5,-0.0025733749389648466,-0.001,-0.001,-0.12575,0.13398902735365925,10,1,100,0.9635362151590845,-10,-1,-100,6442.866897371947,-0.08551916104049705,-0.009356946160041384,0.9962925878744093,218.4040152594111,21.757755501391,532.3723431649939,-29.381583230466433,-81.4659423828125,4381.2578125,True
1599564720.933797,0.0,10,0.5,0.5,0.014312274169921875,-0.001,-0.001,-0.12575,0.4226088050692821,10,1,100,0.9663694852928049,-10,-1,-100,6441.678889671108,-0.08581711351725584,-0.0043777831036698935,0.9963012887890207,219.9407939850802,21.89903107794505,543.5706648185673,-29.76239137097567,-81.72283935546875,4381.2578125,True
1599564720.9966288,0.0,10,0.5,0.5,-0.0017671386718750015,-0.001,-0.001,-0.12575,0.19188815429240036,10,1,100,0.9376656211334395,-10,-1,-100,6441.079264138709,-0.0858112661476932,-0.0019916080348674633,0.9963094198588937,220.69138236288683,21.968192618504705,549.1709593044399,-29.95275278499812,-81.84881591796875,4381.2578125,True
1599564721.0464966,0.0,10,0.5,0.5,0.045101708984375,-0.001,-0.001,-0.12575,1.044324478600735,10,1,100,0.8498656258232099,-10,-1,-100,6438.6397005650215,-0.08499354315894457,0.007884088830983387,0.9963503092610518,223.42450865229492,22.22012724070466,571.1808549985316,-30.71390763616987,-82.341552734375,4381.2578125,True
1599564721.1013513,0.0,10,0.5,0.5,-0.016583197021484378,-0.001,-0.001,-0.12575,0.06200536928796373,10,1,100,0.9328087137181822,-10,-1,-100,6438.6397005650215,-0.08499354315894457,0.007884088830983387,0.9963503092610518,223.42450865229492,22.22012724070466,571.1808549985316,-30.71390763616987,-82.341552734375,4381.2578125,True
1599564721.1602015,0.0,10,0.5,0.5,0.04481630096435547,-0.001,-0.001,-0.12575,1.073116445143965,10,1,100,0.6848357066120635,-10,-1,-100,6436.13217987807,-0.08273115061589055,0.017032662222341,0.9964263370341987,225.79061294517777,22.439232568989624,592.6660999850385,-31.474584395200377,-82.82400512695312,4381.2578125,True
1599564721.2270575,0.0,10,0.5,0.5,0.013940574645996094,-0.001,-0.001,-0.12575,0.6753311595945147,10,1,100,0.7305657810961279,-10,-1,-100,6434.881559657166,-0.08108529190301428,0.021683912567444306,0.9964712657035175,226.78749035319177,22.53176394892758,603.0592002503699,-31.854739457177306,-83.05682373046875,4381.2578125,True
1599564721.2799187,0.0,10,0.5,0.5,-0.00010046691894531092,-0.001,-0.001,-0.12575,0.43568614109701187,10,1,100,0.7938835500955574,-10,-1,-100,6434.227189268102,-0.08016511513420779,0.023689203651765255,0.9965000631941094,227.2580355675923,22.575647417582832,608.2126362604967,-32.04477073280243,-83.175048828125,4381.2578125,True
1599564721.7543542,0.0,10,0.5,0.5,-8.693237304687775e-05,-0.001,-0.001,-0.12575,0.4584827544320514,10,1,100,0.7752001821463195,-10,-1,-100,6433.572813783656,-0.07916147854071293,0.025677850026659066,0.9965310373155756,227.70815823356781,22.61776783704002,613.3310797264725,-32.2347707189824,-83.29058837890625,4381.2578125,True
1599564721.8042204,0.0,10,0.5,0.5,0.04261611938476562,-0.001,-0.001,-0.12575,1.1312632464130978,10,1,100,0.3473719387506233,-10,-1,-100,6431.004575845902,-0.07436338290852763,0.03355850133851473,0.9966664006929865,229.13673020056524,22.75200973896579,632.9702118054223,-32.994460490587215,-83.74017333984375,4381.2578125,True
1599564721.8660553,0.0,10,0.5,0.5,0.014910057067871095,-0.001,-0.001,-0.12575,0.7475803586903147,10,1,100,0.5148492172621987,-10,-1,-100,6429.6225309012225,-0.07153384912274903,0.037193291777497965,0.996744484547789,229.68054022056756,22.803849702615896,642.4088615866308,-33.374118535182824,-83.96572875976562,4381.2578125,True
1599564721.915922,0.0,10,0.5,0.5,0.015087747192382813,-0.001,-0.001,-0.12575,0.7422526135335437,10,1,100,0.4724142682517118,-10,-1,-100,6428.309323411202,-0.06858848733732564,0.04040689427702341,0.9968264153300027,230.10463937701226,22.844940858913482,651.5601389436903,-33.753651609876044,-84.18893432617188,4381.2578125,True
1599564721.971772,0.0,10,0.5,0.5,0.01465629425048828,-0.001,-0.001,-0.12575,0.7694665176265096,10,1,100,0.4067581732682726,-10,-1,-100,6426.937509399024,-0.06532967451089124,0.04353503687981833,0.9969136041764972,230.39026136000447,22.873410909156352,660.3574981838632,-34.13306110048442,-84.405029296875,4381.2578125,True
1599564722.0258899,0.0,10,0.5,0.5,-0.012262026977539062,-0.001,-0.001,-0.12575,0.4612049218384864,10,1,100,0.7305912967480331,-10,-1,-100,6426.937509399024,-0.06532967451089124,0.04353503687981833,0.9969136041764972,230.39026136000447,22.873410909156352,660.3574981838632,-34.13306110048442,-84.405029296875,4381.2578125,True
1599564722.0747583,0.0,10,0.5,0.5,0.028601951599121097,-0.001,-0.001,-0.12575,0.9168788098753979,10,1,100,0.15920153455548436,-10,-1,-100,6424.838019283605,-0.060153098371548114,0.04764511681829131,0.9970514267577546,230.84883928444015,22.92118616951178,673.7032926955395,-34.70194022367373,-84.72579956054688,4381.2578125,True
1599564722.130612,0.0,10,0.5,0.5,0.015379095458984375,-0.001,-0.001,-0.12575,0.7814019265149648,10,1,100,0.26396994886132813,-10,-1,-100,6423.465690678335,-0.05642214241564149,0.05011379870636526,0.9971485090117956,231.03448065928515,22.942477359788867,682.2880888099934,-35.081034907599346,-84.93783569335938,4381.2578125,True
1599564722.1834686,0.0,10,0.5,0.5,0.02982052001953125,-0.001,-0.001,-0.12575,0.879125660258889,10,1,100,-0.0016987128756746905,-10,-1,-100,6421.366169958143,-0.050639111901935666,0.053216378787300865,0.9972981988224735,231.0793867884819,22.95322526324944,694.5095822884239,-35.64944253400766,-85.26046752929688,4381.2578125,True
1599564722.2383208,0.0,10,0.5,0.5,0.01624880828857422,-0.001,-0.001,-0.12575,0.7676935693743191,10,1,100,0.12703922442656412,-10,-1,-100,6419.9318171455525,-0.046579834664951705,0.05499522124718273,0.9973995411281075,230.94913699277126,22.945784319257204,702.1865194756683,-36.02822632057861,-85.47174072265625,4381.2578125,True
1599564722.2901866,0.0,10,0.5,0.5,0.016368698120117188,-0.001,-0.001,-0.12575,0.7486638336310537,10,1,100,0.08644293620611826,-10,-1,-100,6418.42080392607,-0.042551057538843376,0.05641089314250436,0.9975004855323084,230.71444682041502,22.92895388125417,709.5435517229383,-36.40688900934219,-85.68048095703125,4381.2578125,True
1599564722.3420436,0.0,10,0.5,0.5,0.003386373901367189,-0.001,-0.001,-0.12575,0.6787707066723072,10,1,100,0.25768469149649587,-10,-1,-100,6417.703870885191,-0.04047855830956821,0.057034536399430104,0.9975512758624897,230.5575995829285,22.916964910595613,713.0974628261431,-36.59617566654764,-85.78326416015625,4381.2578125,True
1599564722.3964162,0.0,10,0.5,0.5,0.029520790100097657,-0.001,-0.001,-0.12575,0.7731549729791933,10,1,100,-0.2234186215293334,-10,-1,-100,6415.48276293173,-0.0342516060050823,0.05843818174936982,0.9977032657057409,229.93303525593356,22.86699340619149,723.2561965820697,-37.16386121784703,-86.08981323242188,4381.2578125,True
1599564722.463236,0.0,10,0.5,0.5,0.004107984924316407,-0.001,-0.001,-0.12575,0.6722257975065806,10,1,100,0.16170418993860963,-10,-1,-100,6414.7658310175175,-0.03212574968991065,0.05877737148140775,0.9977540562726857,229.673712339123,22.845659576464527,726.4706768664141,-37.353032603464044,-86.1917724609375,4381.2578125,True
1599564722.5300603,0.0,10,0.5,0.5,0.030322650146484373,-0.001,-0.001,-0.12575,0.7002394948996,10,1,100,-0.3123694237520474,-10,-1,-100,6412.4753945004195,-0.02591654085860992,0.05932369532573842,0.9979023159021242,228.73013253988603,22.766292469249564,735.5397621088651,-37.92038022233424,-86.4981689453125,4381.2578125,True
1599564722.591895,0.0,10,0.5,0.5,0.0047209289550781235,-0.001,-0.001,-0.12575,0.6517415997109711,10,1,100,0.0782743095507393,-10,-1,-100,6411.695967814652,-0.023858942345318483,0.059365110083918836,0.9979511684320467,228.36938860092087,22.73557791776771,738.395316837621,-38.109441805353995,-86.5985107421875,4381.2578125,True
1599564722.6492765,0.0,10,0.5,0.5,0.017604217529296876,-0.001,-0.001,-0.12575,0.6394210401923539,10,1,100,-0.1749443327796821,-10,-1,-100,6410.192782432074,-0.019724111250382047,0.05927636380190988,0.99804672842999,227.58559300537496,22.668396752650153,743.8706535467721,-38.48748621476064,-86.7979736328125,4381.2578125,True
1599564722.7091165,0.0,10,0.5,0.5,0.017685977172851565,-0.001,-0.001,-0.12575,0.6091406177518324,10,1,100,-0.21167246687031288,-10,-1,-100,6408.626127886237,-0.015668035387907887,0.05890983493518461,0.9981403428451294,226.7325716424099,22.594854380313127,749.0695752319767,-38.86542787905825,-86.994873046875,4381.2578125,True
1599564722.7659645,0.0,10,0.5,0.5,0.0056526290893554685,-0.001,-0.001,-0.12575,0.6162833841266672,10,1,100,-0.035106619456712784,-10,-1,-100,6407.850614962052,-0.013622886950352953,0.05863356471772485,0.9981866168405737,226.27380389334704,22.555044970669766,751.542105735793,-39.054361409992076,-87.09365844726562,4381.2578125,True
1599564722.8225381,0.0,10,0.5,0.5,0.018448046875000002,-0.001,-0.001,-0.12575,0.5626193217106723,10,1,100,-0.265303407631599,-10,-1,-100,6406.283969875774,-0.009704614137305487,0.05788963014722473,0.9982758191932045,225.2903060618377,22.469152651889274,756.2222634330662,-39.4321550082128,-87.29116821289062,4381.2578125,True
1599564722.8773923,0.0,10,0.5,0.5,0.01870372009277344,-0.001,-0.001,-0.12575,0.5298198076702952,10,1,100,-0.30282800278866606,-10,-1,-100,6404.718797914684,-0.005834938188132313,0.056912517311039336,0.9983621181062818,224.22966180947756,22.37590644701725,760.5776389290937,-39.80985313483453,-87.48770141601562,4381.2578125,True
1599564722.9437294,0.0,10,0.5,0.5,0.019185414123535156,-0.001,-0.001,-0.12575,0.4936251346192356,10,1,100,-0.34522314626741196,-10,-1,-100,6403.089669377776,-0.0019650188566687483,0.0556947344102534,0.9984459100321179,223.097972917083,22.275835308996275,764.6205068328109,-40.18745916247394,-87.68505859375,4381.2578125,True
1599564723.0015714,0.0,10,0.5,0.5,0.0444603256225586,-0.001,-0.001,-0.12575,0.2778125479134719,10,1,100,-0.7625831912216431,-10,-1,-100,6399.83632755396,0.005312259544743048,0.052626944441294864,0.9986001124660974,220.61042393644422,22.053815201014604,771.6977429877408,-40.94240681803778,-88.07876586914062,4381.2578125,True
1599564723.0594187,0.0,10,0.5,0.5,-0.004849468994140625,-0.001,-0.001,-0.12575,0.5840104210785183,10,1,100,-0.03881173763544594,-10,-1,-100,6399.83632755396,0.005312259544743048,0.052626944441294864,0.9986001124660974,220.61042393644422,22.053815201014604,771.6977429877408,-40.94240681803778,-88.07876586914062,4381.2578125,True
1599564723.1154034,0.0,10,0.5,0.5,0.020002255249023437,-0.001,-0.001,-0.12575,0.3815358798230895,10,1,100,-0.42268646535198745,-10,-1,-100,6398.201373581542,0.008767995242861922,0.05079185809082743,0.9986707712810576,219.28996328143305,21.93526540347702,774.8405381499103,-41.3197550306562,-88.27334594726562,4381.2578125,True
1599564723.1722517,0.0,10,0.5,0.5,0.043354753112792965,-0.001,-0.001,-0.12575,0.10472718663060665,10,1,100,-0.78214349838825,-10,-1,-100,6394.827011845075,0.015145832963207402,0.04661491132250257,0.998798104616867,216.62224059267982,21.695459365377502,780.7623976003249,-42.07421533815476,-88.64923095703125,4381.2578125,True
1599564723.233667,0.0,10,0.5,0.5,0.01997281188964844,-0.001,-0.001,-0.12575,0.26852219444430947,10,1,100,-0.46278736896128914,-10,-1,-100,6393.139846751117,0.018005170827541352,0.044318323603024005,0.9988551947186782,215.235129380302,21.570138765011112,783.3944044060484,-42.45133379366979,-88.8360595703125,4381.2578125,True
1599564723.2895174,0.0,10,0.5,0.5,0.019454444885253906,-0.001,-0.001,-0.12575,0.23753881357557569,10,1,100,-0.4645930378392923,-10,-1,-100,6391.4424413362285,0.020586684710301405,0.041962447704872174,0.9989070734534091,213.84352024937021,21.44426713564261,785.9156957840054,-42.82838161329656,-89.01571655273438,4381.2578125,True
1599564723.342945,0.0,10,0.5,0.5,0.019275311279296877,-0.001,-0.001,-0.12575,0.1906274663018903,10,1,100,-0.48697230546177966,-10,-1,-100,6389.692800116143,0.023104004563834785,0.039409682265182745,0.9989559959862455,212.51192343970652,21.324294696288042,788.565461344204,-43.20536107159478,-89.19094848632812,4381.2578125,True
1599564723.397798,0.0,10,0.5,0.5,0.01910713348388672,-0.001,-0.001,-0.12575,0.15704492479213544,10,1,100,-0.4857393693382357,-10,-1,-100,6388.00225040724,0.025347880564547287,0.0368011668357878,0.9990010806152365,211.20171300059755,21.206353194828964,791.2056036080896,-43.582274373535526,-89.36181640625,4381.2578125,True
1599564723.4511657,0.0,10,0.5,0.5,0.019020893859863282,-0.001,-0.001,-0.12575,0.12099160380521923,10,1,100,-0.48706749830307505,-10,-1,-100,6386.186709648115,0.027367975833328236,0.034121203039467196,0.9990429106909903,209.91442036613427,21.090602514846744,793.8442873168319,-43.95912382092975,-89.52902221679688,4381.2578125,True
1599564723.5040257,0.0,10,0.5,0.5,-0.001801104736328125,-0.001,-0.001,-0.12575,0.3867088520101227,10,1,100,-0.2883782628271263,-10,-1,-100,6386.186709648115,0.027367975833328236,0.034121203039467196,0.9990429106909903,209.91442036613427,21.090602514846744,793.8442873168319,-43.95912382092975,-89.52902221679688,4381.2578125,True
1599564723.5648985,0.0,10,0.5,0.5,0.03938131561279297,-0.001,-0.001,-0.12575,-0.2261370349183579,10,1,100,-0.6669561569101797,-10,-1,-100,6382.6811392823,0.030782926693455996,0.028569489095908996,0.9991177086394697,207.566686896604,20.881636971176288,799.7370739452697,-44.71263722708328,-89.85247802734375,4381.2578125,True
1599564723.629689,0.0,10,0.5,0.5,0.019344449615478515,-0.001,-0.001,-0.12575,-0.001562004676681883,10,1,100,-0.4909491867833622,-10,-1,-100,6380.86220137903,0.0322642089586477,0.025585938017912584,0.9991518306023446,207.24176778514138,20.862530434976716,805.8679568915356,-45.08928248239812,-90.01390075683594,4381.2578125,True
1599564723.6815498,0.0,10,0.5,0.5,-0.0007609451293945313,-0.001,-0.001,-0.12575,0.29408900248062114,10,1,100,-0.34551615520558243,-10,-1,-100,6380.86220137903,0.0322642089586477,0.025585938017912584,0.9991518306023446,207.24176778514138,20.862530434976716,805.8679568915356,-45.08928248239812,-90.01390075683594,4381.2578125,True
1599564723.7374003,0.0,10,0.5,0.5,0.03756421051025391,-0.001,-0.001,-0.12575,-0.33729491807890133,10,1,100,-0.581774204823551,-10,-1,-100,6377.231672468595,0.03439064921543306,0.019868998667437757,0.9992109417627963,208.94960382542564,21.062101222374867,827.4153706354643,-45.8422186279153,-90.31489562988281,4381.2578125,True
1599564723.7943974,0.0,10,0.5,0.5,-0.00011932830810546874,-0.001,-0.001,-0.12575,0.2317244257030749,10,1,100,-0.3710546607702372,-10,-1,-100,6377.231672468595,0.03439064921543306,0.019868998667437757,0.9992109417627963,208.94960382542564,21.062101222374867,827.4153706354643,-45.8422186279153,-90.31489562988281,4381.2578125,True
1599564723.8482172,0.0,10,0.5,0.5,0.036319097900390625,-0.001,-0.001,-0.12575,-0.4109087032126062,10,1,100,-0.5213981306260497,-10,-1,-100,6373.531828755862,0.03574251214286055,0.014049105972691189,0.9992622756049011,211.73074266270655,21.370481030834338,853.5630035358625,-46.59459628917559,-90.60121154785156,4381.2578125,True
1599564723.9080963,0.0,10,0.5,0.5,0.01816322288513184,-0.001,-0.001,-0.12575,-0.1694979835768309,10,1,100,-0.4344864787237578,-10,-1,-100,6371.651396562811,0.036167594489198734,0.01097831310300334,0.9992854355739792,213.22235337063327,21.535016340562585,867.2095688964819,-46.97056945948761,-90.74077606201172,4381.2578125,True
1599564723.9639075,0.0,10,0.5,0.5,0.016984989929199217,-0.001,-0.001,-0.12575,-0.16518441529828037,10,1,100,-0.4090875563343783,-10,-1,-100,6369.678196633235,0.03631125770057967,0.008251744177785009,0.9993064601423461,214.81805791935324,21.71011011572359,881.3994663257824,-47.34639664509716,-90.86872100830078,4381.2578125,True
1599564724.0187614,0.0,10,0.5,0.5,0.01669211311340332,-0.001,-0.001,-0.12575,-0.20757145089673956,10,1,100,-0.39480857251792295,-10,-1,-100,6367.770428375341,0.036302084969743624,0.005413662488198718,0.9993261984383845,216.44551620854156,21.888401653484205,895.8454301559625,-47.72207760419922,-90.99215698242188,4381.2578125,True
1599564724.073618,0.0,10,0.5,0.5,0.008810802459716797,-0.001,-0.001,-0.12575,-0.078202231624585,10,1,100,-0.38802019819698885,-10,-1,-100,6366.784563507186,0.03622391171230562,0.004035769800641012,0.9993355496440499,217.28488398876067,21.980126603698384,903.222920161899,-47.909863020176516,-91.05128479003906,4381.2578125,True
1599564724.1284695,0.0,10,0.5,0.5,0.008833586502075195,-0.001,-0.001,-0.12575,-0.09269494156277058,10,1,100,-0.3826752094396087,-10,-1,-100,6365.797234878526,0.03609620345695037,0.002678738570003979,0.9993447295381449,218.14043942258232,22.073475449211408,910.7010419165086,-48.09761160607988,-91.10892486572266,4381.2578125,True
1599564724.182324,0.0,10,0.5,0.5,0.029401774215698243,-0.001,-0.001,-0.12575,-0.5407385245180175,10,1,100,-0.29042853593511464,-10,-1,-100,6361.907495197491,0.03513666866861974,-0.0026045126205992905,0.9993791227701729,221.704816969933,22.461038090123548,941.55633363181,-48.84823458044103,-91.327392578125,4381.2578125,True
1599564724.2481816,0.0,10,0.5,0.5,0.01527714958190918,-0.001,-0.001,-0.12575,-0.2978578421033005,10,1,100,-0.3049352731795425,-10,-1,-100,6359.965558600496,0.03439363241807763,-0.005173834362251643,0.9993949717139275,223.58976415648343,22.66504637435635,957.6373019817785,-49.223320874347486,-91.4316635131836,4381.2578125,True
1599564724.3000507,0.0,10,0.5,0.5,0.002306855773925781,-0.001,-0.001,-0.12575,-0.04400164517608165,10,1,100,-0.3794518405796965,-10,-1,-100,6359.965558600496,0.03439363241807763,-0.005173834362251643,0.9993949717139275,223.58976415648343,22.66504637435635,957.6373019817785,-49.223320874347486,-91.4316635131836,4381.2578125,True
1599564724.352868,0.0,10,0.5,0.5,0.014442530822753905,-0.001,-0.001,-0.12575,-0.3023408483564145,10,1,100,-0.2838109586988198,-10,-1,-100,6357.960636760574,0.0335241671435218,-0.00749960636113677,0.99940976887449,225.532615171808,22.874762314638698,974.1196371648267,-49.59825491082006,-91.52652740478516,4381.2578125,True
1599564724.4097161,0.0,10,0.5,0.5,0.025090831756591797,-0.001,-0.001,-0.12575,-0.5867116871189612,10,1,100,-0.1220267747915098,-10,-1,-100,6353.949821441784,0.031263766569379056,-0.012174253435211332,0.9994370237554693,229.46308054121616,23.298166077770475,1007.7525736668377,-50.34766620577922,-91.70369720458984,4381.2578125,True
1599564724.4635713,0.0,10,0.5,0.5,0.008134246826171875,-0.001,-0.001,-0.12575,-0.23833379518911613,10,1,100,-0.27717528747043785,-10,-1,-100,6352.977636191645,0.03062336956776089,-0.013233021431000613,0.9994433932845436,230.48655577258688,23.408044198315338,1016.4413060077783,-50.53492283790684,-91.74481964111328,4381.2578125,True
1599564724.5423615,0.0,10,0.5,0.5,0.017419002151489258,-0.001,-0.001,-0.12575,-0.46184077529773787,10,1,100,-0.11151477221985118,-10,-1,-100,6349.9390155613655,0.028540225995758534,-0.016205409124038336,0.9994612749953015,233.59692890210823,23.741412794546775,1042.9387724187836,-51.09645983114802,-91.85807800292969,4381.2578125,True
1599564724.597215,0.0,10,0.5,0.5,0.012113347244262697,-0.001,-0.001,-0.12575,-0.3817889368993337,10,1,100,-0.1432362569257979,-10,-1,-100,6347.870138863567,0.02694190082008756,-0.01815760199290366,0.9994720783844178,235.65239883553878,23.96154898400415,1060.7372600397712,-51.47062427701223,-91.92780303955078,4381.2578125,True
1599564724.650073,0.0,10,0.5,0.5,0.003438988494873047,-0.001,-0.001,-0.12575,-0.18892677646091144,10,1,100,-0.3021327560779295,-10,-1,-100,6347.870138863567,0.02694190082008756,-0.01815760199290366,0.9994720783844178,235.65239883553878,23.96154898400415,1060.7372600397712,-51.47062427701223,-91.92780303955078,4381.2578125,True
1599564724.703929,0.0,10,0.5,0.5,0.01852714385986328,-0.001,-0.001,-0.12575,-0.5522628335021718,10,1,100,0.06774518076599878,-10,-1,-100,6343.733855842496,0.023587812313226594,-0.021440481264375533,0.9994918313190099,239.80422329734932,24.4054045095609,1097.040520103278,-52.21848687973422,-92.04615020751953,4381.2578125,True
1599564724.759273,0.0,10,0.5,0.5,0.010584285354614257,-0.001,-0.001,-0.12575,-0.3951998770985762,10,1,100,-0.057899874817849084,-10,-1,-100,6341.60346118384,0.02169223998606408,-0.022975145344013292,0.9995006700452024,241.87715002824538,24.62678820024896,1115.4434792427405,-52.592185214350195,-92.10015869140625,4381.2578125,True
1599564724.8181176,0.0,10,0.5,0.5,0.009761116027832032,-0.001,-0.001,-0.12575,-0.3812887134122642,10,1,100,-0.04622170520492433,-10,-1,-100,6339.472092077718,0.019875049445510256,-0.024225310625878044,0.9995089377962652,243.97877083139926,24.850973235868107,1134.158816600329,-52.96572716917546,-92.14663696289062,4381.2578125,True
1599564724.8789527,0.0,10,0.5,0.5,0.0067749389648437495,-0.001,-0.001,-0.12575,-0.3269618901284066,10,1,100,-0.11836590159592861,-10,-1,-100,6338.438390257768,0.018892113087627335,-0.024850624782934906,0.9995126484997487,245.0072469573762,24.96075291317115,1143.4807302306892,-53.15243975921821,-92.16862487792969,4381.2578125,True
1599564725.3519013,0.0,10,0.5,0.5,0.009160540008544922,-0.001,-0.001,-0.12575,-0.39024486820212106,10,1,100,0.003541254301703045,-10,-1,-100,6336.307024346781,0.0169043799989648,-0.025976504007819746,0.9995196162038955,247.1034969441829,25.184276652727515,1162.4447714251978,-53.52574731606748,-92.20867919921875,4381.2578125,True
1599564725.4017682,0.0,10,0.5,0.5,0.010820885848999023,-0.001,-0.001,-0.12575,-0.43675694672779797,10,1,100,0.14608882125688824,-10,-1,-100,6333.0789725384675,0.013816571843446774,-0.027406070473724224,0.9995288938513405,250.26706522581512,25.521512159282576,1191.329417369803,-54.08541014005688,-92.26097869873047,4381.2578125,True
1599564725.4576182,0.0,10,0.5,0.5,0.004299951934814453,-0.001,-0.001,-0.12575,-0.29532348184120144,10,1,100,-0.16094727482232118,-10,-1,-100,6333.0789725384675,0.013816571843446774,-0.027406070473724224,0.9995288938513405,250.26706522581512,25.521512159282576,1191.329417369803,-54.08541014005688,-92.26097869873047,4381.2578125,True
1599564725.5154636,0.0,10,0.5,0.5,0.008143275833129883,-0.001,-0.001,-0.12575,-0.3811464074020183,10,1,100,0.06957273220126184,-10,-1,-100,6330.8846229912015,0.01173621432298176,-0.02817339429787463,0.9995341520563975,252.34635555375303,25.743377673171615,1210.6785351567419,-54.4583204354647,-92.2908935546875,4381.2578125,True
1599564725.5683224,0.0,10,0.5,0.5,0.01060986099243164,-0.001,-0.001,-0.12575,-0.4339229534669069,10,1,100,0.33745274607662457,-10,-1,-100,6326.497883264092,0.007424983734303701,-0.02933986820662504,0.9995419159545853,256.34898167933187,26.1716433178795,1249.1836659911837,-55.20366991271473,-92.33969116210938,4381.2578125,True
1599564725.621181,0.0,10,0.5,0.5,0.0045147506713867185,-0.001,-0.001,-0.12575,-0.31839378921323774,10,1,100,-0.09171862108260297,-10,-1,-100,6326.497883264092,0.007424983734303701,-0.02933986820662504,0.9995419159545853,256.34898167933187,26.1716433178795,1249.1836659911837,-55.20366991271473,-92.33969116210938,4381.2578125,True
1599564725.6720462,0.0,10,0.5,0.5,0.007015085983276367,-0.001,-0.001,-0.12575,-0.3601712249786066,10,1,100,0.14622761159746067,-10,-1,-100,6324.242016811622,0.005279578816381108,-0.029709497380661375,0.9995446322265504,258.30151552141064,26.381159448856515,1268.4749365440366,-55.57611097082015,-92.35909271240234,4381.2578125,True
1599564725.7278957,0.0,10,0.5,0.5,0.00824361915588379,-0.001,-0.001,-0.12575,-0.3652411956826812,10,1,100,0.4113330863537806,-10,-1,-100,6319.791815290577,0.0009358047873002465,-0.03008409725789846,0.9995469330459562,261.9943272161061,26.779597442566068,1306.554132293187,-56.320532607681045,-92.38778686523438,4381.2578125,True
1599564725.782798,0.0,10,0.5,0.5,0.0059357311248779306,-0.001,-0.001,-0.12575,-0.3274638180863248,10,1,100,0.21215529030031968,-10,-1,-100,6317.534980286844,-0.001183503970288379,-0.030074749211861766,0.9995469517627453,263.75977621709995,26.97123746501442,1325.4554872915382,-56.69251590529964,-92.39781951904297,4381.2578125,True
1599564725.841052,0.0,10,0.5,0.5,0.0056101814270019534,-0.001,-0.001,-0.12575,-0.3150845136429006,10,1,100,0.2250167576199273,-10,-1,-100,6315.216623375192,-0.0032079265860782908,-0.029948394185446384,0.9995462985238511,265.451772495578,27.155939723145433,1344.160379318217,-57.06434978727776,-92.4050064086914,4381.2578125,True
1599564725.891915,0.0,10,0.5,0.5,0.004730068206787109,-0.001,-0.001,-0.12575,-0.3282297932246899,10,1,100,0.024784500008306686,-10,-1,-100,6315.216623375192,-0.0032079265860782908,-0.029948394185446384,0.9995462985238511,265.451772495578,27.155939723145433,1344.160379318217,-57.06434978727776,-92.4050064086914,4381.2578125,True
1599564725.9467683,0.0,10,0.5,0.5,0.005649034881591797,-0.001,-0.001,-0.12575,-0.26450025135738164,10,1,100,0.47404983663245165,-10,-1,-100,6310.6404618175,-0.007273873003947751,-0.02936542390467301,0.9995422765698414,268.55484963952495,27.49857205729613,1380.6399304697381,-57.8075773998693,-92.41210174560547,4381.2578125,True
1599564726.0026183,0.0,10,0.5,0.5,0.004812523651123047,-0.001,-0.001,-0.12575,-0.2714877089894766,10,1,100,0.2930269541074719,-10,-1,-100,6308.322110002395,-0.009305352229195268,-0.028897192033869947,0.9995390751303564,269.9950407372246,27.65960480916977,1398.5460891992946,-58.178974676996916,-92.41242218017578,4381.2578125,True
1599564726.053486,0.0,10,0.5,0.5,0.004755461502075195,-0.001,-0.001,-0.12575,-0.2903005447908265,10,1,100,0.19090853721391976,-10,-1,-100,6307.161958364188,-0.010202782349412862,-0.028641196911733845,0.9995376856686263,270.69616172433047,27.738489888796764,1407.4587277816206,-58.36461985044168,-92.41217041015625,4381.2578125,True
