Timestamp,Input Throttle,horizon,dT,dt,Input Roll,Roll P,Roll I,Roll D,Input Pitch,Pitch P,Pitch I,Pitch D,Input Yaw,Yaw P,Yaw I,Yaw D,Altitude,Direction X,Direction Y,Direction Z,Drag X,Drag Y,Drag Z,Vertical Velocity,Roll,Mass,Has Fuel
1599572394.5828884,0.0,10,0.5,0.5,-10.811892700195314,-0.2,-0.001,-0.5,-0.0685935644180614,10,1,100,0.6816089216198002,-10,-1,-100,6483.6179670348065,-0.06725802393229897,-0.007002738199604838,0.9977110402688897,205.07321269026679,21.498776309284793,-156.7652391730966,9.590824494138785,-35.944580078125,4381.2578125,True
1599572394.6711664,0.0,10,0.5,0.5,-10.818818017578126,-0.2,-0.001,-0.5,-0.06729971410571214,10,1,100,0.6999381292221303,-10,-1,-100,6483.997883116826,-0.06744558836417089,-0.006971575093147595,0.9976985966467686,204.61209369423227,21.456736042471114,-150.2666864288618,9.210802160161148,-35.941253662109375,4381.2578125,True
1599572394.7728941,0.0,10,0.5,0.5,-10.79498194885254,-0.2,-0.001,-0.5,-0.05217305578788541,10,1,100,0.7006551293616043,-10,-1,-100,6484.316760009737,-0.06756130549590042,-0.006799392125212452,0.9976919555987296,204.14942586330025,21.414351484522832,-143.7893297674437,8.830798436226651,-35.98065185546875,4381.2578125,True
1599572394.8706317,0.0,10,0.5,0.5,-10.626925021362306,-0.2,-0.001,-0.5,-0.03422707827874705,10,1,100,0.6997434414143382,-10,-1,-100,6484.697140851989,-0.0675967954475013,-0.0064735356387108705,0.9976917192106803,203.756102740847,21.378917253559617,-137.3811838538385,8.45080600446394,-36.256591796875,4381.2578125,True
1599572394.9673746,0.0,10,0.5,0.5,-10.599264083862305,-0.2,-0.001,-0.5,-0.04421040210897818,10,1,100,0.7020370706471042,-10,-1,-100,6484.856804944458,-0.06758845858248407,-0.006262174926130888,0.9976936330515689,203.59147035128385,21.36435211016124,-134.20509836143782,8.260811543667185,-36.500885009765625,4381.2578125,True
1599572395.065111,0.0,10,0.5,0.5,-9.90715305786133,-0.2,-0.001,-0.5,0.03814164682996266,10,1,100,0.6854954966810012,-10,-1,-100,6485.335756016779,-0.06736905761588338,-0.005315680947134959,0.9977139638253121,203.19865051747882,21.33000633583041,-124.76071071107532,7.690822767078336,-37.6717529296875,4381.2578125,True
1599572395.1907759,0.0,10,0.5,0.5,-9.69466127319336,-0.2,-0.001,-0.5,0.04234405069225401,10,1,100,0.6793134316838879,-10,-1,-100,6485.590082455892,-0.06705215700298547,-0.004412195766620434,0.9977397159428725,202.97204632244322,21.30946448580116,-118.49824114131034,7.310816212289887,-38.819122314453125,4381.2578125,True
1599572395.283531,0.0,10,0.5,0.5,-9.26454376525879,-0.2,-0.001,-0.5,0.07290897087583767,10,1,100,0.6655461114067158,-10,-1,-100,6485.909324151464,-0.0665779515732831,-0.0033089716046959044,0.9977757398690473,202.70853999817368,21.283751973170354,-112.22384753014607,6.930788627131767,-40.26043701171875,4381.2578125,True
1599572395.3892457,0.0,10,0.5,0.5,-8.77542897644043,-0.2,-0.001,-0.5,0.10472088439376222,10,1,100,0.6491597173409465,-10,-1,-100,6486.165062136133,-0.06593736309879823,-0.002013833178597295,0.9978217318857644,202.33756296100478,21.24530660852409,-105.90400494297543,6.550731319836695,-41.99578857421875,4381.2578125,True
1599572395.482996,0.0,10,0.5,0.5,-8.22729055480957,-0.2,-0.001,-0.5,0.13695206477079047,10,1,100,0.6300610578645297,-10,-1,-100,6486.420286476612,-0.06512144270575475,-0.0005415931212813956,0.9978771990464619,201.76860741736786,21.18451560561793,-99.5038673523335,6.170633719203989,-44.025238037109375,4381.2578125,True
1599572395.5777426,0.0,10,0.5,0.5,-7.619958709716796,-0.2,-0.001,-0.5,0.16864616991191456,10,1,100,0.6073257022316161,-10,-1,-100,6486.67548556719,-0.06411381053113804,0.0010854275167626244,0.9979420028971038,200.89612917522817,21.090279150067637,-92.99254574202523,5.790481834643641,-46.349029541015625,4381.2578125,True
1599572395.669573,0.0,10,0.5,0.5,-7.890198171997071,-0.2,-0.001,-0.5,0.10216593982693008,10,1,100,0.6441664333276335,-10,-1,-100,6486.772070943378,-0.06353555539454225,0.0019528185817424494,0.9979776649305805,200.30853384921636,21.026700333951005,-89.68698771834748,5.600380143077934,-47.621337890625,4381.2578125,True
1599572395.7582984,0.0,10,0.5,0.5,-6.589246838378906,-0.2,-0.001,-0.5,0.21638791229953513,10,1,100,0.557074129616983,-10,-1,-100,6486.965224007727,-0.062221675266603466,0.0037716243963160727,0.9980552279189917,198.74844868342882,20.858071213224594,-82.96467449873342,5.220113146195389,-50.386962890625,4381.2578125,True
1599572395.8570373,0.0,10,0.5,0.5,-5.828321343994141,-0.2,-0.001,-0.5,0.2462019705023214,10,1,100,0.5197378913430306,-10,-1,-100,6487.157869120594,-0.06069267264801345,0.00568651110547967,0.998140302301379,196.55844401051527,20.62202147570037,-76.08780242149004,4.839744048132678,-53.4473876953125,4381.2578125,True
1599572395.9438028,0.0,10,0.5,0.5,-5.008392425537109,-0.2,-0.001,-0.5,0.2799899701295776,10,1,100,0.479568079803907,-10,-1,-100,6487.3519619157305,-0.05894376663784821,0.007723426249745096,0.9982314266048269,193.5842726848072,20.302738961600735,-69.05863650452567,4.459246374620612,-56.802276611328125,4381.2578125,True
1599572396.0280075,0.0,10,0.5,0.5,-2.7731164367675785,-0.2,-0.001,-0.5,0.41551646022523925,10,1,100,0.31902328018665627,-10,-1,-100,6487.5786220181035,-0.05590221271567266,0.010794512107968885,0.9983778949485222,187.2968467095339,19.63177825224218,-58.27482431920319,3.888186901199778,-62.38897705078125,4381.2578125,True
1599572396.1162806,0.0,10,0.5,0.5,-2.6982631225585942,-0.2,-0.001,-0.5,0.3371663371617624,10,1,100,0.36867311197208297,-10,-1,-100,6487.77073301794,-0.053598950207108045,0.012859488866636081,0.9984797374422701,181.66428781906873,19.03408993133757,-50.99257400801776,3.5072256737779535,-66.48287963867188,4381.2578125,True
1599572396.1999917,0.0,10,0.5,0.5,-3.2318981140136724,-0.2,-0.001,-0.5,0.24482736981995512,10,1,100,0.46194956195921055,-10,-1,-100,6487.805263107759,-0.05236527311447399,0.01388159377628687,0.9985315115337507,178.3837157674574,18.687116897324884,-47.35455556582688,3.3166531660693486,-68.64080810546875,4381.2578125,True
1599572396.2798095,0.0,10,0.5,0.5,-1.1306805603027348,-0.2,-0.001,-0.5,0.35635432378405646,10,1,100,0.30011306118760384,-10,-1,-100,6487.934868474724,-0.049785428185481886,0.01580903367075125,0.9986348109267897,170.76083080225004,17.883613982055525,-40.1240009990147,2.9352731347579377,-73.17987060546875,4381.2578125,True
1599572396.3745568,0.0,10,0.5,0.5,-0.012471209716796938,-0.2,-0.001,-0.5,0.3725563758701561,10,1,100,0.24983068712648804,-10,-1,-100,6488.0039274328155,-0.04699768569940012,0.017692340533002185,0.9987383033734938,161.6862195894608,16.93010306565999,-33.05554172964293,2.553576827488042,-78.01504516601562,4381.2578125,True
1599572396.4523194,0.0,10,0.5,0.5,3.0401037963867186,-0.2,-0.001,-0.5,0.4732136580167142,10,1,100,0.029689472497948843,-10,-1,-100,6488.167093593627,-0.042478566721799386,0.020302927578513305,0.9988910663836187,145.3615827265371,15.218716192076421,-23.05383412016624,1.9806082666266582,-85.82470703125,4381.2578125,True
1599572396.5381198,0.0,10,0.5,0.5,1.0656517059326172,-0.2,-0.001,-0.5,0.300937372977546,10,1,100,0.3069639239062834,-10,-1,-100,6488.200653597247,-0.04091062197661025,0.02109257002856575,0.9989401506091728,148.00814120551027,15.49577790007465,-21.210471924284402,1.7895604960293507,-88.57675170898438,4381.2578125,True
1599572396.6199002,0.0,10,0.5,0.5,3.5982895751953126,-0.2,-0.001,-0.5,0.3858958714773484,10,1,100,0.1064179973216749,-10,-1,-100,6488.269246576354,-0.03768264099695817,0.02256537701365997,0.9990349454987677,155.8852398544156,16.320160388660263,-17.571491286678267,1.4074622678518462,-94.15470123291016,4381.2578125,True
1599572396.7046738,0.0,10,0.5,0.5,6.470878476715088,-0.2,-0.001,-0.5,0.4469873586395238,10,1,100,-0.11688754521004918,-10,-1,-100,6488.306983792456,-0.03274037065995847,0.024442584381022363,0.999164965457569,167.5264502569146,17.536100297099747,-11.19771640744308,0.8344534434007551,-102.23639678955078,4381.2578125,True
1599572396.7864242,0.0,10,0.5,0.5,4.224782341003418,-0.2,-0.001,-0.5,0.32118572091941755,10,1,100,0.18596391505271143,-10,-1,-100,6488.34105527075,-0.0310260039032457,0.024988434305463988,0.9992061675313846,170.69468678735782,17.86668055900877,-8.79895485630587,0.6434878169546572,-104.7933578491211,4381.2578125,True
1599572396.864218,0.0,10,0.5,0.5,8.014068601226807,-0.2,-0.001,-0.5,0.41683709087200665,10,1,100,-0.1932049556762529,-10,-1,-100,6488.318300556159,-0.026045878720274966,0.026338523956292895,0.9993137116829193,179.36911890555956,18.772977404254167,-1.0143394896668159,0.07057995688017993,-112.02616882324219,4381.2578125,True
1599572396.9440348,0.0,10,0.5,0.5,7.520364412689209,-0.2,-0.001,-0.5,0.3602556719994539,10,1,100,-0.06634045204707095,-10,-1,-100,6488.322040437139,-0.02269894798147177,0.027037370729252035,0.9993766749052048,183.49382476941315,19.20400295819928,4.579819915386328,-0.31146903100095935,-116.4800796508789,4381.2578125,True
1599572397.0347915,0.0,10,0.5,0.5,8.20974371032715,-0.2,-0.001,-0.5,0.35213250016118774,10,1,100,-0.09333658796944483,-10,-1,-100,6488.327754268772,-0.01943895516710695,0.02758594997717373,0.9994304089759668,186.91777024294922,19.56171204147086,10.391031116514878,-0.6936438705140602,-120.63912963867188,4381.2578125,True
1599572397.1125832,0.0,10,0.5,0.5,7.513543548583985,-0.2,-0.001,-0.5,0.3242120969540898,10,1,100,0.05670136985423735,-10,-1,-100,6488.298394977464,-0.017869239786942742,0.027818378031400845,0.9994532645967689,188.34018728184452,19.710342128091565,13.35602878683657,-0.884774203589684,-122.60787963867188,4381.2578125,True
1599572397.193407,0.0,10,0.5,0.5,10.358754293823242,-0.2,-0.001,-0.5,0.35590424864093567,10,1,100,-0.3043257558090314,-10,-1,-100,6488.211324539036,-0.013189175742944237,0.028306869146614413,0.9995122644581897,191.11397681000446,20.00000604306119,22.343321675848603,-1.4583423288627504,-128.0716552734375,4381.2578125,True
1599572397.2707434,0.0,10,0.5,0.5,8.803338201904296,-0.2,-0.001,-0.5,0.32032762541657733,10,1,100,-0.004370607058361786,-10,-1,-100,6488.18198654172,-0.011692172064275733,0.02841787855966566,0.9995277471339091,191.61906736942578,20.052616374408974,25.342085260522563,-1.6495884254524604,-129.74517822265625,4381.2578125,True
1599572397.352595,0.0,10,0.5,0.5,12.139480737304687,-0.2,-0.001,-0.5,0.33502468182990064,10,1,100,-0.4854221593275245,-10,-1,-100,6488.003155815648,-0.005986051330909726,0.02864502858348687,0.9995717230528857,192.11356713772165,20.102874371907827,37.20525902600045,-2.4148193198807286,-135.7001953125,4381.2578125,True
1599572397.4303916,0.0,10,0.5,0.5,9.166684536743164,-0.2,-0.001,-0.5,0.31306492530327196,10,1,100,0.0816974569445061,-10,-1,-100,6488.003155815648,-0.005986051330909726,0.02864502858348687,0.9995717230528857,192.11356713772165,20.102874371907827,37.20525902600045,-2.4148193198807286,-135.7001953125,4381.2578125,True
1599572397.508197,0.0,10,0.5,0.5,10.945170751190187,-0.2,-0.001,-0.5,0.3076660598585109,10,1,100,-0.222469895387703,-10,-1,-100,6487.883004958159,-0.0032497086639496874,0.028590421032561927,0.9995859278815304,191.7129098396312,20.059606223458267,43.019154791396964,-2.797558335608126,-138.23495483398438,4381.2578125,True
1599572397.5879633,0.0,10,0.5,0.5,11.952716529846192,-0.2,-0.001,-0.5,0.31065597897545927,10,1,100,-0.3588475200639408,-10,-1,-100,6487.732596526621,0.0004508624739834103,0.028564188126737382,0.9995918586501643,190.64514412054274,19.944795281758964,51.57332121634189,-3.371783727420806,-141.47970581054688,4381.2578125,True
1599572397.6731768,0.0,10,0.5,0.5,10.988080721282959,-0.2,-0.001,-0.5,0.30414913189883946,10,1,100,-0.1252861424249029,-10,-1,-100,6487.6407996775815,0.0016631174695884013,0.028477936189999185,0.9995930377861986,190.2415905771613,19.901192678629787,54.39070075900764,-3.5632182861016264,-142.41409301757812,4381.2578125,True
1599572397.7504725,0.0,10,0.5,0.5,11.675140509796142,-0.2,-0.001,-0.5,0.30584377079227215,10,1,100,-0.25128594790821535,-10,-1,-100,6487.518737957347,0.0038854302461777215,0.028412986226328662,0.9995887182464119,189.48283665984627,19.818445009863307,60.00576332856355,-3.946121673089136,-144.05868530273438,4381.2578125,True
1599572397.8312232,0.0,10,0.5,0.5,12.193651544189454,-0.2,-0.001,-0.5,0.2955756096368134,10,1,100,-0.3716026379523014,-10,-1,-100,6487.243379971362,0.006975335063270932,0.028259343325672127,0.99957628734157,188.55042657824302,19.714228548074768,68.42113919684896,-4.520556933580464,-145.97018432617188,4381.2578125,True
1599572397.9110167,0.0,10,0.5,0.5,11.873133197021485,-0.2,-0.001,-0.5,0.29763932705281293,10,1,100,-0.2728174693456763,-10,-1,-100,6487.05932920659,0.008862279463995097,0.02813781685308573,0.9995647669188047,188.09067964169716,19.660575370054527,74.05120832427365,-4.90356517394626,-146.87403869628906,4381.2578125,True
1599572397.9997766,0.0,10,0.5,0.5,11.848165708923341,-0.2,-0.001,-0.5,0.3015954985508643,10,1,100,-0.2753550177785056,-10,-1,-100,6486.813272895408,0.010576450705632841,0.028063013038151577,0.9995502018356517,187.80925278731232,19.62470113243005,79.73198043292126,-5.286614523471916,-147.4805145263672,4381.2578125,True
1599572398.0805898,0.0,10,0.5,0.5,11.76370675354004,-0.2,-0.001,-0.5,0.3018229387675187,10,1,100,-0.2787517675330907,-10,-1,-100,6486.628745883005,0.012144062626301041,0.02799729889573417,0.9995342280269702,187.7510761091078,19.6113404319703,85.50057498516495,-5.669705000045464,-147.790283203125,4381.2578125,True
1599572398.1613748,0.0,10,0.5,0.5,11.64118570251465,-0.2,-0.001,-0.5,0.3051424404234517,10,1,100,-0.20447357589134213,-10,-1,-100,6486.474472020054,0.01287223878044662,0.02796811839919404,0.999525932541016,187.8154314221414,19.614136297757373,88.42889654806194,-5.8612654261567645,-147.8339385986328,4381.2578125,True
1599572398.244148,0.0,10,0.5,0.5,11.52564797821045,-0.2,-0.001,-0.5,0.30497009178765516,10,1,100,-0.27990587217188956,-10,-1,-100,6486.226959812106,0.01420282135030089,0.02794063924218149,0.9995086795743344,188.13194129150875,19.63881956656431,94.38857963570648,-6.244415311252096,-147.69833374023438,4381.2578125,True
1599572398.3229423,0.0,10,0.5,0.5,11.062760877990724,-0.2,-0.001,-0.5,0.30706013081474015,10,1,100,-0.3369579827925824,-10,-1,-100,6485.825172906043,0.01591274389882815,0.027935298899090223,0.9994830682192815,189.08378043264787,19.724544376677425,103.63366619159046,-6.819203409985941,-146.93849182128906,4381.2578125,True
1599572398.4186542,0.0,10,0.5,0.5,10.829332525634767,-0.2,-0.001,-0.5,0.3097150148566678,10,1,100,-0.2720047339618344,-10,-1,-100,6485.578145518433,0.01685931445124361,0.02795517491678248,0.9994669938080027,190.0139241203558,19.812006180601607,110.02238755216355,-7.202427760564163,-146.06103515625,4381.2578125,True
1599572398.5034273,0.0,10,0.5,0.5,10.883495492553712,-0.2,-0.001,-0.5,0.30990864526824663,10,1,100,-0.22434773781302714,-10,-1,-100,6485.423381194472,0.017271670941198268,0.027975557948617023,0.9994593826366145,190.55337505272124,19.863403910162774,113.28412744546759,-7.3940462973966525,-145.51100158691406,4381.2578125,True
1599572398.5842106,0.0,10,0.5,0.5,10.232915596008302,-0.2,-0.001,-0.5,0.31513745203056087,10,1,100,-0.26118566219097483,-10,-1,-100,6485.1123835218605,0.017967241105073292,0.028042079291979813,0.9994452561476564,191.75797106312166,19.979269558269014,119.93952794227341,-7.777289674841936,-144.1882781982422,4381.2578125,True
1599572399.2891345,0.0,10,0.5,0.5,9.761073391723635,-0.2,-0.001,-0.5,0.315067479921981,10,1,100,-0.2535911842310573,-10,-1,-100,6484.802845428232,0.018517735262725068,0.028102254318535577,0.9994335179405163,193.0787604174662,20.107433352848812,126.7501668930039,-8.16053313660707,-142.56939697265625,4381.2578125,True
1599572399.3565063,0.0,10,0.5,0.5,9.9258013671875,-0.2,-0.001,-0.5,0.31236880006960477,10,1,100,-0.22372819391972953,-10,-1,-100,6484.585573480115,0.018736209675760562,0.02813256824311661,0.9994285932726921,193.76005980357192,20.17386359400395,130.2018908720675,-8.352152053858537,-141.64886474609375,4381.2578125,True
1599572399.4263098,0.0,10,0.5,0.5,8.941175456237794,-0.2,-0.001,-0.5,0.31734853422404774,10,1,100,-0.23698013539752538,-10,-1,-100,6484.273583410308,0.019046318673580278,0.02820540143833064,0.9994206787307771,195.11592365332854,20.30663335970727,137.16732064929442,-8.73537710114726,-139.58547973632812,4381.2578125,True
1599572399.500626,0.0,10,0.5,0.5,8.320580044555665,-0.2,-0.001,-0.5,0.31710538778619374,10,1,100,-0.2242022021048155,-10,-1,-100,6483.901038089534,0.019204373034420887,0.028269273567817287,0.999415849498247,196.38158192947776,20.431266881258825,144.15511615916125,-9.118574838312089,-137.2261962890625,4381.2578125,True
1599572399.573463,0.0,10,0.5,0.5,7.640623489379884,-0.2,-0.001,-0.5,0.31589467331597354,10,1,100,-0.20976747567412987,-10,-1,-100,6483.528484329465,0.01921041556726237,0.02831608539519216,0.9994144081619122,197.44972754456123,20.537188201457166,151.0748387051527,-9.501735123436006,-134.57113647460938,4381.2578125,True
1599572399.661242,0.0,10,0.5,0.5,6.901412687683106,-0.2,-0.001,-0.5,0.31367422734219375,10,1,100,-0.1939197732820488,-10,-1,-100,6483.1549437397625,0.01906607677829315,0.02833813939577496,0.9994165470772784,198.19444235479358,20.611906688603085,157.80792226322762,-9.884851382515063,-131.62054443359375,4381.2578125,True
1599572399.7370229,0.0,10,0.5,0.5,7.264880592346191,-0.2,-0.001,-0.5,0.3113234255028433,10,1,100,-0.19488345015726968,-10,-1,-100,6482.93716418487,0.01893919925497951,0.028336456197625596,0.9994190072145618,198.40479290576468,20.633523111260942,161.06203420010283,-10.076392099738088,-130.03451538085938,4381.2578125,True
1599572399.8158147,0.0,10,0.5,0.5,4.4157368865966795,-0.2,-0.001,-0.5,0.30346256430912666,10,1,100,-0.14335162603528936,-10,-1,-100,6482.281856353395,0.018352633600534424,0.028263098954548264,0.9994320277424623,198.17143643576222,20.61378298692035,170.12862409146092,-10.650944441479101,-124.83384704589844,4381.2578125,True
1599572399.8906171,0.0,10,0.5,0.5,5.697239961242676,-0.2,-0.001,-0.5,0.3052536233437647,10,1,100,-0.17318804973649035,-10,-1,-100,6482.064555010642,0.01808927474909591,0.028212412975667612,0.9994382611713153,197.73833464509045,20.572194145581253,172.83787059675294,-10.842441942907978,-122.95283508300781,4381.2578125,True
1599572399.9693725,0.0,10,0.5,0.5,3.8473782485961916,-0.2,-0.001,-0.5,0.2942761225155236,10,1,100,-0.13092353254456818,-10,-1,-100,6481.628967833472,0.017464891451672605,0.028066324028222053,0.9994534801690993,196.3970079582249,20.442601563888953,177.78978236290453,-11.225418030573778,-118.96981811523438,4381.2578125,True
1599572400.0531507,0.0,10,0.5,0.5,1.2678224060058598,-0.2,-0.001,-0.5,0.2689842887419143,10,1,100,-0.06814868196212151,-10,-1,-100,6480.973616008763,0.01632704649385954,0.02770356809193306,0.9994828362046859,193.20043918425765,20.131924836619238,183.94421432250016,-11.799877243966868,-112.44332885742188,4381.2578125,True
1599572400.1478934,0.0,10,0.5,0.5,2.902190780639649,-0.2,-0.001,-0.5,0.28750411246074137,10,1,100,-0.13355264598920358,-10,-1,-100,6480.692823863588,0.01588921501315647,0.027542514443865677,0.9994943435279537,191.55474540247334,19.96940314114668,185.37113379934414,-11.991379671540214,-110.12066650390625,4381.2578125,True
1599572400.2416441,0.0,10,0.5,0.5,-1.126040621948242,-0.2,-0.001,-0.5,0.23490093895212857,10,1,100,-0.02219177138357728,-10,-1,-100,6479.974458528566,0.014481402983977626,0.02691842778081635,0.9995327344381598,184.82442976009995,19.29649360561042,187.53544295648115,-12.566006659675548,-102.71150970458984,4381.2578125,True
1599572400.33896,0.0,10,0.5,0.5,-1.1400757667541503,-0.2,-0.001,-0.5,0.23797527560996218,10,1,100,-0.04869671660940274,-10,-1,-100,6479.475846433546,0.013446677837404001,0.026380194760076827,0.9995615399661782,179.35607803098915,18.74432969358469,187.61102406021973,-12.949229905750368,-97.40447235107422,4381.2578125,True
1599572400.4202552,0.0,10,0.5,0.5,-2.349020097351074,-0.2,-0.001,-0.5,0.22134266190368218,10,1,100,-0.033644373910034026,-10,-1,-100,6478.9132639613235,0.012374413402521914,0.02574140377917266,0.9995920437980792,172.15540636798764,18.007174948444955,185.4857914768926,-13.3325971021717,-91.8923568725586,4381.2578125,True
1599572400.5035458,0.0,10,0.5,0.5,-1.4853749198913575,-0.2,-0.001,-0.5,0.24604694261953808,10,1,100,-0.08067652057748378,-10,-1,-100,6478.632948521874,0.011833407069755688,0.02538760969541849,0.9996076429034916,168.27278292180196,17.60667390097879,183.9479935525113,-13.52433548117775,-89.19500732421875,4381.2578125,True
1599572400.5834088,0.0,10,0.5,0.5,-3.7760592765808108,-0.2,-0.001,-0.5,0.19413908284276718,10,1,100,-0.011052522611002202,-10,-1,-100,6478.071826979518,0.010715212849098866,0.02459677137558074,0.9996400267353724,160.42314788912338,16.790827974668055,180.41624270444237,-13.90789889060509,-84.00198364257812,4381.2578125,True
1599572400.6712146,0.0,10,0.5,0.5,-4.615214531707764,-0.2,-0.001,-0.5,0.1755015994552077,10,1,100,0.0009753010188404826,-10,-1,-100,6477.508750925888,0.00959680514859944,0.02371179549477047,0.9996727725037597,165.81570234006497,17.35260838011336,191.70504545365918,-14.291439767653074,-79.1004638671875,4381.2578125,True
1599572400.750967,0.0,10,0.5,0.5,-6.924362454986572,-0.2,-0.001,-0.5,0.09620035323688747,10,1,100,0.07582484316351099,-10,-1,-100,6476.664868072025,0.00790758033633199,0.02219048909519438,0.9997224876769255,179.02356050126002,18.71815921668756,215.44286645788375,-14.866408678737592,-72.30712890625,4381.2578125,True
1599572400.8327742,0.0,10,0.5,0.5,-6.441728661346436,-0.2,-0.001,-0.5,0.1254549757933325,10,1,100,0.02920344408140424,-10,-1,-100,6476.040758302086,0.006805008402665062,0.021078908867802414,0.9997546556338623,186.16798112045822,19.4486985784969,229.91486449556297,-15.249457565540773,-68.15145874023438,4381.2578125,True
1599572400.9175625,0.0,10,0.5,0.5,-8.340911449432372,-0.2,-0.001,-0.5,0.041283341286317526,10,1,100,0.09585647167635987,-10,-1,-100,6475.133409702103,0.005206424469421903,0.019309536906619053,0.9997999974638407,195.27580296074754,20.371771783917673,250.41029841029683,-15.82362311547087,-62.477264404296875,4381.2578125,True
1599572400.9927583,0.0,10,0.5,0.5,-5.508810887908935,-0.2,-0.001,-0.5,0.2173811342861222,10,1,100,-0.06288985944551231,-10,-1,-100,6475.133409702103,0.005206424469421903,0.019309536906619053,0.9997999974638407,195.27580296074754,20.371771783917673,250.41029841029683,-15.82362311547087,-62.477264404296875,4381.2578125,True
1599572401.0741272,0.0,10,0.5,0.5,-7.900342806243897,-0.2,-0.001,-0.5,0.07794000689606262,10,1,100,0.05177950049669606,-10,-1,-100,6474.446323292563,0.004173687370441585,0.018049374819016008,0.9998283854754157,200.06112148579408,20.852137405557848,262.8664057549934,-16.206142285662068,-59.067596435546875,4381.2578125,True
1599572401.1501405,0.0,10,0.5,0.5,-9.389158491516113,-0.2,-0.001,-0.5,-0.009460977496460576,10,1,100,0.11156498187139818,-10,-1,-100,6473.477472180384,0.0027007017367017645,0.016117281293046484,0.9998664608105676,205.6177588459287,21.405637156599944,279.9168645966259,-16.77957331457013,-54.511474609375,4381.2578125,True
1599572401.2478802,0.0,10,0.5,0.5,-8.980743323516846,-0.2,-0.001,-0.5,0.03509659032309592,10,1,100,0.06846892612409619,-10,-1,-100,6472.789911821834,0.0017631752820053113,0.014775231352767457,0.9998892857468757,208.4413177674201,21.685350612477563,290.35478069382725,-17.16165507486034,-51.8466796875,4381.2578125,True
1599572401.3286638,0.0,10,0.5,0.5,-8.506970791625978,-0.2,-0.001,-0.5,0.09483509838402593,10,1,100,0.025956842303852614,-10,-1,-100,6472.445645530592,0.0013069985743930379,0.01410823254618262,0.9998996197264749,209.63365117264843,21.803270914626204,295.33337950642095,-17.352641443531095,-50.62579345703125,4381.2578125,True
1599572401.411443,0.0,10,0.5,0.5,-9.453659133911133,-0.2,-0.001,-0.5,0.014913358296424317,10,1,100,0.07964523164642537,-10,-1,-100,6471.757606824394,0.0004137856720815484,0.012785562700444786,0.9999181757363204,211.6679274267936,22.0046107073564,304.90313190244166,-17.734516132027075,-48.406829833984375,4381.2578125,True
1599572401.4902322,0.0,10,0.5,0.5,-10.28670778503418,-0.2,-0.001,-0.5,-0.07897906691480283,10,1,100,0.13230055690733233,-10,-1,-100,6470.663306421251,-0.0008675458985943987,0.010740305528467541,0.9999419449154382,214.10476598340406,22.247559742782364,318.5963193316657,-18.307111452630945,-45.636871337890625,4381.2578125,True
1599572401.5750074,0.0,10,0.5,0.5,-9.93777142944336,-0.2,-0.001,-0.5,-0.023775291908676277,10,1,100,0.09554883401921446,-10,-1,-100,6469.912785071298,-0.0016887731629103755,0.009394625590331471,0.999954443489913,215.64024480581475,22.403215361224124,327.726934217796,-18.688711048166553,-44.161590576171875,4381.2578125,True
1599572401.6527972,0.0,10,0.5,0.5,-9.641385543823242,-0.2,-0.001,-0.5,0.03644634936648511,10,1,100,0.05865708830499722,-10,-1,-100,6469.507009541267,-0.002091239938978159,0.008730382261350023,0.9999597027586103,216.32814150834187,22.47351490665306,332.2088686165287,-18.879474317971905,-43.535247802734375,4381.2578125,True
1599572401.7335813,0.0,10,0.5,0.5,-10.565310177612306,-0.2,-0.001,-0.5,-0.18073464584115362,10,1,100,0.19304334214582577,-10,-1,-100,6467.943494149717,-0.00367072454455491,0.0061633779391214935,0.9999742689458051,218.7307292386059,22.72240772744348,349.8158247637558,-19.64229782941103,-41.771484375,4381.2578125,True
1599572401.809148,0.0,10,0.5,0.5,-9.864216082763672,-0.2,-0.001,-0.5,0.004265392759072936,10,1,100,0.07780759640790715,-10,-1,-100,6467.598273463431,-0.00405095181653999,0.005523507232522614,0.9999765400534317,219.2729553207697,22.77926858664324,354.1757862817277,-19.832948028464333,-41.51617431640625,4381.2578125,True
1599572401.9019034,0.0,10,0.5,0.5,-9.964755795288086,-0.2,-0.001,-0.5,-0.12627171640130042,10,1,100,0.16806453098088284,-10,-1,-100,6466.378539135912,-0.005208714763293512,0.0037676383520421452,0.9999793368823992,220.81767049558758,22.942024507952638,367.2347891865279,-20.404766465755092,-41.19317626953125,4381.2578125,True
1599572401.9806888,0.0,10,0.5,0.5,-9.7763119140625,-0.2,-0.001,-0.5,-0.018342345901914803,10,1,100,0.0939480513744942,-10,-1,-100,6465.973265617038,-0.0055789108983443315,0.003165553407478837,0.9999794273007885,221.31206268900024,22.994154912599424,371.5901394879695,-20.59532872318842,-41.234222412109375,4381.2578125,True
1599572402.0624704,0.0,10,0.5,0.5,-9.585885488891602,-0.2,-0.001,-0.5,-0.08145331727273758,10,1,100,0.14048694603664608,-10,-1,-100,6465.096805469133,-0.006331006779287324,0.002056241652582502,0.9999778448662886,222.27074687727622,23.09491120361953,380.3026506509626,-20.976387014372193,-41.5374755859375,4381.2578125,True
1599572402.142258,0.0,10,0.5,0.5,-9.554933987426757,-0.2,-0.001,-0.5,-0.02857246418568149,10,1,100,0.107775077649435,-10,-1,-100,6464.6895834193565,-0.006709991338386951,0.0015400741668319662,0.9999763018130976,222.731950260297,23.143068352948152,384.65354478167654,-21.166883153440168,-41.799774169921875,4381.2578125,True
1599572402.2255437,0.0,10,0.5,0.5,-8.824740539550783,-0.2,-0.001,-0.5,-0.1475664132936968,10,1,100,0.1928393915974095,-10,-1,-100,6463.406887029181,-0.007820546528083852,4.934227852952511e-07,0.9999694190582823,224.00854753327604,23.27425790963301,397.6169367573801,-21.73824187039108,-43.031524658203125,4381.2578125,True
1599572402.3023386,0.0,10,0.5,0.5,-8.60772435913086,-0.2,-0.001,-0.5,-0.09932172906535729,10,1,100,0.16331398653928364,-10,-1,-100,6462.530927988584,-0.00855424362527974,-0.0009489146067470832,0.9999629615526109,224.7219903783968,23.344911694916494,406.0890316419813,-22.119044005319715,-44.222137451171875,4381.2578125,True
1599572402.3781385,0.0,10,0.5,0.5,-8.163041613769531,-0.2,-0.001,-0.5,-0.10213199069334769,10,1,100,0.17085023136483388,-10,-1,-100,6461.593448486528,-0.009282764395938564,-0.0018269340846353266,0.9999552452970182,225.26462330957304,23.395199258317817,414.3014991189166,-22.499770694703017,-45.708038330078125,4381.2578125,True
1599572402.458923,0.0,10,0.5,0.5,-8.308355108642578,-0.2,-0.001,-0.5,-0.05994502609910703,10,1,100,0.13862212369679508,-10,-1,-100,6461.1857457902515,-0.00964516958025257,-0.0022314143321542994,0.999950994546156,225.45095583017442,23.410376800126787,418.2666033245672,-22.690108901249822,-46.56158447265625,4381.2578125,True
1599572402.5506773,0.0,10,0.5,0.5,-6.6321338958740235,-0.2,-0.001,-0.5,-0.14725651323590408,10,1,100,0.2201809942499598,-10,-1,-100,6459.777091675438,-0.010709205907711097,-0.0033828991706028803,0.9999369324622568,225.55661743268138,23.403632560587454,429.34992607996264,-23.261041085553686,-49.5654296875,4381.2578125,True
1599572402.6284688,0.0,10,0.5,0.5,-7.3291999603271485,-0.2,-0.001,-0.5,-0.07083763094733246,10,1,100,0.15284908115277177,-10,-1,-100,6459.307867001975,-0.011058004739641542,-0.003726308023742099,0.9999319152620793,225.402426644856,23.379852303996852,432.6884561269315,-23.451331383217216,-50.714111328125,4381.2578125,True
1599572402.7102513,0.0,10,0.5,0.5,-6.139483169555664,-0.2,-0.001,-0.5,-0.10989198955476223,10,1,100,0.1942289278221575,-10,-1,-100,6458.36941829056,-0.01174490496300627,-0.004385128590975964,0.9999214108391971,224.94886525349668,23.314301122070695,439.0763252289476,-23.83189424915023,-53.232879638671875,4381.2578125,True
1599572402.7860482,0.0,10,0.5,0.5,-5.42880654296875,-0.2,-0.001,-0.5,-0.10404359351214147,10,1,100,0.1989840944593018,-10,-1,-100,6457.367493928876,-0.012406646508039415,-0.004923477536307454,0.999910913277465,224.08693861566132,23.20258898457862,444.63807815854784,-24.212450703956694,-56.0455322265625,4381.2578125,True
1599572402.8718224,0.0,10,0.5,0.5,-3.4932922088623046,-0.2,-0.001,-0.5,-0.13246436877827567,10,1,100,0.23835230140805622,-10,-1,-100,6455.896833524341,-0.01335991548886759,-0.005663902688170223,0.9998947108893362,221.54899496237036,22.9000623839663,450.3744265967391,-24.783333307304982,-60.817474365234375,4381.2578125,True
1599572402.950608,0.0,10,0.5,0.5,-3.393134228515626,-0.2,-0.001,-0.5,-0.10241628789759046,10,1,100,0.20888528476247087,-10,-1,-100,6454.895396369626,-0.01395225176674281,-0.006056833777911282,0.9998843180264526,218.9593080698204,22.603116582513977,452.2298308643861,-25.163997897879845,-64.3663330078125,4381.2578125,True
1599572403.0284,0.0,10,0.5,0.5,-2.4753441253662114,-0.2,-0.001,-0.5,-0.09926562443213122,10,1,100,0.21086988817748623,-10,-1,-100,6453.892981358804,-0.014502197268194645,-0.006378495184403757,0.9998744926607424,215.53200629985355,22.219771533779625,452.17979090024113,-25.54475743606393,-68.20913696289062,4381.2578125,True
1599572403.118162,0.0,10,0.5,0.5,-2.9721824432373047,-0.2,-0.001,-0.5,-0.08225244148518478,10,1,100,0.18474545818973404,-10,-1,-100,6453.361256215372,-0.01475857867804392,-0.0065104502647817765,0.9998698907321663,213.41599111650967,21.987371240099225,451.22836064253744,-25.735182260113334,-70.24063110351562,4381.2578125,True
1599572403.2168968,0.0,10,0.5,0.5,0.589559420776367,-0.2,-0.001,-0.5,-0.10522952201889542,10,1,100,0.23702129937972105,-10,-1,-100,6451.828086480033,-0.015461247302313356,-0.0068342360375609505,0.9998571113162319,205.26433655057662,21.111850201673686,444.0902991106733,-26.30667189519111,-76.77618408203125,4381.2578125,True
1599572403.3136418,0.0,10,0.5,0.5,0.6317531494140625,-0.2,-0.001,-0.5,-0.08931580954990866,10,1,100,0.21163008540387263,-10,-1,-100,6450.76316367765,-0.0158635909401357,-0.006979364534048569,0.9998498061975034,198.17118736371876,20.367698458940318,435.2694351271988,-26.687858458435734,-81.50027465820312,4381.2578125,True
1599572404.223885,0.0,10,0.5,0.5,0.0037406707763671943,-0.2,-0.001,-0.5,-0.08146057797773443,10,1,100,0.19201887511416754,-10,-1,-100,6450.2314345485065,-0.01604542104337698,-0.007035572016379462,0.9998465108155067,194.08599354671628,19.944461874408326,429.4990077133805,-26.878508409218455,-83.97247314453125,4381.2578125,True
1599572404.3179631,0.0,10,0.5,0.5,2.2179968048095704,-0.2,-0.001,-0.5,-0.08366874289000412,10,1,100,0.20692932989815455,-10,-1,-100,6449.104008267401,-0.01634141962150924,-0.0071034233423865655,0.9998412370879551,195.7558592645907,20.11874107685422,439.66567814453543,-27.259779347158414,-88.89663696289062,4381.2578125,True
1599572404.5044901,0.0,10,0.5,0.5,3.104012628173828,-0.2,-0.001,-0.5,-0.08167420339523469,10,1,100,0.2049089439776759,-10,-1,-100,6448.039566869149,-0.016587338988823426,-0.007143904083969079,0.999836899108904,204.39642368048894,21.021124041688264,465.83950529941353,-27.640752815801505,-93.67417907714844,4381.2578125,True
1599572404.5987465,0.0,10,0.5,0.5,8.679094050598145,-0.2,-0.001,-0.5,-0.07593075734294656,10,1,100,0.21589004839204062,-10,-1,-100,6445.1958312316565,-0.01690632805921617,-0.0071259836344842046,0.999831684049268,222.73146390204053,22.97795303084728,526.0732037434835,-28.591687119870492,-105.04533386230469,4381.2578125,True
1599572404.6964874,0.0,10,0.5,0.5,5.867294049072266,-0.2,-0.001,-0.5,-0.07414021549824489,10,1,100,0.18522018917106337,-10,-1,-100,6444.067412766279,-0.016913410601608708,-0.007091412385365961,0.9998318100621735,228.67909872249066,23.624602074527232,547.6925037451086,-28.971459085010856,-109.14373016357422,4381.2578125,True
1599572404.7952251,0.0,10,0.5,0.5,6.4841322898864755,-0.2,-0.001,-0.5,-0.07359646261847241,10,1,100,0.17777463246326758,-10,-1,-100,6442.8799098877935,-0.016848931947246744,-0.007053743032990358,0.999833165183803,233.6225872638535,24.16681746294738,567.2644768977207,-29.350921834356104,-112.94544982910156,4381.2578125,True
1599572404.8889732,0.0,10,0.5,0.5,5.840618314361572,-0.2,-0.001,-0.5,-0.07552732418624508,10,1,100,0.17799190291347378,-10,-1,-100,6442.280298011494,-0.016789656829028193,-0.007036145173033126,0.9998342863118207,235.6879217687699,24.39485933241595,576.1789878769677,-29.540550648901444,-114.7347183227539,4381.2578125,True
1599572404.998263,0.0,10,0.5,0.5,8.395521879577636,-0.2,-0.001,-0.5,-0.07176790549511715,10,1,100,0.15535558114439812,-10,-1,-100,6440.49805858382,-0.01652790610587352,-0.006985372721344816,0.9998390034839105,240.50852470369105,24.92989765810364,599.9027879673059,-30.10909126243413,-119.6559829711914,4381.2578125,True
1599572405.1269195,0.0,10,0.5,0.5,7.976123357391358,-0.2,-0.001,-0.5,-0.0746428316397136,10,1,100,0.15372080538024718,-10,-1,-100,6439.24658228585,-0.016273480825669873,-0.006964919891618535,0.9998433195819831,243.0175365124548,25.20685407235325,614.2075330835028,-30.4878749920958,-122.56497192382812,4381.2578125,True
1599572405.2256553,0.0,10,0.5,0.5,7.466309383392335,-0.2,-0.001,-0.5,-0.0761455086443256,10,1,100,0.16279884091676622,-10,-1,-100,6438.647943439544,-0.016123974318068224,-0.0069598683065874275,0.999845776950298,244.0354977696295,25.318642111025586,620.8226446740242,-30.677205648077205,-123.90797424316406,4381.2578125,True
1599572405.3164132,0.0,10,0.5,0.5,9.307309339141845,-0.2,-0.001,-0.5,-0.07719323114448344,10,1,100,0.12075329267132848,-10,-1,-100,6436.801241545589,-0.01560559034221917,-0.006964818430403729,0.9998539677644444,246.33310591519736,25.566929868471735,638.9206943984651,-31.244990901068906,-127.49120330810547,4381.2578125,True
1599572405.4131565,0.0,10,0.5,0.5,8.252170245361327,-0.2,-0.001,-0.5,-0.07779902038219733,10,1,100,0.15064528580284448,-10,-1,-100,6436.154261129675,-0.015406477420553047,-0.006974890039294108,0.9998569854546348,246.895633396342,25.62584788727118,644.4780973559416,-31.43419211229147,-128.53709411621094,4381.2578125,True
1599572405.4965107,0.0,10,0.5,0.5,9.041619367980958,-0.2,-0.001,-0.5,-0.08092387473413848,10,1,100,0.12234591836547681,-10,-1,-100,6434.892525489908,-0.014969048644335917,-0.007012570662669456,0.9998633663833197,247.7936343064867,25.716385854242933,655.0568992634749,-31.812515331296673,-130.40628051757812,4381.2578125,True
1599572405.5812836,0.0,10,0.5,0.5,9.683819494628906,-0.2,-0.001,-0.5,-0.08611948130164417,10,1,100,0.08596265396627344,-10,-1,-100,6432.984783516498,-0.014242100344458938,-0.007094177955825551,0.9998734095958896,248.74143223098642,25.802657370193906,669.9842766621292,-32.37981991121858,-132.65359497070312,4381.2578125,True
1599572405.66107,0.0,10,0.5,0.5,8.983546873474122,-0.2,-0.001,-0.5,-0.08237436529730759,10,1,100,0.12902173831421326,-10,-1,-100,6432.326571387588,-0.013975106500201825,-0.007134348809272267,0.999876891154794,248.990548164118,25.82267471956667,674.806384614085,-32.568876301759175,-133.25448608398438,4381.2578125,True
1599572405.7588084,0.0,10,0.5,0.5,9.635964052581787,-0.2,-0.001,-0.5,-0.09240316956586714,10,1,100,0.0627246316858166,-10,-1,-100,6430.348515910795,-0.013132355039802123,-0.0072619996817344535,0.9998873959660314,249.64396407397663,25.86881961655812,689.0829754690661,-33.135912636106184,-134.61227416992188,4381.2578125,True
1599572405.8385959,0.0,10,0.5,0.5,9.333696530914306,-0.2,-0.001,-0.5,-0.09146025748086342,10,1,100,0.07955984835370872,-10,-1,-100,6428.973009191104,-0.012522643479062727,-0.007369284677155731,0.9998944329496205,250.0632841020452,25.895297564445528,698.6079992019171,-33.51382412903189,-135.147216796875,4381.2578125,True
1599572405.9223735,0.0,10,0.5,0.5,9.235405139160157,-0.2,-0.001,-0.5,-0.09311385040184644,10,1,100,0.07002531895271999,-10,-1,-100,6427.65658443165,-0.011885561805063347,-0.007481546299998445,0.9999013750793321,250.50789703108913,25.923113689879084,708.2455086434638,-33.89164106644659,-135.385986328125,4381.2578125,True
1599572406.00416,0.0,10,0.5,0.5,9.123425283050537,-0.2,-0.001,-0.5,-0.08797223785168848,10,1,100,0.09738739320553846,-10,-1,-100,6426.939778774395,-0.011559363089453906,-0.0075364093216007,0.9999047872970223,250.74611285979196,25.93839193145857,713.125404923773,-34.080512481563524,-135.39431762695312,4381.2578125,True
1599572406.0911217,0.0,10,0.5,0.5,8.827547878265381,-0.2,-0.001,-0.5,-0.10257590876854655,10,1,100,0.016344091969349328,-10,-1,-100,6424.899224772933,-0.010530347080149254,-0.00771852590463784,0.9999147644415654,251.53784497784162,25.99208917476063,728.0543941197025,-34.64697048674437,-134.9757537841797,4381.2578125,True
1599572406.1715665,0.0,10,0.5,0.5,8.836767754364015,-0.2,-0.001,-0.5,-0.09102254647976948,10,1,100,0.07972569898832262,-10,-1,-100,6424.185837594909,-0.010176159523897436,-0.007778366179684493,0.9999179680338377,251.82521936698586,26.012655785251113,733.1226442560237,-34.83573541089919,-134.68836975097656,4381.2578125,True
1599572406.2593317,0.0,10,0.5,0.5,8.06742826690674,-0.2,-0.001,-0.5,-0.10475299756550051,10,1,100,-0.0062916601771271785,-10,-1,-100,6422.082785649691,-0.009077130690181078,-0.007956849123461477,0.9999271444712658,252.72579022583318,26.08027487291646,748.5162173224644,-35.401859140296345,-133.3830108642578,4381.2578125,True
1599572406.353589,0.0,10,0.5,0.5,7.853026383972168,-0.2,-0.001,-0.5,-0.09917167592491204,10,1,100,0.019591644336917444,-10,-1,-100,6420.638434953173,-0.008319070288503315,-0.008067474367358688,0.9999328522090206,253.32057307456893,26.127323356995756,758.8262407435736,-35.77912917609382,-132.1436309814453,4381.2578125,True
1599572406.4314084,0.0,10,0.5,0.5,7.398686569213867,-0.2,-0.001,-0.5,-0.09864917123234757,10,1,100,0.00991402403616537,-10,-1,-100,6419.208245255519,-0.007547991537294722,-0.008162333724874031,0.999938200156348,253.8594036593846,26.17156352331676,769.0180723816292,-36.15628259021747,-130.6090545654297,4381.2578125,True
1599572406.5171795,0.0,10,0.5,0.5,6.885057432556152,-0.2,-0.001,-0.5,-0.09735924259645803,10,1,100,0.0005902345672048476,-10,-1,-100,6417.770243603503,-0.0067683346853937825,-0.008235871829771667,0.999943178416049,254.2857887978359,26.207985968196606,778.9135495189621,-36.533323025693086,-128.7794647216797,4381.2578125,True
1599572406.595968,0.0,10,0.5,0.5,6.312364141845703,-0.2,-0.001,-0.5,-0.09612458494343179,10,1,100,-0.009128962661545448,-10,-1,-100,6416.256559908972,-0.005977751001417751,-0.008290499107359734,0.9999477656945466,254.5309374916172,26.23032714612631,788.2893426628856,-36.91025856373223,-126.65512084960938,4381.2578125,True
1599572406.6857276,0.0,10,0.5,0.5,5.680451940917969,-0.2,-0.001,-0.5,-0.09359894174480833,10,1,100,-0.017817215651713493,-10,-1,-100,6414.825396252563,-0.0051865586288365444,-0.008316264876610831,0.9999519685205344,254.5122650990414,26.23082240151488,796.8701923242528,-37.28710215932378,-124.23613739013672,4381.2578125,True
1599572406.7625644,0.0,10,0.5,0.5,5.964927544403077,-0.2,-0.001,-0.5,-0.09131789582522118,10,1,100,0.017015854595873577,-10,-1,-100,6414.039258832461,-0.0047906262786046264,-0.008318090631025168,0.9999539285727682,254.37582925296545,26.220166776603893,800.7661817665107,-37.47549508376995,-122.91624450683594,4381.2578125,True
1599572406.8453033,0.0,10,0.5,0.5,4.6212474037170415,-0.2,-0.001,-0.5,-0.08896132468889284,10,1,100,-0.030709851013573,-10,-1,-100,6412.532413156936,-0.004003267668786513,-0.008297566538952465,0.9999575612182267,253.78528532488414,26.170745599610473,807.5475653791506,-37.85223767796849,-120.05570220947266,4381.2578125,True
1599572406.9240906,0.0,10,0.5,0.5,2.660497233581543,-0.2,-0.001,-0.5,-0.08101960734286023,10,1,100,-0.08150901334662145,-10,-1,-100,6410.246755784727,-0.002832545725397485,-0.008206018881906665,0.999962318259455,251.90182586998984,26.005311988798233,814.4607711327232,-38.4172984295249,-115.21357727050781,4381.2578125,True
1599572407.0148644,0.0,10,0.5,0.5,2.56282628326416,-0.2,-0.001,-0.5,-0.07860076602948939,10,1,100,-0.0493040426963778,-10,-1,-100,6408.683759877575,-0.0020680235112776305,-0.008100361097218685,0.9999650531037831,249.80874793099227,25.815506211468723,816.2599600902541,-38.79402119395636,-111.61820983886719,4381.2578125,True
1599572407.0966332,0.0,10,0.5,0.5,1.6358976852416993,-0.2,-0.001,-0.5,-0.07315376149392372,10,1,100,-0.05401057871059413,-10,-1,-100,6407.118324342882,-0.0013375876583236325,-0.007954497619981257,0.9999674678842658,246.90331143700897,25.545737512177396,815.2651025447287,-39.17080325039218,-107.72920227050781,4381.2578125,True
1599572407.182415,0.0,10,0.5,0.5,0.6501909774780277,-0.2,-0.001,-0.5,-0.06795765135998454,10,1,100,-0.05917152531773852,-10,-1,-100,6405.548493764945,-0.000633673316511283,-0.007774659231732766,0.9999695761031725,243.06541443089247,25.18125617922744,810.9942260058198,-39.54768736819141,-103.5468521118164,4381.2578125,True
1599572407.2661877,0.0,10,0.5,0.5,-0.3943663932800292,-0.2,-0.001,-0.5,-0.06205985068795672,10,1,100,-0.06309388738084183,-10,-1,-100,6403.986965599237,3.49199248263449e-05,-0.007557819613702637,0.9999714386637677,238.54613486236127,24.745010767868287,804.1978134872955,-39.92471063825034,-99.07131958007812,4381.2578125,True
1599572407.3529568,0.0,10,0.5,0.5,-1.48679400100708,-0.2,-0.001,-0.5,-0.05621087318315302,10,1,100,-0.06530625752562735,-10,-1,-100,6402.351218956523,0.0006559508623930376,-0.007308069723732641,0.9999730805603615,233.41515077779815,24.240783457643353,795.0401908842194,-40.301889357172506,-94.31840515136719,4381.2578125,True
1599572407.4377298,0.0,10,0.5,0.5,-0.8334484199523926,-0.2,-0.001,-0.5,-0.06612181403486397,10,1,100,-0.036157803217349044,-10,-1,-100,6401.502584493253,0.0009487891432440583,-0.00717196728796278,0.9999738309997827,230.40091587171844,23.939246951921398,788.8033591495766,-40.49054572889332,-91.86174011230469,4381.2578125,True
1599572407.520299,0.0,10,0.5,0.5,-3.039263878631592,-0.2,-0.001,-0.5,-0.04780001495939097,10,1,100,-0.0677024811722314,-10,-1,-100,6399.878556861659,0.0014954787071124061,-0.006882692838230785,0.9999751957337398,223.92128447572472,23.28146843682945,774.4732273749923,-40.86799554938769,-86.96078491210938,4381.2578125,True
1599572407.5980976,0.0,10,0.5,0.5,-5.474377217102051,-0.2,-0.001,-0.5,-0.024409618746475015,10,1,100,-0.09346661654796029,-10,-1,-100,6397.404430692317,0.002220614052830304,-0.006408379347482809,0.9999770005091952,215.8568608770488,22.44361257413656,757.967718731333,-41.43441988403435,-79.9866943359375,4381.2578125,True
1599572407.688856,0.0,10,0.5,0.5,-5.017873052978516,-0.2,-0.001,-0.5,-0.03485157138314135,10,1,100,-0.06727301489295218,-10,-1,-100,6395.7799165463075,0.0026353304972270147,-0.006073848208303017,0.9999780814603452,224.3508900293038,23.31155914567826,795.6898188362686,-41.8117604353356,-75.66348266601562,4381.2578125,True
1599572407.768642,0.0,10,0.5,0.5,-5.6830514106750485,-0.2,-0.001,-0.5,-0.0312651215669533,10,1,100,-0.06524604256134385,-10,-1,-100,6394.086066415068,0.0029878833362403,-0.005739146463747542,0.9999790671564265,231.67767011347593,24.047838814731875,829.8253654691459,-42.18870963624508,-71.63156127929688,4381.2578125,True
1599572407.8494284,0.0,10,0.5,0.5,-6.284550115203857,-0.2,-0.001,-0.5,-0.02725030739380436,10,1,100,-0.0633988254514619,-10,-1,-100,6392.395634468063,0.0032863017351974166,-0.005400616451139537,0.9999800165817581,237.91457855032013,24.663430994422324,860.5272294837279,-42.56528513355339,-67.8985595703125,4381.2578125,True
1599572407.9341996,0.0,10,0.5,0.5,-5.650241049957276,-0.2,-0.001,-0.5,-0.04211467282825561,10,1,100,-0.048191272997568646,-10,-1,-100,6391.546512789209,0.0034144731435353337,-0.005230446802396434,0.999980491709413,240.6598085467915,24.930580117847345,874.6830211037698,-42.7534405189774,-66.14453125,4381.2578125,True
1599572408.0099978,0.0,10,0.5,0.5,-8.145579936981202,-0.2,-0.001,-0.5,-0.004164599074531879,10,1,100,-0.06850701320905023,-10,-1,-100,6388.948853115784,0.003711361097763401,-0.004733222861066656,0.9999819110364695,247.58037684295343,25.591902815341296,912.8683992893727,-43.31742214327546,-61.33282470703125,4381.2578125,True
1599572408.0927756,0.0,10,0.5,0.5,-7.7269253631591805,-0.2,-0.001,-0.5,-0.017582623172802493,10,1,100,-0.0535297829838412,-10,-1,-100,6387.195920956088,0.0038411525682740394,-0.00440594807563356,0.999982916438327,251.24590947780993,25.934089751305276,935.1936961306984,-43.69304512068928,-58.5,4381.2578125,True
1599572408.1715682,0.0,10,0.5,0.5,-8.087598706054688,-0.2,-0.001,-0.5,-0.015422013516249326,10,1,100,-0.049424341576561226,-10,-1,-100,6385.436152776121,0.003918362408087122,-0.0040916489752148705,0.9999839522935868,254.2844630097175,26.21289227565239,955.4179131891651,-44.0684115760352,-55.96710205078125,4381.2578125,True
1599572408.2553415,0.0,10,0.5,0.5,-8.388235594177246,-0.2,-0.001,-0.5,-0.013104415400343336,10,1,100,-0.045027426009406964,-10,-1,-100,6383.683220426319,0.003945615383174255,-0.0037877774653701144,0.9999850423186943,256.8001826195097,26.44016061407155,973.8731337255398,-44.44354961310073,-53.73388671875,4381.2578125,True
1599572408.3421097,0.0,10,0.5,0.5,-7.97849552307129,-0.2,-0.001,-0.5,-0.026638490804935643,10,1,100,-0.04202370045035437,-10,-1,-100,6382.772086378187,0.003940359831589415,-0.0036376442235735323,0.9999856204510644,257.89207181791556,26.537782303447333,982.5358133335354,-44.631040841445895,-52.729522705078125,4381.2578125,True
1599572408.4204102,0.0,10,0.5,0.5,-9.274618844604493,-0.2,-0.001,-0.5,0.0059627437613158155,10,1,100,-0.033395125925248396,-10,-1,-100,6380.056261603371,0.003854917851625437,-0.00320773464280586,0.9999874249443431,260.6329000268234,26.780310237793426,1006.6970795468648,-45.193234646156576,-50.1654052734375,4381.2578125,True
1599572408.4992008,0.0,10,0.5,0.5,-8.48918239440918,-0.2,-0.001,-0.5,-0.021516294716924,10,1,100,-0.036410011586799164,-10,-1,-100,6379.1382913992275,0.0038031656451279227,-0.003069626868914408,0.9999880565896581,261.40067027471594,26.847711508419454,1014.2532499970546,-45.380546889646126,-49.460205078125,4381.2578125,True
1599572409.2251585,0.0,10,0.5,0.5,-8.969683581542968,-0.2,-0.001,-0.5,-0.0049249437490185635,10,1,100,-0.026185116940575754,-10,-1,-100,6377.326764985337,0.0036621029286664233,-0.0027959749941588465,0.9999893857066544,262.76690821003547,26.96727312018103,1028.7915103021242,-45.7550534519073,-48.2738037109375,4381.2578125,True
1599572409.2909813,0.0,10,0.5,0.5,-9.000205392456055,-0.2,-0.001,-0.5,-0.0038626072839422695,10,1,100,-0.021235097100067157,-10,-1,-100,6375.504495562636,0.00348825098824914,-0.002540218568761814,0.9999906896539916,263.95486046713523,27.071054087952017,1042.7335456355172,-46.129412719076676,-47.3861083984375,4381.2578125,True
1599572409.363139,0.0,10,0.5,0.5,-8.790873580932617,-0.2,-0.001,-0.5,-0.014922553172536589,10,1,100,-0.026646554320265064,-10,-1,-100,6374.530860784813,0.0033792152450960893,-0.0024108580518266217,0.9999913842967755,264.4944939572518,27.11815439769716,1049.525264503818,-46.31654011208474,-47.05401611328125,4381.2578125,True
1599572409.446424,0.0,10,0.5,0.5,-8.935101358032226,-0.2,-0.001,-0.5,-0.0001581897759092149,10,1,100,-0.011321371397902125,-10,-1,-100,6372.715915847453,0.0031408040501158703,-0.0021615993589621705,0.9999927313926489,265.4905576199403,27.205019195219172,1062.8433715430328,-46.69069475858017,-46.613494873046875,4381.2578125,True
1599572409.533702,0.0,10,0.5,0.5,-8.792319750976564,-0.2,-0.001,-0.5,-0.011402930326086027,10,1,100,-0.020383695530718306,-10,-1,-100,6371.742281716317,0.0030069700532027706,-0.002039563300907099,0.9999933991345346,265.95300068234127,27.24524106231249,1069.3912992611474,-46.8777236028486,-46.504913330078125,4381.2578125,True
1599572409.6087246,0.0,10,0.5,0.5,-8.654890109252928,-0.2,-0.001,-0.5,0.016023572139836753,10,1,100,0.017312057388353952,-10,-1,-100,6368.84579187294,0.002543372468122088,-0.0016814408482347602,0.9999953519957792,267.2192563785442,27.354231680075262,1088.6637589428046,-47.4386242880019,-46.625396728515625,4381.2578125,True
1599572409.6865134,0.0,10,0.5,0.5,-8.583897399902344,-0.2,-0.001,-0.5,-0.006708842223905918,10,1,100,-0.010144850611187261,-10,-1,-100,6367.920497784391,0.0023727783634445374,-0.0015647243928639128,0.9999959607720486,267.6041881804193,27.386706939856133,1094.9741045734236,-47.62553116431018,-46.814208984375,4381.2578125,True
1599572409.764273,0.0,10,0.5,0.5,-8.258798962402345,-0.2,-0.001,-0.5,0.007263796790454951,10,1,100,0.014374319794587778,-10,-1,-100,6365.944420834188,0.0019962211164303817,-0.0013336154906439584,0.9999971182813365,268.3119441571638,27.44469465639108,1107.3926550569215,-47.99925906913063,-47.41448974609375,4381.2578125,True
1599572409.8400698,0.0,10,0.5,0.5,-7.539933493041993,-0.2,-0.001,-0.5,0.022032543665826534,10,1,100,0.04386247181266366,-10,-1,-100,6363.029865840683,0.0013875896359942404,-0.0009913497249705579,0.9999985459093054,269.1835490909341,27.50942297200736,1125.3557480471911,-48.55964729573316,-48.8709716796875,4381.2578125,True
1599572409.9258409,0.0,10,0.5,0.5,-7.824779733276367,-0.2,-0.001,-0.5,0.00043038875198887945,10,1,100,0.007895537689392338,-10,-1,-100,6362.058185431408,0.0011635034441871523,-0.0008785971507731136,0.9999989371628263,269.4071950917375,27.52308310638403,1131.0935064243927,-48.74639307855239,-49.50457763671875,4381.2578125,True
1599572410.0016384,0.0,10,0.5,0.5,-5.849958401489258,-0.2,-0.001,-0.5,0.03922277401118441,10,1,100,0.08787931066316584,-10,-1,-100,6358.109941120143,0.0002350632084199866,-0.00042542860798106056,0.9999998818778867,269.82508584427825,27.521823752258715,1152.1472712623813,-49.493161397166105,-52.7783203125,4381.2578125,True
1599572410.0824254,0.0,10,0.5,0.5,-7.486379287719727,-0.2,-0.001,-0.5,-0.005857025629403112,10,1,100,-0.004622008941526092,-10,-1,-100,6358.109941120143,0.0002350632084199866,-0.00042542860798106056,0.9999998818778867,269.82508584427825,27.521823752258715,1152.1472712623813,-49.493161397166105,-52.7783203125,4381.2578125,True
1599572410.162605,0.0,10,0.5,0.5,-5.224618753051758,-0.2,-0.001,-0.5,0.031847637305436695,10,1,100,0.07907648841894513,-10,-1,-100,6355.133378472179,-0.0005228747786935435,-8.458148126504482e-05,0.9999998597239597,269.4165375384205,27.438525295445565,1164.9271438585736,-50.05306773723251,-56.008636474609375,4381.2578125,True
1599572410.2693138,0.0,10,0.5,0.5,-5.981996606445313,-0.2,-0.001,-0.5,0.01065757439895272,10,1,100,0.031130371683147005,-10,-1,-100,6354.161699313438,-0.0007724881693587791,3.052781062642284e-05,0.9999997011649958,269.09485144030504,27.39017516778637,1168.3881414460645,-50.23968437439195,-57.232757568359375,4381.2578125,True
1599572410.379022,0.0,10,0.5,0.5,-3.7132711059570314,-0.2,-0.001,-0.5,0.036875602654171225,10,1,100,0.09664313611296538,-10,-1,-100,6351.122151109972,-0.0015914224809441835,0.0003715254899664811,0.9999986646707573,267.4154013347492,27.168207330283973,1175.6177933471447,-50.79952386508793,-61.346649169921875,4381.2578125,True
1599572410.4757621,0.0,10,0.5,0.5,-2.426237005615235,-0.2,-0.001,-0.5,0.04053262825377873,10,1,100,0.10755405934056374,-10,-1,-100,6348.020593756926,-0.002430918073059857,0.00071257716864399,0.9999967914304028,264.4218564431146,26.80925716090896,1176.9146758883205,-51.359429673692446,-66.12164306640625,4381.2578125,True
1599572410.5735009,0.0,10,0.5,0.5,-3.5949447296142587,-0.2,-0.001,-0.5,0.019139601941535044,10,1,100,0.05415445477763904,-10,-1,-100,6346.985927309375,-0.0027041228511918976,0.0008259657118605293,0.9999960027421354,263.0714067057871,26.6540499777681,1175.7230875365199,-51.54609999914298,-67.8599853515625,4381.2578125,True
1599572410.673743,0.0,10,0.5,0.5,-3.193859439086914,-0.2,-0.001,-0.5,0.020376384806228297,10,1,100,0.05787004065653084,-10,-1,-100,6345.951750710723,-0.0029816535200158267,0.0009381163316412088,0.9999951148280849,261.52151435366767,26.479220045414863,1173.6002371110415,-51.73279562734174,-69.671630859375,4381.2578125,True
1599572410.7654977,0.0,10,0.5,0.5,-1.407429623413086,-0.2,-0.001,-0.5,0.033579516429879115,10,1,100,0.09196366247271379,-10,-1,-100,6343.882908384898,-0.003539370803969747,0.0011580346990911201,0.9999930658809327,257.7622407398921,26.065980483163855,1166.2405403965436,-52.106282141515194,-73.5145263671875,4381.2578125,True
1599572410.8771996,0.0,10,0.5,0.5,1.0924010650634766,-0.2,-0.001,-0.5,0.04745291342053144,10,1,100,0.13257619506912324,-10,-1,-100,6340.7188554167515,-0.004411112303495248,0.0014821282926660046,0.9999891726333691,250.2766355025757,25.273462134006948,1146.322928049532,-52.66682030938844,-79.82711791992188,4381.2578125,True
1599572410.9739397,0.0,10,0.5,0.5,1.1405352478027344,-0.2,-0.001,-0.5,0.03798687891444369,10,1,100,0.10963956853684323,-10,-1,-100,6338.650015551946,-0.004990021956636174,0.0016885578590937935,0.9999861241303446,243.9121548545491,24.620772295208564,1126.2963565788848,-53.04076795075083,-84.40054321289062,4381.2578125,True
1599572411.0732515,0.0,10,0.5,0.5,2.2003136810302735,-0.2,-0.001,-0.5,0.03883845492719824,10,1,100,0.11560005099032143,-10,-1,-100,6336.457153638243,-0.005565739586191312,0.001882040895537666,0.9999827400835107,243.02344607641737,24.536062539217767,1131.3207976845351,-53.41481066823021,-89.17672729492188,4381.2578125,True
1599572411.178788,0.0,10,0.5,0.5,3.0297347717285157,-0.2,-0.001,-0.5,0.039595169815577314,10,1,100,0.12239808103326745,-10,-1,-100,6334.325328417937,-0.006145646065454936,0.0020627160917414335,0.9999789878976272,250.59995372881224,25.321434796891484,1176.0254319317628,-53.78844377776846,-93.76797485351562,4381.2578125,True
1599572411.2785203,0.0,10,0.5,0.5,3.7542123046875,-0.2,-0.001,-0.5,0.04008029436151604,10,1,100,0.1287275094436326,-10,-1,-100,6332.193503845949,-0.006725262421891767,0.0022294244045506593,0.9999748999410841,257.43019717123696,26.044549664382327,1217.7770213592075,-54.16164299026612,-98.07701110839844,4381.2578125,True
1599572411.3842359,0.0,10,0.5,0.5,4.4119710464477535,-0.2,-0.001,-0.5,0.03981656498784594,10,1,100,0.13460337520006707,-10,-1,-100,6330.001133005135,-0.00730019173075417,0.0023765808795312053,0.9999705290977415,263.6235266190284,26.713185429861433,1257.0026906548621,-54.5344112637561,-102.08871459960938,4381.2578125,True
1599572411.4919484,0.0,10,0.5,0.5,3.7356817886352545,-0.2,-0.001,-0.5,0.032545847138728295,10,1,100,0.10925968072369012,-10,-1,-100,6328.903971938649,-0.007587267726071282,0.002442439280531028,0.9999682334248492,266.35436939655466,27.013132805957625,1275.0359625588417,-54.720643710204904,-103.98226928710938,4381.2578125,True
1599572411.5787163,0.0,10,0.5,0.5,5.286408464050293,-0.2,-0.001,-0.5,0.03870319135957854,10,1,100,0.14395922133421013,-10,-1,-100,6326.710137391929,-0.008159008682225192,0.002556713808800517,0.9999634462278224,271.3634169167793,27.570508245274006,1309.2186565288337,-55.092823221933934,-107.54472351074219,4381.2578125,True
1599572411.6694736,0.0,10,0.5,0.5,7.8680853729248055,-0.2,-0.001,-0.5,0.044756895404240646,10,1,100,0.2136166322851381,-10,-1,-100,6322.260947298142,-0.009307063391163516,0.002714060009363399,0.9999530051203899,280.0436233593736,28.55340975799618,1372.1272613027054,-55.83610360923637,-113.77177429199219,4381.2578125,True
1599572411.7602322,0.0,10,0.5,0.5,4.758969996643067,-0.2,-0.001,-0.5,0.029199869715724674,10,1,100,0.09944370237842048,-10,-1,-100,6322.260947298142,-0.009307063391163516,0.002714060009363399,0.9999530051203899,280.0436233593736,28.55340975799618,1372.1272613027054,-55.83610360923637,-113.77177429199219,4381.2578125,True
1599572411.8594816,0.0,10,0.5,0.5,7.483517266845703,-0.2,-0.001,-0.5,0.03221371092427785,10,1,100,0.19238469575878647,-10,-1,-100,6318.907453987165,-0.010146738155905758,0.0027400439973409075,0.9999447664064692,284.8676381966693,29.114266457349686,1411.7929175715044,-56.39275930689634,-117.65823364257812,4381.2578125,True
1599572411.9482439,0.0,10,0.5,0.5,7.795102197265625,-0.2,-0.001,-0.5,0.025469811109063087,10,1,100,0.20328241043461148,-10,-1,-100,6315.490485820337,-0.011003934779222195,0.0027012140647233495,0.9999358063705646,288.60148770482516,29.555431192427783,1446.5420554986244,-56.94884426045691,-120.87399291992188,4381.2578125,True
1599572412.0300608,0.0,10,0.5,0.5,6.190869903564454,-0.2,-0.001,-0.5,0.02945406999138185,10,1,100,0.11816413938522631,-10,-1,-100,6315.490485820337,-0.011003934779222195,0.0027012140647233495,0.9999358063705646,288.60148770482516,29.555431192427783,1446.5420554986244,-56.94884426045691,-120.87399291992188,4381.2578125,True
1599572412.1247723,0.0,10,0.5,0.5,7.977044390869141,-0.2,-0.001,-0.5,0.012656553398952875,10,1,100,0.2077384602527495,-10,-1,-100,6312.013459305046,-0.011813302973296923,0.0025477646655474627,0.9999269747176891,291.5406513902568,29.905683931767417,1477.7043484239168,-57.50444073872821,-123.421142578125,4381.2578125,True
1599572412.195581,0.0,10,0.5,0.5,8.021995028686524,-0.2,-0.001,-0.5,0.002739530556955354,10,1,100,0.21872855674975522,-10,-1,-100,6308.533992724842,-0.012643849793421418,0.002317669505393219,0.9999173773219792,293.90817708820475,30.18831986781483,1506.3027746290209,-58.059609457296204,-125.3005142211914,4381.2578125,True
1599572412.2793581,0.0,10,0.5,0.5,7.0850315574646,-0.2,-0.001,-0.5,0.02575787108246397,10,1,100,0.1362657334744588,-10,-1,-100,6308.533992724842,-0.012643849793421418,0.002317669505393219,0.9999173773219792,293.90817708820475,30.18831986781483,1506.3027746290209,-58.059609457296204,-125.3005142211914,4381.2578125,True
1599572412.3567452,0.0,10,0.5,0.5,7.936830123901367,-0.2,-0.001,-0.5,-0.011777384457508207,10,1,100,0.2241637527756103,-10,-1,-100,6305.055503487121,-0.013438064825193097,0.001976493465369961,0.9999077516887922,295.90815660677777,30.425927984018834,1533.3092763685781,-58.61439007667033,-126.51405334472656,4381.2578125,True
1599572412.4494987,0.0,10,0.5,0.5,7.512061512756348,-0.2,-0.001,-0.5,0.00724344257331957,10,1,100,0.17398416489770732,-10,-1,-100,6303.895844512386,-0.013698581512369032,0.0018396736254610345,0.9999044776704927,296.5131452556913,30.497578406362983,1542.0525142399279,-58.799235423620814,-126.77083587646484,4381.2578125,True
1599572412.5293128,0.0,10,0.5,0.5,7.590078179168701,-0.2,-0.001,-0.5,-0.011646444379554373,10,1,100,0.20871070143256015,-10,-1,-100,6301.514515348012,-0.014246074675727504,0.0015442175625025559,0.9998973271033648,297.64900772591176,30.63201318685647,1559.2378905105425,-59.168807620912474,-127.06295776367188,4381.2578125,True
