Timestamp,Input Throttle,horizon,dT,dt,Input Roll,Roll P,Roll I,Roll D,Input Pitch,Pitch P,Pitch I,Pitch D,Input Yaw,Yaw P,Yaw I,Yaw D,Altitude,Direction X,Direction Y,Direction Z,Drag X,Drag Y,Drag Z,Vertical Velocity,Roll,Mass,Has Fuel
1599567285.1644125,0.0,10,0.5,0.5,-2.7445118942260742,-0.05075,-0.0155,-0.37525,-0.06716741978147397,10,1,100,0.690355433595405,-10,-1,-100,6483.617967290687,-0.06725754008163166,-0.007002456391530735,0.9977110748641876,205.07321597405794,21.4987763981079,-156.76523159495957,9.590823844837276,-35.94464111328125,4381.2578125,True
1599567285.2282422,0.0,10,0.5,0.5,-2.828512322998047,-0.05075,-0.0155,-0.37525,-0.06734431175738749,10,1,100,0.6998780058065046,-10,-1,-100,6483.997882818221,-0.06744460236328643,-0.006971724593375526,0.9976986622564211,204.61223893378855,21.456750992736843,-150.26678279808016,9.210801495367804,-35.941314697265625,4381.2578125,True
1599567285.2900767,0.0,10,0.5,0.5,-2.9117830749511717,-0.05075,-0.0155,-0.37525,-0.06930969747267592,10,1,100,0.698614119103075,-10,-1,-100,6484.156591621926,-0.06754185582897479,-0.006955315806470345,0.9976921976708097,204.38129836683945,21.435623428363225,-147.0255820145971,9.020797720642719,-35.939605712890625,4381.2578125,True
1599567285.351913,0.0,10,0.5,0.5,-2.859886317443848,-0.05075,-0.0155,-0.37525,-0.018332305249073637,10,1,100,0.7012539878084856,-10,-1,-100,6484.697140349541,-0.06759286518980523,-0.006470644874699731,0.997692004242962,203.75672644787576,21.37898237572286,-137.38159529179356,8.450805414540497,-36.256622314453125,4381.2578125,True
1599567285.4137821,0.0,10,0.5,0.5,-2.8230180511474616,-0.05075,-0.0155,-0.37525,-0.015042593722681172,10,1,100,0.6977914116357156,-10,-1,-100,6485.016949397279,-0.06754631131154426,-0.0059942460638731515,0.9976981331256111,203.44708240301955,21.351723019538575,-131.04567132918424,8.070816177437504,-36.817962646484375,4381.2578125,True
1599567285.5069597,0.0,10,0.5,0.5,-2.7523915084838864,-0.05075,-0.0155,-0.37525,0.012368341465436174,10,1,100,0.6892914140880255,-10,-1,-100,6485.3357555090915,-0.06736531116149934,-0.005306516601353491,0.9977142655759083,203.1994715458479,21.33009085777036,-124.76120489621627,7.690822141112091,-37.671722412109375,4381.2578125,True
1599567285.5777698,0.0,10,0.5,0.5,-2.373740390014649,-0.05075,-0.0155,-0.37525,0.10037485763586769,10,1,100,0.6547274375229113,-10,-1,-100,6485.750193510787,-0.06682530640981064,-0.0038764246551486465,0.9977571607135315,202.85020061767992,21.29781660927698,-115.36532355928995,7.1208049893852206,-39.503021240234375,4381.2578125,True
1599567285.6640494,0.0,10,0.5,0.5,-2.4626211807250975,-0.05075,-0.0155,-0.37525,0.08988449173069768,10,1,100,0.6544436509449529,-10,-1,-100,6486.005456381477,-0.06627106284264875,-0.002668184008050198,0.9977980893065515,202.5432731065023,21.26683793274721,-109.07263987202518,6.740763634752321,-41.09124755859375,4381.2578125,True
1599567285.7378533,0.0,10,0.5,0.5,-2.3323985504150393,-0.05075,-0.0155,-0.37525,0.11851803423637802,10,1,100,0.6349360532228738,-10,-1,-100,6486.261180456262,-0.06552961683608026,-0.00130705286608356,0.9978497687177774,202.08600351811313,21.218562210649274,-102.71699181139994,6.36068762940537,-42.973907470703125,4381.2578125,True
1599567285.8126545,0.0,10,0.5,0.5,-3.111757125854492,-0.05075,-0.0155,-0.37525,-0.017725785246894138,10,1,100,0.7156336155633307,-10,-1,-100,6486.261180456262,-0.06552961683608026,-0.00130705286608356,0.9978497687177774,202.08600351811313,21.218562210649274,-102.71699181139994,6.36068762940537,-42.973907470703125,4381.2578125,True
1599567286.4449973,0.0,10,0.5,0.5,-2.2573487411499027,-0.05075,-0.0155,-0.37525,0.1516489453811804,10,1,100,0.6213896567134474,-10,-1,-100,6486.51785519172,-0.0646132811948667,0.00023390564223173905,0.9979103512747944,201.37902200744566,21.142488570491214,-96.26453712717603,5.980564785206843,-45.150665283203125,4381.2578125,True
1599567286.5057995,0.0,10,0.5,0.5,-2.007128231811524,-0.05075,-0.0155,-0.37525,0.18213044828364372,10,1,100,0.5899834522054548,-10,-1,-100,6486.772064551478,-0.06349714171540605,0.0019053030743282572,0.9979802016143249,200.31044281715563,21.02690304419024,-89.68782987265143,5.600379330869409,-47.621978759765625,4381.2578125,True
1599567286.5656881,0.0,10,0.5,0.5,-1.7385133453369146,-0.05075,-0.0155,-0.37525,0.22207809833828565,10,1,100,0.5573036739291815,-10,-1,-100,6486.96570543421,-0.06218896916851922,0.003779845715214833,0.9980572352726703,198.75042358179394,20.85828508945781,-82.96548376218654,5.220112162696729,-50.386932373046875,4381.2578125,True
1599567286.6365173,0.0,10,0.5,0.5,-0.7509826141357421,-0.05075,-0.0155,-0.37525,0.35595114047858045,10,1,100,0.4255309333971452,-10,-1,-100,6487.254422773491,-0.05980665365438583,0.006691243806821959,0.9981875532358545,195.1838414295925,20.47427781786155,-72.59316182812397,4.649512317369634,-55.08807373046875,4381.2578125,True
1599567286.7023134,0.0,10,0.5,0.5,-0.9937791168212895,-0.05075,-0.0155,-0.37525,0.2914750063597124,10,1,100,0.45845451195382203,-10,-1,-100,6487.448508679634,-0.05794729591163019,0.00873985731749189,0.9982813860783941,191.75572639507325,20.10710055815135,-65.4930416011302,4.268938090010605,-58.5906982421875,4381.2578125,True
1599567286.7651792,0.0,10,0.5,0.5,-1.4811534317016601,-0.05075,-0.0155,-0.37525,0.20239680845907052,10,1,100,0.5317686699467337,-10,-1,-100,6487.544081864995,-0.05693218941396964,0.009779036797748388,0.998330153930973,189.66543778335705,19.883992146346916,-61.89616885617202,4.0785861240939205,-60.4527587890625,4381.2578125,True
1599567286.8249846,0.0,10,0.5,0.5,0.3943883148193357,-0.05075,-0.0155,-0.37525,0.43400609620826813,10,1,100,0.26383100377698177,-10,-1,-100,6487.770728870179,-0.05358305301614187,0.012815570256247816,0.9984811553497024,181.71896922986778,19.039828858142734,-51.00791061979283,3.5072247107307226,-66.41278076171875,4381.2578125,True
1599567286.8967943,0.0,10,0.5,0.5,0.03867527008056615,-0.05075,-0.0155,-0.37525,0.3543808495476457,10,1,100,0.3207197918733864,-10,-1,-100,6487.839787651668,-0.05106759277662364,0.014837014798958551,0.9985849808403171,174.93254483027155,18.322824093825034,-43.77219507956052,3.1260063512612284,-70.7298583984375,4381.2578125,True
1599567286.9539273,0.0,10,0.5,0.5,1.369252827453613,-0.05075,-0.0155,-0.37525,0.462184437877848,10,1,100,0.12119256190751654,-10,-1,-100,6488.003921893076,-0.046980748168341004,0.017638810460054687,0.9987400470928847,162.22392956877897,16.98639332691316,-33.16566073589759,2.5535892398189945,-77.5482177734375,4381.2578125,True
1599567287.0227778,0.0,10,0.5,0.5,-0.17901441345214864,-0.05075,-0.0155,-0.37525,0.2806657481801493,10,1,100,0.36895038118658413,-10,-1,-100,6488.100464520394,-0.04553464130759171,0.01851850400623015,0.9987911000055818,157.54406386714234,16.495272339677978,-29.802256540878208,2.362647042775751,-79.7940673828125,4381.2578125,True
1599567287.0845785,0.0,10,0.5,0.5,0.9190725204467773,-0.05075,-0.0155,-0.37525,0.37726772820717125,10,1,100,0.18366713064220136,-10,-1,-100,6488.167091742973,-0.04255378277062386,0.020178401996751395,0.9988903882132254,147.71997677480414,15.465386868652539,-23.4282127834467,1.980632285822015,-84.216064453125,4381.2578125,True
1599567287.1454518,0.0,10,0.5,0.5,2.0191481048583984,-0.05075,-0.0155,-0.37525,0.45812493112568337,10,1,100,-0.04180520277522454,-10,-1,-100,6488.269250947866,-0.037814216977243985,0.02240433429070762,0.9990335984337004,151.45758246891737,15.856332400634884,-17.072266842723188,1.407453373535493,-90.55146026611328,4381.2578125,True
1599567287.2072504,0.0,10,0.5,0.5,0.5888708442687989,-0.05075,-0.0155,-0.37525,0.3083323528606342,10,1,100,0.253918500624267,-10,-1,-100,6488.301356644137,-0.03621726621847417,0.023047522908970667,0.9990781357408542,154.27906836189706,16.15134659560118,-15.030373444430488,1.2163889052165033,-92.61845397949219,4381.2578125,True
1599567287.2830477,0.0,10,0.5,0.5,1.5629555706024167,-0.05075,-0.0155,-0.37525,0.3744033057346272,10,1,100,0.0564794397670042,-10,-1,-100,6488.306987934629,-0.03299420288720835,0.024215368790615414,0.9991621482473064,159.41256886175873,16.68705613230254,-10.653184499537927,0.834290342927674,-96.57212829589844,4381.2578125,True
1599567287.3458798,0.0,10,0.5,0.5,0.9412942768096924,-0.05075,-0.0155,-0.37525,0.3167999860491766,10,1,100,0.19830171551675052,-10,-1,-100,6488.341061747749,-0.031377813684480005,0.024737449299530367,0.9992014268457263,161.94506920969664,16.95087391938874,-8.344836625229279,0.6432580436485855,-98.4445571899414,4381.2578125,True
1599567287.4077146,0.0,10,0.5,0.5,1.8289679752349854,-0.05075,-0.0155,-0.37525,0.3714380343496996,10,1,100,-0.016164727581605864,-10,-1,-100,6488.345256232191,-0.027982828092221135,0.025694234208565044,0.999278123277197,166.33226586785202,17.40713656707921,-3.480851914366768,0.26121174381474477,-102.03265380859375,4381.2578125,True
1599567287.4715433,0.0,10,0.5,0.5,1.9718793235778809,-0.05075,-0.0155,-0.37525,0.3619934379949577,10,1,100,-0.0420948097930669,-10,-1,-100,6488.350446586497,-0.02468706713490138,0.02646371034317999,0.9993448957948148,170.52466938706579,17.843334539822145,1.6512098983557177,-0.12084972812955552,-105.37747955322266,4381.2578125,True
1599567287.539363,0.0,10,0.5,0.5,2.08368106842041,-0.05075,-0.0155,-0.37525,0.354828465679661,10,1,100,-0.08893923961124484,-10,-1,-100,6488.355167707545,-0.021291331435246565,0.027085690589884578,0.9994063460729992,174.45267366596892,18.252856023937706,7.031538909658125,-0.5029773716787549,-108.44450378417969,4381.2578125,True
1599567287.6002355,0.0,10,0.5,0.5,2.175816417312622,-0.05075,-0.0155,-0.37525,0.34604170162757825,10,1,100,-0.11452375995623437,-10,-1,-100,6488.298385772156,-0.017998781760916262,0.027560112344787155,0.9994580952009272,178.3304983813715,18.657982576026242,12.65148086484853,-0.8851857940041965,-111.22520446777344,4381.2578125,True
1599567287.6620347,0.0,10,0.5,0.5,2.2440911098480223,-0.05075,-0.0155,-0.37525,0.33673736900895884,10,1,100,-0.14898487316326697,-10,-1,-100,6488.2416264472995,-0.01471861917910426,0.027897800641906837,0.9995024136883336,181.4226634279679,18.981209331670122,18.43212106605491,-1.267486752734725,-113.71237182617188,4381.2578125,True
1599567287.7318475,0.0,10,0.5,0.5,2.7171347766876224,-0.05075,-0.0155,-0.37525,0.3342284716470752,10,1,100,-0.3493551467934216,-10,-1,-100,6488.155063061975,-0.00994311981911784,0.028173455211784264,0.9995535957564718,184.84888597024894,19.339763007717888,27.285644358484213,-1.8411296182192463,-116.8902587890625,4381.2578125,True
1599567287.7906914,0.0,10,0.5,0.5,2.6461279148101804,-0.05075,-0.0155,-0.37525,0.3110348073074658,10,1,100,-0.3767581416917818,-10,-1,-100,6488.003116983571,-0.005382284686373734,0.028205930551117264,0.9995876432275963,187.21505899791353,19.588185488365696,36.25689247888854,-2.415008285796601,-119.40399169921875,4381.2578125,True
1599567287.8854375,0.0,10,0.5,0.5,2.041629108428955,-0.05075,-0.0155,-0.37525,0.3041246175973055,10,1,100,-0.08530094528626461,-10,-1,-100,6487.9747752174735,-0.003915165380557313,0.02816735950199998,0.9995955538810324,187.8128642414457,19.651181901812972,39.257580641749676,-2.6063514452299392,-120.09426879882812,4381.2578125,True
1599567287.948323,0.0,10,0.5,0.5,2.318552169799805,-0.05075,-0.0155,-0.37525,0.2990124532106209,10,1,100,-0.24623358070890222,-10,-1,-100,6487.853654684033,-0.0011477621449165127,0.02808116629329347,0.9996049873533379,188.77817713471538,19.753287387077975,45.2614808035858,-2.989107672512201,-121.25239562988281,4381.2578125,True
1599567288.0370858,0.0,10,0.5,0.5,2.121666481781006,-0.05075,-0.0155,-0.37525,0.3004704567641154,10,1,100,-0.11963362546548269,-10,-1,-100,6487.762827602797,0.00018819898459649926,0.028012549047225978,0.9996075538315118,189.16578446975623,19.794485096870833,48.26275407331095,-3.1805184711905823,-121.7205810546875,4381.2578125,True
1599567288.1138818,0.0,10,0.5,0.5,2.3917908771514895,-0.05075,-0.0155,-0.37525,0.26864660347730307,10,1,100,-0.4177253630072019,-10,-1,-100,6487.5499353117775,0.0040839376139247974,0.02765788461205933,0.9996091050367396,190.02922225753989,19.887052527844514,57.2531759009285,-3.754866698907727,-122.6823959350586,4381.2578125,True
1599567288.2036397,0.0,10,0.5,0.5,2.17845778465271,-0.05075,-0.0155,-0.37525,0.27193779463993,10,1,100,-0.2964516708634982,-10,-1,-100,6487.428366051172,0.00649387847045672,0.027363597181201266,0.9996044533172689,190.38530653155502,19.926057409245473,63.222593945081364,-4.137851380953823,-122.9537124633789,4381.2578125,True
1599567288.276446,0.0,10,0.5,0.5,2.093303770828247,-0.05075,-0.0155,-0.37525,0.2659564768018539,10,1,100,-0.30648188470728605,-10,-1,-100,6487.2447940070415,0.008747571242606214,0.02704086945749504,0.999596054102025,190.60453785053204,19.951022081168897,69.16784148050925,-4.520894528884698,-122.92886352539062,4381.2578125,True
1599567288.344481,0.0,10,0.5,0.5,1.98824245300293,-0.05075,-0.0155,-0.37525,0.2611347924617336,10,1,100,-0.31284288591372844,-10,-1,-100,6487.060253456235,0.010826902044002636,0.026703687870245005,0.9995847594107556,190.7247339753222,19.965994562867497,75.0911674210733,-4.903986105533479,-122.60765075683594,4381.2578125,True
1599567288.4162517,0.0,10,0.5,0.5,2.0108134941101072,-0.05075,-0.0155,-0.37525,0.2732432276984663,10,1,100,-0.2183847869302922,-10,-1,-100,6486.904997474048,0.011832287614690946,0.02650801440623758,0.9995785722703554,190.7526592938808,19.970293138533695,78.0437775806636,-5.095546666462444,-122.33627319335938,4381.2578125,True
1599567288.4809048,0.0,10,0.5,0.5,1.8000602294921872,-0.05075,-0.0155,-0.37525,0.24973971163408543,10,1,100,-0.3263031544607934,-10,-1,-100,6486.722417566227,0.013703213377599607,0.026117724553132524,0.9995649485687734,190.68987321442762,19.966929867068938,83.90203969927788,-5.4786909778477515,-121.57112121582031,4381.2578125,True
1599567288.5547085,0.0,10,0.5,0.5,1.0641729003906253,-0.05075,-0.0155,-0.37525,0.19411422242974224,10,1,100,-0.5035510658587581,-10,-1,-100,6486.228353910265,0.01699390296277378,0.02525909817632358,0.9995364851877145,189.96187729045417,19.89963202141096,95.31524470044243,-6.245038164536071,-119.15265655517578,4381.2578125,True
1599567288.6305087,0.0,10,0.5,0.5,1.6348595581054688,-0.05075,-0.0155,-0.37525,0.25547003206204444,10,1,100,-0.25563595626650754,-10,-1,-100,6486.1360872093355,0.01771132323695789,0.02503898776894983,0.9995295684074096,189.61803915707728,19.86653422677953,98.07298839359478,-6.436631094682678,-118.36286163330078,4381.2578125,True
1599567288.697363,0.0,10,0.5,0.5,1.5606033519744873,-0.05075,-0.0155,-0.37525,0.2517494444931856,10,1,100,-0.2613197603827865,-10,-1,-100,6485.979855091893,0.018395533988530055,0.024807907849559566,0.999522972240961,189.1909754507586,19.825039655838214,100.77665772172827,-6.62822486355316,-117.4991455078125,4381.2578125,True
1599567288.7651458,0.0,10,0.5,0.5,1.048112087249756,-0.05075,-0.0155,-0.37525,0.22713146521234936,10,1,100,-0.3272082583449795,-10,-1,-100,6485.732817768119,0.01959876347494883,0.024377011073418754,0.999510705195987,188.05456572632178,19.71352285120708,105.98796671833063,-7.011413226644892,-115.5489501953125,4381.2578125,True
1599567288.8349617,0.0,10,0.5,0.5,0.288489693450928,-0.05075,-0.0155,-0.37525,0.18372380498929977,10,1,100,-0.387528781341868,-10,-1,-100,6485.2675239854725,0.02122333088576456,0.02359397667305739,0.9994963203988619,185.62950275819858,19.473519012717496,113.24045867477732,-7.586197541886449,-112.07038879394531,4381.2578125,True
1599567288.9047725,0.0,10,0.5,0.5,0.4318137226104737,-0.05075,-0.0155,-0.37525,0.20261851747207776,10,1,100,-0.3227123919959551,-10,-1,-100,6484.959924194263,0.022095389180387073,0.023057591793425952,0.9994899405385004,183.68808813946836,19.28128241628259,117.74697903028428,-7.969392916324656,-109.38128662109375,4381.2578125,True
1599567288.9646466,0.0,10,0.5,0.5,0.16179830169677745,-0.05075,-0.0155,-0.37525,0.19392717515413121,10,1,100,-0.31629239873628423,-10,-1,-100,6484.586886841804,0.02281562268158332,0.02249487152304129,0.9994865822595187,181.09043617324394,19.02134702106755,121.69630519651882,-8.352604232425765,-106.42808532714844,4381.2578125,True
1599567289.0274804,0.0,10,0.5,0.5,-0.06995798492431637,-0.05075,-0.0155,-0.37525,0.1831139541697291,10,1,100,-0.3099831189815023,-10,-1,-100,6484.275851951679,0.023400234183591915,0.021889138357319263,0.9994865154978967,177.8604605219431,18.695621894190573,125.04441020694965,-8.735847361846819,-103.34271240234375,4381.2578125,True
1599567289.0972948,0.0,10,0.5,0.5,0.38084686889648445,-0.05075,-0.0155,-0.37525,0.20797372643656675,10,1,100,-0.27949159370914356,-10,-1,-100,6484.059540260816,0.023643073199178657,0.021568846635918605,0.9994877637792743,176.0588927425664,18.51318465225837,126.51098245237685,-8.927486027767298,-101.75322723388672,4381.2578125,True
1599567289.1590912,0.0,10,0.5,0.5,-1.1248555488586425,-0.05075,-0.0155,-0.37525,0.12757898118090366,10,1,100,-0.3136911938003981,-10,-1,-100,6483.528754228377,0.02416400431819211,0.020551301175748632,0.9994967458252648,170.67296810310083,17.966947791996798,130.59684023577051,-9.502489101414245,-96.89347839355469,4381.2578125,True
1599567289.2299023,0.0,10,0.5,0.5,-0.031465382766723504,-0.05075,-0.0155,-0.37525,0.1886652300155689,10,1,100,-0.2746401715362451,-10,-1,-100,6483.3114565790165,0.02427305895949332,0.020186649768070507,0.9995015346560955,168.6066678726846,17.755691405706244,131.63821990489495,-9.69419225823224,-95.26911163330078,4381.2578125,True
1599567289.298718,0.0,10,0.5,0.5,-0.845641583251953,-0.05075,-0.0155,-0.37525,0.138942243421283,10,1,100,-0.278892227528986,-10,-1,-100,6482.9388652300695,0.024404237182431412,0.019407732654240752,0.9995137683497737,164.55528997906998,17.34004009126777,133.59807526848485,-10.077658683879626,-92.01394653320312,4381.2578125,True
1599567289.356139,0.0,10,0.5,0.5,-2.28152497177124,-0.05075,-0.0155,-0.37525,0.02716659675940039,10,1,100,-0.25692828381783406,-10,-1,-100,6482.0662150988355,0.024317733429596047,0.017688603267573596,0.9995477783254233,156.1402525980428,16.46630314831403,136.50341518366358,-10.844827487073152,-85.871826171875,4381.2578125,True
1599567289.4219613,0.0,10,0.5,0.5,-0.025716651153564474,-0.05075,-0.0155,-0.37525,0.19836760496791744,10,1,100,-0.2661708790454772,-10,-1,-100,6482.0662150988355,0.024317733429596047,0.017688603267573596,0.9995477783254233,156.1402525980428,16.46630314831403,136.50341518366358,-10.844827487073152,-85.871826171875,4381.2578125,True
1599567289.483344,0.0,10,0.5,0.5,-1.9186305610656738,-0.05075,-0.0155,-0.37525,0.03913501609050404,10,1,100,-0.2296114129053034,-10,-1,-100,6481.41182968393,0.023981084673817515,0.016247114648511515,0.9995803813818402,155.20303223656984,16.367398580282586,142.9559336274287,-11.420344623098307,-81.53634643554688,4381.2578125,True
1599567289.5586627,0.0,10,0.5,0.5,-0.9023417114257812,-0.05075,-0.0155,-0.37525,0.12750780675286172,10,1,100,-0.24582007928664185,-10,-1,-100,6481.195001221378,0.02381988481404188,0.015746738420862463,0.999592243525604,158.1572011514956,16.676908924044735,148.14934969837222,-11.612165680276362,-80.214111328125,4381.2578125,True
1599567289.6223762,0.0,10,0.5,0.5,-1.5471542648315428,-0.05075,-0.0155,-0.37525,0.05302353293217027,10,1,100,-0.22015489413259096,-10,-1,-100,6480.694444660679,0.02343845189863297,0.014621367409513914,0.9996183544671793,163.5626122892359,17.240176355941202,158.32979399151105,-11.995757703697977,-77.64187622070312,4381.2578125,True
1599567289.701672,0.0,10,0.5,0.5,-1.647353005218506,-0.05075,-0.0155,-0.37525,0.04313320015859168,10,1,100,-0.20671821277743285,-10,-1,-100,6480.195349038113,0.022968976845744296,0.013515548468631362,0.9996448149479151,168.51819238009745,17.752677498358818,168.40339642064367,-12.379270681208517,-75.24560546875,4381.2578125,True
1599567289.758564,0.0,10,0.5,0.5,-2.487395609283447,-0.05075,-0.0155,-0.37525,-0.1190919546878951,10,1,100,-0.12470490212202,-10,-1,-100,6479.197151591885,0.021796997843830702,0.011043096741850696,0.9997014258764195,176.72900081216412,18.590566732709565,187.68945854241392,-13.146022503455189,-71.26510620117188,4381.2578125,True
1599567289.820399,0.0,10,0.5,0.5,-1.040969846725464,-0.05075,-0.0155,-0.37525,0.12710064300076465,10,1,100,-0.24171819477784465,-10,-1,-100,6479.197151591885,0.021796997843830702,0.011043096741850696,0.9997014258764195,176.72900081216412,18.590566732709565,187.68945854241392,-13.146022503455189,-71.26510620117188,4381.2578125,True
1599567289.8902137,0.0,10,0.5,0.5,-2.026297339248657,-0.05075,-0.0155,-0.37525,-0.08725696881863762,10,1,100,-0.12448693403966853,-10,-1,-100,6478.354752252577,0.020733410933914884,0.009103035002068764,0.9997435973412365,181.439880056361,19.061660154812568,201.23687885718502,-13.72083610893649,-69.04537963867188,4381.2578125,True
1599567289.9550433,0.0,10,0.5,0.5,-1.486058198547363,-0.05075,-0.0155,-0.37525,0.03478222315677454,10,1,100,-0.1878597691009251,-10,-1,-100,6478.07444279152,0.020345848287298816,0.00845886572455803,0.9997572175524037,182.73867018794283,19.189466205745816,205.54831376777105,-13.912394423943914,-68.45367431640625,4381.2578125,True
1599567290.0168762,0.0,10,0.5,0.5,-1.7088585342407228,-0.05075,-0.0155,-0.37525,-0.05935192272408611,10,1,100,-0.13462733553292044,-10,-1,-100,6477.510893768165,0.01951327683875247,0.007027445843294703,0.9997849003820442,184.98450051501592,19.40733508813851,213.89072768849272,-14.295445851703324,-67.49517822265625,4381.2578125,True
1599567290.080732,0.0,10,0.5,0.5,-1.6603102951049806,-0.05075,-0.0155,-0.37525,-0.06408416816157189,10,1,100,-0.12016667704724218,-10,-1,-100,6476.94930167729,0.01862930085983221,0.005692826590372972,0.9998102524353738,186.76992180748593,19.575997675007425,221.83289123317238,-14.678415768096894,-66.83169555664062,4381.2578125,True
1599567290.1580389,0.0,10,0.5,0.5,-1.625782572937012,-0.05075,-0.0155,-0.37525,-0.24576375332153239,10,1,100,0.008175957138525924,-10,-1,-100,6475.69966524106,0.016664106416006595,0.0028388090196055753,0.9998571141521703,189.1340567119127,19.78478314747351,236.5626733724845,-15.444143950097192,-66.3975830078125,4381.2578125,True
1599567290.2278497,0.0,10,0.5,0.5,-1.4536376937866213,-0.05075,-0.0155,-0.37525,-0.04021622457755458,10,1,100,-0.1297195623645893,-10,-1,-100,6475.41838717449,0.016137813442791457,0.002125050858061291,0.9998675187924331,189.4819671136575,19.81117973814901,239.98769725777896,-15.635538825156319,-66.474365234375,4381.2578125,True
1599567290.3031573,0.0,10,0.5,0.5,-1.2169040573120116,-0.05075,-0.0155,-0.37525,-0.1956640947979507,10,1,100,-0.0004423411567847646,-10,-1,-100,6474.449075108976,0.014491101521044245,7.540069789270552e-05,0.9998949956327623,189.98603096202794,19.833344324552133,249.62991972984364,-16.20965505125798,-67.147705078125,4381.2578125,True
1599567290.3794785,0.0,10,0.5,0.5,-1.326857827758789,-0.05075,-0.0155,-0.37525,-0.07116972870008385,10,1,100,-0.09995758436191035,-10,-1,-100,6474.105303971213,0.013906908667118457,-0.0006429270589057453,0.9999030875720514,190.0334705153518,19.827991842826606,252.69792511831588,-16.401008594841016,-67.52090454101562,4381.2578125,True
1599567290.4542801,0.0,10,0.5,0.5,-1.0669537414550783,-0.05075,-0.0155,-0.37525,-0.14859101260890856,10,1,100,-0.026849070513453588,-10,-1,-100,6473.479778079549,0.012719439645089611,-0.0019869108046868004,0.9999171305866148,189.83205151120686,19.786303590362216,258.44094254284994,-16.783696011198586,-68.48785400390625,4381.2578125,True
1599567290.5430408,0.0,10,0.5,0.5,-0.8962760681152344,-0.05075,-0.0155,-0.37525,-0.1592325041399252,10,1,100,-0.008968751657970508,-10,-1,-100,6472.792247662437,0.01148562632473967,-0.003293609580636513,0.9999286137139286,189.20245710345753,19.700128413873564,263.5830494764048,-17.166368384631788,-69.7503662109375,4381.2578125,True
1599567290.6188393,0.0,10,0.5,0.5,-0.7086936935424805,-0.05075,-0.0155,-0.37525,-0.1703089427890775,10,1,100,0.009370135768753396,-10,-1,-100,6472.10374733957,0.01020663466737777,-0.004569179086199012,0.9999374716507253,188.10604873312212,19.565906370548074,268.0290094175507,-17.549038849475536,-71.30831909179688,4381.2578125,True
1599567290.7016175,0.0,10,0.5,0.5,-0.5024203826904299,-0.05075,-0.0155,-0.37525,-0.17787212405485772,10,1,100,0.026630531663204657,-10,-1,-100,6471.354219284025,0.008896572085523339,-0.005785114635409951,0.999943690141491,186.47560279338336,19.37725967405912,271.63693671795704,-17.93172132055594,-73.15664672851562,4381.2578125,True
1599567290.7724285,0.0,10,0.5,0.5,0.19536826324462853,-0.05075,-0.0155,-0.37525,-0.24803943782381757,10,1,100,0.11952942011307473,-10,-1,-100,6470.259969410254,0.006871479185385741,-0.007515446186810469,0.9999481490769498,182.96430597068994,18.9873359333901,275.27002035383236,-18.50579420511002,-76.40567016601562,4381.2578125,True
1599567290.8741565,0.0,10,0.5,0.5,0.02382131042480462,-0.05075,-0.0155,-0.37525,-0.19480415996030243,10,1,100,0.06996696879755768,-10,-1,-100,6469.509481747402,0.005492545922359323,-0.008591296987478889,0.999948009426172,179.90538667215046,18.65666372163934,276.4152910804443,-18.888554523751424,-78.83251953125,4381.2578125,True
1599567291.7541704,0.0,10,0.5,0.5,0.18841405029296865,-0.05075,-0.0155,-0.37525,-0.19522611661104694,10,1,100,0.08274246965724531,-10,-1,-100,6468.75753478671,0.004134771816281304,-0.009560193572567991,0.9999457517090025,176.3487127765668,18.27848355042585,276.59478054763423,-19.271353411508883,-81.31295776367188,4381.2578125,True
1599567291.8179996,0.0,10,0.5,0.5,0.8412620452880857,-0.05075,-0.0155,-0.37525,-0.2459280098805836,10,1,100,0.17438622927573832,-10,-1,-100,6467.53831564053,0.002078696936587463,-0.010890663131833714,0.9999385343487841,172.4219659698771,17.86607659304143,278.7318306325513,-19.845590504830568,-84.97613525390625,4381.2578125,True
1599567291.8933089,0.0,10,0.5,0.5,0.012374855041503818,-0.05075,-0.0155,-0.37525,-0.15814921241288415,10,1,100,0.0445890440073786,-10,-1,-100,6467.194574774476,0.001402293381583791,-0.011290359377832654,0.9999352785847649,175.09858988814707,18.144059023522445,285.87168703248415,-20.03696622702015,-86.18984985351562,4381.2578125,True
1599567291.9730937,0.0,10,0.5,0.5,0.6067350967407226,-0.05075,-0.0155,-0.37525,-0.20052351714615413,10,1,100,0.1259391423388659,-10,-1,-100,6466.380630643922,5.973362687553211e-05,-0.01202860804442894,0.9999276518930794,180.25564013245815,18.683301520863647,300.08937226011386,-20.41961156424395,-88.58489990234375,4381.2578125,True
1599567292.0424247,0.0,10,0.5,0.5,1.1519130142211913,-0.05075,-0.0155,-0.37525,-0.2319031691075814,10,1,100,0.20707394858040362,-10,-1,-100,6465.097463743994,-0.0018857760477457343,-0.012974662140088062,0.9999140473015908,187.26165070770674,19.42500978939032,320.80375473636616,-20.9932897208757,-91.89774322509766,4381.2578125,True
1599567292.1142316,0.0,10,0.5,0.5,0.8357173377990722,-0.05075,-0.0155,-0.37525,-0.19790358899873317,10,1,100,0.1537722230091201,-10,-1,-100,6464.222980080056,-0.0031565825961235488,-0.013515635361211007,0.999903677154503,191.43232737009762,19.87257392303284,334.1265159284427,-21.375538518053343,-93.9885025024414,4381.2578125,True
1599567292.1800551,0.0,10,0.5,0.5,0.9063654895782471,-0.05075,-0.0155,-0.37525,-0.1949559939996712,10,1,100,0.1604944652514222,-10,-1,-100,6463.407579712104,-0.004359661470559887,-0.013971340129712599,0.9998928917673341,195.25249748697954,20.28719270744042,347.10256553504405,-21.757619061751882,-95.9078369140625,4381.2578125,True
1599567292.2478743,0.0,10,0.5,0.5,0.590790520477295,-0.05075,-0.0155,-0.37525,-0.17229114369544418,10,1,100,0.10542484802445268,-10,-1,-100,6462.938356926548,-0.004939494566949619,-0.014171025679181515,0.9998873853712842,197.0181702204618,20.480607572558043,353.42671164819916,-21.9485964476777,-96.76822662353516,4381.2578125,True
1599567292.315693,0.0,10,0.5,0.5,1.4944684234619139,-0.05075,-0.0155,-0.37525,-0.22337399573356118,10,1,100,0.2925709058501782,-10,-1,-100,6461.123475946253,-0.007155365119671905,-0.014809324005369074,0.9998647331876989,203.311291347984,21.17987781768322,377.8818004209478,-22.71209878787208,-99.56151580810547,4381.2578125,True
1599567292.3815162,0.0,10,0.5,0.5,0.4821782176971436,-0.05075,-0.0155,-0.37525,-0.16027355089666118,10,1,100,0.07238653500845538,-10,-1,-100,6461.123475946253,-0.007155365119671905,-0.014809324005369074,0.9998647331876989,203.311291347984,21.17987781768322,377.8818004209478,-22.71209878787208,-99.56151580810547,4381.2578125,True
1599567292.4603057,0.0,10,0.5,0.5,1.1445978347778318,-0.05075,-0.0155,-0.37525,-0.19434437720457268,10,1,100,0.2374087748841579,-10,-1,-100,6459.778793271864,-0.008644069199412808,-0.015113406038152005,0.9998484210247081,207.24462693318833,21.626755072302934,395.2777541932489,-23.28432777734455,-101.04106903076172,4381.2578125,True
1599567292.5291216,0.0,10,0.5,0.5,0.9095696872711182,-0.05075,-0.0155,-0.37525,-0.17844241579841597,10,1,100,0.19080488456221956,-10,-1,-100,6458.840344030759,-0.009562147686236287,-0.015240232589293624,0.9998381372213458,209.4339348106301,21.880928863177026,406.2581315136343,-23.665639970757752,-101.72087097167969,4381.2578125,True
1599567292.596941,0.0,10,0.5,0.5,0.7970199783325197,-0.05075,-0.0155,-0.37525,-0.1708428818450565,10,1,100,0.1501602982262358,-10,-1,-100,6458.369654251495,-0.010016685667000666,-0.015282488627612318,0.9998330418372837,210.39329390840456,21.994210032847313,411.5402465463823,-23.856248187469383,-101.99456024169922,4381.2578125,True
1599567292.6727395,0.0,10,0.5,0.5,0.8704758270263673,-0.05075,-0.0155,-0.37525,-0.17154907759370164,10,1,100,0.19066728923282983,-10,-1,-100,6457.36870199698,-0.010787766495893152,-0.01532369396084447,0.9998243888290707,212.0803028734754,22.1970920648603,421.74409930174465,-24.23737496755625,-102.35057067871094,4381.2578125,True
1599567292.7355707,0.0,10,0.5,0.5,0.720768543624878,-0.05075,-0.0155,-0.37525,-0.15948856727145957,10,1,100,0.270280202349852,-10,-1,-100,6455.42831240152,-0.012202641459474915,-0.01524851681911112,0.999809270949329,214.28046404714163,22.481537099185974,440.10043793463376,-24.9993176582614,-102.26265716552734,4381.2578125,True
1599567292.7994187,0.0,10,0.5,0.5,0.7698237060546875,-0.05075,-0.0155,-0.37525,-0.16723366691269687,10,1,100,0.1298243925328486,-10,-1,-100,6455.42831240152,-0.012202641459474915,-0.01524851681911112,0.999809270949329,214.28046404714163,22.481537099185974,440.10043793463376,-24.9993176582614,-102.26265716552734,4381.2578125,True
1599567292.8687975,0.0,10,0.5,0.5,0.480809809112549,-0.05075,-0.0155,-0.37525,-0.14718342838802684,10,1,100,0.22423682468456588,-10,-1,-100,6453.893665991025,-0.013052712607342025,-0.015064666576652392,0.9998013215206931,214.96542220293722,22.59444289044166,452.05586828775614,-25.57055642896951,-101.55411529541016,4381.2578125,True
1599567292.926643,0.0,10,0.5,0.5,0.4331890239715576,-0.05075,-0.0155,-0.37525,-0.14531627955127369,10,1,100,0.194038615948542,-10,-1,-100,6452.83019895677,-0.013543072615860288,-0.014879561979131302,0.9997975714210506,214.97031521455077,22.622309187701717,459.1142528395981,-25.951304075529013,-100.79765319824219,4381.2578125,True
1599567292.9875185,0.0,10,0.5,0.5,0.30445380592346194,-0.05075,-0.0155,-0.37525,-0.13785922785387084,10,1,100,0.1939025821595677,-10,-1,-100,6451.766240078141,-0.013979796336387205,-0.014642849569317603,0.9997950551242408,214.60243106937332,22.61070871405369,465.377921618899,-26.33200473335925,-99.814453125,4381.2578125,True
1599567293.0653114,0.0,10,0.5,0.5,0.17742329330444345,-0.05075,-0.0155,-0.37525,-0.13164327140948523,10,1,100,0.18810556382016827,-10,-1,-100,6450.702278094133,-0.01431791370540194,-0.014371299114934418,0.999794210379753,213.8480953159537,22.557813692729983,470.7807996079359,-26.71267245018202,-98.6492691040039,4381.2578125,True
1599567293.1361217,0.0,10,0.5,0.5,0.060580857467651406,-0.05075,-0.0155,-0.37525,-0.12337260084703522,10,1,100,0.18682720141296466,-10,-1,-100,6449.637824056204,-0.014607160247544639,-0.014049645355736919,0.9997945980724643,213.00068882459325,22.49415689570841,475.94071709305797,-27.09331456604837,-97.35193634033203,4381.2578125,True
1599567293.1969588,0.0,10,0.5,0.5,-0.05077793083190907,-0.05075,-0.0155,-0.37525,-0.11546289897678219,10,1,100,0.18310757095139804,-10,-1,-100,6448.573366133613,-0.01483087583525273,-0.013686293521902723,0.999796344508016,211.94564755860912,22.40724913840072,480.5889195454496,-27.47393600313741,-95.96117401123047,4381.2578125,True
1599567293.2613866,0.0,10,0.5,0.5,0.15584759750366217,-0.05075,-0.0155,-0.37525,-0.12989482866076935,10,1,100,0.1709821949894123,-10,-1,-100,6447.97912461462,-0.014919233198833837,-0.01348858570560551,0.9997977168089661,211.3287567229048,22.353721978318095,482.68842011966154,-27.664240825672344,-95.2420883178711,4381.2578125,True
1599567293.3232207,0.0,10,0.5,0.5,-0.21268916091918944,-0.05075,-0.0155,-0.37525,-0.10252667902035956,10,1,100,0.17698472955817351,-10,-1,-100,6446.852161340299,-0.015049669709503733,-0.013061680787624326,0.9998014302533463,210.21093950262906,22.2574472185092,487.1061964258717,-28.044836336078816,-93.76812744140625,4381.2578125,True
1599567293.4020152,0.0,10,0.5,0.5,-0.6221902835845947,-0.05075,-0.0155,-0.37525,-0.0661881807833543,10,1,100,0.1742695358299281,-10,-1,-100,6445.201261322247,-0.015139690318752671,-0.012345291799280674,0.9998091735663577,208.25354198631808,22.078942085754274,492.9574297401829,-28.615696575652144,-91.53971862792969,4381.2578125,True
1599567293.4678392,0.0,10,0.5,0.5,-0.7582598243713378,-0.05075,-0.0155,-0.37525,-0.04884895695438843,10,1,100,0.16215354422593362,-10,-1,-100,6443.407777879154,-0.015108711813616048,-0.011539039070541147,0.9998192723710929,205.97067350561414,21.859688111618166,497.859135844682,-29.186516219853207,-89.29638671875,4381.2578125,True
1599567293.5256898,0.0,10,0.5,0.5,-0.24486682472229004,-0.05075,-0.0155,-0.37525,-0.09734807769860612,10,1,100,0.16160614102412216,-10,-1,-100,6442.885305992793,-0.01507293126133525,-0.01125035539458771,0.9998231024769765,205.1662752691883,21.78044427816692,499.3434941088095,-29.376779599863845,-88.5726318359375,4381.2578125,True
1599567293.584528,0.0,10,0.5,0.5,-0.563964533996582,-0.05075,-0.0155,-0.37525,-0.06079080166761277,10,1,100,0.1535136207169229,-10,-1,-100,6441.6909483216,-0.014964998557692719,-0.010659044371786523,0.9998312025493344,203.56622879548232,21.62048316711839,502.2631004436178,-29.757288288048294,-87.2332763671875,4381.2578125,True
1599567293.6503513,0.0,10,0.5,0.5,-0.3375177604675293,-0.05075,-0.0155,-0.37525,-0.085881113713421,10,1,100,0.15677169751836983,-10,-1,-100,6441.031757336808,-0.014895204138083724,-0.010353419476572196,0.9998354562620926,202.81892868335166,21.544938861032946,503.8185210843173,-29.94753140988133,-86.6343994140625,4381.2578125,True
1599567293.7281432,0.0,10,0.5,0.5,-0.8244802299499511,-0.05075,-0.0155,-0.37525,-0.007831131820606727,10,1,100,0.1335701297321258,-10,-1,-100,6439.246564496425,-0.014619999133289967,-0.00936993285470881,0.9998492186243088,200.8323281670962,21.34116509473192,508.9998828192861,-30.518202667471073,-85.01171875,4381.2578125,True
1599567293.7899795,0.0,10,0.5,0.5,-0.6251361026763915,-0.05075,-0.0155,-0.37525,-0.02989965512122278,10,1,100,0.13530266855484463,-10,-1,-100,6437.994097445975,-0.01438528849511319,-0.008681023743256992,0.9998588416880062,199.77346821298948,21.23022741141187,513.0396420756482,-30.898592791189845,-84.09991455078125,4381.2578125,True
1599567293.855802,0.0,10,0.5,0.5,-0.6353076721191406,-0.05075,-0.0155,-0.37525,-0.020503050526716568,10,1,100,0.12905999781070496,-10,-1,-100,6436.7435829185415,-0.014115365337053423,-0.007974199619816628,0.9998685756647344,198.93150225433038,21.14001031140601,517.5838937151018,-31.278926710445063,-83.32107543945312,4381.2578125,True
1599567293.9181087,0.0,10,0.5,0.5,-0.6052425601959229,-0.05075,-0.0155,-0.37525,-0.010956723711554733,10,1,100,0.12250850630007364,-10,-1,-100,6435.491115486599,-0.01381107209826444,-0.007250040258280359,0.9998783382010783,199.12044941622818,21.157376635009115,524.7997162596172,-31.659188060184817,-82.7515869140625,4381.2578125,True
1599567293.9889185,0.0,10,0.5,0.5,-0.5711462867736816,-0.05075,-0.0155,-0.37525,-0.0010435428731754431,10,1,100,0.1158403440807668,-10,-1,-100,6434.232788849389,-0.01347482964382673,-0.006507265145123326,0.999888035965228,200.9186769573823,21.344282977658356,536.335565061472,-32.039330092021814,-82.37542724609375,4381.2578125,True
1599567294.0667117,0.0,10,0.5,0.5,-0.5278510688781738,-0.05075,-0.0155,-0.37525,0.007869009957691991,10,1,100,0.10912764548486349,-10,-1,-100,6432.92270548048,-0.013109561825343943,-0.005756950394374956,0.9998974932016302,202.32620954834596,21.488736737927486,546.948719993705,-32.41935456264016,-82.18716430664062,4381.2578125,True
1599567294.1365244,0.0,10,0.5,0.5,-0.475250993347168,-0.05075,-0.0155,-0.37525,0.016642803985796463,10,1,100,0.10226259117505304,-10,-1,-100,6431.6096924984595,-0.012716936158900776,-0.005001073712898129,0.9999066300392495,203.35794238903273,21.59284933220811,556.640735094077,-32.79927027635778,-82.1788330078125,4381.2578125,True
1599567294.1903803,0.0,10,0.5,0.5,-0.414345297241211,-0.05075,-0.0155,-0.37525,0.025193520133039868,10,1,100,0.09531498458441921,-10,-1,-100,6430.292775018956,-0.012299018016450967,-0.004242122915087568,0.9999153656930193,204.03709065440592,21.659594251710548,565.4381521192388,-33.179086121775406,-82.34036254882812,4381.2578125,True
1599567294.2781453,0.0,10,0.5,0.5,-0.42463502197265623,-0.05075,-0.0155,-0.37525,-0.008230398292652437,10,1,100,0.11287527993453672,-10,-1,-100,6429.6345611129655,-0.01208125322035665,-0.003862392568656534,0.9999195593867894,204.2526125332326,21.679972648875,569.5130502266868,-33.368959325546754,-82.48117065429688,4381.2578125,True
1599567294.3539436,0.0,10,0.5,0.5,-0.20898166656494144,-0.05075,-0.0155,-0.37525,0.07906466486233214,10,1,100,0.0590401244666825,-10,-1,-100,6427.601326337317,-0.011396496306324356,-0.002729770453949488,0.9999313317549403,204.42677546508162,21.6923487069724,580.4598818302849,-33.93845183697132,-83.12872314453125,4381.2578125,True
1599567294.4412084,0.0,10,0.5,0.5,-0.3372850250244141,-0.05075,-0.0155,-0.37525,0.007735580463928898,10,1,100,0.1010004600289635,-10,-1,-100,6426.943113752874,-0.011158628260344606,-0.002355490797858224,0.9999349662245283,204.3414481447859,21.681896587948565,583.7097747779861,-34.12824348724643,-83.41070556640625,4381.2578125,True
1599567294.517555,0.0,10,0.5,0.5,-0.009440118408203135,-0.05075,-0.0155,-0.37525,0.09265441501708366,10,1,100,0.04327174302016665,-10,-1,-100,6424.84738431836,-0.010420724764712994,-0.001249623925525532,0.9999449219509157,204.22648560441738,21.668087821520057,593.8719121457071,-34.69750514885563,-84.43450927734375,4381.2578125,True
1599567294.5903604,0.0,10,0.5,0.5,-0.0585492736816407,-0.05075,-0.0155,-0.37525,0.060290053665324625,10,1,100,0.06147260003081994,-10,-1,-100,6423.468462773133,-0.009918969890354195,-0.0005452676900733772,0.9999506571423713,205.896718074521,21.846770755178593,605.7964148767309,-35.0768749864437,-85.2198486328125,4381.2578125,True
1599567294.6841083,0.0,10,0.5,0.5,-0.17043001251220705,-0.05075,-0.0155,-0.37525,0.030515231724286912,10,1,100,0.08223523293940471,-10,-1,-100,6422.741405292181,-0.009655395208693966,-0.00018237761360789147,0.9999533689536577,206.7822692546918,21.94231013983034,611.955940739666,-35.26651076319021,-85.64208984375,4381.2578125,True
1599567294.7509298,0.0,10,0.5,0.5,0.2325321701049804,-0.05075,-0.0155,-0.37525,0.10420781068402085,10,1,100,0.023716205424222883,-10,-1,-100,6420.586601804127,-0.008887568590582623,0.0008110298440449745,0.9999601758845899,209.53044209937127,22.242300039931166,630.9128221180904,-35.83521466825236,-86.94943237304688,4381.2578125,True
1599567294.8157573,0.0,10,0.5,0.5,-0.061723298645019575,-0.05075,-0.0155,-0.37525,0.04117752271808713,10,1,100,0.07131315059117577,-10,-1,-100,6419.859546382446,-0.008626414131138469,0.0011344719195034842,0.9999621482599739,210.44798975911758,22.343696876375514,637.3060283132185,-36.024713513353,-87.39364624023438,4381.2578125,True
1599567294.878596,0.0,10,0.5,0.5,0.36647153472900384,-0.05075,-0.0155,-0.37525,0.11175009098928802,10,1,100,0.010744213609210726,-10,-1,-100,6417.707677382161,-0.007842449875166106,0.0020638140430095206,0.9999671177851556,213.2115000129293,22.652856132712802,656.7288190893609,-36.59299798556991,-88.77114868164062,4381.2578125,True
1599567294.9524024,0.0,10,0.5,0.5,0.23918808288574214,-0.05075,-0.0155,-0.37525,0.0838584552840717,10,1,100,0.03128535424858113,-10,-1,-100,6416.204252794734,-0.007320924090352538,0.00264868756909858,0.9999696938030795,215.0079715560585,22.857276847281103,669.7099166128202,-36.97167450581482,-89.66177368164062,4381.2578125,True
1599567295.0167432,0.0,10,0.5,0.5,0.2897715148925781,-0.05075,-0.0155,-0.37525,0.08669471987229682,10,1,100,0.026485542857454865,-10,-1,-100,6414.763329954119,-0.0068077006314446005,0.0031999106249959663,0.9999717074918192,216.74838954304644,23.05818816453998,682.65178299997,-37.35020708246613,-90.53839874267578,4381.2578125,True
1599567295.0819507,0.0,10,0.5,0.5,0.31270716171264645,-0.05075,-0.0155,-0.37525,0.08887600308328822,10,1,100,0.02223175993703977,-10,-1,-100,6413.194478479563,-0.00630725723551444,0.003714432065735646,0.9999732103914555,218.3869180539279,23.250585279138726,695.4027073393671,-37.728595778166216,-91.33511352539062,4381.2578125,True
1599567295.1587467,0.0,10,0.5,0.5,0.18412976646423337,-0.05075,-0.0155,-0.37525,0.06533551304258256,10,1,100,0.04441266705664028,-10,-1,-100,6412.47670380387,-0.006058579884911398,0.003962316009201953,0.9999737964874986,219.1547869595961,23.342107902258835,701.6610915734196,-37.91773711135399,-91.70523071289062,4381.2578125,True
1599567295.225082,0.0,10,0.5,0.5,0.47814883232116695,-0.05075,-0.0155,-0.37525,0.1163128931737025,10,1,100,-0.010154518670652389,-10,-1,-100,6410.184220373281,-0.005341080649001821,0.004645352316447813,0.9999749464658387,221.26833240689427,23.59926989649299,719.9972618559881,-38.484953688434246,-92.6912612915039,4381.2578125,True
1599567295.2954125,0.0,10,0.5,0.5,0.35575039253234864,-0.05075,-0.0155,-0.37525,0.09434390151320873,10,1,100,0.010185141451612797,-10,-1,-100,6408.617813408724,-0.004878332475755262,0.0050612172386286765,0.9999752926709335,222.51461445694719,23.75543115361279,731.824961805223,-38.86292956683761,-93.24246215820312,4381.2578125,True
1599567295.358244,0.0,10,0.5,0.5,0.3645774513244629,-0.05075,-0.0155,-0.37525,0.09457311682561215,10,1,100,0.007820700815312498,-10,-1,-100,6407.055801584618,-0.004440739801032569,0.005436263229879763,0.9999753631325698,223.65543641088033,23.901748106062783,743.4021858624994,-39.24077463504554,-93.71952819824219,4381.2578125,True
1599567295.420587,0.0,10,0.5,0.5,0.35033041763305667,-0.05075,-0.0155,-0.37525,0.0947864093050089,10,1,100,0.005452063239735884,-10,-1,-100,6405.489884361159,-0.004026135805513662,0.005774045298244823,0.9999752250087847,224.66236131460926,24.03494809668861,754.6226822180877,-39.61849288280343,-94.0769271850586,4381.2578125,True
1599567295.4874113,0.0,10,0.5,0.5,0.3328052787780762,-0.05075,-0.0155,-0.37525,0.09492181036257613,10,1,100,0.0030694900590614096,-10,-1,-100,6403.86195548228,-0.0036319828104767683,0.006077838992323489,0.9999749339728712,225.5240294530363,24.153525903883907,765.434333549168,-39.99609028673601,-94.32467651367188,4381.2578125,True
1599567295.5512378,0.0,10,0.5,0.5,0.28619202766418456,-0.05075,-0.0155,-0.37525,0.08011692718404033,10,1,100,0.021495670477186125,-10,-1,-100,6403.075335599482,-0.0034457130290813276,0.006214931260705751,0.9999747505268051,225.90544905697152,24.207790375553834,770.6994632277238,-40.18484525130119,-94.40827178955078,4381.2578125,True
1599567295.622048,0.0,10,0.5,0.5,0.3042682201385498,-0.05075,-0.0155,-0.37525,0.1058331687985893,10,1,100,-0.017178012831907806,-10,-1,-100,6400.609516413882,-0.002928794958499241,0.006569570867351256,0.9999741311147554,226.86173240017754,24.351145125185425,785.9455310490303,-40.75094313804284,-94.50382995605469,4381.2578125,True
1599567295.6853926,0.0,10,0.5,0.5,0.25095751800537114,-0.05075,-0.0155,-0.37525,0.09206096736770202,10,1,100,-0.00048051525021667457,-10,-1,-100,6398.9737756738905,-0.002614657717014403,0.006763204239204328,0.9999737109711642,227.3536775679132,24.431403562208313,795.6746312765531,-41.12820891953836,-94.44524383544922,4381.2578125,True
1599567295.7552075,0.0,10,0.5,0.5,0.21684548530578618,-0.05075,-0.0155,-0.37525,0.08998755577624447,10,1,100,-0.0003677429809999175,-10,-1,-100,6397.352683081408,-0.0023339154662160026,0.0069171460231354995,0.999973352609704,227.7416865847976,24.500496135530828,805.0862345932424,-41.50537400342387,-94.29934692382812,4381.2578125,True
1599567295.8180404,0.0,10,0.5,0.5,0.23103716735839847,-0.05075,-0.0155,-0.37525,0.08169629819867462,10,1,100,0.013432239872535934,-10,-1,-100,6396.500633138698,-0.002207761756676236,0.006978806472406475,0.999973210665289,227.8995419817887,24.531093017456417,809.6797056291555,-41.69392001965733,-94.193359375,4381.2578125,True
1599567295.890078,0.0,10,0.5,0.5,0.15939351501464843,-0.05075,-0.0155,-0.37525,0.0871075749708923,10,1,100,-0.0006239083661777681,-10,-1,-100,6394.8136224113405,-0.0019687941441319918,0.0070813125874337,0.9999729890660333,228.14628726000925,24.584614222038955,818.647844510441,-42.0709419202087,-93.92276763916016,4381.2578125,True
1599567295.9559019,0.0,10,0.5,0.5,0.03531385307312013,-0.05075,-0.0155,-0.37525,0.0864292338946144,10,1,100,-0.009876927964911741,-10,-1,-100,6392.280907074688,-0.0016704982150167972,0.007166118718336846,0.9999729277226601,228.3682507998365,24.647965231267552,831.6237487203983,-42.63630595281804,-93.38866424560547,4381.2578125,True
1599567296.020729,0.0,10,0.5,0.5,0.05031579208374026,-0.05075,-0.0155,-0.37525,0.07961320827966199,10,1,100,0.00196429471834262,-10,-1,-100,6390.58705929853,-0.0015098837895423313,0.007179337784949494,0.9999730883178366,228.42475714247286,24.679429802225005,839.9718531706105,-43.01310759684696,-92.95287322998047,4381.2578125,True
1599567296.0915396,0.0,10,0.5,0.5,0.008144124221801802,-0.05075,-0.0155,-0.37525,0.07608688439202253,10,1,100,0.003778201469033517,-10,-1,-100,6388.834128720919,-0.0013830251514004525,0.007157713015114207,0.9999734268398454,228.41975853250145,24.703331041829568,848.1124667653497,-43.389826179929855,-92.47279357910156,4381.2578125,True
1599567296.1563675,0.0,10,0.5,0.5,0.08058815422058105,-0.05075,-0.0155,-0.37525,0.07578955786538631,10,1,100,0.010571005809759582,-10,-1,-100,6387.982077524532,-0.0013318547113272661,0.00713409328527919,0.9999736650912487,228.40604130608608,24.713684144121412,852.1471634970794,-43.57815490335977,-92.22579956054688,4381.2578125,True
1599567296.235157,0.0,10,0.5,0.5,-0.04488842124938963,-0.05075,-0.0155,-0.37525,0.07054290618182854,10,1,100,0.006246557317581966,-10,-1,-100,6386.225728770252,-0.001248113986876527,0.00706396373894869,0.9999742709828942,228.37313446589394,24.732982247201946,860.2073147318812,-43.95475179432041,-91.72132110595703,4381.2578125,True
1599567296.8141015,0.0,10,0.5,0.5,-0.07767483978271483,-0.05075,-0.0155,-0.37525,0.06635742710564675,10,1,100,0.008791350742287731,-10,-1,-100,6384.414203057182,-0.001197118358547912,0.006961387948429998,0.9999750526815492,228.3368146914568,24.75076700489165,868.269317866064,-44.331267423379,-91.20975494384766,4381.2578125,True
1599567296.8809235,0.0,10,0.5,0.5,-0.11417034263610838,-0.05075,-0.0155,-0.37525,0.061814917627609905,10,1,100,0.011161136327062483,-10,-1,-100,6382.657852958422,-0.0011738764532016244,0.006826485491720781,0.9999760102671983,228.3036598432202,24.767698422750666,876.3581434350754,-44.707701985503505,-90.6854476928711,4381.2578125,True
1599567296.9427583,0.0,10,0.5,0.5,-0.36417304115295407,-0.05075,-0.0155,-0.37525,0.03607621134348728,10,1,100,0.018147346210066254,-10,-1,-100,6379.020640096744,-0.0012175682484266816,0.006469801127354453,0.9999783293656582,228.25101283685183,24.799223673905676,892.6342059745269,-45.46032719752714,-89.65042114257812,4381.2578125,True
1599567296.999607,0.0,10,0.5,0.5,-0.08698906936645508,-0.05075,-0.0155,-0.37525,0.05994232849161575,10,1,100,0.016761459377056656,-10,-1,-100,6378.109505476896,-0.0012457039521655458,0.006362913992818761,0.9999789805526833,228.2599740046431,24.80870743102691,896.7998538036934,-45.648431820363086,-89.40628051757812,4381.2578125,True
1599567297.0724113,0.0,10,0.5,0.5,-0.10325004501342773,-0.05075,-0.0155,-0.37525,0.05805066481814935,10,1,100,0.01775096150279224,-10,-1,-100,6377.201788764214,-0.0012811519365298464,0.006249106830281698,0.9999796534497786,228.2833586192075,24.819448073573167,901.0271287249009,-45.83651528017132,-89.17047119140625,4381.2578125,True
1599567297.1382356,0.0,10,0.5,0.5,-0.34342272224426273,-0.05075,-0.0155,-0.37525,0.013506728600138393,10,1,100,0.036731546912669985,-10,-1,-100,6373.508910571458,-0.0014865532825941012,0.005741457449408953,0.999982412758192,228.63103557694362,24.887293269112792,919.0101109692184,-46.58862733102857,-88.416259765625,4381.2578125,True
1599567297.1900964,0.0,10,0.5,0.5,-0.13644267807006838,-0.05075,-0.0155,-0.37525,0.04838853503188188,10,1,100,0.023645128350708304,-10,-1,-100,6372.539181830711,-0.0015544815602096108,0.005598360490057696,0.9999831208309978,228.78084283408108,24.910519408480038,923.7787053127212,-46.77659692102931,-88.255859375,4381.2578125,True
1599567297.2509344,0.0,10,0.5,0.5,-0.21002755393981934,-0.05075,-0.0155,-0.37525,0.029088925338543372,10,1,100,0.033933392631129856,-10,-1,-100,6370.658319218201,-0.0017097236717087544,0.005294258600067014,0.9999845237156633,229.12853959659947,24.961598739848707,933.5415257956016,-47.15246323758457,-87.95892333984375,4381.2578125,True
1599567297.315201,0.0,10,0.5,0.5,-0.15923882026672365,-0.05075,-0.0155,-0.37525,0.04271327778735923,10,1,100,0.027609784034442288,-10,-1,-100,6369.736442432855,-0.0017930685144468995,0.005143354135442035,0.9999851652967359,229.3266928613445,24.989501525838115,938.5386464551359,-47.34035932840375,-87.8330078125,4381.2578125,True
1599567297.3760028,0.0,10,0.5,0.5,-0.20926824378967285,-0.05075,-0.0155,-0.37525,0.020505596013021203,10,1,100,0.040428757190870565,-10,-1,-100,6367.7618297786685,-0.0019849533876280887,0.004806090005243379,0.9999864806380686,229.8077426207281,25.054082328213525,948.9181281456551,-47.716074953621835,-87.62063598632812,4381.2578125,True
1599567297.4517992,0.0,10,0.5,0.5,-0.20285829162597657,-0.05075,-0.0155,-0.37525,0.015924949265259815,10,1,100,0.04450772883951212,-10,-1,-100,6365.850694114808,-0.0021958058878706827,0.004459896619841048,0.9999876438029838,230.38137471520352,25.128264454929646,959.7368230144349,-48.09168487797042,-87.46353149414062,4381.2578125,True
1599567297.5934231,0.0,10,0.5,0.5,-0.21288084983825686,-0.05075,-0.0155,-0.37525,-0.032213160464906763,10,1,100,0.07754437470992258,-10,-1,-100,6361.945903967717,-0.0026869152255228424,0.0037098302640452222,0.9999895087679584,231.82507266676993,25.30814193381258,982.8132965263507,-48.842571100154444,-87.31524658203125,4381.2578125,True
1599567297.6881711,0.0,10,0.5,0.5,-0.16246074829101564,-0.05075,-0.0155,-0.37525,0.04248180959190825,10,1,100,0.028584744821938728,-10,-1,-100,6361.945903967717,-0.0026869152255228424,0.0037098302640452222,0.9999895087679584,231.82507266676993,25.30814193381258,982.8132965263507,-48.842571100154444,-87.31524658203125,4381.2578125,True
1599567297.7589805,0.0,10,0.5,0.5,-0.14591651153564456,-0.05075,-0.0155,-0.37525,-0.02188815082085526,10,1,100,0.07421093450893468,-10,-1,-100,6358.968850885169,-0.003100362998152718,0.0031271578701685624,0.9999903042694638,233.1718757213845,25.471820865148405,1001.4444432972517,-49.40542729154077,-87.36257934570312,4381.2578125,True
1599567297.8273149,0.0,10,0.5,0.5,-0.14673411254882815,-0.05075,-0.0155,-0.37525,0.01493534208970003,10,1,100,0.04878566484575217,-10,-1,-100,6357.998635914177,-0.0032433997408364123,0.0029351563168517835,0.9999904325619905,233.67157386187873,25.532040072908305,1007.9167425221925,-49.592984159445294,-87.4097900390625,4381.2578125,True
1599567297.896643,0.0,10,0.5,0.5,-0.1096128189086914,-0.05075,-0.0155,-0.37525,-0.01266304750937905,10,1,100,0.06967526319448752,-10,-1,-100,6355.992776637548,-0.0035615547211698133,0.0025127276815843837,0.9999905007186649,234.73984485237165,25.660320555808525,1021.2313602002716,-49.968001563421446,-87.544921875,4381.2578125,True
1599567297.9704442,0.0,10,0.5,0.5,0.01267793426513672,-0.05075,-0.0155,-0.37525,-0.060217713776763854,10,1,100,0.11009981477705785,-10,-1,-100,6351.920513698482,-0.004216396080006657,0.0016993217105176353,0.9999896671015259,237.12376648688425,25.945748571213088,1049.2538227822167,-50.71763639524343,-87.95419311523438,4381.2578125,True
1599567298.0751643,0.0,10,0.5,0.5,-0.08666262664794921,-0.05075,-0.0155,-0.37525,-0.0016831875339114871,10,1,100,0.06372145894406676,-10,-1,-100,6350.948834896204,-0.00438766506726769,0.0014955383742824675,0.9999892558223956,237.76462425191775,26.022499594087925,1056.5271719798136,-50.90495895155297,-88.08261108398438,4381.2578125,True
1599567298.1429913,0.0,10,0.5,0.5,-0.07623555908203128,-0.05075,-0.0155,-0.37525,-0.00428288965587938,10,1,100,0.06618430392143242,-10,-1,-100,6349.91612174816,-0.004563319154212354,0.0012901005222560472,0.9999887558162537,238.42053083002128,26.10112380046061,1063.8968045745344,-51.09224618915302,-88.21975708007812,4381.2578125,True
1599567298.208816,0.0,10,0.5,0.5,-0.007508641052246107,-0.05075,-0.0155,-0.37525,-0.02721485025701767,10,1,100,0.08678301645801134,-10,-1,-100,6347.84776559961,-0.004907747301185707,0.0008983694273245771,0.9999875533969409,239.7601112213212,26.262135774449593,1078.8503258780183,-51.46671294319535,-88.50048828125,4381.2578125,True
1599567298.2924006,0.0,10,0.5,0.5,0.08119098358154297,-0.05075,-0.0155,-0.37525,-0.05620191972359727,10,1,100,0.11435633452631266,-10,-1,-100,6344.7462097492535,-0.005468873240951896,0.0002822839100342613,0.9999850057582206,241.7886137518361,26.50761860075289,1101.5958066603737,-52.02814154733433,-88.95278930664062,4381.2578125,True
1599567298.3672,0.0,10,0.5,0.5,0.05306060485839842,-0.05075,-0.0155,-0.37525,-0.03872064753870201,10,1,100,0.10015225415242404,-10,-1,-100,6342.616332876845,-0.005846884212473916,-0.00011507534699442635,0.9999829002051338,243.18380419484996,26.677311224121894,1117.1102561245311,-52.40224275768489,-89.27975463867188,4381.2578125,True
1599567298.435008,0.0,10,0.5,0.5,0.0738301254272461,-0.05075,-0.0155,-0.37525,-0.0419784315860976,10,1,100,0.10451760259939136,-10,-1,-100,6340.547491993522,-0.0062273428370236816,-0.0005024500668958844,0.9999804836821169,244.59523112846998,26.849918006492068,1132.8268706368015,-52.77619392117404,-89.609375,4381.2578125,True
1599567298.5013812,0.0,10,0.5,0.5,0.021259521484374995,-0.05075,-0.0155,-0.37525,-0.024464087076227548,10,1,100,0.0878029679363245,-10,-1,-100,6339.451792781008,-0.006418044519121496,-0.0006915582436884449,0.9999791650088247,245.29558435375407,26.93605703198898,1140.7084747942863,-52.9631128088066,-89.76797485351562,4381.2578125,True
1599567298.5751843,0.0,10,0.5,0.5,0.09538716888427734,-0.05075,-0.0155,-0.37525,-0.04766493698219516,10,1,100,0.11202200712691507,-10,-1,-100,6337.321429697331,-0.006808566694105816,-0.0010709200252687898,0.9999762479928569,246.66908209328716,27.106162516151013,1156.4402837612631,-53.33683787535902,-90.07293701171875,4381.2578125,True
1599567298.642065,0.0,10,0.5,0.5,0.16567102966308592,-0.05075,-0.0155,-0.37525,-0.07033066975879733,10,1,100,0.13784763837566444,-10,-1,-100,6334.0939033771865,-0.007395124258213583,-0.0016182046007271955,0.9999713463650224,248.67232291182845,27.357003735086217,1180.0050028509288,-53.89714354784538,-90.49686431884766,4381.2578125,True
1599567298.7108552,0.0,10,0.5,0.5,0.06895498886108398,-0.05075,-0.0155,-0.37525,-0.03576783792848537,10,1,100,0.10145000292920914,-10,-1,-100,6333.0592407103395,-0.007593985749219192,-0.001797773077884445,0.999969549232576,249.32719820288392,27.43969654175247,1187.8607499854536,-54.0838371593883,-90.63251495361328,4381.2578125,True
1599567298.7766786,0.0,10,0.5,0.5,0.17972065315246583,-0.05075,-0.0155,-0.37525,-0.07391634656939486,10,1,100,0.14564286087442457,-10,-1,-100,6329.770193151198,-0.008173451640845148,-0.0023046425949553016,0.9999639410052666,251.2554929368309,27.685195296339597,1211.4373609104164,-54.643692825923935,-91.00227355957031,4381.2578125,True
1599567298.8474884,0.0,10,0.5,0.5,0.08959511947631836,-0.05075,-0.0155,-0.37525,-0.04129472418752455,10,1,100,0.10904137626606422,-10,-1,-100,6328.674007698544,-0.008364056421725852,-0.002465418151576134,0.9999619814140496,251.8732419414396,27.764712362902834,1219.2359773376556,-54.83023693304441,-91.10579681396484,4381.2578125,True
1599567298.915308,0.0,10,0.5,0.5,0.16862463912963865,-0.05075,-0.0155,-0.37525,-0.07789614789638782,10,1,100,0.15410489613881115,-10,-1,-100,6325.383985084365,-0.008943546642035543,-0.0029409038561539823,0.9999556810469005,253.63935675259896,27.99479190857345,1242.3828234453022,-55.3896490252785,-91.37200164794922,4381.2578125,True
1599567298.9771745,0.0,10,0.5,0.5,0.10207245597839357,-0.05075,-0.0155,-0.37525,-0.04673186681891621,10,1,100,0.11683243423425943,-10,-1,-100,6324.225788125768,-0.009127846461965837,-0.003086361692990031,0.9999535773177008,254.20281323838196,28.069042024019883,1250.031582402655,-55.57604683259197,-91.4398193359375,4381.2578125,True
1599567299.0409722,0.0,10,0.5,0.5,0.14869557723999025,-0.05075,-0.0155,-0.37525,-0.09277319578953067,10,1,100,0.17856983914535157,-10,-1,-100,6319.777081635548,-0.009853314549075112,-0.003634091221116548,0.9999448512660053,256.2740928071974,28.347177311989515,1279.9937796802858,-56.321282972579105,-91.5999526977539,4381.2578125,True
1599567299.1127806,0.0,10,0.5,0.5,0.10107467346191407,-0.05075,-0.0155,-0.37525,-0.06660187028866782,10,1,100,0.1460852198225897,-10,-1,-100,6317.5197691366775,-0.010213874061388798,-0.0038909069095199723,0.9999402670260257,257.2082780356749,28.475596331645928,1294.6221036450008,-56.69369222363467,-91.62078094482422,4381.2578125,True
1599567299.1766098,0.0,10,0.5,0.5,0.09637655296325684,-0.05075,-0.0155,-0.37525,-0.041259147132587805,10,1,100,0.11042792171365762,-10,-1,-100,6317.5197691366775,-0.010213874061388798,-0.0038909069095199723,0.9999402670260257,257.2082780356749,28.475596331645928,1294.6221036450008,-56.69369222363467,-91.62078094482422,4381.2578125,True
1599567299.2432103,0.0,10,0.5,0.5,0.06965279083251953,-0.05075,-0.0155,-0.37525,-0.08888702474565485,10,1,100,0.1821340591567983,-10,-1,-100,6312.946550490684,-0.010862297284015289,-0.0043209791163061895,0.9999316674839288,258.9000019541666,28.713477076179267,1323.2711284988861,-57.438103972047365,-91.55130767822266,4381.2578125,True
1599567299.3060455,0.0,10,0.5,0.5,0.08219901466369628,-0.05075,-0.0155,-0.37525,-0.05752016488913776,10,1,100,0.13584373623598117,-10,-1,-100,6311.786887938739,-0.011027266613859298,-0.004423845979151652,0.9999294119975568,259.28493739363785,28.76878481712621,1330.2960455378977,-57.62412393016828,-91.5141830444336,4381.2578125,True
1599567299.3702085,0.0,10,0.5,0.5,0.057567869949340836,-0.05075,-0.0155,-0.37525,-0.0673900512745507,10,1,100,0.15303536101843376,-10,-1,-100,6309.468540401082,-0.01133022428232556,-0.004604536965807259,0.9999252093316994,260.0234443853268,28.875902298128985,1344.2488781219197,-57.99606568946824,-91.41996002197266,4381.2578125,True
1599567299.4320438,0.0,10,0.5,0.5,0.07060821495056152,-0.05075,-0.0155,-0.37525,-0.05838180137577938,10,1,100,0.13869947842713687,-10,-1,-100,6308.3093665937195,-0.011471917558707549,-0.004684356714698142,0.9999232230074946,260.37652533291293,28.927637629195946,1351.1731824233736,-58.18198791142217,-91.36470794677734,4381.2578125,True
