Timestamp,Input Throttle,horizon,dT,dt,Input Roll,Roll P,Roll I,Roll D,Input Pitch,Pitch P,Pitch I,Pitch D,Input Yaw,Yaw P,Yaw I,Yaw D,Altitude,Direction X,Direction Y,Direction Z,Drag X,Drag Y,Drag Z,Vertical Velocity,Roll,Mass,Has Fuel
1599568974.6923354,0.0,10,0.5,0.5,-5.433765998840332,-0.1005,-0.0155,-0.37525,-0.0671936837115235,10,1,100,0.690355741225998,-10,-1,-100,6483.6179671393475,-0.06725781025267662,-0.007002560321399481,0.9977110559219838,205.07325368530107,21.498780281660668,-156.76526142073763,9.59082389213504,-35.94464111328125,4381.2578125,True
1599568974.751178,0.0,10,0.5,0.5,-5.517931916809083,-0.1005,-0.0155,-0.37525,-0.06733227085083768,10,1,100,0.6999199424862602,-10,-1,-100,6483.997882989352,-0.06744522897026049,-0.0069717095178058715,0.9976986200028285,204.61206041733848,21.45673215495493,-150.26665274591025,9.210801549962751,-35.941314697265625,4381.2578125,True
1599568974.8100615,0.0,10,0.5,0.5,-5.5817454696655275,-0.1005,-0.0155,-0.37525,-0.051990760218416934,10,1,100,0.7005339803325352,-10,-1,-100,6484.316760183079,-0.06755987794032992,-0.0067978571365007595,0.9976920627282947,204.14955075682101,21.41436407425974,-143.78940769493906,8.830797778512615,-35.980682373046875,4381.2578125,True
1599568974.868906,0.0,10,0.5,0.5,-5.6310731674194345,-0.1005,-0.0155,-0.37525,-0.0528549151052818,10,1,100,0.6980336317444764,-10,-1,-100,6484.53893606714,-0.06757995576419219,-0.006641485600525338,0.99769175612908,203.942382692189,21.395601700991573,-140.57580417755287,8.640800792117766,-36.08404541015625,4381.2578125,True
1599568974.9287453,0.0,10,0.5,0.5,-5.40426875152588,-0.1005,-0.0155,-0.37525,0.0018008941535111872,10,1,100,0.6987522393493508,-10,-1,-100,6485.016948909033,-0.06754330480432567,-0.005996420951285449,0.9976983235988145,203.446999885646,21.351714586248928,-131.04561862517696,8.07081620011287,-36.817962646484375,4381.2578125,True
1599568974.9885848,0.0,10,0.5,0.5,-5.5764522521972655,-0.1005,-0.0155,-0.37525,-0.028387288398290446,10,1,100,0.7011670491340047,-10,-1,-100,6485.175622755545,-0.06747053556175812,-0.005678985274309852,0.9977051047064277,203.3178493006213,21.340463530723905,-127.89881521321229,7.880820233830947,-37.20819091796875,4381.2578125,True
1599568975.053413,0.0,10,0.5,0.5,-5.038312103271485,-0.1005,-0.0155,-0.37525,0.07937270102412518,10,1,100,0.6680857598921622,-10,-1,-100,6485.590081082191,-0.06704230586126018,-0.004405608404787976,0.9977404070395209,202.97300832152837,21.309562737249102,-118.49879150287968,7.31081551048911,-38.819122314453125,4381.2578125,True
1599568975.12123,0.0,10,0.5,0.5,-5.036482559204101,-0.1005,-0.0155,-0.37525,0.07397684859512382,10,1,100,0.6657655508927678,-10,-1,-100,6485.909322057269,-0.06657096577366642,-0.0032930411742092026,0.9977762586851756,202.710117158374,21.283913112116206,-112.22470753074583,6.930787799947982,-40.260345458984375,4381.2578125,True
1599568975.1895692,0.0,10,0.5,0.5,-5.259154409790039,-0.1005,-0.0155,-0.37525,0.03232977227019795,10,1,100,0.6874030500519215,-10,-1,-100,6486.005456750398,-0.06627866026296106,-0.0026572325301149084,0.9977976139022523,202.5430624482084,21.26681474872767,-109.07252238789243,6.740763388101194,-41.09112548828125,4381.2578125,True
1599568975.2553961,0.0,10,0.5,0.5,-4.751110511779785,-0.1005,-0.0155,-0.37525,0.11962869026565388,10,1,100,0.6422172007092339,-10,-1,-100,6486.2611819988815,-0.06554189420441997,-0.0012831824786794825,0.9978489933586259,202.08574003287657,21.218532647754053,-102.71685319389005,6.3606873736703395,-42.9736328125,4381.2578125,True
1599568975.3257165,0.0,10,0.5,0.5,-4.494935874938966,-0.1005,-0.0155,-0.37525,0.1537364769105271,10,1,100,0.6225090852201371,-10,-1,-100,6486.517858499894,-0.06463335865202317,0.00027719124892309707,0.9979090400003252,201.37851118796797,21.142430197313594,-96.26428873772977,5.9805645708205075,-45.150146484375,4381.2578125,True
1599568975.399519,0.0,10,0.5,0.5,-3.4817197860717783,-0.1005,-0.0155,-0.37525,0.28842944601542064,10,1,100,0.5229072606263554,-10,-1,-100,6486.8686496381415,-0.06290433197317412,0.0029135764008150905,0.9980153085456983,199.59876681282236,20.949927715374088,-86.34505294976026,5.410257008137801,-48.96661376953125,4381.2578125,True
1599568975.4693296,0.0,10,0.5,0.5,-3.5079625488281256,-0.1005,-0.0155,-0.37525,0.23482787076140405,10,1,100,0.5395424348144944,-10,-1,-100,6487.061794365873,-0.061487846482291775,0.004814016503936187,0.9980962228062332,197.74219567100633,20.749491625724062,-79.54598833969736,5.0299419014914655,-51.8792724609375,4381.2578125,True
1599568975.5460548,0.0,10,0.5,0.5,-3.050186822509766,-0.1005,-0.0155,-0.37525,0.2623594366581792,10,1,100,0.5008612965836499,-10,-1,-100,6487.255408606143,-0.05985400571708018,0.006781420038889287,0.9981841064362205,195.17868867658646,20.47370397760097,-72.59124611797377,4.649512503265585,-55.087066650390625,4381.2578125,True
1599568975.6258378,0.0,10,0.5,0.5,-3.408692588806153,-0.1005,-0.0155,-0.37525,0.17656880347703593,10,1,100,0.564474641633081,-10,-1,-100,6487.351965739625,-0.05895402265828912,0.007777851218436791,0.9982303983764619,193.58352638130245,20.30263274005958,-69.05835621360035,4.459245603605561,-56.8017578125,4381.2578125,True
1599568975.6956508,0.0,10,0.5,0.5,-1.3632247558593757,-0.1005,-0.0155,-0.37525,0.41526492438036744,10,1,100,0.32033424406135613,-10,-1,-100,6487.578626721632,-0.05592420651977796,0.010841140415174151,0.9983761579683439,187.29175558657488,19.631210648280444,-58.273219982660386,3.8881857574414163,-62.388580322265625,4381.2578125,True
1599568975.779466,0.0,10,0.5,0.5,-0.4462835998535155,-0.1005,-0.0155,-0.37525,0.449007573789075,10,1,100,0.23239538823301165,-10,-1,-100,6487.805266576237,-0.05238088073091194,0.013917681838024108,0.9985301905631645,178.3809098452125,18.686790122311805,-47.35379243102161,3.316652100460088,-68.64053344726562,4381.2578125,True
1599568975.8532312,0.0,10,0.5,0.5,-1.6838423721313478,-0.1005,-0.0155,-0.37525,0.24718190286016195,10,1,100,0.4465295003855146,-10,-1,-100,6487.839795001317,-0.05111967778344772,0.014863101313767757,0.9985819279171105,174.75882341663075,18.304588194965632,-43.728667926558515,3.1260030644143186,-70.87335205078125,4381.2578125,True
1599568975.928031,0.0,10,0.5,0.5,-0.255794258117676,-0.1005,-0.0155,-0.37525,0.3590069782777625,10,1,100,0.2783390207461942,-10,-1,-100,6487.969400007161,-0.04845817191447753,0.01672265957506928,0.9986852147856418,166.3980214138895,17.424883451110638,-36.55955052481105,2.744461170795201,-75.53643798828125,4381.2578125,True
1599568976.0088146,0.0,10,0.5,0.5,0.3561216186523435,-0.1005,-0.0155,-0.37525,0.37294836760732697,10,1,100,0.227773721447734,-10,-1,-100,6488.100472887396,-0.04559513702938089,0.01852228890460745,0.9987882700017088,156.77858383132676,16.41512430289393,-29.657209080714583,2.3626304178975945,-80.38845825195312,4381.2578125,True
1599568976.0886045,0.0,10,0.5,0.5,1.0146548583984374,-0.1005,-0.0155,-0.37525,0.37694041169151743,10,1,100,0.18061088221707589,-10,-1,-100,6488.167097504134,-0.04258175837462799,0.020176601903695437,0.9988892323923332,145.83104151691606,15.267784905544238,-23.128323909295847,1.9806106171325961,-85.47781372070312,4381.2578125,True
1599568976.7091684,0.0,10,0.5,0.5,0.4002987976074218,-0.1005,-0.0155,-0.37525,0.29737376210874156,10,1,100,0.30978884999007106,-10,-1,-100,6488.200657612993,-0.04103671530485931,0.020939099260609488,0.9989382073577635,147.42757473705106,15.434885997828887,-21.12730114741839,1.7895626739002974,-88.0693359375,4381.2578125,True
1599568976.7680087,0.0,10,0.5,0.5,0.7190511501312256,-0.1005,-0.0155,-0.37525,0.30305572379115114,10,1,100,0.28919694600394175,-10,-1,-100,6488.234708319767,-0.039464811220348714,0.021667546034135263,0.9989860089731992,151.23494487065867,15.833471136135705,-19.360152654708422,1.5985064279838008,-90.65601348876953,4381.2578125,True
1599568976.8326766,0.0,10,0.5,0.5,1.0307570293426513,-0.1005,-0.0155,-0.37525,0.30797685860105406,10,1,100,0.267835934717223,-10,-1,-100,6488.269251254271,-0.03786163743660704,0.022359186572403086,0.9990328138687135,154.81332349727097,16.207865095185145,-17.450563499242797,1.4074550639891914,-93.2251205444336,4381.2578125,True
1599568976.8925135,0.0,10,0.5,0.5,3.6607342369079587,-0.1005,-0.0155,-0.37525,0.44385391608858416,10,1,100,-0.12111654750022005,-10,-1,-100,6488.30698265566,-0.032888268129665554,0.024209035069320914,0.9991657942706224,165.33401822305862,17.306586008050758,-11.050441924385321,0.8344009322578017,-100.65532684326172,4381.2578125,True
1599568976.954294,0.0,10,0.5,0.5,3.176611237716675,-0.1005,-0.0155,-0.37525,0.3730409034258037,10,1,100,-0.002052849037361748,-10,-1,-100,6488.311648545205,-0.02947311670440712,0.02523202342062922,0.9992470567311316,171.16922391116356,17.915074671503117,-6.204136310483776,0.4524388089267357,-105.35546112060547,4381.2578125,True
1599568977.0150914,0.0,10,0.5,0.5,2.5489093334198,-0.1005,-0.0155,-0.37525,0.32176716897158997,10,1,100,0.14603954946907616,-10,-1,-100,6488.345238192822,-0.027738774567699225,0.02568280535132078,0.9992852214932274,173.96733286971568,18.207135492328813,-3.6441384903178333,0.26145926160347877,-107.60333251953125,4381.2578125,True
1599568977.077923,0.0,10,0.5,0.5,4.766451692581176,-0.1005,-0.0155,-0.37525,0.40088854433704774,10,1,100,-0.23680377300240502,-10,-1,-100,6488.322021554224,-0.022704107972008777,0.026801196770259727,0.9993829192721263,180.9569650612949,18.93749834025993,4.518190660202641,-0.31158839069903177,-113.91056060791016,4381.2578125,True
1599568977.139758,0.0,10,0.5,0.5,3.3966710388183596,-0.1005,-0.0155,-0.37525,0.32272939293611186,10,1,100,0.07771238794666885,-10,-1,-100,6488.355148250004,-0.021012208502564893,0.02709652568796254,0.9994119597991042,182.7759083347593,19.127515953906773,7.362612699636826,-0.5026618447766746,-115.86599731445312,4381.2578125,True
1599568977.201593,0.0,10,0.5,0.5,4.480930152511597,-0.1005,-0.0155,-0.37525,0.34538475793289697,10,1,100,-0.12897636985336808,-10,-1,-100,6488.298369516619,-0.017620080244353676,0.027561533598469606,0.9994648041016166,186.28442927624326,19.49412894995108,13.21180267141095,-0.8848890259119271,-119.55601501464844,4381.2578125,True
1599568977.2629647,0.0,10,0.5,0.5,5.526770810699463,-0.1005,-0.0155,-0.37525,0.35423566222951397,10,1,100,-0.320676700968342,-10,-1,-100,6488.2112935354235,-0.01281902886928465,0.02805651333372358,0.9995241390573831,189.71652089445348,19.852867222450868,22.18121122625065,-1.4584456864592892,-124.53722381591797,4381.2578125,True
1599568977.3287504,0.0,10,0.5,0.5,4.437971461868287,-0.1005,-0.0155,-0.37525,0.3149493632877638,10,1,100,-0.02003456680248028,-10,-1,-100,6488.182930412004,-0.01121460404755277,0.028142183183183987,0.9995410197594399,190.47939273948018,19.932593681840494,25.192539536106235,-1.649688889452924,-126.05032348632812,4381.2578125,True
1599568977.390585,0.0,10,0.5,0.5,5.877153800201416,-0.1005,-0.0155,-0.37525,0.328796145139711,10,1,100,-0.3571238330457791,-10,-1,-100,6488.03341905016,-0.006718699163091352,0.028339396441417898,0.9995757788636598,191.85551240866226,20.076126358130956,34.20960158501551,-2.2235786445059453,-130.14512634277344,4381.2578125,True
1599568977.4529288,0.0,10,0.5,0.5,5.524847818374634,-0.1005,-0.0155,-0.37525,0.31089553308175805,10,1,100,-0.22829084495233826,-10,-1,-100,6487.974787128624,-0.003832491079937031,0.02834988306618799,0.9995907143137415,192.20716801680962,20.112403423929674,40.177495748705915,-2.6062918613448485,-132.5057373046875,4381.2578125,True
1599568977.5147653,0.0,10,0.5,0.5,5.68204804763794,-0.1005,-0.0155,-0.37525,0.3071798131515454,10,1,100,-0.24289016262166097,-10,-1,-100,6487.853672344121,-0.0011068800676725964,0.02832019100161906,0.9995982901136573,192.2596424821696,20.117033475647585,46.098667417508295,-2.9890880540465483,-134.57012939453125,4381.2578125,True
1599568977.574604,0.0,10,0.5,0.5,5.398041254043579,-0.1005,-0.0155,-0.37525,0.30938859327822255,10,1,100,-0.11502405852019759,-10,-1,-100,6487.762848783168,0.0001796368261345012,0.02830954062049683,0.9995991884953024,192.20516568903537,20.11073413528737,49.04112577421671,-3.180513936052545,-135.490966796875,4381.2578125,True
1599568977.6344447,0.0,10,0.5,0.5,5.870028620147704,-0.1005,-0.0155,-0.37525,0.30032237479564905,10,1,100,-0.26669201065216175,-10,-1,-100,6487.640782367438,0.0027010401548583176,0.02821464054490789,0.999598238514356,192.04581645914382,20.092475157934203,54.90910336274513,-3.5634156207210226,-137.11119079589844,4381.2578125,True
1599568977.6930673,0.0,10,0.5,0.5,5.937483440399171,-0.1005,-0.0155,-0.37525,0.2989851822283546,10,1,100,-0.27611775574574543,-10,-1,-100,6487.518729020143,0.005051241032073859,0.028113909784493823,0.9995919632733475,191.81678122532253,20.066357209957058,60.748529411759584,-3.946377251381655,-138.43479919433594,4381.2578125,True
1599568977.7527776,0.0,10,0.5,0.5,5.967839344406128,-0.1005,-0.0155,-0.37525,0.29128979267698,10,1,100,-0.28985233578512515,-10,-1,-100,6487.33662672108,0.007287414967169546,0.02795118490363742,0.9995827253637285,191.67338964340726,20.048570484032243,66.60697240469675,-4.329392678803322,-139.46270751953125,4381.2578125,True
1599568977.8156364,0.0,10,0.5,0.5,5.966328303909303,-0.1005,-0.0155,-0.37525,0.29360250486398487,10,1,100,-0.29462049810402746,-10,-1,-100,6487.152091172757,0.009337920362455888,0.027823500887090118,0.9995692352417066,191.60872040001016,20.038364893968097,72.4897749200851,-4.712456070433328,-140.19342041015625,4381.2578125,True
1599568977.8757741,0.0,10,0.5,0.5,5.930819540023804,-0.1005,-0.0155,-0.37525,0.28970572942054734,10,1,100,-0.3028052737164564,-10,-1,-100,6486.905062321457,0.011251915954095726,0.02767176112502621,0.9995537344353236,191.64478864466682,20.038059518842648,78.41329550523979,-5.095562308298641,-140.62789916992188,4381.2578125,True
1599568977.9396026,0.0,10,0.5,0.5,5.858303070831298,-0.1005,-0.0155,-0.37525,0.2888543159128334,10,1,100,-0.3073504488332578,-10,-1,-100,6486.722491357941,0.013011349043172518,0.027526425538724076,0.9995363928807882,191.8061366606121,20.050279458140082,84.3977488262547,-5.4787066553386765,-140.7657470703125,4381.2578125,True
1599568978.0004401,0.0,10,0.5,0.5,5.753814522552491,-0.1005,-0.0155,-0.37525,0.2883047561309635,10,1,100,-0.30980751100494097,-10,-1,-100,6486.474493768066,0.014611147004720607,0.02738986606010919,0.9995180386668445,192.10815633351848,20.07673252175272,90.46209193182524,-5.8618840602645985,-140.60690307617188,4381.2578125,True
1599568978.062275,0.0,10,0.5,0.5,5.6129007675170906,-0.1005,-0.0155,-0.37525,0.2886572307015464,10,1,100,-0.31037182361716176,-10,-1,-100,6486.228450602153,0.01605124813335923,0.027269788603265784,0.9994992326474766,192.55076704666646,20.117548167588136,96.61943729967089,-6.245089164099435,-140.15133666992188,4381.2578125,True
1599568978.1221354,0.0,10,0.5,0.5,5.205929833221436,-0.1005,-0.0155,-0.37525,0.2839791860755255,10,1,100,-0.3725845321408317,-10,-1,-100,6485.825203702203,0.017907924928506527,0.027119081504501517,0.9994717913193486,193.44225402798997,20.202331274275412,106.03885948529238,-6.819934900008437,-138.9116668701172,4381.2578125,True
1599568978.1839497,0.0,10,0.5,0.5,5.108267965698243,-0.1005,-0.0155,-0.37525,0.28993087753469016,10,1,100,-0.30262957992989575,-10,-1,-100,6485.577690556878,0.018942572626726308,0.027037273254796514,0.9994549338500595,194.13944424830586,20.269778109348284,112.42905746892427,-7.203180622833235,-137.71444702148438,4381.2578125,True
1599568978.2437904,0.0,10,0.5,0.5,5.22327978591919,-0.1005,-0.0155,-0.37525,0.29404208209549376,10,1,100,-0.2512324289249008,-10,-1,-100,6485.423903270625,0.019398857401607433,0.027001433312313545,0.9994471506440913,194.5018810339569,20.305107716602237,115.65011842141095,-7.394805020328967,-137.004638671875,4381.2578125,True
1599568978.3056245,0.0,10,0.5,0.5,4.264691271209717,-0.1005,-0.0155,-0.37525,0.2896275856121132,10,1,100,-0.32884831048822055,-10,-1,-100,6484.958624850493,0.020504080831850683,0.02692982267587338,0.9994270195066207,195.55028324747116,20.40823924407111,125.36196052474436,-7.96966966687162,-134.4302215576172,4381.2578125,True
1599568978.3674595,0.0,10,0.5,0.5,4.745815116119386,-0.1005,-0.0155,-0.37525,0.2939084505448069,10,1,100,-0.25181667773717387,-10,-1,-100,6484.802878235816,0.020794493798153416,0.02690471549405101,0.9994216954378481,195.85581919174732,20.438607983441937,128.59415256850576,-8.161284320505953,-133.42398071289062,4381.2578125,True
1599568978.4273233,0.0,10,0.5,0.5,4.051043060302734,-0.1005,-0.0155,-0.37525,0.28962323165080145,10,1,100,-0.275693439736152,-10,-1,-100,6484.429365537479,0.021263287895845716,0.02684388558373025,0.9994134671869426,196.33326362188413,20.486600040402223,134.99825406071525,-8.544497128326224,-131.18960571289062,4381.2578125,True
1599568978.48967,0.0,10,0.5,0.5,3.671526478576661,-0.1005,-0.0155,-0.37525,0.29073057982887046,10,1,100,-0.2611981106966321,-10,-1,-100,6484.058285446605,0.02154684738654,0.02679954302624233,0.9994085840442265,196.54476275509117,20.508810192483132,141.2451482453936,-8.927682856079096,-128.65884399414062,4381.2578125,True
1599568978.5535386,0.0,10,0.5,0.5,2.5331201148986815,-0.1005,-0.0155,-0.37525,0.2801496783608691,10,1,100,-0.252470892366252,-10,-1,-100,6483.528988702106,0.02171593136468367,0.026663834522543103,0.9994085542227057,196.11923910306882,20.46933077955842,150.07988424151768,-9.50240104618366,-124.30882263183594,4381.2578125,True
1599568978.6173685,0.0,10,0.5,0.5,3.3797998435974126,-0.1005,-0.0155,-0.37525,0.28755399891465044,10,1,100,-0.23379411057499896,-10,-1,-100,6483.311699187034,0.02169194189005606,0.026608559334229256,0.9994105483869955,195.7154568429956,20.430294298916508,152.81368713087542,-9.693957320348137,-122.71101379394531,4381.2578125,True
1599568978.6772087,0.0,10,0.5,0.5,2.3260267265319827,-0.1005,-0.0155,-0.37525,0.2770125420769662,10,1,100,-0.2202141999254829,-10,-1,-100,6482.93716881983,0.021540242457321418,0.026463188016079428,0.9994176892745622,194.40565521430915,20.302169599462534,157.8393795653986,-10.07705055659769,-119.2940673828125,4381.2578125,True
1599568978.7370508,0.0,10,0.5,0.5,1.8098913909912113,-0.1005,-0.0155,-0.37525,0.27075739643492813,10,1,100,-0.2040190990344889,-10,-1,-100,6482.502080080914,0.021250115697350015,0.02627490058518577,0.9994288679951604,192.7366397983299,20.139691701165095,162.48575817907292,-10.460129253473385,-115.58200073242188,4381.2578125,True
1599568978.798883,0.0,10,0.5,0.5,1.2604275920867922,-0.1005,-0.0155,-0.37525,0.26187898867202064,10,1,100,-0.18707348218577485,-10,-1,-100,6482.065027515986,0.02082927467987057,0.02602378483281903,0.9994442975670458,190.34260498839967,19.9043225128818,166.39990653550458,-10.843212343951663,-111.57515716552734,4381.2578125,True
1599568978.8587236,0.0,10,0.5,0.5,-0.39878933982849096,-0.1005,-0.0155,-0.37525,0.23194575330743544,10,1,100,-0.13570906212516384,-10,-1,-100,6481.410649446072,0.019978027479744483,0.02552429881682756,0.999474556248396,184.74522473572725,19.344792434919157,170.15522146065825,-11.417913272663174,-105.01232147216797,4381.2578125,True
1599568978.9165685,0.0,10,0.5,0.5,0.9035198120117189,-0.1005,-0.0155,-0.37525,0.2590671789369615,10,1,100,-0.18369244723749445,-10,-1,-100,6481.192356152576,0.019639852462398192,0.025318121884826905,0.9994865026099553,182.39688925306987,19.107974768156776,170.84202690758937,-11.609517186831454,-102.6774673461914,4381.2578125,True
1599568978.9799762,0.0,10,0.5,0.5,-1.7825040019989014,-0.1005,-0.0155,-0.37525,0.19805105648782778,10,1,100,-0.09237725512736118,-10,-1,-100,6480.475938901189,0.018503068180508946,0.024577461470553317,0.9995266804120693,174.35389172392019,18.29051580382906,171.4916985931056,-12.184486505933716,-95.29341888427734,4381.2578125,True
1599568979.5020897,0.0,10,0.5,0.5,-0.2505820064544677,-0.1005,-0.0155,-0.37525,0.2400275026639142,10,1,100,-0.1602032076731493,-10,-1,-100,6480.195626321714,0.018088310607041927,0.02428785356283584,0.9995413514150845,170.96527941563505,17.942069020924283,170.8371854869846,-12.376205982465693,-92.81346130371094,4381.2578125,True
1599568979.552953,0.0,10,0.5,0.5,-1.7972445747375487,-0.1005,-0.0155,-0.37525,0.1955419289595719,10,1,100,-0.10223235351506697,-10,-1,-100,6479.695542077883,0.0171871368454428,0.023622483005799468,0.9995731992324006,164.07052855732397,17.228525376572748,169.09376682054133,-12.759738165696987,-87.73141479492188,4381.2578125,True
1599568979.6117964,0.0,10,0.5,0.5,0.04635586242675782,-0.1005,-0.0155,-0.37525,0.26176127866116466,10,1,100,-0.19191375862086982,-10,-1,-100,6479.695542077883,0.0171871368454428,0.023622483005799468,0.9995731992324006,164.07052855732397,17.228525376572748,169.09376682054133,-12.759738165696987,-87.73141479492188,4381.2578125,True
1599568979.667647,0.0,10,0.5,0.5,-3.5968738792419432,-0.1005,-0.0155,-0.37525,0.13455332623144378,10,1,100,-0.036283948895490775,-10,-1,-100,6478.914645069162,0.015776437479320483,0.02246881193963541,0.9996230572123086,160.71168071271242,16.87770804647192,173.20427113524352,-13.335177931374162,-80.19271850585938,4381.2578125,True
1599568979.7254925,0.0,10,0.5,0.5,-1.9777547302246095,-0.1005,-0.0155,-0.37525,0.20209343456096543,10,1,100,-0.12292944061558006,-10,-1,-100,6478.634325945168,0.015287047529765311,0.022037784452840638,0.9996402564093908,165.6428958978739,17.392449043707728,181.12257241500916,-13.526942718470078,-77.78836059570312,4381.2578125,True
1599568979.7843356,0.0,10,0.5,0.5,-4.505166021728515,-0.1005,-0.0155,-0.37525,0.0835724095216015,10,1,100,-0.0031720430829973723,-10,-1,-100,6477.791409295052,0.01375912868435309,0.02057250051318139,0.9996936823850006,178.59556744096906,18.734141872864985,203.7128759548895,-14.101960632186298,-70.71466064453125,4381.2578125,True
1599568979.8441749,0.0,10,0.5,0.5,-5.04266068572998,-0.1005,-0.0155,-0.37525,0.04650443938970819,10,1,100,0.015696042096371154,-10,-1,-100,6476.947518612607,0.012205393493268627,0.01890862665781214,0.9997467140269027,189.4498388394317,19.846443830828267,225.03905374338152,-14.67650096116999,-64.15164184570312,4381.2578125,True
1599568979.9040146,0.0,10,0.5,0.5,-2.653394330215454,-0.1005,-0.0155,-0.37525,0.2121803091091326,10,1,100,-0.13881508889341496,-10,-1,-100,6476.947518612607,0.012205393493268627,0.01890862665781214,0.9997467140269027,189.4498388394317,19.846443830828267,225.03905374338152,-14.67650096116999,-64.15164184570312,4381.2578125,True
1599568979.9638546,0.0,10,0.5,0.5,-4.624243711090088,-0.1005,-0.0155,-0.37525,0.08479434973069393,10,1,100,-0.02610726915724529,-10,-1,-100,6476.322917423444,0.011187842981109336,0.017756586729061802,0.9997797436421502,195.19963795445534,20.430354226448166,238.016785688271,-15.059260065874167,-60.14215087890625,4381.2578125,True
1599568980.029679,0.0,10,0.5,0.5,-4.951409894180298,-0.1005,-0.0155,-0.37525,0.06640778974622676,10,1,100,-0.015129146758915843,-10,-1,-100,6475.759843960637,0.01017067959323543,0.01654900128048067,0.9998113261176982,199.84283972099942,20.898914473594214,249.97547286491812,-15.441821779011521,-56.4305419921875,4381.2578125,True
1599568980.0915136,0.0,10,0.5,0.5,-5.242075522613526,-0.1005,-0.0155,-0.37525,0.038178908279768664,10,1,100,-0.00440428139761305,-10,-1,-100,6475.072752099833,0.00915606172696301,0.015201868732248271,0.9998425224607622,203.52869487049625,21.269103151581604,261.0025251136307,-15.82420346824085,-53.018646240234375,4381.2578125,True
1599568980.1533487,0.0,10,0.5,0.5,-5.505414727783203,-0.1005,-0.0155,-0.37525,0.027844922871253452,10,1,100,0.003964047349495833,-10,-1,-100,6474.447677255259,0.008165726358905348,0.013891517443623758,0.999870164899496,206.39820186984394,21.55662896677066,271.19343385547876,-16.206425632585525,-49.90362548828125,4381.2578125,True
1599568980.2151833,0.0,10,0.5,0.5,-6.3519427062988285,-0.1005,-0.0155,-0.37525,-0.06928821580882122,10,1,100,0.06752184875611997,-10,-1,-100,6473.477850070223,0.006695824566507742,0.011826106798293682,0.9999076503014517,209.51183614776704,21.869710874881346,285.2079534771499,-16.779509699161636,-45.79052734375,4381.2578125,True
1599568980.2770183,0.0,10,0.5,0.5,-6.000949067687988,-0.1005,-0.0155,-0.37525,-0.018346410271304472,10,1,100,0.027924526742356,-10,-1,-100,6472.790780896787,0.005729063421070441,0.010422292058523316,0.9999292743292219,211.02307689500833,22.02380832935787,293.9360001516141,-17.16142914546722,-43.42071533203125,4381.2578125,True
1599568980.3388531,0.0,10,0.5,0.5,-5.679312242126465,-0.1005,-0.0155,-0.37525,0.04304389544873834,10,1,100,-0.015022175267608733,-10,-1,-100,6472.44700543792,0.0052497481926346195,0.009715141910624383,0.9999390262218844,211.8106984566693,22.105446500364305,298.383433869243,-17.352352738986166,-42.347381591796875,4381.2578125,True
1599568980.4036791,0.0,10,0.5,0.5,-6.246956285095216,-0.1005,-0.0155,-0.37525,-0.038154347141830816,10,1,100,0.04441300322896879,-10,-1,-100,6471.695983194048,0.00428281208893965,0.00834531470038583,0.99995600565383,213.16293624435437,22.24778702641371,307.03720555250027,-17.734134157307736,-40.423095703125,4381.2578125,True
1599568980.462522,0.0,10,0.5,0.5,-6.6795560684204105,-0.1005,-0.0155,-0.37525,-0.13308068170428983,10,1,100,0.10633686979814184,-10,-1,-100,6470.665167809464,0.00284944985912939,0.006248166182158242,0.9999764202494279,214.80955582568467,22.426629041501215,319.62468019562124,-18.30665590098605,-38.094696044921875,4381.2578125,True
1599568980.524267,0.0,10,0.5,0.5,-6.408131071472169,-0.1005,-0.0155,-0.37525,-0.07552717468778264,10,1,100,0.0693935563160552,-10,-1,-100,6469.914653097745,0.0018907469942609767,0.0048763907388974575,0.9999863228510504,215.76680962931525,22.534012782399184,327.8997856873242,-18.688243293082593,-36.91357421875,4381.2578125,True
1599568980.585146,0.0,10,0.5,0.5,-6.23517992553711,-0.1005,-0.0155,-0.37525,-0.013959052805724556,10,1,100,0.027623470487020428,-10,-1,-100,6469.507904776372,0.0014083039396436514,0.0042017889311508315,0.9999901807766872,216.2275631095242,22.586505636449104,332.0357318613743,-18.879009235622913,-36.434234619140625,4381.2578125,True
1599568980.6450174,0.0,10,0.5,0.5,-6.5647125198364265,-0.1005,-0.0155,-0.37525,-0.16259945413089455,10,1,100,0.14248553950885692,-10,-1,-100,6468.350658420008,-6.559079289655274e-05,0.0022495607282413633,0.9999974675839823,217.6094673942358,22.745887900379152,344.5431533899312,-19.45119381038513,-35.44073486328125,4381.2578125,True
1599568980.7046738,0.0,10,0.5,0.5,-6.311417695617677,-0.1005,-0.0155,-0.37525,-0.039297426195024035,10,1,100,0.050495097541741064,-10,-1,-100,6467.943918001605,-0.0005599126496992014,0.0016087348346063416,0.9999985492339759,218.0851894060411,22.8010401873963,348.7698156613045,-19.641882863377287,-35.257904052734375,4381.2578125,True
1599568980.764514,0.0,10,0.5,0.5,-6.338403427124024,-0.1005,-0.0155,-0.37525,-0.11676450241622263,10,1,100,0.11100736409037036,-10,-1,-100,6467.192940848181,-0.001550574965983092,0.0003342770873796455,0.9999987419872605,219.07678550130274,22.91584756508444,357.3401456641763,-20.023198963305738,-35.114837646484375,4381.2578125,True
1599568980.8263488,0.0,10,0.5,0.5,-6.235366102600097,-0.1005,-0.0155,-0.37525,-0.11772444786347158,10,1,100,0.126244551283208,-10,-1,-100,6466.379471131717,-0.002580863954062527,-0.000820722877477574,0.9999963327708803,220.12873060898266,23.036953427911904,366.08201357192723,-20.404428126509778,-35.266754150390625,4381.2578125,True
1599568980.8867176,0.0,10,0.5,0.5,-6.094997836303711,-0.1005,-0.0155,-0.37525,-0.13393578720611415,10,1,100,0.1364635393238156,-10,-1,-100,6465.503507581772,-0.0036019568449397457,-0.0020066015398483685,0.999991499692446,221.23562452337876,23.16328327692118,374.991934500661,-20.785565013643204,-35.715911865234375,4381.2578125,True
1599568980.9485536,0.0,10,0.5,0.5,-5.691644711303711,-0.1005,-0.0155,-0.37525,-0.19297404374495553,10,1,100,0.2095364977287647,-10,-1,-100,6464.284299905063,-0.005186039985540382,-0.0036100854799945834,0.9999800359367659,222.9585522924774,23.357144105202682,388.61275440598996,-21.357088329933635,-36.943115234375,4381.2578125,True
1599568981.0128994,0.0,10,0.5,0.5,-5.595489151000978,-0.1005,-0.0155,-0.37525,-0.14362500463847463,10,1,100,0.17027057274217589,-10,-1,-100,6463.407374391449,-0.006259665533319084,-0.004607056681531663,0.9999697953519118,224.0952481720413,23.482814472669865,397.77332779411455,-21.737979082622928,-38.13079833984375,4381.2578125,True
1599568981.0762408,0.0,10,0.5,0.5,-5.33935645904541,-0.1005,-0.0155,-0.37525,-0.14460481092534372,10,1,100,0.1839672209735635,-10,-1,-100,6462.530941785779,-0.007350619671928466,-0.0055105265842806195,0.9999578003531961,225.1623383224667,23.598607676401034,406.88843907672026,-22.118771150206555,-39.613433837890625,4381.2578125,True
1599568981.136082,0.0,10,0.5,0.5,-5.488085339355469,-0.1005,-0.0155,-0.37525,-0.10094555523114374,10,1,100,0.1364426023358839,-10,-1,-100,6462.062698138645,-0.00790108138347531,-0.005924270814317454,0.999951236775219,225.649080410476,23.65043115566928,411.389207145714,-22.309131499178285,-40.465301513671875,4381.2578125,True
1599568981.1974251,0.0,10,0.5,0.5,-4.375821075439454,-0.1005,-0.0155,-0.37525,-0.1862636195572301,10,1,100,0.26508856433901046,-10,-1,-100,6460.716564952978,-0.009562108204566558,-0.007066201915903348,0.9999293149403952,226.80133537770314,23.768062653092585,424.4212119650774,-22.880082980417065,-43.46356201171875,4381.2578125,True
1599568981.2602594,0.0,10,0.5,0.5,-4.9444812973022465,-0.1005,-0.0155,-0.37525,-0.10945899546827662,10,1,100,0.16128207563865427,-10,-1,-100,6460.247836216702,-0.010118464133606082,-0.007395853615766353,0.9999214559318502,227.0441253288074,23.79039097013451,428.52764027092957,-23.070362725810288,-44.610260009765625,4381.2578125,True
1599568981.3226075,0.0,10,0.5,0.5,-3.5137254348754885,-0.1005,-0.0155,-0.37525,-0.17254920807241414,10,1,100,0.28975341430281565,-10,-1,-100,6458.838723480469,-0.011783024535733743,-0.008260315808093964,0.9998964583973386,227.1656638131635,23.78680901383605,439.73435883426066,-23.64112157816607,-48.492218017578125,4381.2578125,True
1599568981.383442,0.0,10,0.5,0.5,-4.264400267028809,-0.1005,-0.0155,-0.37525,-0.11183032825486373,10,1,100,0.1845133430501937,-10,-1,-100,6458.36950850545,-0.012329330515475023,-0.00848522884764797,0.9998879879768751,226.95416081866793,23.75676374091709,442.98629548638206,-23.831357131642747,-49.933135986328125,4381.2578125,True
1599568981.4452753,0.0,10,0.5,0.5,-3.305711407470703,-0.1005,-0.0155,-0.37525,-0.1388850481617807,10,1,100,0.2516979791890833,-10,-1,-100,6457.368090862175,-0.013426942866002918,-0.008927629513728105,0.9998699988681222,226.3595336823208,23.67500667608644,449.13899462772036,-24.211819810913163,-53.0364990234375,4381.2578125,True
1599568981.5071106,0.0,10,0.5,0.5,-2.826871397399903,-0.1005,-0.0155,-0.37525,-0.12646034327093897,10,1,100,0.258086817460789,-10,-1,-100,6456.428684759187,-0.0144729925517602,-0.009209490159669438,0.9998528480619515,225.15578552208495,23.524902102582992,454.03983382432165,-24.592295420531205,-56.432891845703125,4381.2578125,True
1599568981.5679483,0.0,10,0.5,0.5,-1.3829705810546873,-0.1005,-0.0155,-0.37525,-0.13356535088495947,10,1,100,0.3237580117335078,-10,-1,-100,6454.89555104787,-0.016011074908830792,-0.009523770008271,0.999826456583888,221.74911023555828,23.12594428714425,457.9714949496248,-25.163110842497268,-62.079315185546875,4381.2578125,True
1599568981.6327763,0.0,10,0.5,0.5,-2.497624140930176,-0.1005,-0.0155,-0.37525,-0.1082078423824876,10,1,100,0.22439372386300918,-10,-1,-100,6454.424382743309,-0.016496178948323805,-0.009573580080133332,0.9998180947775221,220.22163142650572,22.951152676444508,458.4025972741629,-25.3534279328952,-64.10812377929688,4381.2578125,True
1599568981.6936126,0.0,10,0.5,0.5,-0.11356177825927771,-0.1005,-0.0155,-0.37525,-0.10694640890672655,10,1,100,0.3268425918944481,-10,-1,-100,6452.891731823329,-0.017859230045044167,-0.009602879365320715,0.9997943951683731,213.99525569079083,22.257124554577256,455.9290508076664,-25.924574142222255,-70.6348876953125,4381.2578125,True
1599568982.262348,0.0,10,0.5,0.5,-1.40984333190918,-0.1005,-0.0155,-0.37525,-0.10057529915470784,10,1,100,0.23721872131660868,-10,-1,-100,6452.359036340029,-0.018274051663743122,-0.009567875578853583,0.9997872347618258,211.2743729206901,21.96049338786971,453.5951998783527,-26.11503402043652,-72.95712280273438,4381.2578125,True
1599568982.3181996,0.0,10,0.5,0.5,2.4735633178710934,-0.1005,-0.0155,-0.37525,-0.07253825954177184,10,1,100,0.36114074055302253,-10,-1,-100,6450.230686683673,-0.019768296064454783,-0.009277859408525376,0.9997615394660389,196.79826521772694,20.422239016612142,435.47539884449395,-26.877313859781932,-82.84564208984375,4381.2578125,True
1599568982.3760443,0.0,10,0.5,0.5,0.04773760681152339,-0.1005,-0.0155,-0.37525,-0.08978132302168373,10,1,100,0.24933705892436375,-10,-1,-100,6449.698473911616,-0.02010102460678677,-0.00916895286941473,0.9997559097664969,192.36976113329035,19.961049289347617,428.85528108222866,-27.067986764081244,-85.41799926757812,4381.2578125,True
1599568982.4338899,0.0,10,0.5,0.5,1.645657735443115,-0.1005,-0.0155,-0.37525,-0.07302524231724153,10,1,100,0.27885407509782667,-10,-1,-100,6448.57154587796,-0.020662766555508073,-0.008916007009952261,0.9997467453796842,200.30284382263017,20.791001684739246,453.1720399909419,-27.449161839258117,-90.67274475097656,4381.2578125,True
1599568982.4947693,0.0,10,0.5,0.5,0.9597011127471924,-0.1005,-0.0155,-0.37525,-0.08320424985741681,10,1,100,0.24921491423448838,-10,-1,-100,6448.039818428922,-0.020895921644660934,-0.008777996577895375,0.9997431206238424,204.9027233957494,21.276451303967374,466.97419858355636,-27.639628391945728,-93.2381820678711,4381.2578125,True
1599568982.5526142,0.0,10,0.5,0.5,2.4770815788269043,-0.1005,-0.0155,-0.37525,-0.0629339154616487,10,1,100,0.27548767578785716,-10,-1,-100,6446.912394138635,-0.021338936293349445,-0.008467990629036453,0.9997364367334898,213.75665715442736,22.219447264043872,494.2389825816561,-28.02029026721812,-98.31004333496094,4381.2578125,True
1599568982.6124542,0.0,10,0.5,0.5,2.9735856296539307,-0.1005,-0.0155,-0.37525,-0.05872196986721048,10,1,100,0.26705729106808235,-10,-1,-100,6445.789847294684,-0.021657844300679824,-0.00814829447820135,0.9997322356898092,221.5609931712686,23.06130094681232,519.628442134476,-28.400572741778927,-103.20661926269531,4381.2578125,True
1599568982.672294,0.0,10,0.5,0.5,3.4084223094940187,-0.1005,-0.0155,-0.37525,-0.05326443231321005,10,1,100,0.26202709810472424,-10,-1,-100,6444.596494448138,-0.02189549996063244,-0.0078090123593889515,0.9997297666907017,228.17148208839018,23.783001384143503,542.6918495756045,-28.780488190182968,-107.83042907714844,4381.2578125,True
1599568982.733131,0.0,10,0.5,0.5,5.7267852359771725,-0.1005,-0.0155,-0.37525,-0.016097543824754743,10,1,100,0.25925716449794395,-10,-1,-100,6442.280574911274,-0.02208101986866245,-0.007164252135708888,0.9997305147152886,238.66702529272442,24.94000993368088,583.4570478078456,-29.539325273897983,-116.20149230957031,4381.2578125,True
1599568982.7931142,0.0,10,0.5,0.5,2.6662884792327883,-0.1005,-0.0155,-0.37525,-0.08033263339831864,10,1,100,0.24126365778697673,-10,-1,-100,6442.280574911274,-0.02208101986866245,-0.007164252135708888,0.9997305147152886,238.66702529272442,24.94000993368088,583.4570478078456,-29.539325273897983,-116.20149230957031,4381.2578125,True
1599568982.8519568,0.0,10,0.5,0.5,5.352659703063965,-0.1005,-0.0155,-0.37525,-0.0334155488154666,10,1,100,0.23262309288509336,-10,-1,-100,6440.49296407809,-0.021998631287896586,-0.006739950118800789,0.9997352816090144,243.5279108294275,25.480921417690652,607.4303222733497,-30.107775558838373,-121.69963836669922,4381.2578125,True
1599568982.9130833,0.0,10,0.5,0.5,4.166233320617676,-0.1005,-0.0155,-0.37525,-0.06227933382136455,10,1,100,0.2339725059455477,-10,-1,-100,6439.8982318138005,-0.02193261398809161,-0.006619189899356183,0.9997375389414593,244.83799409766397,25.625454760156774,614.7513842988263,-30.29716109661975,-123.38372039794922,4381.2578125,True
1599568982.9734733,0.0,10,0.5,0.5,5.788483100128174,-0.1005,-0.0155,-0.37525,-0.03782958086134684,10,1,100,0.20565215744096355,-10,-1,-100,6438.050551143708,-0.021613172985569376,-0.0062895543725056255,0.9997466240299543,247.694450752859,25.9359918885138,634.2358394589693,-30.865088836670488,-127.98985290527344,4381.2578125,True
1599568983.0352647,0.0,10,0.5,0.5,5.4103530544281,-0.1005,-0.0155,-0.37525,-0.052970765397233825,10,1,100,0.20504400140314039,-10,-1,-100,6436.796624892508,-0.021315868702588243,-0.006130150478874008,0.9997539972396011,248.86883148999422,26.0578555923668,645.501999314647,-31.243553832633022,-130.689453125,4381.2578125,True
1599568983.094614,0.0,10,0.5,0.5,5.0485461277008055,-0.1005,-0.0155,-0.37525,-0.0615592642305223,10,1,100,0.21551829416242863,-10,-1,-100,6436.150130228023,-0.02114021919573794,-0.00606584770726705,0.9997581190587793,249.28764305439086,26.09870846661877,650.7292210482275,-31.432749273642145,-131.9279022216797,4381.2578125,True
1599568983.1544564,0.0,10,0.5,0.5,5.71632262802124,-0.1005,-0.0155,-0.37525,-0.0577120964015682,10,1,100,0.1912660430649381,-10,-1,-100,6434.887900012778,-0.020759840727214048,-0.005974881979061712,0.99976663767017,249.862606503875,26.148468076595066,660.5410567588374,-31.811076868982074,-134.18231201171875,4381.2578125,True
1599568983.2162898,0.0,10,0.5,0.5,5.857377956390382,-0.1005,-0.0155,-0.37525,-0.06142937481786383,10,1,100,0.1804601164619537,-10,-1,-100,6433.639827878447,-0.020316332873588954,-0.005928245765068616,0.9997760261782228,250.1814029838116,26.16617372513284,669.7199197711487,-32.1893299209615,-136.14010620117188,4381.2578125,True
1599568983.2751343,0.0,10,0.5,0.5,5.96416993637085,-0.1005,-0.0155,-0.37525,-0.06643710639342697,10,1,100,0.1697520410145119,-10,-1,-100,6432.323395579704,-0.01981701733115948,-0.00593339226550104,0.9997860174458933,250.34034784375953,26.162770791440977,678.5022512731541,-32.56751524632988,-137.80149841308594,4381.2578125,True
1599568983.334973,0.0,10,0.5,0.5,6.308481432342529,-0.1005,-0.0155,-0.37525,-0.07566269495100893,10,1,100,0.12834601195321366,-10,-1,-100,6430.352162112948,-0.018988565194420406,-0.006023644998321161,0.9998015553562575,250.45466789588275,26.13825670552001,691.3830118318217,-33.134669707119,-139.73800659179688,4381.2578125,True
1599568983.396807,0.0,10,0.5,0.5,6.056383988952637,-0.1005,-0.0155,-0.37525,-0.07928936878360503,10,1,100,0.14383109772227437,-10,-1,-100,6428.976645193412,-0.018379011717716564,-0.006139699614942496,0.999812240381622,250.54504097742603,26.12017223727616,700.036044637887,-33.5126862625174,-140.6588592529297,4381.2578125,True
1599568983.4586408,0.0,10,0.5,0.5,6.045992324829101,-0.1005,-0.0155,-0.37525,-0.08411562725996032,10,1,100,0.1333310129472726,-10,-1,-100,6427.660698889522,-0.01773278233925937,-0.006290010300311274,0.9998229764317934,250.70560925068008,26.107579938294997,708.9091098125784,-33.89062656767122,-141.28366088867188,4381.2578125,True
1599568983.520625,0.0,10,0.5,0.5,5.937721674728393,-0.1005,-0.0155,-0.37525,-0.07860170030897923,10,1,100,0.16057826346103504,-10,-1,-100,6426.936564013595,-0.017396881408013067,-0.006376938805472597,0.9998283268485381,250.82416689768925,26.10476118995218,713.4641589413086,-34.07956555962321,-141.48509216308594,4381.2578125,True
1599568983.5804667,0.0,10,0.5,0.5,5.9666909446716305,-0.1005,-0.0155,-0.37525,-0.10463400741007849,10,1,100,0.0760551999642961,-10,-1,-100,6424.902829789557,-0.01632724883198251,-0.006692842284805506,0.9998443012828194,251.3683999902881,26.114652552931076,727.7202844944184,-34.64624351305591,-141.64588928222656,4381.2578125,True
1599568983.6403058,0.0,10,0.5,0.5,5.882692079162598,-0.1005,-0.0155,-0.37525,-0.08610454751325466,10,1,100,0.14147414949870402,-10,-1,-100,6424.182601563982,-0.01595437868967988,-0.006811211005216752,0.999849521280712,251.6174066829775,26.124751397111446,732.6880320998247,-34.83508548105906,-141.55166625976562,4381.2578125,True
1599568983.7008197,0.0,10,0.5,0.5,5.7399135688781735,-0.1005,-0.0155,-0.37525,-0.10394392874146972,10,1,100,0.09260964495364754,-10,-1,-100,6422.8070860937005,-0.015176057146279622,-0.007080375979914073,0.9998597679502241,252.216383669406,26.155452431963568,742.9553453376753,-35.212685818621715,-141.141845703125,4381.2578125,True
1599568983.761655,0.0,10,0.5,0.5,5.351919947052003,-0.1005,-0.0155,-0.37525,-0.12260673655767033,10,1,100,0.03575953805882792,-10,-1,-100,6420.642007975723,-0.013957094918735079,-0.007493811002265601,0.999874513275587,253.3417486667324,26.226037050220416,759.1331185203437,-35.77885826085762,-139.97303771972656,4381.2578125,True
1599568983.8204994,0.0,10,0.5,0.5,5.2533757049560545,-0.1005,-0.0155,-0.37525,-0.11485566047638196,10,1,100,0.06263781491166709,-10,-1,-100,6419.198135468876,-0.013099479724909923,-0.007797815850006911,0.9998837920973147,254.20727256366692,26.286549866928834,770.3436899179865,-36.156141889544735,-138.82513427734375,4381.2578125,True
1599568983.8793402,0.0,10,0.5,0.5,5.3625821609497075,-0.1005,-0.0155,-0.37525,-0.10133960625990292,10,1,100,0.09937148761797998,-10,-1,-100,6418.4871867945185,-0.012660332803443242,-0.007949611064090166,0.9998882535849873,254.65949422335174,26.319522521444185,776.0337362063424,-36.344731911393936,-138.14051818847656,4381.2578125,True
1599568983.9401777,0.0,10,0.5,0.5,4.432413374328614,-0.1005,-0.0155,-0.37525,-0.13470836042469986,10,1,100,-0.0062229883553710785,-10,-1,-100,6416.256684642285,-0.011307664624650084,-0.00838912609766529,0.9999008747291172,256.02005038671774,26.42284447741618,793.221072915955,-36.910289000815766,-135.64425659179688,4381.2578125,True
1599568984.0030098,0.0,10,0.5,0.5,4.896854892730714,-0.1005,-0.0155,-0.37525,-0.10717130128664094,10,1,100,0.0770161495025436,-10,-1,-100,6415.542807082646,-0.010841668352246227,-0.008536197880479098,0.999904791244189,256.4494974713361,26.456506705739567,798.9103104919523,-37.09873691288239,-134.66488647460938,4381.2578125,True
1599568984.0648444,0.0,10,0.5,0.5,3.6471081420898437,-0.1005,-0.0155,-0.37525,-0.13889551134292785,10,1,100,-0.03467610992090947,-10,-1,-100,6413.3225636741845,-0.00940950333108903,-0.008956122776034681,0.9999156209960333,257.5268553688828,26.542552858449604,815.4113309215921,-37.66387448754019,-131.2850341796875,4381.2578125,True
1599568984.1256814,0.0,10,0.5,0.5,3.652899974060059,-0.1005,-0.0155,-0.37525,-0.12527868498175118,10,1,100,-0.0001782404039896296,-10,-1,-100,6411.749792406685,-0.008428718742925551,-0.009211659611914766,0.9999220479755144,257.9623482941357,26.577697812727052,825.5812831420351,-38.040474081981685,-128.66390991210938,4381.2578125,True
1599568984.1865196,0.0,10,0.5,0.5,3.9406914443969727,-0.1005,-0.0155,-0.37525,-0.11389845607650438,10,1,100,0.04176151743114084,-10,-1,-100,6411.029081986635,-0.007926519790973653,-0.009337932181024924,0.9999249838395807,258.05839704844465,26.585170518973012,830.2905332404227,-38.2287323469602,-127.24317932128906,4381.2578125,True
1599568984.2453625,0.0,10,0.5,0.5,2.213603562545777,-0.1005,-0.0155,-0.37525,-0.13215872314667054,10,1,100,-0.07218894103016303,-10,-1,-100,6408.680427756393,-0.006441699056860991,-0.009616323226402743,0.9999330131768158,257.6925016130325,26.551060009053927,842.3235884363277,-38.79337623812724,-122.53925323486328,4381.2578125,True
1599568984.3067803,0.0,10,0.5,0.5,3.133467450332642,-0.1005,-0.0155,-0.37525,-0.11337184333026362,10,1,100,0.020029448860474725,-10,-1,-100,6407.901125079952,-0.005938858915430568,-0.009696066076395983,0.9999353560392915,257.30528334682003,26.516165266322393,845.4642002930617,-38.98155992904505,-120.82445526123047,4381.2578125,True
1599568984.3686464,0.0,10,0.5,0.5,1.0884627140045167,-0.1005,-0.0155,-0.37525,-0.12457907054520995,10,1,100,-0.096084349006597,-10,-1,-100,6405.55198747979,-0.004434548986457576,-0.009868065560074366,0.9999414763161835,255.11906829245825,26.317111310376678,851.4240718800103,-39.546083414104594,-115.23960876464844,4381.2578125,True
1599568984.433744,0.0,10,0.5,0.5,1.2000056407928468,-0.1005,-0.0155,-0.37525,-0.11372801410721235,10,1,100,-0.05570330592883278,-10,-1,-100,6403.98703700176,-0.0034427517571275104,-0.009923624346202182,0.999944833048391,252.6470964018029,26.08794977796382,851.8887228291891,-39.92246496594913,-111.14957427978516,4381.2578125,True
1599568984.9989822,0.0,10,0.5,0.5,0.60653861656189,-0.1005,-0.0155,-0.37525,-0.10857908557450785,10,1,100,-0.06389704145836539,-10,-1,-100,6402.351287422003,-0.0024754082510751382,-0.009925391339206342,0.999947678111587,249.20428097248686,25.76292680585604,848.9113492979434,-40.29892970209785,-106.76627349853516,4381.2578125,True
1599568985.054834,0.0,10,0.5,0.5,1.1077462104797366,-0.1005,-0.0155,-0.37525,-0.10617506321815645,10,1,100,-0.019211611125831352,-10,-1,-100,6401.568569406867,-0.002011495270916353,-0.009903346783902279,0.999948937500937,247.07877206700365,25.55939770171454,845.9642246798925,-40.48720889972616,-104.46465301513672,4381.2578125,True
1599568985.1113133,0.0,10,0.5,0.5,-1.562448767471313,-0.1005,-0.0155,-0.37525,-0.09449117025542339,10,1,100,-0.12412097170357198,-10,-1,-100,6399.098345779115,-0.0006444858012959369,-0.009775712506068068,0.9999520088899521,239.6379618615401,24.836222367028892,833.0401273375911,-41.052290864354205,-97.13822174072266,4381.2578125,True
1599568985.1721494,0.0,10,0.5,0.5,-0.085657286453247,-0.1005,-0.0155,-0.37525,-0.09981939898541142,10,1,100,-0.03583459111501382,-10,-1,-100,6398.256546953809,-0.000213623545674224,-0.009706992955922688,0.9999528632154291,236.77411708636993,24.552960088620598,827.2382552291957,-41.240740782979415,-94.58586120605469,4381.2578125,True
1599568985.232018,0.0,10,0.5,0.5,-1.7064619468688964,-0.1005,-0.0155,-0.37525,-0.08804964047929272,10,1,100,-0.08673151540526017,-10,-1,-100,6396.621777085122,0.0006324088349973774,-0.009536840223753182,0.9999543233256267,230.10414026396558,23.881934095409367,812.0330056765345,-41.617793405578134,-89.285400390625,4381.2578125,True
1599568985.2898645,0.0,10,0.5,0.5,-2.2916651901245118,-0.1005,-0.0155,-0.37525,-0.08256203391239544,10,1,100,-0.08530901066538761,-10,-1,-100,6394.927926134551,0.0013803599310836983,-0.00933197297061653,0.9999555034534969,222.8637718316024,23.13950913566133,794.3502651147695,-41.99504615249071,-84.00286865234375,4381.2578125,True
1599568985.348186,0.0,10,0.5,0.5,-4.034689479827881,-0.1005,-0.0155,-0.37525,-0.061725040578431124,10,1,100,-0.12844856184428805,-10,-1,-100,6392.395695677958,0.0024440324112230327,-0.008956308218556634,0.999956904695731,223.19834272912843,23.161308052043484,807.3814667844522,-42.56098120374914,-76.31338500976562,4381.2578125,True
1599568985.4080539,0.0,10,0.5,0.5,-3.5263492877960205,-0.1005,-0.0155,-0.37525,-0.06874625974891427,10,1,100,-0.09057706237448804,-10,-1,-100,6390.646182276891,0.0030586430966532603,-0.008679224086422799,0.9999576569893672,231.8773778260521,24.03697585243136,846.9704975148167,-42.93777899126514,-71.46737670898438,4381.2578125,True
1599568985.467899,0.0,10,0.5,0.5,-3.95026441116333,-0.1005,-0.0155,-0.37525,-0.06460637661236865,10,1,100,-0.08962914886010453,-10,-1,-100,6388.952333174646,0.0036005831405389955,-0.008390618521414327,0.9999583157921516,239.2125749102715,24.76374258786808,882.2043454264208,-43.314145499995135,-66.91482543945312,4381.2578125,True
1599568985.528704,0.0,10,0.5,0.5,-4.340052629089356,-0.1005,-0.0155,-0.37525,-0.060590202441249484,10,1,100,-0.08812280640068879,-10,-1,-100,6387.192566396552,0.004072257219779524,-0.008093082285340688,0.9999589585279282,245.3078063412499,25.356491014009993,913.3242718694407,-43.69011097779138,-62.662109375,4381.2578125,True
1599568985.5905385,0.0,10,0.5,0.5,-4.6995675594329835,-0.1005,-0.0155,-0.37525,-0.056912263198444224,10,1,100,-0.08577077773176489,-10,-1,-100,6385.439635665156,0.004472837932119871,-0.0077908231158490245,0.9999596475838465,250.29807923253642,25.833036465754617,940.7067858224814,-44.06571449689596,-58.710052490234375,4381.2578125,True
1599568985.652409,0.0,10,0.5,0.5,-5.028110701751709,-0.1005,-0.0155,-0.37525,-0.0540328195693863,10,1,100,-0.08241604574236458,-10,-1,-100,6383.686703820247,0.004800188065086371,-0.00749180580897731,0.9999604147366337,254.3241321455044,26.211141430103247,964.7717553114055,-44.440998393966595,-55.058837890625,4381.2578125,True
1599568985.7122142,0.0,10,0.5,0.5,-5.328598177719116,-0.1005,-0.0155,-0.37525,-0.051170779427704115,10,1,100,-0.07876025882891659,-10,-1,-100,6381.864436427248,0.005058352229173659,-0.0071961456568740275,0.999961313531884,257.52541972752556,26.50762215395937,985.9556173096004,-44.816004858303224,-51.708282470703125,4381.2578125,True
1599568985.7720907,0.0,10,0.5,0.5,-4.885121593475342,-0.1005,-0.0155,-0.37525,-0.06444682239720775,10,1,100,-0.06487292349273566,-10,-1,-100,6380.957209072309,0.005161614022532758,-0.007050400060911253,0.9999618240711309,258.85958233074547,26.63020181232462,995.6061444137489,-45.00341671710712,-50.14569091796875,4381.2578125,True
1599568985.8318937,0.0,10,0.5,0.5,-6.383539082336426,-0.1005,-0.0155,-0.37525,-0.031824847331325304,10,1,100,-0.07834915026072084,-10,-1,-100,6378.237477229559,0.005373112952960707,-0.006623755739341627,0.9999636270970561,261.9870155679712,26.91641916008385,1021.4314594530086,-45.565338752388286,-45.90838623046875,4381.2578125,True
1599568985.8957243,0.0,10,0.5,0.5,-6.026202027893066,-0.1005,-0.0155,-0.37525,-0.04361586666986749,10,1,100,-0.06417145495087408,-10,-1,-100,6376.419114620192,0.005432186837698451,-0.006345736608705453,0.9999651108779012,263.49287562901304,27.05520486182559,1036.5626294916021,-45.93972984452186,-43.4586181640625,4381.2578125,True
1599568985.958555,0.0,10,0.5,0.5,-6.19258618927002,-0.1005,-0.0155,-0.37525,-0.041903244559015874,10,1,100,-0.058342579902248615,-10,-1,-100,6374.534344466287,0.005429217117102882,-0.006080137412902926,0.9999667772133911,264.6625334207209,27.165333171805543,1050.4772370184407,-46.31396996849782,-41.3087158203125,4381.2578125,True
1599568986.022422,0.0,10,0.5,0.5,-5.898028080749511,-0.1005,-0.0155,-0.37525,-0.05420736596676301,10,1,100,-0.056280459362961374,-10,-1,-100,6373.63053400896,0.005405057016471681,-0.005953153948430742,0.9999676721358121,265.15156883747983,27.212635105933423,1057.0889517627195,-46.50103887689495,-40.346160888671875,4381.2578125,True
1599568986.0852163,0.0,10,0.5,0.5,-6.394181965637207,-0.1005,-0.0155,-0.37525,-0.038524372647197824,10,1,100,-0.04849336294058927,-10,-1,-100,6371.750646042055,0.0053101683994037354,-0.0056976200143127025,0.9999696691588913,265.9909751098957,27.29677525469012,1069.818698535713,-46.87508280623345,-38.64544677734375,4381.2578125,True
1599568986.1490471,0.0,10,0.5,0.5,-6.746631498718262,-0.1005,-0.0155,-0.37525,-0.02369191960123731,10,1,100,-0.03036159884891798,-10,-1,-100,6368.853664133814,0.005057517632818714,-0.005332924136066754,0.9999729903530159,267.0439352680608,27.409927142818038,1088.2180345614943,-47.43592874484017,-36.6552734375,4381.2578125,True
1599568986.2196047,0.0,10,0.5,0.5,-6.493680398559571,-0.1005,-0.0155,-0.37525,-0.03419283595972134,10,1,100,-0.029298099291447537,-10,-1,-100,6366.9376424297225,0.004817271248661655,-0.0050993545392378145,0.9999753949377954,267.7001478735378,27.484976588153906,1100.3819223625,-47.80968532411744,-35.701934814453125,4381.2578125,True
1599568986.2854288,0.0,10,0.5,0.5,-6.483174775695801,-0.1005,-0.0155,-0.37525,-0.03217147911630465,10,1,100,-0.021363339409355513,-10,-1,-100,6364.974257056252,0.004526418142939363,-0.0048710893604319095,0.999977891769232,268.3753950053101,27.5645547853647,1112.690468556208,-48.18332940118712,-35.047027587890625,4381.2578125,True
1599568986.3552458,0.0,10,0.5,0.5,-6.438221264648438,-0.1005,-0.0155,-0.37525,-0.029938174129272722,10,1,100,-0.01253781038492427,-10,-1,-100,6363.03186739271,0.004182023028353493,-0.004645655258406747,0.9999804640944793,269.10086071625915,27.651129299823616,1125.2759217972848,-48.556858240373906,-34.690155029296875,4381.2578125,True
1599568986.4280505,0.0,10,0.5,0.5,-6.362449932861328,-0.1005,-0.0155,-0.37525,-0.03990229831871009,10,1,100,-0.025768783356625958,-10,-1,-100,6362.0606728524435,0.0039900147959280085,-0.0045336167404682725,0.9999817628842932,269.4894334172272,27.697534926883613,1131.703452182098,-48.74357826993756,-34.623382568359375,4381.2578125,True
1599568986.5018542,0.0,10,0.5,0.5,-6.318840649414063,-0.1005,-0.0155,-0.37525,-0.026204310600850628,10,1,100,0.0011133236049280168,-10,-1,-100,6360.11779504735,0.0035721441570058087,-0.0043095243661077035,0.9999843337702143,270.32725382363833,27.797063116991918,1144.8704301176472,-49.11692615789529,-34.71295166015625,4381.2578125,True
1599568986.5746596,0.0,10,0.5,0.5,-6.040824295043946,-0.1005,-0.0155,-0.37525,-0.011078190710282813,10,1,100,0.03846275766371923,-10,-1,-100,6357.1412226326065,0.0028543586927202115,-0.00397039769165951,0.9999880442178414,271.73616356391454,27.961852069855485,1165.417794724201,-49.676708128208105,-35.404449462890625,4381.2578125,True
1599568986.647704,0.0,10,0.5,0.5,-5.917026533508301,-0.1005,-0.0155,-0.37525,-0.01933442947441811,10,1,100,0.025880423777141046,-10,-1,-100,6355.135845256387,0.002318554786106723,-0.0037393168299415143,0.9999903208598317,272.76377633129675,28.079608789202226,1179.6023901808232,-50.04972890705085,-36.236328125,4381.2578125,True
1599568986.7235022,0.0,10,0.5,0.5,-5.986298081970215,-0.1005,-0.0155,-0.37525,-0.029218681032828164,10,1,100,0.003738608879433513,-10,-1,-100,6354.163186534657,0.0020355774267381624,-0.0036212281703497566,0.9999913715283137,273.2962868600354,28.139759242844736,1186.8094332358476,-50.23618775314806,-36.763397216796875,4381.2578125,True
1599568986.823235,0.0,10,0.5,0.5,-5.582576577758789,-0.1005,-0.0155,-0.37525,-0.013318541247761748,10,1,100,0.040175357924218766,-10,-1,-100,6352.095799196628,0.0014501452719866354,-0.0033714480506549013,0.9999932651856871,274.37232057994987,28.259367434687963,1201.3407534961775,-50.60900164464206,-38.039398193359375,4381.2578125,True
1599568986.8960402,0.0,10,0.5,0.5,-4.887987213134766,-0.1005,-0.0155,-0.37525,0.0045586848374511366,10,1,100,0.08777542624351825,-10,-1,-100,6349.055265642353,0.0004887154403347218,-0.0029839696792155136,0.9999954285306368,275.922755279905,28.426026666361597,1223.030607223288,-51.16796538035674,-40.5078125,4381.2578125,True
1599568986.9698431,0.0,10,0.5,0.5,-5.346621421813966,-0.1005,-0.0155,-0.37525,-0.01910753426027887,10,1,100,0.029414457233205585,-10,-1,-100,6348.021573349601,0.00014939604091990108,-0.002848999473756208,0.9999959304331302,276.39639767532526,28.475035245734535,1230.1140880241123,-51.354220470906945,-41.47821044921875,4381.2578125,True
1599568987.0466375,0.0,10,0.5,0.5,-4.673317158508301,-0.1005,-0.0155,-0.37525,-0.000887220771048771,10,1,100,0.07168076348597072,-10,-1,-100,6345.953700767481,-0.0005390717652025809,-0.0025627058507688215,0.9999965709642982,277.2294549438019,28.557484855031486,1243.8339380248624,-51.726638049604226,-43.640045166015625,4381.2578125,True
1599568987.1194427,0.0,10,0.5,0.5,-3.665923045349121,-0.1005,-0.0155,-0.37525,0.02142711846091548,10,1,100,0.12171518579788491,-10,-1,-100,6342.8511616236065,-0.0016152049827784737,-0.002101679821862125,0.9999964870212243,278.0268440018824,28.623673216443123,1262.514642436216,-52.28506138089646,-47.4346923828125,4381.2578125,True
1599568987.1972358,0.0,10,0.5,0.5,-4.3984009765625,-0.1005,-0.0155,-0.37525,-0.006839667595848503,10,1,100,0.05618119197138215,-10,-1,-100,6341.816983163357,-0.0019924741203236856,-0.0019418487374052963,0.9999961296276906,278.1257419238597,28.625362796507986,1268.013108598384,-52.471158600689684,-48.846588134765625,4381.2578125,True
1599568987.2740293,0.0,10,0.5,0.5,-1.8705185974121097,-0.1005,-0.0155,-0.37525,0.05391470072713449,10,1,100,0.18294015833038485,-10,-1,-100,6337.553807967226,-0.0034823616768864013,-0.0012465914649656636,0.9999931595600395,277.34581592590905,28.494900089709944,1284.6845607132452,-53.21542245716462,-55.22735595703125,4381.2578125,True
1599568987.3548145,0.0,10,0.5,0.5,-4.233104396057129,-0.1005,-0.0155,-0.37525,-0.015304733226714568,10,1,100,0.03465685325750249,-10,-1,-100,6337.553807967226,-0.0034823616768864013,-0.0012465914649656636,0.9999931595600395,277.34581592590905,28.494900089709944,1284.6845607132452,-53.21542245716462,-55.22735595703125,4381.2578125,True
1599568987.4267492,0.0,10,0.5,0.5,-1.5599395751953131,-0.1005,-0.0155,-0.37525,0.04643398116868894,10,1,100,0.16078233824658728,-10,-1,-100,6334.326279054629,-0.00462319634008753,-0.0006878066124862626,0.9999890764291701,275.0982249860569,28.21161188889615,1289.437970612545,-53.77361978497613,-60.7816162109375,4381.2578125,True
1599568988.0353725,0.0,10,0.5,0.5,-1.6707537536621093,-0.1005,-0.0155,-0.37525,0.03356350901239977,10,1,100,0.13099661382486305,-10,-1,-100,6332.196405994939,-0.005383228765412704,-0.0002995987754871224,0.9999854654386897,272.56714117392113,27.913079570258677,1287.6618364313065,-54.14583450259631,-64.84967041015625,4381.2578125,True
1599568988.0942159,0.0,10,0.5,0.5,-1.079610487365723,-0.1005,-0.0155,-0.37525,0.03896719417865647,10,1,100,0.13823753373614564,-10,-1,-100,6330.001593194087,-0.006133249509272567,9.942218748273622e-05,0.999981186505869,269.06219911654756,27.51530224996264,1281.1264440930665,-54.518173650822305,-69.20941162109375,4381.2578125,True
1599568988.1526508,0.0,10,0.5,0.5,-0.45451806640625003,-0.1005,-0.0155,-0.37525,0.04345659649501278,10,1,100,0.14411951831086844,-10,-1,-100,6327.80824653618,-0.0068616651409324145,0.0004998259292057218,0.9999763335827175,264.45338269481164,27.009113366969085,1269.1017331618812,-54.89068861468524,-73.86053466796875,4381.2578125,True
1599568988.2124877,0.0,10,0.5,0.5,1.430481295776367,-0.1005,-0.0155,-0.37525,0.06986664544775704,10,1,100,0.1908315190218931,-10,-1,-100,6324.517253585858,-0.007941833557467711,0.0011007535979711827,0.9999678572940542,255.1881459161322,26.02831580883231,1239.1213300565705,-55.44989641514415,-81.38262939453125,4381.2578125,True
1599568988.2753196,0.0,10,0.5,0.5,-0.07987757110595728,-0.1005,-0.0155,-0.37525,0.03177841141259072,10,1,100,0.12216626266374714,-10,-1,-100,6323.358081676648,-0.008292219578699939,0.0012972041210094283,0.9999647775576532,251.41630891511716,25.639048893463375,1225.5921759702615,-55.636436475774445,-84.01101684570312,4381.2578125,True
1599568988.3351872,0.0,10,0.5,0.5,0.2652456146240234,-0.1005,-0.0155,-0.37525,0.0339175005720442,10,1,100,0.1260716931240753,-10,-1,-100,6322.261410895735,-0.008639207922356312,0.0014917327616103394,0.9999615686714375,247.32692266399178,25.221959984520556,1210.376980498684,-55.823051321544746,-86.67807006835938,4381.2578125,True
1599568988.3975444,0.0,10,0.5,0.5,1.8073555038452147,-0.1005,-0.0155,-0.37525,0.05528615420669158,10,1,100,0.16494300528333306,-10,-1,-100,6320.004104748135,-0.009301641979001197,0.0018595707292138961,0.9999550097145359,253.6054044424241,25.876373681793567,1250.805676176404,-56.1960244557315,-91.89529418945312,4381.2578125,True
1599568988.4583814,0.0,10,0.5,0.5,3.5574646385192867,-0.1005,-0.0155,-0.37525,0.07868892230937857,10,1,100,0.20977173373569347,-10,-1,-100,6316.651595115196,-0.01030474395473739,0.0024032654829991757,0.9999440167164588,265.5265121758454,27.144214380012126,1324.85902660091,-56.75454711431275,-99.54878234863281,4381.2578125,True
1599568988.5185132,0.0,10,0.5,0.5,3.12796875,-0.1005,-0.0155,-0.37525,0.060801848282510174,10,1,100,0.1808207222700569,-10,-1,-100,6314.332279918366,-0.010947261662739186,0.0027316056253342946,0.9999363458704735,272.70445377734325,27.9261449701729,1371.1064367802537,-57.12625868307502,-104.538330078125,4381.2578125,True
1599568988.5783525,0.0,10,0.5,0.5,2.474915419769287,-0.1005,-0.0155,-0.37525,0.04521609806303177,10,1,100,0.15219539559826367,-10,-1,-100,6313.173599755741,-0.011264352154828287,0.002884791482652508,0.9999323938890238,275.85235277775917,28.274772753741342,1392.201364052039,-57.31193450812248,-106.94052124023438,4381.2578125,True
