Timestamp,Input Throttle,horizon,dT,dt,Input Roll,Roll P,Roll I,Roll D,Input Pitch,Pitch P,Pitch I,Pitch D,Input Yaw,Yaw P,Yaw I,Yaw D,Altitude,Direction X,Direction Y,Direction Z,Drag X,Drag Y,Drag Z,Vertical Velocity,Roll,Mass,Has Fuel
1599573447.9590976,0.0,10,0.5,0.5,-10.811087188720704,-0.2,-0.02275,-0.001,-0.06718912635648433,10,1,100,0.6904146293913322,-10,-1,-100,6483.617967398837,-0.0672585913400668,-0.007002410186250048,0.9977110043206566,205.0731892847406,21.498773691188124,-156.76522154956572,9.590824503908145,-35.944580078125,4381.2578125,True
1599573448.0239222,0.0,10,0.5,0.5,-10.934728674316407,-0.2,-0.02275,-0.001,-0.06732265028324659,10,1,100,0.6998847177641778,-10,-1,-100,6483.997882806929,-0.06744561811488047,-0.006971485708087513,0.9976985952601735,204.61203041169745,21.45672920444826,-150.2666384790447,9.21080206652341,-35.941253662109375,4381.2578125,True
1599573448.0897465,0.0,10,0.5,0.5,-11.05805863571167,-0.2,-0.02275,-0.001,-0.06931229658097006,10,1,100,0.6985976997497749,-10,-1,-100,6484.1565920021385,-0.0675426280935666,-0.00695512252545716,0.9976921467370935,204.38105899161616,21.435598413261612,-147.02541880076146,9.02079830033259,-35.93951416015625,4381.2578125,True
1599573448.1565614,0.0,10,0.5,0.5,-11.1173241645813,-0.2,-0.02275,-0.001,-0.018313940528287234,10,1,100,0.7012783366664528,-10,-1,-100,6484.6971403926145,-0.06759378602062056,-0.006470302647563852,0.9976919440764506,203.7564597796494,21.378954339702155,-137.38142572154456,8.45080608023505,-36.25653076171875,4381.2578125,True
1599573448.2213573,0.0,10,0.5,0.5,-11.127078166961672,-0.2,-0.02275,-0.001,-0.015070139081167971,10,1,100,0.6978244908804242,-10,-1,-100,6485.016949177254,-0.06754744573259606,-0.005994186106643794,0.9976980566824419,203.4468752424794,21.351701302358848,-131.0455480995485,8.070816839836436,-36.81787109375,4381.2578125,True
1599573448.286218,0.0,10,0.5,0.5,-11.077023137664794,-0.2,-0.02275,-0.001,0.012375575935304937,10,1,100,0.6893130537447,-10,-1,-100,6485.335755557055,-0.06736653472794667,-0.005306397127378857,0.9977141835958205,203.19925457236883,21.330068220427258,-124.76108221599337,7.6908228142522965,-37.671630859375,4381.2578125,True
1599573448.3530436,0.0,10,0.5,0.5,-11.088989488983154,-0.2,-0.02275,-0.001,-0.010323215235018973,10,1,100,0.6982756635543663,-10,-1,-100,6485.493927982752,-0.06722230614496423,-0.004882663068570605,0.9977260752119851,203.0868318367191,21.32004133965303,-121.62930543170259,7.500821606933277,-38.2086181640625,4381.2578125,True
1599573448.4198647,0.0,10,0.5,0.5,-10.794960817718506,-0.2,-0.02275,-0.001,0.12090635611310685,10,1,100,0.6474182626366487,-10,-1,-100,6485.90932218486,-0.06656773805559643,-0.0033000154000632585,0.9977764509891586,202.70988788386086,21.28388873677313,-112.22459503119978,6.930788710304853,-40.26031494140625,4381.2578125,True
1599573448.4877248,0.0,10,0.5,0.5,-10.561395304107666,-0.2,-0.02275,-0.001,0.10612908632160713,10,1,100,0.649529600129967,-10,-1,-100,6486.1650600294815,-0.06593135400787806,-0.001992583594615611,0.9978221716164191,202.33892697830777,21.245444302421507,-105.90471841242766,6.550731281910279,-41.995513916015625,4381.2578125,True
1599573448.5545077,0.0,10,0.5,0.5,-10.47580015106201,-0.2,-0.02275,-0.001,0.05529577439444494,10,1,100,0.6778837877559781,-10,-1,-100,6486.261181874783,-0.06555065080290884,-0.0012643188039150282,0.9978484422382375,202.0854356776027,21.21850021230336,-102.71671213459065,6.360688213359466,-42.97332763671875,4381.2578125,True
1599573448.624359,0.0,10,0.5,0.5,-9.905302767944335,-0.2,-0.02275,-0.001,0.24322461104051868,10,1,100,0.5631687855171768,-10,-1,-100,6486.674995856942,-0.06410210182276325,0.0011073334469624586,0.9979427309994002,200.8974999717046,21.0904148626916,-92.99317882596588,5.790481733333928,-46.3487548828125,4381.2578125,True
1599573448.6921756,0.0,10,0.5,0.5,-9.629286987304686,-0.2,-0.02275,-0.001,0.10278083959636701,10,1,100,0.6442122467321323,-10,-1,-100,6486.7720696695615,-0.0635248673877826,0.0019792468949649655,0.9979782932534621,200.3091572264795,21.026755834952247,-89.68726499696844,5.6003800477199235,-47.621002197265625,4381.2578125,True
1599573448.7596407,0.0,10,0.5,0.5,-9.04821372833252,-0.2,-0.02275,-0.001,0.2217048821358906,10,1,100,0.5578001621699149,-10,-1,-100,6486.965223546373,-0.0622181087242592,0.003844886113869229,0.9980551707183063,198.74875246811507,20.858090495861305,-82.96479696391826,5.220112920918599,-50.38604736328125,4381.2578125,True
1599573448.8274596,0.0,10,0.5,0.5,-8.402893916320803,-0.2,-0.02275,-0.001,0.24364990087031785,10,1,100,0.5192557591190772,-10,-1,-100,6487.157868904527,-0.06068458311092969,0.00573060374805942,0.9981405419846122,196.56023856685286,20.622193234394057,-76.08849275183113,4.839743834417996,-53.44683837890625,4381.2578125,True
1599573448.8958514,0.0,10,0.5,0.5,-7.692569291687011,-0.2,-0.02275,-0.001,0.28283719096821813,10,1,100,0.4798866513613397,-10,-1,-100,6487.351962371147,-0.05893884903093224,0.007790048865126302,0.9982311992787983,193.5832592527007,20.302612064810642,-69.05826943039642,4.459246135255732,-56.80145263671875,4381.2578125,True
1599573448.9641833,0.0,10,0.5,0.5,-6.527552871704102,-0.2,-0.02275,-0.001,0.41688615664801376,10,1,100,0.31899265480853795,-10,-1,-100,6487.578623512294,-0.05589697135018332,0.010868367536847274,0.9983773871542567,187.29564259292624,19.6316260925678,-58.274440269350094,3.8881864252854657,-62.3880615234375,4381.2578125,True
1599573449.0320005,0.0,10,0.5,0.5,-5.654041314697266,-0.2,-0.02275,-0.001,0.3381278403150564,10,1,100,0.3685746144853579,-10,-1,-100,6487.770734500838,-0.053592799967817004,0.012936150031144702,0.9984790773040673,181.66274372553863,19.033898828588168,-50.992130189843834,3.5072251334879114,-66.48193359375,4381.2578125,True
1599573449.1011868,0.0,10,0.5,0.5,-5.160075906372071,-0.2,-0.02275,-0.001,0.24561566266745202,10,1,100,0.46189355337662685,-10,-1,-100,6487.805264821043,-0.05235884316120202,0.013958733580891674,0.9985307733363246,178.38207432481963,18.68691627132655,-47.354108454761096,3.3166525360716084,-68.63983154296875,4381.2578125,True
1599573449.7604973,0.0,10,0.5,0.5,-3.7068642517089843,-0.2,-0.02275,-0.001,0.4627500866894967,10,1,100,0.14912865149998722,-10,-1,-100,6487.969399935566,-0.04840666413348658,0.016846614527243006,0.9986856294382324,166.39631629368134,17.424708720163373,-36.55917539333733,2.744461120684303,-75.55926513671875,4381.2578125,True
1599573449.8222935,0.0,10,0.5,0.5,-3.1440290565490723,-0.2,-0.02275,-0.001,0.2777073260050373,10,1,100,0.38672278963319584,-10,-1,-100,6488.003930580453,-0.046989652354842065,0.01777262738304744,0.9987372558823839,161.68435448944564,16.929881870374814,-33.05514940740177,2.5535760838389976,-78.01397705078125,4381.2578125,True
1599573449.8851566,0.0,10,0.5,0.5,-2.03526113357544,-0.2,-0.02275,-0.001,0.38446713341560546,10,1,100,0.19714545020392765,-10,-1,-100,6488.133539737784,-0.043994903105306495,0.01956769464097758,0.9988401042345026,151.1619959909217,15.826324922253807,-26.28458053908434,2.1716337038747104,-83.14584350585938,4381.2578125,True
1599573449.949953,0.0,10,0.5,0.5,-0.29708780364990234,-0.2,-0.02275,-0.001,0.4630829381849566,10,1,100,-0.017296553279892657,-10,-1,-100,6488.234709684737,-0.03934121030016439,0.02189748095409543,0.9989858705206912,152.0461139606586,15.918480263804092,-19.463993026496613,1.5985061255595552,-91.40251922607422,4381.2578125,True
1599573450.015808,0.0,10,0.5,0.5,0.377302928352356,-0.2,-0.02275,-0.001,0.3118575447298183,10,1,100,0.26389177484446724,-10,-1,-100,6488.269252476282,-0.037688823148518125,0.022622584721829375,0.999033418495189,155.96697270707315,16.32869275036301,-17.580698391084233,1.407461819618078,-94.30323791503906,4381.2578125,True
1599573450.0823286,0.0,10,0.5,0.5,2.3072396146774294,-0.2,-0.02275,-0.001,0.44359325545301276,10,1,100,-0.11331824997460882,-10,-1,-100,6488.306986082578,-0.032779770317371504,0.024462296700336582,0.9991631912245792,168.86381709494955,17.67610659225829,-11.28733785467168,0.834469609275684,-103.42227172851562,4381.2578125,True
1599573450.1481524,0.0,10,0.5,0.5,3.039764871788025,-0.2,-0.02275,-0.001,0.31951586513432284,10,1,100,0.19393895757276192,-10,-1,-100,6488.341059361002,-0.031135610369299363,0.024989757047943883,0.9992027250811598,172.72368738155814,18.079232219795813,-8.903985974811224,0.6435184311384288,-106.54640197753906,4381.2578125,True
1599573450.2209575,0.0,10,0.5,0.5,5.013418731880189,-0.2,-0.02275,-0.001,0.4151534243109353,10,1,100,-0.20021530046180447,-10,-1,-100,6488.318303192384,-0.026082974651339207,0.026323062712662618,0.9993131515209648,183.07248539521908,19.161199911311915,-1.036384445803154,0.07065470044016475,-115.81808471679688,4381.2578125,True
1599573450.2931366,0.0,10,0.5,0.5,6.311717205238343,-0.2,-0.02275,-0.001,0.35697059230035616,10,1,100,-0.06239531428192202,-10,-1,-100,6488.322041616426,-0.022769682051827854,0.026992174212150916,0.9993762875466675,187.46969580578352,19.620722280589398,4.6777758575593475,-0.31138131410187064,-121.71866607666016,4381.2578125,True
1599573450.3679373,0.0,10,0.5,0.5,7.559590236663819,-0.2,-0.02275,-0.001,0.3488111991111141,10,1,100,-0.0898564739944282,-10,-1,-100,6488.327753799851,-0.01953597198026383,0.027513502887982617,0.9994305143218408,190.43414491547392,19.93030349771747,10.585309003764555,-0.6935573021117865,-127.3311538696289,4381.2578125,True
1599573450.4427366,0.0,10,0.5,0.5,8.756446269798278,-0.2,-0.02275,-0.001,0.3424314063185662,10,1,100,-0.11394774555424131,-10,-1,-100,6488.268549885135,-0.016407062965735453,0.027917117413981826,0.9994755839139505,191.91079634452436,20.08408738598698,16.54977397935935,-1.0758562112939476,-132.6492919921875,4381.2578125,True
1599573450.523522,0.0,10,0.5,0.5,9.393254921531678,-0.2,-0.02275,-0.001,0.3196012908437304,10,1,100,0.026104776264097296,-10,-1,-100,6488.241642359528,-0.014864895515574326,0.028066429112494656,0.9994955279730793,192.06877246931086,20.10017743875042,19.508332877496077,-1.2670491217349382,-135.19778442382812,4381.2578125,True
1599573450.6053052,0.0,10,0.5,0.5,10.500696059989929,-0.2,-0.02275,-0.001,0.33192953472896136,10,1,100,-0.1500405023061286,-10,-1,-100,6488.181983337738,-0.01189080871646149,0.02830488396307256,0.9995286100016875,191.33770550851716,20.022574663570374,25.30398649268645,-1.6495085390850135,-140.07289123535156,4381.2578125,True
1599573450.6880813,0.0,10,0.5,0.5,11.54574780292511,-0.2,-0.02275,-0.001,0.32681381480990845,10,1,100,-0.16895872815166618,-10,-1,-100,6488.124298986979,-0.009044295113571157,0.028467211655859175,0.9995538097503502,189.45071671240555,19.82374830094042,30.869319494688767,-2.0320397323358694,-144.65208435058594,4381.2578125,True
1599573450.7723656,0.0,10,0.5,0.5,12.523394683456422,-0.2,-0.02275,-0.001,0.3161101020464159,10,1,100,-0.19112957252417284,-10,-1,-100,6488.003154508653,-0.006282544994090424,0.028511503323540927,0.9995737210464414,186.64998663641535,19.528880889827207,36.144195593410636,-2.414607914133177,-148.9360809326172,4381.2578125,True
1599573450.8526616,0.0,10,0.5,0.5,13.444784239578247,-0.2,-0.02275,-0.001,0.317703664760127,10,1,100,-0.20294519399761382,-10,-1,-100,6487.883004159899,-0.0036929994885806826,0.0285609018473747,0.9995852323041002,183.1547470639165,19.16083579595982,41.09307020805353,-2.7971825678419595,-152.92306518554688,4381.2578125,True
1599573450.9401095,0.0,10,0.5,0.5,14.295273804092407,-0.2,-0.02275,-0.001,0.3131578131296595,10,1,100,-0.2189433386710391,-10,-1,-100,6487.761405575555,-0.001219872050930498,0.02856075766772203,0.9995913140046911,179.23543431855444,18.748270719453302,45.720304802956804,-3.17972878211667,-156.61392211914062,4381.2578125,True
1599573451.023885,0.0,10,0.5,0.5,15.087707594299317,-0.2,-0.02275,-0.001,0.31290626182216896,10,1,100,-0.2316615365700376,-10,-1,-100,6487.640799146495,0.0011168494748165936,0.028555093401042616,0.9995915962472415,175.0963322674344,18.312547126379222,50.04489562451788,-3.562232623673566,-160.008056640625,4381.2578125,True
1599573451.1056685,0.0,10,0.5,0.5,15.807388675689698,-0.2,-0.02275,-0.001,0.3140980572238621,10,1,100,-0.2421217345258958,-10,-1,-100,6487.518741606735,0.0033115073667979735,0.02855874945254183,0.9995866304371356,170.76800597600837,17.856630307214537,54.0564094618525,-3.9447109178960393,-163.10528564453125,4381.2578125,True
1599573451.2006397,0.0,10,0.5,0.5,16.46124661960602,-0.2,-0.02275,-0.001,0.31748941199960795,10,1,100,-0.2513946541570102,-10,-1,-100,6487.336639029323,0.005367240002137881,0.028591479474374817,0.9995767704564896,166.37395313201668,17.393525125247464,57.78074700286689,-4.32720138935693,-165.90528869628906,4381.2578125,True
1599573451.28341,0.0,10,0.5,0.5,17.2783395072937,-0.2,-0.02275,-0.001,0.32857139631223414,10,1,100,-0.3589125309321211,-10,-1,-100,6487.058866814827,0.008190883812236621,0.028720999372895593,0.999553907309354,159.9689144405308,16.718537856722733,62.93836608377936,-4.9010532577923325,-169.54776000976562,4381.2578125,True
1599573451.3602376,0.0,10,0.5,0.5,17.771970610046388,-0.2,-0.02275,-0.001,0.33285083687115696,10,1,100,-0.26719346413398715,-10,-1,-100,6486.812826032285,0.009901661262545193,0.028876917938487495,0.9995339317474998,156.05671661147346,16.30678670793267,66.20402964076459,-5.283751750724805,-171.6041259765625,4381.2578125,True
1599573451.4369984,0.0,10,0.5,0.5,18.206154061126707,-0.2,-0.02275,-0.001,0.34442327408231027,10,1,100,-0.2713488608273632,-10,-1,-100,6486.6283178917365,0.011472174772058114,0.029123129255648805,0.9995099962223281,152.5386945346415,15.93736790881497,69.4117212026624,-5.666580082246174,-173.36241149902344,4381.2578125,True
1599573451.5127952,0.0,10,0.5,0.5,18.434348229980472,-0.2,-0.02275,-0.001,0.3377359493252624,10,1,100,-0.1972440428662168,-10,-1,-100,6486.473079433781,0.012204995086978965,0.029285420005010856,0.9994965744163692,150.9618442025527,15.772195910663912,71.02137628272128,-5.858044470045194,-174.12966918945312,4381.2578125,True
1599573451.588592,0.0,10,0.5,0.5,18.764283224868777,-0.2,-0.02275,-0.001,0.36012564987218504,10,1,100,-0.2764024913799301,-10,-1,-100,6486.2270618401235,0.01357150009594027,0.029635755956358242,0.999468626998387,149.86153684453836,15.657433877099681,75.12702554589558,-6.2410635064969355,-175.44131469726562,4381.2578125,True
1599573451.6604009,0.0,10,0.5,0.5,19.0269362236023,-0.2,-0.02275,-0.001,0.3755556888874334,10,1,100,-0.27624326316013986,-10,-1,-100,6485.980073927552,0.014794280715643334,0.030093494218964654,0.9994375972834921,151.83583770815142,15.86517580261806,80.80476590071167,-6.624173539188684,-176.45457458496094,4381.2578125,True
1599573451.7322092,0.0,10,0.5,0.5,19.223312494277955,-0.2,-0.02275,-0.001,0.38669171607358366,10,1,100,-0.2757662804652746,-10,-1,-100,6485.7330910007,0.015884756636143506,0.03060946325723404,0.9994051907338258,153.42656043211454,16.033907406911514,86.39240115167613,-7.007368037962939,-177.17027282714844,4381.2578125,True
1599573451.804017,0.0,10,0.5,0.5,19.3532055267334,-0.2,-0.02275,-0.001,0.4053881102451782,10,1,100,-0.2718653127300913,-10,-1,-100,6485.423612713697,0.016825085376562837,0.031246630779412057,0.9993700838863481,154.6777418588693,16.167986208649737,91.88079384336604,-7.3906430548621564,-177.58740234375,4381.2578125,True
1599573451.8758254,0.0,10,0.5,0.5,19.41674707641602,-0.2,-0.02275,-0.001,0.42062451366739645,10,1,100,-0.2668157672899448,-10,-1,-100,6485.112673811149,0.017619744513032037,0.03196193988761372,0.9993337675681314,155.4540407253468,16.25298429152195,97.15407948611771,-7.773994779166349,-177.70663452148438,4381.2578125,True
1599573451.9536152,0.0,10,0.5,0.5,19.373461864471437,-0.2,-0.02275,-0.001,0.4867243403956848,10,1,100,-0.288176065184631,-10,-1,-100,6484.584992986289,0.01852333894782279,0.03321003460129506,0.9992767281969518,155.75139774229217,16.2901641646787,104.58023337401289,-8.349158083802356,-177.3266143798828,4381.2578125,True
1599573452.0373929,0.0,10,0.5,0.5,19.344407477569582,-0.2,-0.02275,-0.001,0.4133479940991974,10,1,100,-0.22350906380918487,-10,-1,-100,6484.429772580741,0.018744946513359704,0.03367340977910374,0.9992570882681091,155.61671731952126,16.27801310327926,106.90341184027162,-8.540913754224807,-177.0509033203125,4381.2578125,True
1599573452.1221642,0.0,10,0.5,0.5,19.206000535583495,-0.2,-0.02275,-0.001,0.4768404868368032,10,1,100,-0.2371557979033676,-10,-1,-100,6484.119332208415,0.01906087455315754,0.034667362228902404,0.9992171220797603,154.98634582882238,16.21549085024785,111.28148549222938,-8.924474936049627,-176.27601623535156,4381.2578125,True
1599573452.207971,0.0,10,0.5,0.5,19.00174056663513,-0.2,-0.02275,-0.001,0.49815150514369755,10,1,100,-0.21933696754613197,-10,-1,-100,6483.746393872891,0.01917776593764378,0.03575942785488167,0.999176399147384,153.8530343552006,16.09933550657225,115.24832676575744,-9.308100427462291,-175.20306396484375,4381.2578125,True
1599573452.293742,0.0,10,0.5,0.5,18.731570644378664,-0.2,-0.02275,-0.001,0.5162298142233834,10,1,100,-0.20541579542141086,-10,-1,-100,6483.3099810353015,0.019150469639528732,0.0369105300532243,0.9991350620830877,153.89320191994676,16.10444330162357,120.06491001466087,-9.691781049319777,-173.832763671875,4381.2578125,True
1599573452.3765545,0.0,10,0.5,0.5,18.397006832885744,-0.2,-0.02275,-0.001,0.537534857506238,10,1,100,-0.1815118785450501,-10,-1,-100,6482.937045589904,0.018902032420045817,0.038143736890608806,0.9990934733579294,157.54262318080748,16.485251795531408,127.8169231459777,-10.075480584096962,-172.16481018066406,4381.2578125,True
1599573453.06206,0.0,10,0.5,0.5,17.996247273635866,-0.2,-0.02275,-0.001,0.5562936626602031,10,1,100,-0.15821166227217434,-10,-1,-100,6482.5011218765285,0.018459514315922382,0.03942763407969054,0.9990519045585662,161.64972532727288,16.9115521121257,136.1866091010688,-10.459177926467767,-170.19976806640625,4381.2578125,True
1599573453.1267672,0.0,10,0.5,0.5,17.764120478820804,-0.2,-0.02275,-0.001,0.5011827895603801,10,1,100,-0.16988858862650014,-10,-1,-100,6482.282915653312,0.01816004697575833,0.04008531982352943,0.999031220647525,163.85259519030274,17.139317018697664,140.59737600089593,-10.651019129755277,-169.10592651367188,4381.2578125,True
1599573453.1986723,0.0,10,0.5,0.5,17.512090878677366,-0.2,-0.02275,-0.001,0.5098642938228353,10,1,100,-0.1613643394628566,-10,-1,-100,6482.065686328686,0.01780824231926733,0.04075352430525411,0.9990105188446212,166.14023315559996,17.375236365754965,145.15208419024242,-10.842851420771561,-167.93788146972656,4381.2578125,True
1599573453.2695603,0.0,10,0.5,0.5,16.977111729431154,-0.2,-0.02275,-0.001,0.591435821031457,10,1,100,-0.10060056279946994,-10,-1,-100,6481.6302488762885,0.016935128155569537,0.04209389963278598,0.9989701221998881,171.0779846290753,17.882766226397514,154.80715839277184,-11.22647692577727,-165.37969970703125,4381.2578125,True
1599573453.3423328,0.0,10,0.5,0.5,16.37787627182007,-0.2,-0.02275,-0.001,0.6080886129425601,10,1,100,-0.06995339988221518,-10,-1,-100,6481.193344783271,0.015863399813285103,0.043454600802693005,0.9989294520712874,176.33083380809654,18.420282445479636,165.07016335670133,-11.610029886980412,-162.5252227783203,4381.2578125,True
1599573453.4131827,0.0,10,0.5,0.5,15.375104686737062,-0.2,-0.02275,-0.001,0.6926566884953563,10,1,100,0.04729650232963581,-10,-1,-100,6480.47524194303,0.013825611244859278,0.04545108931108718,0.9988708880301506,184.35615407633443,19.23688775362749,181.2321237824827,-12.185171676669949,-157.68963623046875,4381.2578125,True
1599573453.4849782,0.0,10,0.5,0.5,14.982278644561768,-0.2,-0.02275,-0.001,0.5646337703433343,10,1,100,-0.06873392468756044,-10,-1,-100,6480.19404362177,0.013032370369418041,0.04609152717230715,0.9988522055066399,186.99545883869524,19.504346476788673,186.75307677513226,-12.376823170651829,-155.93035888671875,4381.2578125,True
1599573453.5577564,0.0,10,0.5,0.5,14.186154597091676,-0.2,-0.02275,-0.001,0.6364874919215223,10,1,100,0.04505762417482556,-10,-1,-100,6479.694629782345,0.011282254133162261,0.047316573455996644,0.9988162256481709,192.0918396112078,20.019470551877948,197.85791712948523,-12.760015635150948,-152.19107055664062,4381.2578125,True
1599573453.6295972,0.0,10,0.5,0.5,12.89958328742981,-0.2,-0.02275,-0.001,0.691674428938859,10,1,100,0.2053122523887429,-10,-1,-100,6478.914485666435,0.00824155685444365,0.04892144482714369,0.998768626347784,198.94005188803857,20.70965502748161,214.26246591433323,-13.33449728445072,-146.03207397460938,4381.2578125,True
1599573453.698418,0.0,10,0.5,0.5,12.400317797470093,-0.2,-0.02275,-0.001,0.586451718050925,10,1,100,0.02518076192409245,-10,-1,-100,6478.633275748929,0.007124762798728176,0.049412929688501674,0.9987530225910013,200.90679443541427,20.9077254777451,219.5300795770621,-13.525905476902707,-143.83218383789062,4381.2578125,True
1599573453.767196,0.0,10,0.5,0.5,11.4098038520813,-0.2,-0.02275,-0.001,0.6264542099391777,10,1,100,0.1767087341659478,-10,-1,-100,6478.071337525384,0.004742675063716622,0.0502131484043586,0.9987272634511195,204.21561438708738,21.24171631321528,229.55073921799445,-13.908596033414797,-139.2139892578125,4381.2578125,True
1599573453.8350499,0.0,10,0.5,0.5,9.841551317596435,-0.2,-0.02275,-0.001,0.6385237945118648,10,1,100,0.3654363761931287,-10,-1,-100,6477.226696207537,0.0008739047764155703,0.05104053844732145,0.9986961999153944,207.15577091351068,21.543114078631987,242.60939154826133,-14.482354180033433,-131.73947143554688,4381.2578125,True
1599573453.9018767,0.0,10,0.5,0.5,9.23384652633667,-0.2,-0.02275,-0.001,0.5781427677376709,10,1,100,0.1314330949843329,-10,-1,-100,6476.946447019232,-0.0005001418899605675,0.05123383349877337,0.9986865595186059,207.47285328996938,21.578303465253555,246.2395939011326,-14.673550864104453,-129.101806640625,4381.2578125,True
1599573453.9696937,0.0,10,0.5,0.5,8.044088953781129,-0.2,-0.02275,-0.001,0.5759761966325745,10,1,100,0.3034013492458672,-10,-1,-100,6476.320997275994,-0.003295979003398979,0.05138033261805286,0.9986737194611999,207.5961362613205,21.601645353461848,252.91277027039644,-15.055895760313899,-123.60905456542969,4381.2578125,True
1599573454.0395014,0.0,10,0.5,0.5,6.188801489257813,-0.2,-0.02275,-0.001,0.5344673859845002,10,1,100,0.49844937093597314,-10,-1,-100,6475.412823098479,-0.007592421024472163,0.05112771859970148,0.9986632623330933,204.68986155122775,21.32920357304023,259.0426038317929,-15.62941841861043,-114.82421875,4381.2578125,True
1599573454.1103156,0.0,10,0.5,0.5,5.471189976882934,-0.2,-0.02275,-0.001,0.538652181864429,10,1,100,0.23341886143920748,-10,-1,-100,6475.132554179872,-0.009067585665624682,0.05092913752938411,0.9986611045999088,202.7418910888181,21.139188463998472,259.7760586973924,-15.820633330888176,-111.75020599365234,4381.2578125,True
1599573454.1800935,0.0,10,0.5,0.5,3.428509697532654,-0.2,-0.02275,-0.001,0.4441217328938867,10,1,100,0.5563541069894444,-10,-1,-100,6474.161841078429,-0.01332360739266505,0.049884261521892216,0.998666131366465,194.51108150641963,20.32265720068409,258.4567508494302,-16.39451888888962,-102.09228515625,4381.2578125,True
1599573454.2489822,0.0,10,0.5,0.5,1.9482612493515017,-0.2,-0.02275,-0.001,0.4392576025437072,10,1,100,0.43982549844160185,-10,-1,-100,6473.473828374874,-0.016109407087028557,0.04888670693521651,0.9986744098495438,186.65021823317846,19.526626186961476,253.93220154454994,-16.777370894655455,-95.28917694091797,4381.2578125,True
1599573454.317332,0.0,10,0.5,0.5,0.39956791000366215,-0.2,-0.02275,-0.001,0.40391350136232007,10,1,100,0.45378680853505926,-10,-1,-100,6472.785803621751,-0.018743971754372094,0.047657101724335786,0.9986878712481231,176.5048791795201,18.482182414069936,245.74160701748517,-17.160462988267447,-88.19442749023438,4381.2578125,True
1599573454.3841517,0.0,10,0.5,0.5,-0.45997145309448256,-0.2,-0.02275,-0.001,0.45142521342979114,10,1,100,0.3284972698409546,-10,-1,-100,6472.441542436718,-0.01997550243782089,0.04697235286333287,0.998696439048843,170.90882167813226,17.900027150232596,240.67121220144986,-17.352087060502488,-84.53744506835938,4381.2578125,True
1599573454.4549618,0.0,10,0.5,0.5,-2.879020365142823,-0.2,-0.02275,-0.001,0.2630689196776689,10,1,100,0.593950919454595,-10,-1,-100,6471.346242409432,-0.023483654178137844,0.044639742661788356,0.9987270955378805,189.25414579752115,19.812847081895402,275.55114212047755,-17.926640484061217,-73.15530395507812,4381.2578125,True
1599573454.5267324,0.0,10,0.5,0.5,-3.7988332321166993,-0.2,-0.02275,-0.001,0.40248525971512494,10,1,100,0.36219601258695205,-10,-1,-100,6471.00245959172,-0.024540359943954818,0.04379167593867255,0.9987392351621637,195.7248533725253,20.482485763282607,288.0911867149283,-18.117975978876988,-69.27017211914062,4381.2578125,True
1599573454.6055698,0.0,10,0.5,0.5,-5.491294821166992,-0.2,-0.02275,-0.001,0.28587202409380974,10,1,100,0.477779040864111,-10,-1,-100,6470.2514096724335,-0.026528652474744084,0.04196717574156318,0.998766732905212,206.8629623824511,21.629624971162453,311.07585216646487,-18.500331252768955,-61.537689208984375,4381.2578125,True
1599573454.681226,0.0,10,0.5,0.5,-7.151830977630616,-0.2,-0.02275,-0.001,0.2717530849860999,10,1,100,0.46872878792483524,-10,-1,-100,6469.500355749391,-0.02823025383002747,0.040188609441172946,0.9987932360803595,215.6265192481668,22.52989059352632,331.1206540582578,-18.882280494209617,-54.0025634765625,4381.2578125,True
1599573454.77996,0.0,10,0.5,0.5,-9.466406295394897,-0.2,-0.02275,-0.001,0.13336132409800217,10,1,100,0.5433957642863433,-10,-1,-100,6468.343005010043,-0.030433287324638233,0.03732379836290537,0.9988397014027733,223.17994462923923,23.311740824761422,353.3812752989063,-19.454632713706786,-43.23760986328125,4381.2578125,True
1599573454.8737092,0.0,10,0.5,0.5,-10.986537498092652,-0.2,-0.02275,-0.001,0.21586934206904643,10,1,100,0.45644321259776305,-10,-1,-100,6467.591944186948,-0.031624802880478954,0.03548204656443234,0.9988698094418363,225.26866136146882,23.54066739389082,363.8718750862104,-19.835996069906603,-36.43145751953125,4381.2578125,True
1599573454.9694557,0.0,10,0.5,0.5,-11.812636979484559,-0.2,-0.02275,-0.001,0.2988500090620145,10,1,100,0.3968598833919562,-10,-1,-100,6467.185653339489,-0.03214582565008604,0.03457613925754288,0.9988849465715844,225.34946355179497,23.559262976257415,367.60054188933384,-20.02666563713927,-33.14013671875,4381.2578125,True
1599573455.061208,0.0,10,0.5,0.5,-14.463204960441589,-0.2,-0.02275,-0.001,0.023017189283149164,10,1,100,0.5325483720061068,-10,-1,-100,6465.559040331515,-0.033835903320532566,0.031258932546257646,0.998938441938517,220.22624231821032,23.086960629218648,373.35765061727346,-20.7895818388752,-20.71728515625,4381.2578125,True
1599573455.1709156,0.0,10,0.5,0.5,-15.20733745956421,-0.2,-0.02275,-0.001,0.26761991527273987,10,1,100,0.39957301815333846,-10,-1,-100,6465.089767300407,-0.034147355716610144,0.03048297647625731,0.9989518237846665,217.79303302978138,22.851136231185475,372.73623658555596,-20.9804164576529,-17.79736328125,4381.2578125,True
1599573455.27763,0.0,10,0.5,0.5,-16.493834103393556,-0.2,-0.02275,-0.001,0.18987611768393392,10,1,100,0.4336434893022828,-10,-1,-100,6464.275738984696,-0.03472622273806904,0.02908641291203884,0.9989735081763962,212.6063330791773,22.345061495019298,370.71778544012756,-21.362241404755558,-12.17913818359375,4381.2578125,True
1599573455.4022958,0.0,10,0.5,0.5,-17.19517157211304,-0.2,-0.02275,-0.001,0.2582706911853873,10,1,100,0.4070260022099915,-10,-1,-100,6463.806962356321,-0.034997078583737885,0.02845483846726371,0.9989822454170072,209.66771000999952,22.054174516338588,368.9840606775814,-21.55323273274265,-9.480926513671875,4381.2578125,True
1599573455.51699,0.0,10,0.5,0.5,-18.874938404083252,-0.2,-0.02275,-0.001,0.1303320776872142,10,1,100,0.4479976512523549,-10,-1,-100,6462.522716064937,-0.03560531395799869,0.026732315125843405,0.9990083307690506,199.5986651614782,21.037262700113487,360.97641186520707,-22.126504655511518,-1.831146240234375,4381.2578125,True
1599573455.6411695,0.0,10,0.5,0.5,-19.971475286102294,-0.2,-0.02275,-0.001,0.19831639810059898,10,1,100,0.4258072360855929,-10,-1,-100,6461.586158944294,-0.03594646511125245,0.02579993260177647,0.999020627977095,192.87288087436252,20.3442484666083,355.08951694654104,-22.50887725438298,2.899017333984375,4381.2578125,True
1599573455.8112326,0.0,10,0.5,0.5,-20.56639218826294,-0.2,-0.02275,-0.001,0.24455973472926834,10,1,100,0.4071610996012195,-10,-1,-100,6461.179894546862,-0.03607853054377383,0.025387403588466965,0.9990264357727667,189.31784778111498,19.97282898983133,351.62939733378875,-22.700101215905125,5.15301513671875,4381.2578125,True
1599573455.934582,0.0,10,0.5,0.5,-21.96871350021362,-0.2,-0.02275,-0.001,0.17657852121600226,10,1,100,0.43901782161835534,-10,-1,-100,6459.770686060307,-0.03648106179466382,0.02440782182247655,0.9990362307565308,200.74249205978526,21.17217591621111,382.6737733525285,-23.27346686653012,11.471405029296875,4381.2578125,True
1599573457.0201344,0.0,10,0.5,0.5,-22.85918197174073,-0.2,-0.02275,-0.001,0.22359572662594804,10,1,100,0.4229608401158734,-10,-1,-100,6458.832201196696,-0.0366955287595685,0.023956463881248793,0.9990393015329088,208.35725477222212,21.96001770967166,403.99391746395884,-23.655363875428844,15.313812255859375,4381.2578125,True
1599573457.1095674,0.0,10,0.5,0.5,-23.33692476882935,-0.2,-0.02275,-0.001,0.24949110502304223,10,1,100,0.4121297203063109,-10,-1,-100,6458.362962773186,-0.03678742425132302,0.023792028813454585,0.999039851448326,211.73052010778042,22.305467024045537,413.9926123257422,-23.84620267944162,17.12408447265625,4381.2578125,True
1599573457.2027001,0.0,10,0.5,0.5,-24.4519107749939,-0.2,-0.02275,-0.001,0.23880725528956287,10,1,100,0.43624194549945866,-10,-1,-100,6456.892271736055,-0.037085948019581885,0.02355522021828648,0.9990344258632717,220.2929839915182,23.170264128400934,441.5308738549853,-24.41828480926674,22.111373901367188,4381.2578125,True
1599573457.287457,0.0,10,0.5,0.5,-24.84879075279236,-0.2,-0.02275,-0.001,0.26226922048657214,10,1,100,0.4167187798870148,-10,-1,-100,6456.422066781088,-0.03717689535361405,0.023560233644768263,0.9990309273703545,222.67998734716832,23.407727228069916,449.9535645044362,-24.608839139736098,23.625961303710938,4381.2578125,True
1599573457.373261,0.0,10,0.5,0.5,-25.50582074737549,-0.2,-0.02275,-0.001,0.2762840603637631,10,1,100,0.42729211018352375,-10,-1,-100,6455.420139989699,-0.03735294180575973,0.023698492343027518,0.9990210904676251,226.847302029414,23.817784318882175,465.78857533424696,-24.989751794650687,26.433456420898438,4381.2578125,True
1599573457.4639862,0.0,10,0.5,0.5,-26.32595637702942,-0.2,-0.02275,-0.001,0.32121591502778135,10,1,100,0.4411305136115382,-10,-1,-100,6453.887974617071,-0.03763639977608531,0.02423755158436247,0.9989975187682351,231.92922946337734,24.31002985432337,487.59916870865845,-25.560670424002446,30.090667724609375,4381.2578125,True
1599573457.570698,0.0,10,0.5,0.5,-26.627659778213502,-0.2,-0.02275,-0.001,0.2961725707549817,10,1,100,0.42352110450306707,-10,-1,-100,6453.3557751737535,-0.03773160391976578,0.024503772571171433,0.9989874329516976,233.46426598029126,24.45795015705398,494.64527860052596,-25.750865506597957,31.1619873046875,4381.2578125,True
1599573457.6873875,0.0,10,0.5,0.5,-27.258679392623904,-0.2,-0.02275,-0.001,0.3886661575588897,10,1,100,0.44704400171594194,-10,-1,-100,6451.822184646851,-0.03803006467053619,0.025588668386992083,0.9989489147255407,237.35746244148052,24.82989879038091,514.5493542021852,-26.321151467054584,33.93328857421875,4381.2578125,True
1599573457.7990909,0.0,10,0.5,0.5,-27.48253325996399,-0.2,-0.02275,-0.001,0.3304206552593549,10,1,100,0.4287426509759306,-10,-1,-100,6451.289999760804,-0.038133122528546205,0.02604562480248307,0.9989331761408624,238.45517116272964,24.93404396105061,520.8351904877231,-26.511154978217526,34.70951843261719,4381.2578125,True
1599573457.89583,0.0,10,0.5,0.5,-27.9281089302063,-0.2,-0.02275,-0.001,0.46656376789249565,10,1,100,0.454255454588517,-10,-1,-100,6449.631458537071,-0.03845687825777448,0.02769810600303614,0.9988763103800747,241.2849746621878,25.201643176378255,538.8850720828523,-27.080920338685267,36.59564208984375,4381.2578125,True
1599573458.0175064,0.0,10,0.5,0.5,-28.16206483306885,-0.2,-0.02275,-0.001,0.4504171548656768,10,1,100,0.44668947291917394,-10,-1,-100,6448.568106007762,-0.03868062379965788,0.029050583081312798,0.9988292511561249,242.86612397274016,25.351086279580457,550.3918356035964,-27.460577954236143,37.484619140625,4381.2578125,True
1599573458.1142483,0.0,10,0.5,0.5,-28.331123810577395,-0.2,-0.02275,-0.001,0.4882415718223073,10,1,100,0.44831848985581363,-10,-1,-100,6447.440810910077,-0.03889703345075761,0.030619335016442706,0.998773987002005,244.26616471895454,25.483772300544704,561.5959999128194,-27.840101277133012,38.079193115234375,4381.2578125,True
1599573458.231483,0.0,10,0.5,0.5,-28.438588598632816,-0.2,-0.02275,-0.001,0.5296741486530581,10,1,100,0.44909920337301373,-10,-1,-100,6446.315004957258,-0.03909894906627788,0.03241592628665582,0.998709407137477,245.52312636325064,25.603366200886136,572.5694790759898,-28.219500610554732,38.37962341308594,4381.2578125,True
1599573458.336275,0.0,10,0.5,0.5,-28.4833064163208,-0.2,-0.02275,-0.001,0.45829155562951873,10,1,100,0.44012996198982146,-10,-1,-100,6445.786780107999,-0.03919914015777029,0.033392203226573415,0.9986733140394644,246.10693844612413,25.6590820711159,577.9867059302661,-28.409156407623144,38.419464111328125,4381.2578125,True
1599573458.4399626,0.0,10,0.5,0.5,-28.452425502395627,-0.2,-0.02275,-0.001,0.72468773688377,10,1,100,0.45695091887314015,-10,-1,-100,6444.060060960357,-0.03944130235369887,0.03669257302919005,0.9985479651740029,247.70350124184574,25.811791054899604,594.0011911417196,-28.977959834017568,38.09858703613281,4381.2578125,True
1599573458.542689,0.0,10,0.5,0.5,-28.362495626449586,-0.2,-0.02275,-0.001,0.6697569625089757,10,1,100,0.44710538500134855,-10,-1,-100,6442.86696491309,-0.03957004644157408,0.03918172573662872,0.9984482980069179,248.64667477188465,25.901854248745448,604.4873832282397,-29.35703435073659,37.517547607421875,4381.2578125,True
1599573458.6366558,0.0,10,0.5,0.5,-28.2043002407074,-0.2,-0.02275,-0.001,0.7259175467810829,10,1,100,0.43994074785668125,-10,-1,-100,6441.684649959556,-0.03962019559590412,0.0419415569875446,0.998334185480194,249.4892691332193,25.9816544225846,614.8025153971028,-29.736014993142753,36.6435546875,4381.2578125,True
1599573458.7277615,0.0,10,0.5,0.5,-27.98310390586853,-0.2,-0.02275,-0.001,0.7843636727081852,10,1,100,0.4314476086150921,-10,-1,-100,6440.4965189136565,-0.03958685847793868,0.04496597037460872,0.9982038580090329,250.20845347270284,26.048401035501588,624.8807402623138,-30.114910016402778,35.4766845703125,4381.2578125,True
1599573458.8105037,0.0,10,0.5,0.5,-27.694409595870972,-0.2,-0.02275,-0.001,0.8452602159628105,10,1,100,0.4208655822249842,-10,-1,-100,6439.243005430559,-0.03945893650005329,0.04825142629972032,0.9980555055658615,250.77090486902648,26.098302450092415,634.6266604790537,-30.493728214699225,34.017120361328125,4381.2578125,True
1599573458.8928285,0.0,10,0.5,0.5,-27.525577371215824,-0.2,-0.02275,-0.001,0.711219000773371,10,1,100,0.42137751880941876,-10,-1,-100,6438.652890093625,-0.03934609247640552,0.04999946081946574,0.99797391695605,250.98091472732494,26.115553769623904,639.338885092636,-30.683111875750196,33.177734375,4381.2578125,True
1599573458.9725823,0.0,10,0.5,0.5,-26.92445868988037,-0.2,-0.02275,-0.001,1.1620429371808723,10,1,100,0.3681260660529314,-10,-1,-100,6436.8020622063195,-0.03875859450783163,0.055666708573105746,0.9976968421862497,251.2538002309278,26.128793923534474,652.6188753113379,-31.251180538413717,30.221603393554688,4381.2578125,True
1599573459.0523672,0.0,10,0.5,0.5,-26.441414027786255,-0.2,-0.02275,-0.001,1.049652710431074,10,1,100,0.3624387357173872,-10,-1,-100,6435.557027169387,-0.038172731559979356,0.059772826173696864,0.9974818553820711,251.06371022149744,26.097821784184728,660.5350667558334,-31.629842704669578,27.885894775390625,4381.2578125,True
1599573459.1331508,0.0,10,0.5,0.5,-25.892487198257445,-0.2,-0.02275,-0.001,1.123589896804836,10,1,100,0.3302972808266111,-10,-1,-100,6434.232472492033,-0.037348592291916394,0.06415131342203458,0.9972410398895747,250.50634312266166,26.02807758243872,667.4834108444012,-32.00848470774961,25.2586669921875,4381.2578125,True
1599573459.2199197,0.0,10,0.5,0.5,-25.579271086120606,-0.2,-0.02275,-0.001,0.9406715273579302,10,1,100,0.35547152651030256,-10,-1,-100,6433.584871786297,-0.03682982278786941,0.06644001175542846,0.9971104698032975,250.06505875661497,25.976241858915856,670.5170852774577,-32.19780428211896,23.8358154296875,4381.2578125,True
1599573459.2987084,0.0,10,0.5,0.5,-24.601660485076906,-0.2,-0.02275,-0.001,1.5081631175056078,10,1,100,0.19439875708192242,-10,-1,-100,6431.673436578712,-0.034896070168814054,0.07364961759755738,0.9966734661435042,247.96350333558365,25.7410031350141,677.4454999659652,-32.76578730985522,19.13006591796875,4381.2578125,True
1599573459.390445,0.0,10,0.5,0.5,-23.859485889816288,-0.2,-0.02275,-0.001,1.3500158481595648,10,1,100,0.20423102339277358,-10,-1,-100,6430.3579115517205,-0.03323162951084864,0.07873250496492112,0.996341734276951,245.80813787237733,25.508260934468282,679.896377702444,-33.144488637905454,15.628936767578125,4381.2578125,True
1599573459.473227,0.0,10,0.5,0.5,-23.439400848007203,-0.2,-0.02275,-0.001,1.133638165514192,10,1,100,0.2655336297549056,-10,-1,-100,6429.634266134468,-0.03228156025865467,0.08135028656644996,0.9961626532563963,244.47531962031394,25.366713564446716,680.3684937538643,-33.33386044848577,13.769287109375,4381.2578125,True
1599573459.5570004,0.0,10,0.5,0.5,-22.17980488243103,-0.2,-0.02275,-0.001,1.7567420177131248,10,1,100,-0.01647678772751293,-10,-1,-100,6427.664631770342,-0.02886080135712657,0.08935884237912202,0.9955812630989435,239.33127097624825,24.831294412701208,678.3125636016192,-33.902085219877385,7.752288818359375,4381.2578125,True
1599573459.6367872,0.0,10,0.5,0.5,-21.69033634376526,-0.2,-0.02275,-0.001,1.2610568790113574,10,1,100,0.17966998113456417,-10,-1,-100,6426.9483992251335,-0.027543923942775193,0.09209276197334917,0.9953694065250122,237.197191367437,24.612886074107355,676.3294467980328,-34.091534644177,5.600982666015625,4381.2578125,True
1599573459.717574,0.0,10,0.5,0.5,-20.24259835243225,-0.2,-0.02275,-0.001,1.9025700844695739,10,1,100,-0.18711895457125605,-10,-1,-100,6424.9101945676375,-0.023023149616545828,0.10037022589438162,0.9946837448835911,229.41046902528646,23.828414659749786,665.9621827375579,-34.66001425804383,-1.290771484375,4381.2578125,True
1599573459.7969103,0.0,10,0.5,0.5,-19.174183447647096,-0.2,-0.02275,-0.001,1.68770991742502,10,1,100,-0.12103541270741872,-10,-1,-100,6423.48378930334,-0.019528953284972072,0.10589612724484707,0.9941854103828603,222.97409825272055,23.190460732242514,654.9726078932154,-35.039100650982256,-6.25042724609375,4381.2578125,True
1599573459.87623,0.0,10,0.5,0.5,-18.575745588684086,-0.2,-0.02275,-0.001,1.444837972006751,10,1,100,0.017620953590664012,-10,-1,-100,6422.753531032475,-0.01763040507827201,0.10866608404267526,0.9939219541772918,219.3565370946791,22.834739156377537,648.1359740183929,-35.22866735420198,-8.839599609375,4381.2578125,True
1599573459.9550197,0.0,10,0.5,0.5,-17.409287343597413,-0.2,-0.02275,-0.001,1.756984911319474,10,1,100,-0.2400272591724955,-10,-1,-100,6421.3799740838585,-0.013580870525681145,0.1139774776182084,0.9933905045607972,214.67523387230742,22.399558764463535,641.7243908692524,-35.60777978068284,-14.240081787109375,4381.2578125,True
1599573460.0364416,0.0,10,0.5,0.5,-15.586222337341308,-0.2,-0.02275,-0.001,2.086994371829802,10,1,100,-0.5838902850289082,-10,-1,-100,6419.22746319056,-0.006795054989873185,0.12176080672406316,0.9925362125250594,224.55776164596702,23.54147739471317,682.8941876188942,-36.17576840481278,-22.889862060546875,4381.2578125,True
1599573460.1182244,0.0,10,0.5,0.5,-14.87948010635376,-0.2,-0.02275,-0.001,1.5889025611582683,10,1,100,-0.1772663922418689,-10,-1,-100,6418.445535855717,-0.004350016953382666,0.12425816145512751,0.9922403875393788,228.1144866615232,23.957874820027282,697.6389229149796,-36.364864479122,-25.920166015625,4381.2578125,True
1599573461.0333538,0.0,10,0.5,0.5,-13.517078902435303,-0.2,-0.02275,-0.001,1.8619438724008104,10,1,100,-0.4944568731305806,-10,-1,-100,6417.0027994267875,0.0007285255849466111,0.1289646699093386,0.9916489213253082,234.56659216075658,24.730635784406882,725.4312684578491,-36.74269880704285,-32.203460693359375,4381.2578125,True
1599573461.1161597,0.0,10,0.5,0.5,-12.760637151336672,-0.2,-0.02275,-0.001,1.6375682883659368,10,1,100,-0.27696580030280665,-10,-1,-100,6416.286316243582,0.00333731799854274,0.13115787031744583,0.9913558772521444,237.41638120116568,25.08072069727103,738.3128358656824,-36.93144295714565,-35.45672607421875,4381.2578125,True
1599573461.2079144,0.0,10,0.5,0.5,-11.299727225494385,-0.2,-0.02275,-0.001,1.8865719269125223,10,1,100,-0.6204240134672137,-10,-1,-100,6414.791331447428,0.008798914059436377,0.13537007869001136,0.9907560350090403,242.52609211604317,25.721403375052265,762.4918312271984,-37.308608212845826,-42.1839599609375,4381.2578125,True
1599573461.2966774,0.0,10,0.5,0.5,-9.780887060546876,-0.2,-0.02275,-0.001,1.8856204713101192,10,1,100,-0.6978795938347891,-10,-1,-100,6413.289491831558,0.014433906922302587,0.13914888103567555,0.9901662745405327,246.97883698769903,26.291015442325474,784.905036687244,-37.68538260020188,-49.208648681640625,4381.2578125,True
1599573461.3889432,0.0,10,0.5,0.5,-8.934883137512207,-0.2,-0.02275,-0.001,1.704121181645905,10,1,100,-0.456569588860952,-10,-1,-100,6412.503651354462,0.01732473872435964,0.14089138406291166,0.9898734622793813,248.6201732640537,26.511188138906437,794.348650944009,-37.8736517119997,-52.83221435546875,4381.2578125,True
1599573461.484203,0.0,10,0.5,0.5,-6.546094067382813,-0.2,-0.02275,-0.001,2.0223328006703114,10,1,100,-1.1172435505567113,-10,-1,-100,6410.226597975823,0.02592221466133577,0.14533147320774042,0.9890433770479026,250.84972286282766,26.867572215987177,814.2584408906959,-38.43816329962923,-64.15139770507812,4381.2578125,True
1599573461.5819404,0.0,10,0.5,0.5,-5.637373265838622,-0.2,-0.02275,-0.001,1.7199105311335294,10,1,100,-0.5771530894410413,-10,-1,-100,6409.451425396139,0.028786869350311335,0.14658277421092047,0.9887794528900965,250.61525446896383,26.875266850035143,817.75930329919,-38.626289473980115,-68.0733642578125,4381.2578125,True
1599573461.674696,0.0,10,0.5,0.5,-3.0517719383239745,-0.2,-0.02275,-0.001,1.933580975709214,10,1,100,-1.226360917104758,-10,-1,-100,6407.094512323383,0.03725079270593329,0.1496283094461647,0.9880403571995743,246.63054315961477,26.528200199722196,817.3804554270062,-39.19076210324305,-80.2861328125,4381.2578125,True
1599573461.765451,0.0,10,0.5,0.5,-2.0655096954345704,-0.2,-0.02275,-0.001,1.718466943014279,10,1,100,-0.6781350799819079,-10,-1,-100,6406.315324012889,0.03991518663426223,0.15040898587931645,0.9878177538608565,244.1455973169353,26.28381831196174,813.3291626847767,-39.378998545947155,-84.50613403320312,4381.2578125,True
1599573461.8582041,0.0,10,0.5,0.5,0.7046588088989258,-0.2,-0.02275,-0.001,1.8314822166019424,10,1,100,-1.2724945347109191,-10,-1,-100,6403.906280532945,0.047698166846984885,0.15212005950647384,0.9872103992438411,233.0475445776781,25.15571073352754,788.4032449465564,-39.94408834571071,-97.61166381835938,4381.2578125,True
1599573461.944973,0.0,10,0.5,0.5,2.6852647026062018,-0.2,-0.02275,-0.001,1.7374912533890288,10,1,100,-1.0174154017954475,-10,-1,-100,6402.341750541353,0.052407385664955404,0.15279578868554375,0.986867221508409,222.55038258202418,24.07491868354235,760.5996830236882,-40.32116871488991,-106.71919250488281,4381.2578125,True
1599573462.0277498,0.0,10,0.5,0.5,4.720383626937867,-0.2,-0.02275,-0.001,1.7139835049220506,10,1,100,-1.0224770780204029,-10,-1,-100,6400.7175193968,0.05668752813781001,0.1531747164815655,0.9865718576892496,209.58564605122916,22.736051724127588,723.5561475850609,-40.69850717447379,-116.04607391357422,4381.2578125,True
1599573462.106539,0.0,10,0.5,0.5,5.824905812644959,-0.2,-0.02275,-0.001,1.6918235994259674,10,1,100,-0.8134443621517997,-10,-1,-100,6399.868738387828,0.05862976914147301,0.15329772729510804,0.9864392312639296,204.39230508904882,22.209875143134028,709.1617991967836,-40.887218227951614,-120.67546844482422,4381.2578125,True
1599573462.1863253,0.0,10,0.5,0.5,7.82281930847168,-0.2,-0.02275,-0.001,1.695298451183884,10,1,100,-1.0134062815865577,-10,-1,-100,6398.251664536307,0.06216797763504442,0.1534248470064868,0.986202798048051,216.21750529432845,23.582535138370933,757.6384283385757,-41.264120086310186,-129.74996948242188,4381.2578125,True
1599573462.263121,0.0,10,0.5,0.5,9.763096353149415,-0.2,-0.02275,-0.001,1.6907738855103096,10,1,100,-0.9955957048894349,-10,-1,-100,6396.554914329667,0.06517922186766936,0.1534862998143706,0.9859987955398415,225.4161937446475,24.680658293110067,797.5925275264967,-41.640410182226226,-138.53663635253906,4381.2578125,True
1599573462.3414254,0.0,10,0.5,0.5,11.655263091659545,-0.2,-0.02275,-0.001,1.6879218419345214,10,1,100,-0.9770705095851514,-10,-1,-100,6394.871765140793,0.06770480168261372,0.15350478841107465,0.9858257147001133,231.9970405894899,25.493846161933728,828.7905462243662,-42.01623075904871,-147.02407836914062,4381.2578125,True
1599573462.4182196,0.0,10,0.5,0.5,13.479964913558959,-0.2,-0.02275,-0.001,1.7075230751320927,10,1,100,-0.945256692033255,-10,-1,-100,6393.185158021748,0.06967358263934474,0.1536923589687805,0.985659297463789,237.15838989946369,26.14579304670662,855.3023206907588,-42.391718221566364,-155.20643615722656,4381.2578125,True
1599573462.4930193,0.0,10,0.5,0.5,16.021890634918215,-0.2,-0.02275,-0.001,1.755219080618262,10,1,100,-0.9805895957993536,-10,-1,-100,6390.639859966934,0.07174742198580199,0.1542900144486075,0.9854171192342052,241.26346113831545,26.706335762832275,882.4450976661388,-42.954620807932216,-166.90733337402344,4381.2578125,True
1599573462.5658247,0.0,10,0.5,0.5,17.69795185203552,-0.2,-0.02275,-0.001,1.7762195030280081,10,1,100,-0.867024433818983,-10,-1,-100,6388.887370408396,0.07256895934705078,0.15502001262944567,0.9852423771964198,241.6931452460095,26.81482802911817,892.296368621059,-43.32984901925737,-174.32374572753906,4381.2578125,True
1599573462.6396625,0.0,10,0.5,0.5,18.6169719619751,-0.2,-0.02275,-0.001,1.7572366928214491,10,1,100,-0.8164043764718834,-10,-1,-100,6388.038980209385,0.07282594390620079,0.15550688449492064,0.9851466848996926,241.32277504869882,26.80229445589398,895.0791333008395,-43.517484094313716,-177.91629028320312,4381.2578125,True
1599573462.7144294,0.0,10,0.5,0.5,-52.16643224182129,-0.2,-0.02275,-0.001,1.848315386441619,10,1,100,-0.8193059531824307,-10,-1,-100,6386.286601916887,0.07306310076910648,0.15677440447372812,0.9849282052047811,239.58672574328529,26.665455898425947,896.9169884496692,-43.892829540823,175.13099670410156,4381.2578125,True
1599573462.7882307,0.0,10,0.5,0.5,-50.47482571792603,-0.2,-0.02275,-0.001,2.0064325262288354,10,1,100,-0.7681355037766604,-10,-1,-100,6383.62357133755,0.07279473409069179,0.15936050698362944,0.9845329631366265,235.0023986258234,26.24431613320193,892.0197396709451,-44.45607746252801,165.28140258789062,4381.2578125,True
1599573462.8606107,0.0,10,0.5,0.5,-49.86491211795807,-0.2,-0.02275,-0.001,1.997207205725168,10,1,100,-0.7390946781247679,-10,-1,-100,6381.809488251107,0.07227211396261315,0.1616220192694136,0.9842027557524172,230.98177818874422,25.863639703795883,884.8418561311621,-44.831727175003934,159.01382446289062,4381.2578125,True
1599573462.9406705,0.0,10,0.5,0.5,-49.86702149772644,-0.2,-0.02275,-0.001,1.914698787835262,10,1,100,-0.754861582108346,-10,-1,-100,6380.964763843687,0.07192793811437316,0.16292029546478706,0.9840138967739639,228.66295704485614,25.641930402477442,879.9701615113412,-45.019592352212086,155.82749938964844,4381.2578125,True
1599573463.0194595,0.0,10,0.5,0.5,-48.52098382949829,-0.2,-0.02275,-0.001,2.2867849454666844,10,1,100,-0.64600368083056,-10,-1,-100,6378.236538465833,0.07061656100392118,0.16747451575863195,0.9833440841757228,219.9008877828155,24.788559284756264,857.8395897201757,-45.58333234946929,145.88265991210938,4381.2578125,True
1599573463.0997536,0.0,10,0.5,0.5,-47.775892861557004,-0.2,-0.02275,-0.001,2.2316035739404105,10,1,100,-0.664850884694689,-10,-1,-100,6376.353705299436,0.06959079517578759,0.1711003506337573,0.9827928526601152,221.11995063449734,25.03098443016376,870.3514200968052,-45.95909231545065,138.90708923339844,4381.2578125,True
1599573463.1815715,0.0,10,0.5,0.5,-47.711183707427985,-0.2,-0.02275,-0.001,2.090057952459614,10,1,100,-0.7087446892149644,-10,-1,-100,6375.45022562542,0.06905560083358395,0.1730937898138434,0.9824814827371525,226.50456842629828,25.699261703251093,895.5079263827233,-46.14675334926103,135.3141632080078,4381.2578125,True
1599573463.2563353,0.0,10,0.5,0.5,-46.88893482818604,-0.2,-0.02275,-0.001,2.3675544904829042,10,1,100,-0.6392840520314761,-10,-1,-100,6373.564363587298,0.06793816198609962,0.17741106538609244,0.9817890404891074,237.237190170715,27.04691245070567,946.2136132982506,-46.52160977109697,127.91726684570312,4381.2578125,True
1599573463.3341274,0.0,10,0.5,0.5,-46.02394656028748,-0.2,-0.02275,-0.001,2.466526820059663,10,1,100,-0.6327143894576279,-10,-1,-100,6371.651939045405,0.06686604724680588,0.1822145906743462,0.9809825557424396,247.1760146792159,28.31973951128501,994.4375332448785,-46.89587488986719,120.24009704589844,4381.2578125,True
1599573463.4079301,0.0,10,0.5,0.5,-44.28146632652283,-0.2,-0.02275,-0.001,2.8762252655366023,10,1,100,-0.5853668341658833,-10,-1,-100,6368.818340789294,0.06546614962852321,0.19028124082432643,0.9795444005470966,260.60285608538584,30.07414947452081,1061.9817967664396,-47.45631087778305,108.1988525390625,4381.2578125,True
1599573463.479738,0.0,10,0.5,0.5,-43.26053846321106,-0.2,-0.02275,-0.001,2.7245609013166936,10,1,100,-0.6459957236771172,-10,-1,-100,6366.8701457853895,0.06475137787498443,0.196204179143828,0.9784228018345584,268.31518338529867,31.102364010323335,1102.6961385893017,-47.82942631572932,99.82133483886719,4381.2578125,True
1599573463.5495868,0.0,10,0.5,0.5,-41.35745942497254,-0.2,-0.02275,-0.001,2.8320034351788026,10,1,100,-0.6657012591970672,-10,-1,-100,6364.931110036094,0.06428828271548884,0.20252957358333035,0.9771636447032032,274.0429325372296,31.897713604401414,1135.7622164288298,-48.20230440494015,91.16398620605469,4381.2578125,True
1599573463.6193657,0.0,10,0.5,0.5,-39.40110508956909,-0.2,-0.02275,-0.001,2.939254904812261,10,1,100,-0.6957246166221909,-10,-1,-100,6362.9914770494215,0.06414795986651688,0.20921570091900055,0.9757632037200087,277.37099936562436,32.41175280268842,1159.2780676620387,-48.57510684918768,82.22669982910156,4381.2578125,True
1599573463.6941648,0.0,10,0.5,0.5,-38.316044111251834,-0.2,-0.02275,-0.001,2.6560626524589352,10,1,100,-0.7167801707198493,-10,-1,-100,6362.021804454504,0.06421919336297208,0.21267625649217087,0.9750101051416266,278.00447350760635,32.54921597321223,1166.8377961662618,-48.76152713247885,77.65303039550781,4381.2578125,True
1599573463.7649755,0.0,10,0.5,0.5,-35.30026601142884,-0.2,-0.02275,-0.001,3.49858678529458,10,1,100,-0.8031472701841859,-10,-1,-100,6359.113348659361,0.06507611448647205,0.22343629371080667,0.972543737821658,275.17823238706336,32.42298867564404,1169.7333018638726,-49.32104070389207,63.51121520996094,4381.2578125,True
1599573464.4310331,0.0,10,0.5,0.5,-34.1512813293457,-0.2,-0.02275,-0.001,2.8333009852851245,10,1,100,-0.7742830062387929,-10,-1,-100,6358.082033199375,0.06559776805971158,0.22711921865679674,0.9716551823266886,272.51055339617267,32.18670661176767,1163.3144428550324,-49.50765877964779,58.656829833984375,4381.2578125,True
1599573464.4925907,0.0,10,0.5,0.5,-31.979622206497194,-0.2,-0.02275,-0.001,3.2899936452644023,10,1,100,-0.8792442050376432,-10,-1,-100,6356.0816646320745,0.0670298213218426,0.2345681574547602,0.9697859467747719,264.35772068524545,31.398398145427695,1138.0933787856977,-49.88107582026031,48.73670959472656,4381.2578125,True
1599573464.5563798,0.0,10,0.5,0.5,-29.74174436073303,-0.2,-0.02275,-0.001,3.3721458887526197,10,1,100,-0.9548543867202826,-10,-1,-100,6354.082570890896,0.06902089482954182,0.2420308727867645,0.9678105045384693,252.2642336534645,30.162554213791527,1095.1472339683703,-50.25469448588845,38.53355407714844,4381.2578125,True
1599573464.636167,0.0,10,0.5,0.5,-27.44077094116211,-0.2,-0.02275,-0.001,3.4485240133258603,10,1,100,-1.0345464329144232,-10,-1,-100,6352.083239410073,0.07155445049935745,0.24945076075979725,0.9657402749031924,263.81990923880346,31.784439902685644,1154.7252967461866,-50.62774753405193,28.046844482421875,4381.2578125,True
1599573464.7010443,0.0,10,0.5,0.5,-23.971851344680786,-0.2,-0.02275,-0.001,3.8926531394462622,10,1,100,-1.3150513469962641,-10,-1,-100,6348.990799323656,0.0764034654151588,0.260172527181753,0.9625345534433632,290.1783162692587,35.371615743243055,1285.350663009849,-51.18515648456984,11.77984619140625,4381.2578125,True
1599573464.7658718,0.0,10,0.5,0.5,-21.516740689468385,-0.2,-0.02275,-0.001,3.569910892836141,10,1,100,-1.2557747033220328,-10,-1,-100,6346.929246388725,0.08026283919995189,0.26692202960856853,0.9603699843045935,304.2613457485832,37.35844174134259,1358.3052897440857,-51.55570089407719,0.57574462890625,4381.2578125,True
1599573464.8336906,0.0,10,0.5,0.5,-20.154385316467284,-0.2,-0.02275,-0.001,3.2562260057230357,10,1,100,-1.101887088039179,-10,-1,-100,6345.89845705335,0.0823582811732606,0.2701419711587683,0.9592916287243631,310.1748372815292,38.213859639139535,1390.108934306598,-51.74077137637158,-5.13458251953125,4381.2578125,True
1599573464.900511,0.0,10,0.5,0.5,-17.60184577598572,-0.2,-0.02275,-0.001,3.6103395190553598,10,1,100,-1.385951096114699,-10,-1,-100,6343.837773635518,0.08682920122381164,0.27622693869144793,0.9571621430854785,318.07574068232907,39.440206691454335,1436.7101275476468,-52.110761111448426,-16.772247314453125,4381.2578125,True
1599573464.966923,0.0,10,0.5,0.5,-13.770211763763427,-0.2,-0.02275,-0.001,3.9035510120038492,10,1,100,-1.734844493717702,-10,-1,-100,6340.682430434274,0.09404481284674235,0.2843633670772589,0.9540927882764367,318.50688941874654,39.883677372252144,1455.8734736392928,-52.665990885473626,-34.772491455078125,4381.2578125,True
1599573465.0327466,0.0,10,0.5,0.5,-11.047479620742799,-0.2,-0.02275,-0.001,3.6173432960586216,10,1,100,-1.564540832620356,-10,-1,-100,6338.559167139465,0.09902913047626369,0.2890930617279622,0.9521651290495088,310.21500907187817,39.14358218798921,1429.3737551347608,-53.036585508755344,-47.135498046875,4381.2578125,True
1599573465.1057847,0.0,10,0.5,0.5,-9.543762162780762,-0.2,-0.02275,-0.001,3.3882451637217734,10,1,100,-1.3446229027404644,-10,-1,-100,6337.527445894899,0.10153020803511154,0.2912503858727964,0.9512438328763526,303.3416579353841,38.442514682542026,1403.2894757241045,-53.222024768935064,-53.42584228515625,4381.2578125,True
1599573465.1731966,0.0,10,0.5,0.5,-6.7226226554870605,-0.2,-0.02275,-0.001,3.6099928574181295,10,1,100,-1.6425567349545096,-10,-1,-100,6335.342161880108,0.10647973843603235,0.29516917670423437,0.9494931397468539,284.0673220590105,36.34841318052808,1324.4608271613447,-53.59312329984998,-66.22406005859375,4381.2578125,True
1599573465.2410164,0.0,10,0.5,0.5,-3.84324977684021,-0.2,-0.02275,-0.001,3.6016597273746527,10,1,100,-1.6785731240250148,-10,-1,-100,6333.216582647525,0.11127086968558843,0.29860086626037413,0.9478693560971189,298.6010689789094,38.6008235522953,1402.736219824093,-53.96334443851984,-79.31179809570312,4381.2578125,True
1599573465.3093126,0.0,10,0.5,0.5,-0.899626644897461,-0.2,-0.02275,-0.001,3.595591849096473,10,1,100,-1.7023815151660604,-10,-1,-100,6331.029127045884,0.11580447440023432,0.3016139942420872,0.9463711334282231,319.7710111637243,41.73724770351133,1513.14229764342,-54.33201874579776,-92.68798065185547,4381.2578125,True
1599573465.3781307,0.0,10,0.5,0.5,3.502257858467102,-0.2,-0.02275,-0.001,3.732336725419824,10,1,100,-1.929063990044991,-10,-1,-100,6327.746366717387,0.12194645570890189,0.3055489156161456,0.9443351746630188,339.55851062304066,44.86844544513344,1624.2124460581942,-54.88363822986574,-113.28792572021484,4381.2578125,True
1599573465.4459474,0.0,10,0.5,0.5,5.174777342605591,-0.2,-0.02275,-0.001,3.47643130780391,10,1,100,-1.522079144398898,-10,-1,-100,6326.651328328182,0.1237888101288227,0.30675845271565916,0.9437031218420255,341.90442106543816,45.34781727363881,1641.4182801779593,-55.067480965763984,-120.29583740234375,4381.2578125,True
1599573465.5137656,0.0,10,0.5,0.5,8.298948294448852,-0.2,-0.02275,-0.001,3.618721107312936,10,1,100,-1.7109458848060481,-10,-1,-100,6324.4606197018875,0.1271410790861531,0.309115360598838,0.9424875807408069,338.6231679197017,45.26090733296468,1637.8030980849344,-55.43553672872629,-134.50576782226562,4381.2578125,True
1599573465.581585,0.0,10,0.5,0.5,11.427589350509646,-0.2,-0.02275,-0.001,3.648817964915639,10,1,100,-1.699749714998679,-10,-1,-100,6322.208769732504,0.1300461013237384,0.31149618157135234,0.9413066133821449,324.3461786090093,43.738754368557665,1580.6152874249422,-55.804264305207326,-148.6775665283203,4381.2578125,True
1599573465.661371,0.0,10,0.5,0.5,15.880206758117676,-0.2,-0.02275,-0.001,3.841144072981381,10,1,100,-1.8081317825944654,-10,-1,-100,6318.860841659945,0.13363303406323224,0.3153769204897995,0.9395103034184487,295.32349855873684,40.45213621076496,1455.0644933491124,-56.35820378201386,-169.40744018554688,4381.2578125,True
1599573465.7321823,0.0,10,0.5,0.5,-53.4959686126709,-0.2,-0.02275,-0.001,3.7806210898377097,10,1,100,-1.670056205104871,-10,-1,-100,6316.608282178757,0.13560266019357897,0.3183264618839794,0.938232477700944,325.3267128620761,45.02686497256296,1613.9790250816843,-56.725832468110866,177.1683807373047,4381.2578125,True
1599573465.8029928,0.0,10,0.5,0.5,-51.02633446083069,-0.2,-0.02275,-0.001,3.855643927330846,10,1,100,-1.667238414042973,-10,-1,-100,6314.293537233025,0.13733436445722483,0.3216633131284842,0.9368414942381323,346.836882765591,48.45148854521396,1732.3455111778267,-57.09210223856965,164.067138671875,4381.2578125,True
1599573465.8738039,0.0,10,0.5,0.5,-47.64619369087219,-0.2,-0.02275,-0.001,4.16787674123658,10,1,100,-1.7601653914457307,-10,-1,-100,6310.88424284209,0.13972088253108966,0.32750764627058093,0.9344607089755231,365.7933569904032,51.74464604850908,1845.9555816854352,-57.640630156237926,144.72366333007812,4381.2578125,True
1599573465.9446144,0.0,10,0.5,0.5,-46.83188603172302,-0.2,-0.02275,-0.001,3.826964916200198,10,1,100,-1.6126006950127472,-10,-1,-100,6309.726422992302,0.14051872795421688,0.32969207938164147,0.9335725038191399,367.1651141333013,52.162557214141714,1859.4537004776953,-57.823551365694456,138.1885528564453,4381.2578125,True
1599573466.0144272,0.0,10,0.5,0.5,-46.00721287994385,-0.2,-0.02275,-0.001,3.864958445351096,10,1,100,-1.6263608891045487,-10,-1,-100,6308.506737035816,0.14134254568674107,0.33199505864477624,0.9326315273537792,365.8909623925697,52.22084869716837,1859.671503003775,-58.006592190912286,131.5914306640625,4381.2578125,True
1599573466.0828323,0.0,10,0.5,0.5,-43.83315877628327,-0.2,-0.02275,-0.001,4.182283204352029,10,1,100,-1.743280804770725,-10,-1,-100,6306.193804140552,0.14313116279392238,0.33694582754363206,0.9305809903163704,355.0427525518804,51.20460240916066,1817.6763004511645,-58.373085501385575,118.20393371582031,4381.2578125,True
1599573466.152154,0.0,10,0.5,0.5,-41.62979604263305,-0.2,-0.02275,-0.001,4.281385221425843,10,1,100,-1.7955626985246345,-10,-1,-100,6303.8795697072055,0.1452132094645,0.34231891132332887,0.9282946120426586,332.8457650992033,48.5893359016727,1716.2062482272306,-58.74006394265942,104.55520629882812,4381.2578125,True
