Timestamp,Input Throttle,horizon,dT,dt,Input Roll,Roll P,Roll I,Roll D,Input Pitch,Pitch P,Pitch I,Pitch D,Input Yaw,Yaw P,Yaw I,Yaw D,Altitude,Direction X,Direction Y,Direction Z,Drag X,Drag Y,Drag Z,Vertical Velocity,Roll,Mass,Has Fuel
1599566985.3996694,0.0,10,0.5,0.5,-2.7449162826538087,-0.05075,-0.00825,-0.5,-0.06720064286303218,10,1,100,0.6903896485362466,-10,-1,-100,6483.6179675956955,-0.06725909320145455,-0.0070025152853331624,0.997710969750958,205.07294567569417,21.498748281901708,-156.7650265545901,9.590823959414166,-35.944549560546875,4381.2578125,True
1599566985.4605017,0.0,10,0.5,0.5,-2.7888174644470216,-0.05075,-0.00825,-0.5,-0.06905152206516631,10,1,100,0.6895038519246652,-10,-1,-100,6483.776675497764,-0.06735170238863614,-0.006987298173363175,0.9977048290198804,204.84256291140963,21.477768651952374,-153.51310569849807,9.400810018182133,-35.942901611328125,4381.2578125,True
1599566985.5282874,0.0,10,0.5,0.5,-2.754922879028321,-0.05075,-0.00825,-0.5,-0.033185078254333096,10,1,100,0.7122463966362564,-10,-1,-100,6484.538936096244,-0.06758141414491692,-0.006641053765861645,0.9976916602172499,203.94220828313033,21.395583910157168,-140.57568362514047,8.640800786766608,-36.08392333984375,4381.2578125,True
1599566985.5861347,0.0,10,0.5,0.5,-2.8699145065307623,-0.05075,-0.00825,-0.5,-0.06847362438107224,10,1,100,0.69603336242267,-10,-1,-100,6484.538936096244,-0.06758141414491692,-0.006641053765861645,0.9976916602172499,203.94220828313033,21.395583910157168,-140.57568362514047,8.640800786766608,-36.08392333984375,4381.2578125,True
1599566985.6559453,0.0,10,0.5,0.5,-2.295238516235352,-0.05075,-0.00825,-0.5,0.03617339949286279,10,1,100,0.690102321697126,-10,-1,-100,6485.1756233944325,-0.06746605794364387,-0.0056836798635841795,0.9977053807656613,203.31750046561086,21.340427624742194,-127.89859359354708,7.880820098053263,-37.2081298828125,4381.2578125,True
1599566985.72277,0.0,10,0.5,0.5,-2.6456219177246094,-0.05075,-0.00825,-0.5,-0.01910497533215178,10,1,100,0.6972989164881515,-10,-1,-100,6485.335755106527,-0.06736527947881983,-0.005310703650956085,0.9977142454367746,203.1995789967346,21.330103358611556,-124.76126858907598,7.690821974847706,-37.671630859375,4381.2578125,True
1599566985.7826424,0.0,10,0.5,0.5,-2.2885455841064455,-0.05075,-0.00825,-0.5,0.041310716515508966,10,1,100,0.6780913839190352,-10,-1,-100,6485.590081029455,-0.06703780759700709,-0.004417572892087305,0.9977406563843783,202.9727414718393,21.309536768875635,-118.49863471757253,7.310815415582728,-38.81915283203125,4381.2578125,True
1599566985.8444748,0.0,10,0.5,0.5,-2.110726699829102,-0.05075,-0.00825,-0.5,0.07279902398765951,10,1,100,0.664792319669701,-10,-1,-100,6485.909320598235,-0.06655826184073155,-0.003315362522557875,0.9977770322833075,202.71057323917756,21.28396507405527,-112.22496199342496,6.930787893912384,-40.260467529296875,4381.2578125,True
1599566986.4574466,0.0,10,0.5,0.5,-1.9166910972595215,-0.05075,-0.00825,-0.5,0.10480186580602974,10,1,100,0.6487906291960229,-10,-1,-100,6486.165057810955,-0.06591633372904696,-0.002019404204161793,0.9978231100522682,202.3393711325166,21.245497480417445,-105.90493820208329,6.550730459908658,-41.99578857421875,4381.2578125,True
1599566986.5367515,0.0,10,0.5,0.5,-2.2853401496887207,-0.05075,-0.00825,-0.5,0.05350861218258252,10,1,100,0.676852291192697,-10,-1,-100,6486.261179268244,-0.0655279447968225,-0.001305726762011092,0.9978498802567085,202.08657095474584,21.218628397987356,-102.71727821719755,6.360687486041029,-42.9737548828125,4381.2578125,True
1599566986.6038043,0.0,10,0.5,0.5,-0.9541370155334472,-0.05075,-0.00825,-0.5,0.24364766362223098,10,1,100,0.5632223549544886,-10,-1,-100,6486.6754801494535,-0.06408229367009217,0.0010727947682699962,0.9979440408907532,200.89877535225375,21.090562723521543,-92.99375539883016,5.790480842784538,-46.34912109375,4381.2578125,True
1599566986.6748497,0.0,10,0.5,0.5,-1.9325293334960936,-0.05075,-0.00825,-0.5,0.10189970557378931,10,1,100,0.6436634258260587,-10,-1,-100,6486.772064976161,-0.06350223583510739,0.001939128077127331,0.9979798123340187,200.31114988763392,21.026982220335288,-89.6881424942378,5.600379081333323,-47.62139892578125,4381.2578125,True
1599566986.74865,0.0,10,0.5,0.5,-1.0360672111511233,-0.05075,-0.00825,-0.5,0.219508300588003,10,1,100,0.5571195652032267,-10,-1,-100,6486.9652189479675,-0.062191647676325956,0.0037877579250809503,0.9980570383746636,198.7510620927713,20.858354181698832,-82.96574697019744,5.220111953298709,-50.38665771484375,4381.2578125,True
1599566986.8157513,0.0,10,0.5,0.5,-0.7249310905456543,-0.05075,-0.00825,-0.5,0.24229027494179195,10,1,100,0.5186636518552088,-10,-1,-100,6487.157863804372,-0.06065550447105957,0.005665958633990556,0.9981426785235262,196.56359178938905,20.622571201467302,-76.08977752195842,4.839742893656336,-53.44061279296875,4381.2578125,True
1599566986.89505,0.0,10,0.5,0.5,1.6063659614562988,-0.05075,-0.00825,-0.5,0.5043457965679514,10,1,100,0.2619227493466746,-10,-1,-100,6487.544080948341,-0.05693129872498878,0.00974454855469178,0.9983305419543926,189.69476166514923,19.88708655644311,-61.90574812524048,4.078586549663236,-60.42010498046875,4381.2578125,True
1599566986.988317,0.0,10,0.5,0.5,-0.8083795753479004,-0.05075,-0.00825,-0.5,0.21122005353046558,10,1,100,0.5157720199896171,-10,-1,-100,6487.578615562641,-0.05586295483369541,0.010773552429153682,0.9983803187389586,187.3380950063615,19.636130148889833,-58.28765289595162,3.888186291897954,-62.33721923828125,4381.2578125,True
1599566987.0750873,0.0,10,0.5,0.5,0.41605746383666986,-0.05075,-0.00825,-0.5,0.328762739883006,10,1,100,0.37068476182574495,-10,-1,-100,6487.770726347924,-0.053583214698889076,0.012762958321796587,0.9984818205643049,181.79150595890965,19.047457432284226,-51.0283077460644,3.5072267140723374,-66.26394653320312,4381.2578125,True
1599566987.1548731,0.0,10,0.5,0.5,0.5751877990722656,-0.05075,-0.00825,-0.5,0.34920387776538786,10,1,100,0.32318784299512976,-10,-1,-100,6487.8397860091645,-0.05109116494414874,0.014741718994753714,0.9985851864441657,175.54808842848786,18.387313752321656,-43.92641846468241,3.126018500572375,-70.07666015625,4381.2578125,True
1599566987.2296698,0.0,10,0.5,0.5,0.8464940971374513,-0.05075,-0.00825,-0.5,0.3633754041611319,10,1,100,0.27452926787732557,-10,-1,-100,6487.969390251208,-0.048397375481401654,0.016653008863296674,0.998689326738957,168.47657831255833,17.642530245268986,-37.01704027969631,2.7445131052627576,-73.98599243164062,4381.2578125,True
1599566987.3204284,0.0,10,0.5,0.5,2.0572494873046874,-0.05075,-0.00825,-0.5,0.4646040755040222,10,1,100,0.0648842257455301,-10,-1,-100,6488.134018576937,-0.04405853827611311,0.01929383083502795,0.9988426268920854,156.71211690971052,16.40712951136832,-27.251425919408817,2.1717562797315906,-79.685546875,4381.2578125,True
1599566987.3952289,0.0,10,0.5,0.5,0.23459884185791013,-0.05075,-0.00825,-0.5,0.2930772464798719,10,1,100,0.32956090964151175,-10,-1,-100,6488.167088396032,-0.0425398101308331,0.020116516402203164,0.9988922315855062,152.64526764972763,15.980647940967012,-24.21090062127512,1.9807416148742139,-81.49551391601562,4381.2578125,True
1599566987.479005,0.0,10,0.5,0.5,1.250503231048584,-0.05075,-0.00825,-0.5,0.3801450864228526,10,1,100,0.1383617013318813,-10,-1,-100,6488.235190353938,-0.03944055763552668,0.021638625715813244,0.9989875936619681,144.56418706365258,15.133870949819736,-18.507810950472162,1.5986320849450206,-84.93063354492188,4381.2578125,True
1599566987.5538082,0.0,10,0.5,0.5,0.451750764465332,-0.05075,-0.00825,-0.5,0.3065967702544688,10,1,100,0.27280531401761,-10,-1,-100,6488.269247611053,-0.03786714428075436,0.022335831765165567,0.9990331275805515,145.8903556522168,15.272579356473884,-16.445983652093968,1.4075525530953539,-86.54302978515625,4381.2578125,True
1599566987.6415713,0.0,10,0.5,0.5,3.002458401107788,-0.05075,-0.00825,-0.5,0.5135960278927907,10,1,100,-0.30282105116946156,-10,-1,-100,6488.34105883853,-0.03122591473234758,0.024834604994161437,0.9992037753350975,154.14208475120682,16.13479144600081,-7.942119993963585,0.6432089832299441,-92.58402252197266,4381.2578125,True
1599566987.7233517,0.0,10,0.5,0.5,0.014255345726013183,-0.05075,-0.00825,-0.5,0.26563556962922075,10,1,100,0.35835894469734564,-10,-1,-100,6488.34105883853,-0.03122591473234758,0.024834604994161437,0.9992037753350975,154.14208475120682,16.13479144600081,-7.942119993963585,0.6432089832299441,-92.58402252197266,4381.2578125,True
1599566987.8016932,0.0,10,0.5,0.5,1.5404699867248535,-0.05075,-0.00825,-0.5,0.3805753728521195,10,1,100,-0.025174914796103065,-10,-1,-100,6488.345252305153,-0.027762611813309537,0.025865794063061,0.9992798397259853,157.23555145442782,16.456301333820452,-3.288591804749741,0.2610642435885393,-95.30699920654297,4381.2578125,True
1599566987.871508,0.0,10,0.5,0.5,2.2359798467636107,-0.05075,-0.00825,-0.5,0.41134747757141493,10,1,100,-0.2372386806053488,-10,-1,-100,6488.322045281413,-0.022711847964118525,0.02706926485802337,0.9993755184424425,161.0661638844281,16.8523883448741,4.0285084119483106,-0.31214283937039555,-98.99251556396484,4381.2578125,True
1599566987.9492986,0.0,10,0.5,0.5,1.7127868339538574,-0.05075,-0.00825,-0.5,0.36214201343087504,10,1,100,-0.12542850020973245,-10,-1,-100,6488.327755894163,-0.019164765529118454,0.027703001082587685,0.9994324666995926,164.4178424082073,17.200146902500446,9.148265927854021,-0.6943072471370648,-101.33943176269531,4381.2578125,True
1599566988.0186203,0.0,10,0.5,0.5,1.7697516857147217,-0.05075,-0.00825,-0.5,0.3520773587032925,10,1,100,-0.14117005805450852,-10,-1,-100,6488.268547709333,-0.015826064061815907,0.028175845078224643,0.9994776923225647,168.14453645833294,17.587629923144227,14.507486200946401,-1.0765092137101333,-103.52668762207031,4381.2578125,True
1599566988.0974443,0.0,10,0.5,0.5,1.2473370727539064,-0.05075,-0.00825,-0.5,0.32683163285398537,10,1,100,0.005275193896894764,-10,-1,-100,6488.241638824344,-0.014151811665116882,0.028365721351796425,0.9994974297509659,169.88327588546787,17.768655057001574,17.260890947487177,-1.2676324140418216,-104.51959228515625,4381.2578125,True
1599566988.1602418,0.0,10,0.5,0.5,2.558146306228638,-0.05075,-0.00825,-0.5,0.35684642879613265,10,1,100,-0.559059693165757,-10,-1,-100,6488.124293961446,-0.00752663480992184,0.028802950754047776,0.9995567716724738,175.2341170410482,18.327531872199998,28.552694391273583,-2.032323551157477,-107.76384735107422,4381.2578125,True
1599566988.2250683,0.0,10,0.5,0.5,1.3031232442855836,-0.05075,-0.00825,-0.5,0.3174439635510962,10,1,100,-0.07539368821797246,-10,-1,-100,6488.033447355265,-0.005932540600470671,0.028834331040819724,0.9995665992396165,176.21852036996958,18.43090695060588,31.417018587198893,-2.223551462343038,-108.39105224609375,4381.2578125,True
1599566988.2988713,0.0,10,0.5,0.5,1.3137605089187623,-0.05075,-0.00825,-0.5,0.314675353444336,10,1,100,-0.09589901449131406,-10,-1,-100,6488.003152587917,-0.004327413823062008,0.028831147841164577,0.999574928859145,177.08386602500534,18.522025325389393,34.28924812178348,-2.414801487447447,-108.94463348388672,4381.2578125,True
1599566988.3636997,0.0,10,0.5,0.5,1.725719744873047,-0.05075,-0.00825,-0.5,0.30526115125545256,10,1,100,-0.42338158890545274,-10,-1,-100,6487.853705470683,7.841598702195309e-05,0.028736765534237322,0.9995870107987413,179.02546265500663,18.72788117281632,42.913018917324536,-2.9886762386252044,-110.1616439819336,4381.2578125,True
1599566988.4295924,0.0,10,0.5,0.5,1.3755810676574707,-0.05075,-0.00825,-0.5,0.29210315758363053,10,1,100,-0.303074713097383,-10,-1,-100,6487.733585108421,0.002961558460916402,0.02852779789406864,0.9995886123394953,179.85149702112608,18.816963130954772,48.63881600225392,-3.371357755357557,-110.60443115234375,4381.2578125,True
1599566988.4989212,0.0,10,0.5,0.5,1.2500163175582886,-0.05075,-0.00825,-0.5,0.2842370578394439,10,1,100,-0.31304828877550106,-10,-1,-100,6487.549513115315,0.005642186422264007,0.02826295986633186,0.9995845991370468,180.3118434825723,18.86852745144871,54.30842347276201,-3.75411199723437,-110.75143432617188,4381.2578125,True
1599566988.570758,0.0,10,0.5,0.5,1.168675537109375,-0.05075,-0.00825,-0.5,0.2939944636644122,10,1,100,-0.18859716109965768,-10,-1,-100,6487.5202264670515,0.006917379046221824,0.028108722470613346,0.9995809369871962,180.41052627694046,18.88084578345998,57.11341796292272,-3.9455143871545606,-110.71406555175781,4381.2578125,True
1599566988.6351435,0.0,10,0.5,0.5,1.0340053121566775,-0.05075,-0.00825,-0.5,0.2674827947752342,10,1,100,-0.34033253508511024,-10,-1,-100,6487.336659308872,0.009429121897860007,0.027726546523137996,0.9995710731499465,180.36943960315705,18.88115120189409,62.65210106606631,-4.328365129619645,-110.41806030273438,4381.2578125,True
1599566988.7045422,0.0,10,0.5,0.5,0.8636160989761352,-0.05075,-0.00825,-0.5,0.2578345052370477,10,1,100,-0.34950098268022134,-10,-1,-100,6487.152123687207,0.01176987957073484,0.027291380715594574,0.9995582276553613,179.98486098838816,18.846370964312655,68.06157192920752,-4.711269970031725,-109.82635498046875,4381.2578125,True
1599566988.7703645,0.0,10,0.5,0.5,0.024819546318054275,-0.05075,-0.00825,-0.5,0.18400308044077907,10,1,100,-0.5896521825811953,-10,-1,-100,6486.722520280047,0.016055946596418496,0.026225384723645957,0.9995271060731618,178.4242593344396,18.696665063894635,78.47098495397641,-5.477211642899007,-107.75672912597656,4381.2578125,True
1599566988.8312354,0.0,10,0.5,0.5,0.25957422962188725,-0.05075,-0.00825,-0.5,0.22303500888963518,10,1,100,-0.3749113692278613,-10,-1,-100,6486.475983175915,0.017972720354499205,0.025613078931980587,0.9995103558796592,177.26412050438472,18.583380031301555,83.42958342559653,-5.8602355204931715,-106.29920959472656,4381.2578125,True
1599566988.898055,0.0,10,0.5,0.5,0.9871256690979004,-0.05075,-0.00825,-0.5,0.28394660087396534,10,1,100,-0.18578392893623247,-10,-1,-100,6486.475983175915,0.017972720354499205,0.025613078931980587,0.9995103558796592,177.26412050438472,18.583380031301555,83.42958342559653,-5.8602355204931715,-106.29920959472656,4381.2578125,True
1599566988.9598587,0.0,10,0.5,0.5,0.10977244415283205,-0.05075,-0.00825,-0.5,0.21706696782239518,10,1,100,-0.37172664301910985,-10,-1,-100,6486.228956970735,0.019641376608929936,0.02500801067888344,0.9994942799870298,175.72568085729276,18.431249984474732,88.13015577588348,-6.243291103639887,-104.7093276977539,4381.2578125,True
1599566989.023687,0.0,10,0.5,0.5,-0.008128348922729511,-0.05075,-0.00825,-0.5,0.20122569031884552,10,1,100,-0.38156997236038825,-10,-1,-100,6485.981438996387,0.02122603184294041,0.02431741259618311,0.9994789237481846,173.97828383723623,18.257838895952517,92.62791419325552,-6.6263813434792045,-103.05821990966797,4381.2578125,True
1599566989.0855541,0.0,10,0.5,0.5,-0.19877059516906737,-0.05075,-0.00825,-0.5,0.1861945991332999,10,1,100,-0.3861432234903783,-10,-1,-100,6485.734405222931,0.022688977415171736,0.023556967467439717,0.9994649966795195,171.97918509273296,18.05846520940385,96.87952209539132,-7.0095112318823904,-101.22374725341797,4381.2578125,True
1599566989.1533408,0.0,10,0.5,0.5,-0.9304009309768676,-0.05075,-0.00825,-0.5,0.13197396713170273,10,1,100,-0.44178542322502057,-10,-1,-100,6485.269116100855,0.02450683209755673,0.022377257814409957,0.9994491850580747,168.78875969870433,17.739567088550636,102.91538327140033,-7.584292339006798,-98.24394226074219,4381.2578125,True
1599566989.2292132,0.0,10,0.5,0.5,-0.5531112726211548,-0.05075,-0.00825,-0.5,0.15419225697139832,10,1,100,-0.37730641347103916,-10,-1,-100,6484.960053998278,0.025556104769529353,0.021512129584790974,0.9994419011577091,166.39084082460178,17.49820849126468,106.60624087585589,-7.967549028362322,-96.24250030517578,4381.2578125,True
1599566989.2930443,0.0,10,0.5,0.5,-0.6230330963134765,-0.05075,-0.00825,-0.5,0.1405121390275143,10,1,100,-0.3718114863884701,-10,-1,-100,6484.587506020209,0.026443090838096286,0.020607281570089155,0.9994378934647311,164.25689259351876,17.283959434085116,110.33018968825961,-8.350868181010734,-94.32020568847656,4381.2578125,True
1599566989.3578663,0.0,10,0.5,0.5,-1.0472219512939454,-0.05075,-0.00825,-0.5,0.07057379728678612,10,1,100,-0.4005856579745528,-10,-1,-100,6484.060161005938,0.027495557943084944,0.019155361418129107,0.9994383755001303,161.30149551320304,16.98662509398891,115.85283434566706,-8.925968183283983,-91.8289566040039,4381.2578125,True
1599566989.417706,0.0,10,0.5,0.5,-0.22347385005950926,-0.05075,-0.00825,-0.5,0.15931709085429613,10,1,100,-0.3272803751630954,-10,-1,-100,6483.903905457235,0.027771638487177428,0.01864958760268594,0.9994403078613485,160.4142877540621,16.897263413327238,117.70674836168969,-9.11769959488338,-91.08991241455078,4381.2578125,True
1599566989.482534,0.0,10,0.5,0.5,-0.5963808704376221,-0.05075,-0.00825,-0.5,0.09545720396469394,10,1,100,-0.348533352446362,-10,-1,-100,6483.530352321453,0.028205179055390512,0.017616135887033008,0.9994469168649543,158.8044042589628,16.734962076018657,121.46127061475532,-9.50120539104921,-89.766845703125,4381.2578125,True
1599566989.5463653,0.0,10,0.5,0.5,-0.5443818107604981,-0.05075,-0.00825,-0.5,0.0780153152042166,10,1,100,-0.3391776210294386,-10,-1,-100,6483.157766427961,0.028504952505702293,0.016525341650475953,0.9994570429818296,157.53125318847367,16.606964830584154,125.38845743258446,-9.884761571344804,-88.68487548828125,4381.2578125,True
1599566989.6072412,0.0,10,0.5,0.5,-0.2914042751312256,-0.05075,-0.00825,-0.5,0.1234950511561757,10,1,100,-0.3216113592066068,-10,-1,-100,6482.9389997848775,0.028608205778367982,0.01595542425069781,0.999463353504831,157.00266846870286,16.553937081361163,127.4117654939272,-10.07655561943605,-88.18832397460938,4381.2578125,True
1599566989.6731226,0.0,10,0.5,0.5,-0.5406815031051636,-0.05075,-0.00825,-0.5,0.05364635204068503,10,1,100,-0.3220984484877139,-10,-1,-100,6482.502924242173,0.02869834881137464,0.014810558973875204,0.9994783900207057,156.08996539159,16.462306327958753,131.53433483122728,-10.460170476769699,-87.30966186523438,4381.2578125,True
1599566989.7376745,0.0,10,0.5,0.5,-0.5079759738922119,-0.05075,-0.00825,-0.5,0.035996844245464066,10,1,100,-0.3099426570192847,-10,-1,-100,6482.067817531759,0.028662996812605486,0.01361796488191838,0.9994963649989905,155.44081315793915,16.397482112749334,135.8351496675594,-10.84381390989184,-86.59494018554688,4381.2578125,True
1599566989.7988453,0.0,10,0.5,0.5,-0.6247068109512329,-0.05075,-0.00825,-0.5,-0.05319985001915886,10,1,100,-0.2828230131160251,-10,-1,-100,6481.413434208254,0.028378885487878956,0.011731944852811533,0.9995283889557295,154.93998200451838,16.34857154676476,142.65498308975623,-11.419313765102698,-85.75604248046875,4381.2578125,True
1599566989.8676612,0.0,10,0.5,0.5,-0.4271339925765991,-0.05075,-0.00825,-0.5,-0.00766039274177252,10,1,100,-0.2736698002292955,-10,-1,-100,6480.97684651427,0.02803387139062064,0.010441053813383,0.999552443071458,154.90116236810005,16.346244509017275,147.4625931767995,-11.802992824310905,-85.37188720703125,4381.2578125,True
1599566989.931491,0.0,10,0.5,0.5,-0.39596491928100586,-0.05075,-0.00825,-0.5,-0.09492097421945259,10,1,100,-0.2276784477532512,-10,-1,-100,6480.19646922301,0.027299866491857137,0.008484303105715796,0.9995912834205475,155.38199822833278,16.39882748183087,155.21754954928693,-12.378511472421607,-85.09600830078125,4381.2578125,True
1599566989.993361,0.0,10,0.5,0.5,-0.2714172283172608,-0.05075,-0.00825,-0.5,0.02606898449102528,10,1,100,-0.2681649355662652,-10,-1,-100,6479.978170595947,0.02699986940432339,0.007816368431081203,0.9996048776575166,155.70329230579384,16.433248118073504,157.97855495903244,-12.570346750491462,-85.08551025390625,4381.2578125,True
1599566990.0532088,0.0,10,0.5,0.5,-0.2589241903305054,-0.05075,-0.00825,-0.5,0.01832213531121306,10,1,100,-0.2619724065344513,-10,-1,-100,6479.696884013829,0.026671299686766004,0.007149037364312414,0.9996186938216903,156.09476255655653,16.475074708118623,160.82326396524294,-12.762178129239096,-85.1087646484375,4381.2578125,True
1599566990.116765,0.0,10,0.5,0.5,-0.13968078079223634,-0.05075,-0.00825,-0.5,-0.1324463533604801,10,1,100,-0.1702262581630934,-10,-1,-100,6478.917963671149,0.02553954435724732,0.005182205179542099,0.9996603805410623,157.6449393460531,16.640461845873048,169.84407476385456,-13.33763965469589,-85.3553466796875,4381.2578125,True
1599566990.185581,0.0,10,0.5,0.5,-0.01864940719604491,-0.05075,-0.00825,-0.5,-0.1571564625599265,10,1,100,-0.13228388965161542,-10,-1,-100,6478.07556590077,0.024168168557306118,0.0031808421376718367,0.9997028467859241,159.6388850356517,16.85351785284005,179.52263363063875,-13.913034540964134,-85.80557250976562,4381.2578125,True
1599566990.2519188,0.0,10,0.5,0.5,-0.14522518005371096,-0.05075,-0.00825,-0.5,-0.028015729591692864,10,1,100,-0.2151702573596379,-10,-1,-100,6477.793301820639,0.023678918249203772,0.00254755921705809,0.9997163691630657,160.3846611368924,16.93337042054743,182.886039030738,-14.104814428751435,-85.98880004882812,4381.2578125,True
1599566990.3167455,0.0,10,0.5,0.5,-0.1312028503417969,-0.05075,-0.00825,-0.5,-0.03616135600215308,10,1,100,-0.20694253524849676,-10,-1,-100,6477.512015688815,0.023163828938581415,0.0019099852900719904,0.9997298580041991,161.15870383048252,17.01636647478162,186.30708623250538,-14.296584042648794,-86.18389892578125,4381.2578125,True
1599566990.377585,0.0,10,0.5,0.5,0.10917609634399411,-0.05075,-0.00825,-0.5,-0.1827701471267393,10,1,100,-0.07423502162229792,-10,-1,-100,6476.669626112445,0.021494165368570912,9.293231391846533e-06,0.999768973697796,163.583015457703,17.27718868740427,196.848643435985,-14.871824162284845,-86.79916381835938,4381.2578125,True
1599566990.440415,0.0,10,0.5,0.5,-0.07678604202270509,-0.05075,-0.00825,-0.5,-0.06355207223022732,10,1,100,-0.17416894802875243,-10,-1,-100,6476.3248671009205,0.020891296755387347,-0.0006224364395758787,0.9997815592882062,164.41616691540403,17.36714382297831,200.44711099125735,-15.063545855821015,-87.019775390625,4381.2578125,True
1599566990.5102272,0.0,10,0.5,0.5,0.07253500289916989,-0.05075,-0.00825,-0.5,-0.1372401739272716,10,1,100,-0.09548748538109258,-10,-1,-100,6475.761814607191,0.019634755254544008,-0.0018553967183447704,0.9998054980290475,166.14069885692334,17.553813198524846,207.80059090191864,-15.446948784115682,-87.48928833007812,4381.2578125,True
1599566990.570069,0.0,10,0.5,0.5,0.0985802520751953,-0.05075,-0.00825,-0.5,-0.14171547083515837,10,1,100,-0.07935918281602328,-10,-1,-100,6475.074744593119,0.018353459426945867,-0.003005775624995708,0.9998270429629095,167.92430246444331,17.74759196784533,215.34536638712635,-15.830293543589828,-87.95965576171875,4381.2578125,True
1599566990.630906,0.0,10,0.5,0.5,0.2554422348022461,-0.05075,-0.00825,-0.5,-0.21851419099606664,10,1,100,0.024003536794703323,-10,-1,-100,6474.106892440934,0.01625711704818178,-0.00473929928820417,0.9998566123137551,170.59812838437364,18.03974532828721,226.88475338300753,-16.405194127056824,-88.66720581054688,4381.2578125,True
1599566990.690746,0.0,10,0.5,0.5,0.1562480323791504,-0.05075,-0.00825,-0.5,-0.16524710088046893,10,1,100,-0.02589715632699935,-10,-1,-100,6473.479894480901,0.014814760052553671,-0.005819569373961625,0.9998733197244974,172.3885124128763,18.23647059377745,234.73827377267534,-16.788378825127044,-89.12408447265625,4381.2578125,True
1599566990.7526083,0.0,10,0.5,0.5,0.16360345687866212,-0.05075,-0.00825,-0.5,-0.17064703572388124,10,1,100,-0.00755014268762641,-10,-1,-100,6472.7923566008685,0.013347514059474012,-0.006838933762555537,0.9998875301019728,174.15090663597127,18.431123692613493,242.67359372897386,-17.171494184058446,-89.54620361328125,4381.2578125,True
1599566990.8228018,0.0,10,0.5,0.5,0.2418516529083252,-0.05075,-0.00825,-0.5,-0.2264199050619976,10,1,100,0.09469675890952742,-10,-1,-100,6471.698074349086,0.011095220442425445,-0.008261726438040063,0.9999043154020273,176.64627266365085,18.708946313085235,254.58680451052808,-17.74603318790595,-90.06522369384766,4381.2578125,True
1599566990.88962,0.0,10,0.5,0.5,0.06695228328704834,-0.05075,-0.00825,-0.5,-0.13380481476498446,10,1,100,-0.04611646845759422,-10,-1,-100,6471.354312345036,0.01033968553764138,-0.008702816623438865,0.9999086717724782,177.43721925347828,18.79759697113643,258.55506759261607,-17.937509806033724,-90.21247100830078,4381.2578125,True
1599566991.4402404,0.0,10,0.5,0.5,0.0710269187927246,-0.05075,-0.00825,-0.5,-0.13754303619546177,10,1,100,-0.036826608847412845,-10,-1,-100,6471.010552386171,0.009580508930210185,-0.009127563917859845,0.9999124468800074,178.209596809069,18.884449960649242,262.5230945852409,-18.128968099322567,-90.34722137451172,4381.2578125,True
1599566991.497088,0.0,10,0.5,0.5,0.1282185338973999,-0.05075,-0.00825,-0.5,-0.18156506840096975,10,1,100,0.051420046482598195,-10,-1,-100,6470.260049234494,0.008100454529552971,-0.00990386397901269,0.9999181447072053,179.69695807533202,19.05254520182263,270.4525054723028,-18.511829245311077,-90.5671615600586,4381.2578125,True
1599566991.5529385,0.0,10,0.5,0.5,0.11825260047912597,-0.05075,-0.00825,-0.5,-0.18742164488725832,10,1,100,0.07478344534029983,-10,-1,-100,6469.5080863933545,0.006554732094648233,-0.010653820950653894,0.9999217627326246,181.09624724353267,19.21185560779184,278.3494631251382,-18.89461626227449,-90.74309539794922,4381.2578125,True
1599566991.6097863,0.0,10,0.5,0.5,0.11619346103668213,-0.05075,-0.00825,-0.5,-0.1877891412398169,10,1,100,0.09018779565447299,-10,-1,-100,6468.757594747352,0.005022523573388477,-0.011329821451249996,0.9999232017524334,182.4515458062656,19.367003132602758,286.2749979629517,-19.277328449852593,-90.89350128173828,4381.2578125,True
1599566991.6756105,0.0,10,0.5,0.5,0.10931064682006836,-0.05075,-0.00825,-0.5,-0.18745400038602372,10,1,100,0.1043808501791389,-10,-1,-100,6467.94411996915,0.003513862814456424,-0.011932707512454782,0.9999226286366077,183.7758930417014,19.519338047732653,294.24608132495,-19.659964976551493,-91.012451171875,4381.2578125,True
1599566991.7422285,0.0,10,0.5,0.5,0.09790693702697754,-0.05075,-0.00825,-0.5,-0.18793100995359474,10,1,100,0.12100021768895595,-10,-1,-100,6467.193638437544,0.0020047584168039383,-0.012477006807902999,0.9999201494343465,185.05290412177936,19.667071132265377,302.23328996428353,-20.042525310846525,-91.09516143798828,4381.2578125,True
1599566991.8000746,0.0,10,0.5,0.5,0.08435026416778565,-0.05075,-0.00825,-0.5,-0.18694678063280012,10,1,100,0.13541057325929207,-10,-1,-100,6466.379685013555,0.0005147987852362388,-0.012955842530376245,0.9999159370299778,186.27598073020212,19.809446966380648,310.22139378260516,-20.42500901835598,-91.14199829101562,4381.2578125,True
1599566991.862914,0.0,10,0.5,0.5,0.06609258823394776,-0.05075,-0.00825,-0.5,-0.20470340463651987,10,1,100,0.2276023415508655,-10,-1,-100,6465.097483056365,-0.0016648169904147764,-0.013546084066152635,0.999906861658055,188.0078021298662,20.0126658719645,322.1916950201897,-20.99859124872021,-91.14834594726562,4381.2578125,True
1599566991.922262,0.0,10,0.5,0.5,0.056735953712463386,-0.05075,-0.00825,-0.5,-0.16418175734967833,10,1,100,0.08921190535257688,-10,-1,-100,6464.690266331076,-0.0023745434291586307,-0.013708191259429342,0.999903218834652,188.55812205916558,20.077667627782066,326.1769325063951,-21.189747038360256,-91.13471984863281,4381.2578125,True
1599566991.9831,0.0,10,0.5,0.5,0.019815679550170898,-0.05075,-0.00825,-0.5,-0.1904713922206796,10,1,100,0.2445555187234443,-10,-1,-100,6463.407096136478,-0.004419718709686762,-0.014089606784125097,0.9998909685896736,190.13349562058954,20.264928320028925,338.1188503395762,-21.763099569494877,-91.0537109375,4381.2578125,True
1599566992.0439372,0.0,10,0.5,0.5,0.01602033023834229,-0.05075,-0.00825,-0.5,-0.1718389771768462,10,1,100,0.18622214456421368,-10,-1,-100,6462.469132049824,-0.005735247923039941,-0.014262065496940311,0.999881843229,191.12413753239431,20.383616516067825,346.0690195747121,-22.145238547878233,-90.97201538085938,4381.2578125,True
1599566992.1187375,0.0,10,0.5,0.5,0.031062930679321296,-0.05075,-0.00825,-0.5,-0.16213375949548914,10,1,100,0.12777864979664338,-10,-1,-100,6462.062895272858,-0.006385955658334692,-0.014325949164597186,0.9998769858091859,191.60387065421537,20.441343152234374,350.043328441806,-22.336279097735645,-90.92422485351562,4381.2578125,True
1599566992.1815693,0.0,10,0.5,0.5,-0.06274887828826904,-0.05075,-0.00825,-0.5,-0.16435562570303486,10,1,100,0.32320964531676044,-10,-1,-100,6460.246540241875,-0.008740984094978359,-0.014400203932366957,0.9998581045947258,193.4300481324655,20.662564346393367,365.9455806109205,-23.100247850538423,-90.70996856689453,4381.2578125,True
1599566992.2434034,0.0,10,0.5,0.5,0.044351935386657715,-0.05075,-0.00825,-0.5,-0.1573047872242291,10,1,100,0.08923637327135639,-10,-1,-100,6460.246540241875,-0.008740984094978359,-0.014400203932366957,0.9998581045947258,193.4300481324655,20.662564346393367,365.9455806109205,-23.100247850538423,-90.70996856689453,4381.2578125,True
1599566992.307233,0.0,10,0.5,0.5,-0.02115145931243896,-0.05075,-0.00825,-0.5,-0.15183132659681942,10,1,100,0.2143010116732406,-10,-1,-100,6459.308089173399,-0.00986542307347879,-0.01434765394258949,0.999848397635324,194.29816756974816,20.76846379320271,373.9143895320621,-23.48211486186216,-90.59130859375,4381.2578125,True
1599566992.3650777,0.0,10,0.5,0.5,-0.025045982933044428,-0.05075,-0.00825,-0.5,-0.14464909166643392,10,1,100,0.2107074725484876,-10,-1,-100,6458.369148602826,-0.010842808801992397,-0.01423239277394271,0.9998399234343525,195.1377773107718,20.871352783257166,381.894312734982,-23.863902969836396,-90.47714233398438,4381.2578125,True
1599566992.4438684,0.0,10,0.5,0.5,-0.06384299430847168,-0.05075,-0.00825,-0.5,-0.12565711849671868,10,1,100,0.27640214946207337,-10,-1,-100,6456.897990699508,-0.012316886011474822,-0.013953359786388191,0.9998267840329403,196.37213168380492,21.02307587408546,393.9363702884204,-24.436434227573535,-90.3039779663086,4381.2578125,True
1599566992.502711,0.0,10,0.5,0.5,-0.07108284587860107,-0.05075,-0.00825,-0.5,-0.10927275712636145,10,1,100,0.2714009972954262,-10,-1,-100,6455.365794071113,-0.013599826014219588,-0.013549837860466278,0.9998157063310908,197.54923690456397,21.168724763144,406.0059902760059,-25.00878280131211,-90.13488006591797,4381.2578125,True
1599566992.5635474,0.0,10,0.5,0.5,0.01262999496459961,-0.05075,-0.00825,-0.5,-0.14962532509798404,10,1,100,0.1443004979233301,-10,-1,-100,6455.365794071113,-0.013599826014219588,-0.013549837860466278,0.9998157063310908,197.54923690456397,21.168724763144,406.0059902760059,-25.00878280131211,-90.13488006591797,4381.2578125,True
1599566992.6273785,0.0,10,0.5,0.5,-0.044937182426452636,-0.05075,-0.00825,-0.5,-0.11297230482101393,10,1,100,0.22944244401052616,-10,-1,-100,6454.363370329724,-0.014363638903571315,-0.013216772542856517,0.9998094832521834,198.31530475773022,21.263852498038556,414.09134875843745,-25.39024549041649,-90.03185272216797,4381.2578125,True
1599566992.6872172,0.0,10,0.5,0.5,-0.041457959365844725,-0.05075,-0.00825,-0.5,-0.10511303142067702,10,1,100,0.2290787663401342,-10,-1,-100,6453.36143117398,-0.015045668169438517,-0.012843331436154824,0.999804319207992,199.07416183586005,21.358244782897636,422.2228139949197,-25.771624822855948,-89.9461669921875,4381.2578125,True
1599566992.7670043,0.0,10,0.5,0.5,-0.06331332511901855,-0.05075,-0.00825,-0.5,-0.06904607157775708,10,1,100,0.26478935062084463,-10,-1,-100,6451.766231671325,-0.015981872431645706,-0.01217724782609109,0.9997981268180895,200.19440668691615,21.498011640210425,434.4955849375434,-26.343535570670863,-89.83023071289062,4381.2578125,True
1599566992.828349,0.0,10,0.5,0.5,-0.04288820304870605,-0.05075,-0.00825,-0.5,-0.08143022741903364,10,1,100,0.22890945391192286,-10,-1,-100,6450.700809233473,-0.016498062775595398,-0.011686253871261579,0.9997956018082441,200.91657500111788,21.58862609340435,442.6989681506996,-26.72470359975034,-89.76370239257812,4381.2578125,True
1599566992.8971648,0.0,10,0.5,0.5,-0.026321468162536624,-0.05075,-0.00825,-0.5,-0.10142787719533704,10,1,100,0.20393120307813253,-10,-1,-100,6450.169561661431,-0.016733199827351008,-0.011424159773983969,0.9997947232292219,201.27503152001574,21.63368106000209,446.8170630714264,-26.915255580555744,-89.73480224609375,4381.2578125,True
1599566992.9615028,0.0,10,0.5,0.5,-0.04704735946655274,-0.05075,-0.00825,-0.5,-0.0367368388000147,10,1,100,0.24487791390669644,-10,-1,-100,6448.572883948102,-0.017311937958540895,-0.010600497558463559,0.9997939418978455,202.33787722976325,21.76765239722448,459.2316707144626,-27.48678190744461,-89.67239379882812,4381.2578125,True
1599566993.021702,0.0,10,0.5,0.5,-0.030333013916015627,-0.05075,-0.00825,-0.5,-0.05301798770190909,10,1,100,0.22115077481712214,-10,-1,-100,6447.445928386063,-0.01761559270891279,-0.010003130676538704,0.9997947930801508,203.03850507484472,21.856274174856118,467.5633186162538,-27.867690350437723,-89.6474609375,4381.2578125,True
1599566993.096505,0.0,10,0.5,0.5,-0.028467528533935547,-0.05075,-0.00825,-0.5,-0.010116557412937072,10,1,100,0.2249713423796485,-10,-1,-100,6445.723751850543,-0.01792021783808573,-0.009073901655886731,0.9997982446980863,204.06073328082616,21.98640653098058,480.10303585804587,-28.438887218490066,-89.62945556640625,4381.2578125,True
1599566993.155345,0.0,10,0.5,0.5,-0.02015578441619873,-0.05075,-0.00825,-0.5,-0.06682191366438697,10,1,100,0.2028179611063076,-10,-1,-100,6445.195915188058,-0.017990661460461115,-0.008749087110425846,0.9997998747624194,204.39708508278133,22.029398359802727,484.30128159365546,-28.629241636753726,-89.62921142578125,4381.2578125,True
1599566993.2201717,0.0,10,0.5,0.5,-0.016837266159057618,-0.05075,-0.00825,-0.5,-0.027008414107030088,10,1,100,0.20540470303628927,-10,-1,-100,6444.001568558044,-0.018074225284305624,-0.008096224573803653,0.9998038675300384,205.05980676361798,22.114450761751595,492.7166016233266,-29.009883075616315,-89.63577270507812,4381.2578125,True
1599566993.2879908,0.0,10,0.5,0.5,-0.012394812202453614,-0.05075,-0.00825,-0.5,-0.01772633963355695,10,1,100,0.19929858984069915,-10,-1,-100,6442.814055258874,-0.018090614641231552,-0.007423288511921596,0.9998087939449077,205.70805272750545,22.198148737757798,501.1532284221486,-29.390434020839262,-89.65054321289062,4381.2578125,True
1599566993.350824,0.0,10,0.5,0.5,-0.008447010040283205,-0.05075,-0.00825,-0.5,-0.008982805956755643,10,1,100,0.19273634085732566,-10,-1,-100,6441.625075073796,-0.01804246908791749,-0.006737308589540565,0.9998145217900073,206.33888493431212,22.28018575239175,509.6026301769632,-29.770893981678633,-89.67169189453125,4381.2578125,True
1599566993.4196403,0.0,10,0.5,0.5,-0.004759679412841798,-0.05075,-0.00825,-0.5,-0.0009617276610450615,10,1,100,0.18556322768587716,-10,-1,-100,6440.432186875492,-0.01793076591887474,-0.006046322514548271,0.9998209487791364,206.94925052440325,22.36024060470302,518.0555900430256,-30.151262416724922,-89.697998046875,4381.2578125,True
1599566993.482471,0.0,10,0.5,0.5,-0.0013823669433593762,-0.05075,-0.00825,-0.5,0.0075213839663919105,10,1,100,0.17819273323807944,-10,-1,-100,6439.255899120355,-0.017760441367049327,-0.005346607727316343,0.9998279754579075,207.54043246095847,22.438456825238344,526.5134657627347,-30.53153885949659,-89.72821044921875,4381.2578125,True
1599566993.5488682,0.0,10,0.5,0.5,-0.007593036651611332,-0.05075,-0.00825,-0.5,-0.023139209806974217,10,1,100,0.18359389584428096,-10,-1,-100,6438.591826402815,-0.017653554726726733,-0.0049949993606305965,0.9998316868287871,207.82833966721827,22.47682318799084,530.7424441975888,-30.721642596073195,-89.74441528320312,4381.2578125,True
1599566993.6126988,0.0,10,0.5,0.5,0.0030192871093749993,-0.05075,-0.00825,-0.5,0.019670532009798784,10,1,100,0.16639352565227616,-10,-1,-100,6437.399911603075,-0.017399181365688535,-0.004292020611139575,0.9998394106289656,208.38774910875284,22.55196025394984,539.1965839791512,-31.101780101522042,-89.77838134765625,4381.2578125,True
1599566993.6765544,0.0,10,0.5,0.5,0.00551961441040039,-0.05075,-0.00825,-0.5,0.02703874958558007,10,1,100,0.1581425261582884,-10,-1,-100,6436.145007289364,-0.017092844457156513,-0.003591700203592748,0.9998474555441,208.98044158121164,22.630941269188188,547.7884994892236,-31.48182397534658,-89.8135986328125,4381.2578125,True
1599566993.746367,0.0,10,0.5,0.5,0.018671402740478515,-0.05075,-0.00825,-0.5,0.07403516744238031,10,1,100,0.12748051411825284,-10,-1,-100,6434.23286445695,-0.01653608602017413,-0.0025336336984637625,0.9998600594880341,209.92077312406607,22.755434742271838,560.9127053879281,-32.051709739826826,-89.86920166015625,4381.2578125,True
1599566993.8141868,0.0,10,0.5,0.5,0.011690550994873046,-0.05075,-0.00825,-0.5,0.04499882900426688,10,1,100,0.1360255364464007,-10,-1,-100,6432.922782957205,-0.016108882309371412,-0.0018416674686542824,0.9998685474459518,210.52107913088759,22.83586464200311,569.6595098499861,-32.43151264779974,-89.90664672851562,4381.2578125,True
1599566993.8849974,0.0,10,0.5,0.5,0.02207228240966797,-0.05075,-0.00825,-0.5,0.08684673272307226,10,1,100,0.10050812948169492,-10,-1,-100,6430.947652219329,-0.015399340490008968,-0.0008384512437854077,0.9998810715840083,211.38342353551272,22.952835933993928,582.7754661807718,-33.00103450830331,-89.95907592773438,4381.2578125,True
1599566993.9535728,0.0,10,0.5,0.5,-0.003875592041015625,-0.05075,-0.00825,-0.5,-0.01274911243081339,10,1,100,0.1711948229385096,-10,-1,-100,6430.947652219329,-0.015399340490008968,-0.0008384512437854077,0.9998810715840083,211.38342353551272,22.952835933993928,582.7754661807718,-33.00103450830331,-89.95907592773438,4381.2578125,True
1599566994.0213919,0.0,10,0.5,0.5,0.013018428039550781,-0.05075,-0.00825,-0.5,0.060098297084754164,10,1,100,0.11360291507161985,-10,-1,-100,6429.634642333025,-0.01487822430408381,-0.0001821882820694629,0.9998892964968609,211.93448414094297,23.028520407387294,591.5181649096058,-33.380593979033236,-89.98928833007812,4381.2578125,True
1599566994.1011791,0.0,10,0.5,0.5,0.018910566329956056,-0.05075,-0.00825,-0.5,0.0977107502324715,10,1,100,0.073987482157447,-10,-1,-100,6427.601407793234,-0.014047218603826487,0.0007503866023720347,0.9999010513893078,212.72516113178443,23.138548629328238,604.6252819360896,-33.94974986377049,-90.02693939208984,4381.2578125,True
1599566994.1660058,0.0,10,0.5,0.5,0.006881945610046387,-0.05075,-0.00825,-0.5,0.03956071176035392,10,1,100,0.12363441596941585,-10,-1,-100,6426.880694973399,-0.013746625135805955,0.0010633664120114903,0.9999049452569226,212.97974122010774,23.174349091967507,608.993270747184,-34.139419662301336,-90.03878784179688,4381.2578125,True
1599566994.2308352,0.0,10,0.5,0.5,0.01920223407745361,-0.05075,-0.00825,-0.5,0.10296796415554012,10,1,100,0.05443984243267669,-10,-1,-100,6424.847462720587,-0.012847965692936246,0.0019184958296951174,0.9999156210157458,213.7128289478136,23.278704532386037,622.0801692818113,-34.70828156397419,-90.07144927978516,4381.2578125,True
1599566994.300647,0.0,10,0.5,0.5,0.012431694793701173,-0.05075,-0.00825,-0.5,0.07903929316783062,10,1,100,0.07388744370414532,-10,-1,-100,6423.406038349844,-0.012212167655553307,0.002472067841164396,0.999922372907888,214.1857308608053,23.34677936811584,630.816677375235,-35.08739967886669,-90.08831787109375,4381.2578125,True
1599566994.3714566,0.0,10,0.5,0.5,0.012203070831298828,-0.05075,-0.00825,-0.5,0.0815437097579174,10,1,100,0.06607510198190762,-10,-1,-100,6422.020768227521,-0.01156786361837587,0.002991933376544253,0.9999286138849999,214.64408410429525,23.413435173920206,639.5557027556918,-35.46641920885413,-90.10275268554688,4381.2578125,True
1599566994.435286,0.0,10,0.5,0.5,0.011010216903686525,-0.05075,-0.00825,-0.5,0.08364839209644202,10,1,100,0.058433709602050146,-10,-1,-100,6420.582764774328,-0.010917688181887479,0.00347768676307604,0.9999343527349887,215.09256999629207,23.47916939967887,648.3099349023694,-35.84533989640397,-90.1132583618164,4381.2578125,True
1599566994.4991152,0.0,10,0.5,0.5,0.009958923912048341,-0.05075,-0.00825,-0.5,0.08603418188343631,10,1,100,0.050268298416050045,-10,-1,-100,6419.145250855479,-0.010257496226878292,0.003935504912112577,0.9999396459648164,215.5333785347075,23.544207854822776,657.0851633383928,-36.22416175809964,-90.12052154541016,4381.2578125,True
1599566994.5579572,0.0,10,0.5,0.5,0.008999700927734375,-0.05075,-0.00825,-0.5,0.08727912372130703,10,1,100,0.04313262941005114,-10,-1,-100,6417.707738106372,-0.009597771445981307,0.004357768907598465,0.9999444447735178,215.9669326471589,23.608585120345687,665.8820040209079,-36.602884566552326,-90.12505340576172,4381.2578125,True
1599566994.6212966,0.0,10,0.5,0.5,0.008026221656799316,-0.05075,-0.00825,-0.5,0.0883279433706643,10,1,100,0.03605483827536504,-10,-1,-100,6416.204308714136,-0.008938952243072382,0.0047464561547148985,0.9999487818317333,216.39586550842643,23.67257807862392,674.7080227304867,-36.98150803709607,-90.12715148925781,4381.2578125,True
1599566994.7050748,0.0,10,0.5,0.5,0.007115842247009278,-0.05075,-0.00825,-0.5,0.088949839800491,10,1,100,0.02932282524789337,-10,-1,-100,6414.697462708922,-0.008284698656766286,0.005100384612911444,0.999952673802599,216.822149776185,23.736393168220594,683.5690782161946,-37.36003199924802,-90.12715148925781,4381.2578125,True
1599566994.7734003,0.0,10,0.5,0.5,0.006254741096496583,-0.05075,-0.00825,-0.5,0.08920099749105154,10,1,100,0.022906099653449447,-10,-1,-100,6413.197941554012,-0.007637582914399724,0.005419618669463417,0.99995614656879,217.24767042753012,23.80022893738269,692.4710223608259,-37.73845619328933,-90.12538146972656,4381.2578125,True
1599566994.8422208,0.0,10,0.5,0.5,0.006418404769897462,-0.05075,-0.00825,-0.5,0.07386945788606367,10,1,100,0.05175461161599727,-10,-1,-100,6412.473328591557,-0.007317382017080036,0.005566209058949783,0.9999577357254296,217.46112668814655,23.83226006280537,696.9404815667647,-37.92763072993468,-90.1239242553711,4381.2578125,True
1599566994.9050531,0.0,10,0.5,0.5,0.005078487968444825,-0.05075,-0.00825,-0.5,0.08893184230832145,10,1,100,0.013827754180407492,-10,-1,-100,6410.911797666806,-0.006687345445664709,0.005832310323551607,0.9999606310086313,217.88957364793995,23.896559897194216,705.9170042163578,-38.30590427381752,-90.12004089355469,4381.2578125,True
1599566994.9808505,0.0,10,0.5,0.5,0.004366846084594728,-0.05075,-0.00825,-0.5,0.08807364858392505,10,1,100,0.00855020821924421,-10,-1,-100,6409.345384596963,-0.006072207799501356,0.0060628607897916095,0.9999631843280447,218.32257505428692,23.96144655010734,714.95213016719,-38.6840767800201,-90.11515045166016,4381.2578125,True
1599566995.0496655,0.0,10,0.5,0.5,0.0018087446212768565,-0.05075,-0.00825,-0.5,0.09684943276345327,10,1,100,-0.03024379217336664,-10,-1,-100,6407.059731190209,-0.005165900808380075,0.006348967621688571,0.9999665014784127,218.9806696871583,24.05987171450574,728.6161091788817,-39.251144778511346,-90.10602569580078,4381.2578125,True
1599566995.1182525,0.0,10,0.5,0.5,0.0026299396514892588,-0.05075,-0.00825,-0.5,0.08449460632512502,10,1,100,-0.0036048400765601313,-10,-1,-100,6405.430820184061,-0.004589977619886238,0.00649369628829633,0.9999683815071175,219.42655669453765,24.126368284101716,737.805234737546,-39.62906207958063,-90.09922790527344,4381.2578125,True
1599566995.181084,0.0,10,0.5,0.5,0.004063381385803223,-0.05075,-0.00825,-0.5,0.07692906327037514,10,1,100,0.022380467229650643,-10,-1,-100,6404.645174052101,-0.004308393615459213,0.006553748312419093,0.9999692425907467,219.65331378577284,24.1600627376764,742.4296386637026,-39.81798212115548,-90.0956802368164,4381.2578125,True
1599566995.25393,0.0,10,0.5,0.5,0.002047627067565918,-0.05075,-0.00825,-0.5,0.08101946453019013,10,1,100,-0.008234575507588895,-10,-1,-100,6403.0235879090615,-0.0037794978616519388,0.006643146306346917,0.9999707915749673,220.11548955779404,24.228456832647996,751.7423956433936,-40.195744544432465,-90.08883666992188,4381.2578125,True
1599566995.322265,0.0,10,0.5,0.5,0.001804897689819336,-0.05075,-0.00825,-0.5,0.07871354055749659,10,1,100,-0.012463449494913223,-10,-1,-100,6401.454736513901,-0.003265528570655404,0.006701376648894318,0.9999722135510386,220.59437329656583,24.298760715947626,761.1593602194145,-40.57340284447769,-90.08223724365234,4381.2578125,True
1599566995.3880785,0.0,10,0.5,0.5,0.0014623357772827151,-0.05075,-0.00825,-0.5,0.07579739553925827,10,1,100,-0.015711641929024474,-10,-1,-100,6399.763815062819,-0.002773912396414286,0.006726025714231443,0.9999735326437938,221.0874839717165,24.37070305194292,770.6738092724987,-40.95095646042566,-90.07569122314453,4381.2578125,True
1599566995.4608855,0.0,10,0.5,0.5,-0.0004586246490478514,-0.05075,-0.00825,-0.5,0.07038318487775252,10,1,100,-0.04032355497785341,-10,-1,-100,6397.2867597764125,-0.002108253743260599,0.0066977360029775775,0.9999753474954213,221.85114735338334,24.481393793693535,785.1223674129294,-41.51708896059638,-90.06633758544922,4381.2578125,True
1599566995.5227184,0.0,10,0.5,0.5,0.0010558832168579102,-0.05075,-0.00825,-0.5,0.06696597356825723,10,1,100,-0.019217592572136986,-10,-1,-100,6395.6622450186405,-0.0017000085615102502,0.006639790601448184,0.9999765112999704,222.3808298997579,24.55754659360994,794.8912388472397,-41.89437778698189,-90.06068420410156,4381.2578125,True
1599566995.595525,0.0,10,0.5,0.5,-7.73559570312497e-05,-0.05075,-0.00825,-0.5,0.057000129821627554,10,1,100,-0.038142290864185344,-10,-1,-100,6393.122690004064,-0.0011619405694963752,0.006495538400958922,0.9999782287005026,223.20962860807884,24.675699680604453,809.7665244851759,-42.46010988326807,-90.0535888671875,4381.2578125,True
1599566995.6633432,0.0,10,0.5,0.5,0.002369219207763672,-0.05075,-0.00825,-0.5,0.06462261028650827,10,1,100,-0.0029867677721508133,-10,-1,-100,6392.277473092894,-0.000997406609298774,0.0064330923792154104,0.9999788100267406,223.4963614092811,24.716279569179132,814.7900652445552,-42.648633236998315,-90.05168914794922,4381.2578125,True
1599566996.223847,0.0,10,0.5,0.5,0.0023339038848876953,-0.05075,-0.00825,-0.5,0.06321766348933934,10,1,100,-0.003997739151317499,-10,-1,-100,6391.373663764796,-0.0008432530885723507,0.006363214450756661,0.9999793990008407,223.7885274705277,24.75748071788517,819.847415060959,-42.83712948139872,-90.04999542236328,4381.2578125,True
1599566996.280693,0.0,10,0.5,0.5,0.0016344673156738283,-0.05075,-0.00825,-0.5,0.05293333346906391,10,1,100,-0.01855642158388002,-10,-1,-100,6389.675906712655,-0.000574691545543041,0.006206182200310687,0.9999805763274225,224.38765653789625,24.841583399253327,830.0592521481225,-43.21404016817733,-90.04727172851562,4381.2578125,True
1599566996.34552,0.0,10,0.5,0.5,0.002373589706420899,-0.05075,-0.00825,-0.5,0.05866641242971214,10,1,100,-0.006167579389111815,-10,-1,-100,6388.772096283734,-0.00044682078644550963,0.006115805885082044,0.9999811984580312,224.69502805548166,24.88453163243004,835.215849951559,-43.402454341572195,-90.04621887207031,4381.2578125,True
1599566996.4093492,0.0,10,0.5,0.5,0.0018591627120971678,-0.05075,-0.00825,-0.5,0.04595942781899143,10,1,100,-0.01797334235621484,-10,-1,-100,6387.074338907609,-0.0002267600446822843,0.005918525686074306,0.999982459662961,225.32508624464015,24.972192979206692,845.6308662752613,-43.77920031596216,-90.04440307617188,4381.2578125,True
1599566996.4701855,0.0,10,0.5,0.5,0.0019950723648071295,-0.05075,-0.00825,-0.5,0.041173870013668075,10,1,100,-0.016511626055339828,-10,-1,-100,6385.2628123345785,-4.322291655727919e-05,0.00569633372567367,0.9999837748253044,225.9742300240639,25.06206236643982,856.178606644262,-44.155835257196415,-90.0430679321289,4381.2578125,True
1599566996.5399992,0.0,10,0.5,0.5,0.0020966897964477538,-0.05075,-0.00825,-0.5,0.036343139955857126,10,1,100,-0.01470051967855297,-10,-1,-100,6383.506460955017,0.00010423504590002841,0.0054513389819868295,0.9999851359087086,226.642715095822,25.15417361366952,866.8624048157761,-44.53235874578079,-90.04209899902344,4381.2578125,True
1599566996.6048255,0.0,10,0.5,0.5,0.0023769634246826174,-0.05075,-0.00825,-0.5,0.046451785819663305,10,1,100,-0.0067593599625719245,-10,-1,-100,6382.5987449279055,0.000163478880313831,0.005321672074426344,0.9999858264400491,226.98455178610843,25.201109093912347,872.2573762818756,-44.72057839758595,-90.04177856445312,4381.2578125,True
1599566996.6696532,0.0,10,0.5,0.5,0.0022816137313842774,-0.05075,-0.00825,-0.5,0.013108611806711266,10,1,100,-0.014826610778332458,-10,-1,-100,6379.935164992232,0.00028861034390277054,0.00490192427100684,0.9999879438485799,228.03845076827645,25.345220948777897,888.6505933468718,-45.285067708671846,-90.04135131835938,4381.2578125,True
1599566996.7329926,0.0,10,0.5,0.5,0.0025002965927124025,-0.05075,-0.00825,-0.5,0.03848149330157101,10,1,100,-0.0050450705298613185,-10,-1,-100,6379.02403032931,0.0003116352913562388,0.004752577796333689,0.9999886578795457,228.39987107087197,25.394435484231856,894.1880019288011,-45.47317394829566,-90.04138946533203,4381.2578125,True
1599566996.79383,0.0,10,0.5,0.5,0.002790502166748047,-0.05075,-0.00825,-0.5,0.0011262093264081813,10,1,100,-0.004681224482215721,-10,-1,-100,6376.249122343957,0.0003279197560072931,0.004278799292860822,0.9999907921302301,229.5129233524544,25.545445604055804,911.0174753023786,-46.03732108257388,-90.0419692993164,4381.2578125,True
1599566996.870143,0.0,10,0.5,0.5,0.002879140090942383,-0.05075,-0.00825,-0.5,0.011473900433958961,10,1,100,0.0006491213216056595,-10,-1,-100,6374.4200173354475,0.00029306128350505163,0.003944119929850818,0.9999921789859475,230.27865591675098,25.64889748932947,922.4200381020139,-46.4132748658367,-90.04267120361328,4381.2578125,True
1599566996.9344864,0.0,10,0.5,0.5,0.002988555145263672,-0.05075,-0.00825,-0.5,0.006758142715261074,10,1,100,0.004725046533756983,-10,-1,-100,6372.542572236736,0.00022328488441793155,0.003599194615599839,0.9999934979498514,231.06350740423193,25.754596933946164,933.972449454294,-46.7891122670214,-90.04351806640625,4381.2578125,True
1599566996.9933279,0.0,10,0.5,0.5,0.0030662536621093753,-0.05075,-0.00825,-0.5,0.0021149503665048724,10,1,100,0.009123324315455386,-10,-1,-100,6370.668545815744,0.00011914201775059966,0.003245785297278175,0.9999947253275807,231.86542128739427,25.862318819087513,945.6688168087077,-47.16483264418257,-90.04443359375,4381.2578125,True
1599566997.0691264,0.0,10,0.5,0.5,0.0031448589324951175,-0.05075,-0.00825,-0.5,-0.0027840321514326152,10,1,100,0.013776093667987203,-10,-1,-100,6368.706628879649,-1.8345730428351407e-05,0.0028825770037206886,0.9999958451979948,232.68332199526267,25.971949046338,957.5070027953078,-47.54043518620898,-90.04541015625,4381.2578125,True
1599566997.1489131,0.0,10,0.5,0.5,0.003170038986206055,-0.05075,-0.00825,-0.5,-0.0072393938664226595,10,1,100,0.018636282827931214,-10,-1,-100,6366.795005305437,-0.00018770759778530152,0.0025146443109706584,0.9999968206598696,233.51741533199672,26.083515357552645,969.490050367035,-47.915919043717224,-90.04634094238281,4381.2578125,True
1599566997.2237122,0.0,10,0.5,0.5,0.002959459495544434,-0.05075,-0.00825,-0.5,0.008758692039391485,10,1,100,0.01234746038103398,-10,-1,-100,6365.810629174928,-0.00028437046888234673,0.002328489634355035,0.9999972486309446,233.94025398363792,26.139994732062465,975.5354268637727,-48.10361631583779,-90.04679870605469,4381.2578125,True
1599566997.3219607,0.0,10,0.5,0.5,0.003410959053039551,-0.05075,-0.00825,-0.5,-0.0347753019549375,10,1,100,0.03932709502241788,-10,-1,-100,6362.856525264331,-0.0006171619343333484,0.0017663334823447793,0.9999982495870561,235.22964052258953,26.31196746891844,993.8804919584135,-48.66652797033521,-90.04802703857422,4381.2578125,True
1599566997.4093163,0.0,10,0.5,0.5,0.0034616443634033203,-0.05075,-0.00825,-0.5,-0.04218569060161935,10,1,100,0.05026687050576714,-10,-1,-100,6359.942950255936,-0.0010184424611241185,0.0011911473915402404,0.9999987719706684,236.54990602461507,26.48770793273207,1012.5424161825063,-49.22916730892013,-90.04922485351562,4381.2578125,True
1599566997.4821212,0.0,10,0.5,0.5,0.0031129421234130862,-0.05075,-0.00825,-0.5,-0.025704510567599034,10,1,100,0.042427393307060905,-10,-1,-100,6357.938067262527,-0.0013107867356683739,0.0008214532882812684,0.9999988035255987,237.44794844685723,26.607048206174575,1025.1661646578104,-49.60410772766608,-90.04966735839844,4381.2578125,True
1599566997.572868,0.0,10,0.5,0.5,0.002986758613586426,-0.05075,-0.00825,-0.5,-0.009471466480921679,10,1,100,0.030601346379510466,-10,-1,-100,6356.967363971868,-0.0014675698113426705,0.0006365146174774994,0.9999987205431767,237.89920490305224,26.667024061065845,1031.520017988082,-49.791531990002134,-90.0498275756836,4381.2578125,True
1599566997.6426804,0.0,10,0.5,0.5,0.0029719594955444338,-0.05075,-0.00825,-0.5,-0.011521051283788306,10,1,100,0.03277736154777468,-10,-1,-100,6355.933673369815,-0.0016282495729695694,0.0004530671318801794,0.999998571765731,238.35245986815855,26.727261028039486,1037.9042605676148,-49.978925394591364,-90.04993438720703,4381.2578125,True
1599566997.7194755,0.0,10,0.5,0.5,0.0030127855300903323,-0.05075,-0.00825,-0.5,-0.03402450508177389,10,1,100,0.05436903454533082,-10,-1,-100,6353.928303881898,-0.001968863373647738,8.489352208090195e-05,0.9999980581831676,239.26285743608645,26.848283533026493,1050.7553535345673,-50.35361957137309,-90.05009460449219,4381.2578125,True
1599566997.8142214,0.0,10,0.5,0.5,0.0030053327560424807,-0.05075,-0.00825,-0.5,-0.05779130520331937,10,1,100,0.08171806535123702,-10,-1,-100,6350.889244937804,-0.002525146974083343,-0.0004626767596656556,0.9999967047760584,240.6452445806008,27.031992870528214,1070.2720072700627,-50.9154277101968,-90.05021667480469,4381.2578125,True
1599566997.905978,0.0,10,0.5,0.5,0.002953270530700684,-0.05075,-0.00825,-0.5,-0.023256174632629956,10,1,100,0.04797381878451895,-10,-1,-100,6349.856531852274,-0.0027216895611529702,-0.0006431408632863098,0.9999960893802349,241.1121817948059,27.09399875743862,1076.8497702797079,-51.10263452803482,-90.05022430419922,4381.2578125,True
1599566997.9757893,0.0,10,0.5,0.5,0.0028231689453125,-0.05075,-0.00825,-0.5,-0.06286564658025182,10,1,100,0.09508211570712552,-10,-1,-100,6346.753999066888,-0.003326164299757487,-0.001164080049858915,0.9999937907550668,242.52565507293374,27.281686195961026,1096.7770541519367,-51.66406602012249,-90.04998779296875,4381.2578125,True
1599566998.0396187,0.0,10,0.5,0.5,0.002835184097290039,-0.05075,-0.00825,-0.5,-0.048758779726146444,10,1,100,0.08115032565969549,-10,-1,-100,6344.685645244899,-0.0037461810101468,-0.0015060725895595713,0.9999918489033769,243.47117683935844,27.407380812458943,1110.1919539288926,-52.03819521344708,-90.04978942871094,4381.2578125,True
1599566998.1104298,0.0,10,0.5,0.5,0.002672114562988281,-0.05075,-0.00825,-0.5,-0.06916820111223534,10,1,100,0.1124180883904349,-10,-1,-100,6341.521592761506,-0.004409119671197202,-0.0019990291271392356,0.9999882817044778,244.8962804995992,27.597013872892045,1130.5206850629318,-52.599149758155555,-90.04930877685547,4381.2578125,True
1599566998.1772518,0.0,10,0.5,0.5,0.0029134979248046874,-0.05075,-0.00825,-0.5,-0.020249083615217316,10,1,100,0.04650341805908105,-10,-1,-100,6341.521592761506,-0.004409119671197202,-0.0019990291271392356,0.9999882817044778,244.8962804995992,27.597013872892045,1130.5206850629318,-52.599149758155555,-90.04930877685547,4381.2578125,True
1599566998.2560403,0.0,10,0.5,0.5,0.002707674598693848,-0.05075,-0.00825,-0.5,-0.05517129846858361,10,1,100,0.09648919730538408,-10,-1,-100,6339.455193779548,-0.004860453412336254,-0.002313603647152857,0.9999855115104371,245.8491846471987,27.72397571901935,1144.2042377840833,-52.972959017370904,-90.04893493652344,4381.2578125,True
1599566998.3218648,0.0,10,0.5,0.5,0.0025914545059204106,-0.05075,-0.00825,-0.5,-0.05622869005253456,10,1,100,0.10092616931544926,-10,-1,-100,6337.3233664567815,-0.005307865952848105,-0.002606343082532581,0.999982516614547,246.80020287023936,27.850905519392395,1157.974085474687,-53.346639212483275,-90.04838562011719,4381.2578125,True
1599566998.3876886,0.0,10,0.5,0.5,0.0027220588684082033,-0.05075,-0.00825,-0.5,-0.06025617344650712,10,1,100,0.10972503297483209,-10,-1,-100,6335.130992521881,-0.00579110311736099,-0.00290613527491389,0.999979008530903,247.74684928146766,27.97752525812471,1171.8187687000514,-53.72018974252205,-90.04812622070312,4381.2578125,True
1599566998.45139,0.0,10,0.5,0.5,0.0025393270492553716,-0.05075,-0.00825,-0.5,-0.06020755874979981,10,1,100,0.11305362692675941,-10,-1,-100,6333.000631483621,-0.00625688516325896,-0.0031751778594661098,0.9999753845138463,248.69969117335933,28.105034296903728,1185.7887724523653,-54.093610040139524,-90.04756164550781,4381.2578125,True
1599566998.5401518,0.0,10,0.5,0.5,0.002584219169616699,-0.05075,-0.00825,-0.5,-0.06228537955524116,10,1,100,0.11951021962034865,-10,-1,-100,6330.808259324054,-0.006735121482390098,-0.00343568760603437,0.9999714166861426,249.64953749800466,28.232398278785027,1199.8412348280503,-54.46689941303499,-90.04713439941406,4381.2578125,True
1599566998.6099663,0.0,10,0.5,0.5,0.002349899101257324,-0.05075,-0.00825,-0.5,-0.08855157501327579,10,1,100,0.17767798871139956,-10,-1,-100,6326.422052479582,-0.007694852423784043,-0.003908595506309132,0.999962755370091,251.53527366661652,28.486144361776024,1228.170085789699,-55.21308312961659,-90.04632568359375,4381.2578125,True
1599566998.679813,0.0,10,0.5,0.5,0.0025661575317382818,-0.05075,-0.00825,-0.5,-0.06475936873067316,10,1,100,0.13469117296767866,-10,-1,-100,6324.228217332275,-0.008172024806596866,-0.00411925039976887,0.9999581240165533,252.46829250942443,28.612208724834876,1242.4323648446607,-55.58597656544309,-90.04598999023438,4381.2578125,True
1599566998.7475982,0.0,10,0.5,0.5,0.00260885124206543,-0.05075,-0.00825,-0.5,-0.05419805067103255,10,1,100,0.11218888178680866,-10,-1,-100,6323.069531950052,-0.008396846270685305,-0.0042120563475083455,0.9999558748034996,252.93169116804134,28.674966659526095,1249.5846630247684,-55.7723733751559,-90.04576873779297,4381.2578125,True
1599566998.8194063,0.0,10,0.5,0.5,0.0025186716079711917,-0.05075,-0.00825,-0.5,-0.07379958230811713,10,1,100,0.16543065642637717,-10,-1,-100,6319.716035652789,-0.00908101767543402,-0.004472161147828684,0.9999487661338686,254.29523908376683,28.860533963824263,1271.05445968907,-56.331364480278495,-90.04541015625,4381.2578125,True
1599566998.8852303,0.0,10,0.5,0.5,0.002673736572265625,-0.05075,-0.00825,-0.5,-0.056728364193833015,10,1,100,0.12256754516201213,-10,-1,-100,6318.61985047441,-0.009309079851889317,-0.004551178863425782,0.9999463124604561,254.7425848859909,28.92168235776686,1278.2232461683518,-56.51762815972181,-90.04537200927734,4381.2578125,True
1599566998.9530492,0.0,10,0.5,0.5,0.0026643508911132815,-0.05075,-0.00825,-0.5,-0.05719735650931314,10,1,100,0.12500964949034413,-10,-1,-100,6317.4601894713705,-0.009534155542396523,-0.004624956580712702,0.9999438532511311,255.18819182198516,28.982687027786746,1285.407179397426,-56.703858404357796,-90.04532623291016,4381.2578125,True
1599566999.0128899,0.0,10,0.5,0.5,0.002629637336730957,-0.05075,-0.00825,-0.5,-0.06387328912524894,10,1,100,0.14935114149795767,-10,-1,-100,6315.205319461995,-0.00995580727735405,-0.004750616299360628,0.9999391549220544,256.07249474738774,29.10407542557757,1299.8117535537942,-57.07621831045342,-90.04522705078125,4381.2578125,True
1599566999.0777159,0.0,10,0.5,0.5,0.0027522565841674807,-0.05075,-0.00825,-0.5,-0.06431449268134487,10,1,100,0.15558109852347346,-10,-1,-100,6312.886485229945,-0.010391537608161486,-0.004866914009353408,0.9999341623797858,256.94121732456796,29.22391344725808,1314.2321760838038,-57.448444211804826,-90.04536437988281,4381.2578125,True
1599566999.1535132,0.0,10,0.5,0.5,0.0028241777420043948,-0.05075,-0.00825,-0.5,-0.06359168656268384,10,1,100,0.15896535712497678,-10,-1,-100,6310.568139186595,-0.010814239864826639,-0.0049642857094186164,0.9999292015355593,257.80112061783086,29.342972890324734,1328.7019223908471,-57.82053568617373,-90.04562377929688,4381.2578125,True
