Timestamp,Input Throttle,horizon,dT,dt,Input Roll,Roll P,Roll I,Roll D,Input Pitch,Pitch P,Pitch I,Pitch D,Input Yaw,Yaw P,Yaw I,Yaw D,Altitude,Direction X,Direction Y,Direction Z,Drag X,Drag Y,Drag Z,Vertical Velocity,Roll,Mass,Has Fuel
1599568365.3367364,0.0,10,0.5,0.5,-5.4333600921630865,-0.1005,-0.001,-0.5,-0.0686166477514876,10,1,100,0.681568460545946,-10,-1,-100,6483.617967106868,-0.0672575428195665,-0.007002813477973904,0.9977110721733357,205.07327475932925,21.498783016206183,-156.7652821752552,9.590824219583993,-35.944610595703125,4381.2578125,True
1599568365.4015636,0.0,10,0.5,0.5,-5.439988012695313,-0.1005,-0.001,-0.5,-0.06731680033635339,10,1,100,0.6999205188916581,-10,-1,-100,6483.997882986208,-0.06744499133242138,-0.006971798788963149,0.9976986354434969,204.61208956738045,21.45673581934605,-150.26667754127652,9.210801802178883,-35.941253662109375,4381.2578125,True
1599568365.5093122,0.0,10,0.5,0.5,-5.4200568054199225,-0.1005,-0.001,-0.5,-0.052158843174429724,10,1,100,0.7006921747340431,-10,-1,-100,6484.3167601035675,-0.06756110049600893,-0.00679946600767319,0.9976919689772884,204.14954271325107,21.41436388520115,-143.7894086006335,8.830798236166562,-35.98065185546875,4381.2578125,True
1599568365.5921571,0.0,10,0.5,0.5,-5.27945590209961,-0.1005,-0.001,-0.5,-0.0342442822074117,10,1,100,0.6997049972108785,-10,-1,-100,6484.697141026147,-0.06759626075769974,-0.006473758864975179,0.9976917539890441,203.7562031032201,21.378927977927958,-137.38124962607242,8.450805902286783,-36.256591796875,4381.2578125,True
1599568365.6649766,0.0,10,0.5,0.5,-5.085697018432618,-0.1005,-0.001,-0.5,-0.015479709003328658,10,1,100,0.6975524079842066,-10,-1,-100,6485.01695017633,-0.06754720449285101,-0.006001189198062618,0.997698030915873,203.44630082931624,21.351641870053896,-131.04517295075763,8.070816522747611,-36.817962646484375,4381.2578125,True
1599568365.7377803,0.0,10,0.5,0.5,-5.137368569946289,-0.1005,-0.001,-0.5,-0.028515704421053722,10,1,100,0.7013678540810409,-10,-1,-100,6485.175624187337,-0.0674758872125117,-0.005684633832668643,0.9977047106148557,203.31705617373356,21.340381426171035,-127.89832193094509,7.880820614480372,-37.20819091796875,4381.2578125,True
1599568365.8065958,0.0,10,0.5,0.5,-4.370342605590821,-0.1005,-0.001,-0.5,0.0786221014485669,10,1,100,0.6680701350916833,-10,-1,-100,6485.5900819769595,-0.06704700506937952,-0.004417708325466052,0.9977400377675427,202.97208038402718,21.30946803776146,-118.49825652364662,7.310815963730752,-38.8192138671875,4381.2578125,True
1599568365.8744164,0.0,10,0.5,0.5,-4.770290853881836,-0.1005,-0.001,-0.5,0.009602812815198918,10,1,100,0.6938708808689494,-10,-1,-100,6485.750194776105,-0.06683071262353507,-0.0038893898443802546,0.9977567481590234,202.849235168877,21.297718629295826,-115.36478025789334,7.120805396035234,-39.50311279296875,4381.2578125,True
1599568365.940279,0.0,10,0.5,0.5,-4.163615078735352,-0.1005,-0.001,-0.5,0.09017196065510141,10,1,100,0.6621282889602853,-10,-1,-100,6486.005458232015,-0.06628475891666723,-0.002673117708626434,0.9977971663504938,202.54219580990429,21.26672952332717,-109.07206612961596,6.7407640578258885,-41.09124755859375,4381.2578125,True
1599568366.0110486,0.0,10,0.5,0.5,-3.2008036834716798,-0.1005,-0.001,-0.5,0.20422524968732164,10,1,100,0.5959191794935557,-10,-1,-100,6486.420286766253,-0.06512627749807468,-0.0005281375779131165,0.997876890728482,201.76895487186965,21.184553922891023,-99.50403180664605,6.170633266013367,-44.02508544921875,4381.2578125,True
1599568366.0783765,0.0,10,0.5,0.5,-3.277048254394531,-0.1005,-0.001,-0.5,0.17126177531874853,10,1,100,0.6083928186719425,-10,-1,-100,6486.675487503759,-0.06412730358506853,0.0011226565353646102,0.9979410947431777,200.89559996369408,21.090223721851537,-92.99229451369882,5.790481457473834,-46.348602294921875,4381.2578125,True
1599568366.1432035,0.0,10,0.5,0.5,-2.86550378112793,-0.1005,-0.001,-0.5,0.20099956352078852,10,1,100,0.575279867061147,-10,-1,-100,6486.868653730606,-0.06292096432154162,0.0028863351947144176,0.9980143392346581,199.59739725032853,20.94979100372147,-86.34446888787245,5.410257532505613,-48.96685791015625,4381.2578125,True
1599568366.2120197,0.0,10,0.5,0.5,-3.3208125488281253,-0.1005,-0.001,-0.5,0.126937083536454,10,1,100,0.6204625473992429,-10,-1,-100,6486.965228439425,-0.062239156655055194,0.0038074222179169492,0.9980540020033596,198.7476934437357,20.85798625744954,-82.96434986225327,5.220112600696837,-50.38653564453125,4381.2578125,True
1599568366.2738945,0.0,10,0.5,0.5,-2.191572338867188,-0.1005,-0.001,-0.5,0.24885406135229166,10,1,100,0.5207153616770568,-10,-1,-100,6487.157874285476,-0.06071737703699398,0.005743467593494511,0.9981384737128162,196.555702338045,20.621723251553036,-76.08673492414191,4.839743714911547,-53.44671630859375,4381.2578125,True
1599568366.3367608,0.0,10,0.5,0.5,-1.7049663482666015,-0.1005,-0.001,-0.5,0.27495728020621,10,1,100,0.48030366480406717,-10,-1,-100,6487.351967061404,-0.05897281548874816,0.007729704264092943,0.9982296623048825,193.5816566432675,20.30244984617492,-69.05769861196109,4.459246133201702,-56.802215576171875,4381.2578125,True
1599568366.4005578,0.0,10,0.5,0.5,1.180960314941406,-0.1005,-0.001,-0.5,0.5313159441161551,10,1,100,0.19544788070495545,-10,-1,-100,6487.675171819981,-0.054805047306718306,0.01185342464248906,0.9984267139424672,184.6336872423676,19.348840065016518,-54.636875411694575,3.6977337967656863,-64.398681640625,4381.2578125,True
1599568366.4766848,0.0,10,0.5,0.5,-2.6145536682128907,-0.1005,-0.001,-0.5,0.12069771212405926,10,1,100,0.6109576149173612,-10,-1,-100,6487.675171819981,-0.054805047306718306,0.01185342464248906,0.9984267139424672,184.6336872423676,19.348840065016518,-54.636875411694575,3.6977337967656863,-64.398681640625,4381.2578125,True
1599568366.5330818,0.0,10,0.5,0.5,2.479921011352539,-0.1005,-0.001,-0.5,0.551906048850384,10,1,100,0.06508783822233366,-10,-1,-100,6487.934873946942,-0.049853723843820474,0.015758708491848416,0.9986321992233043,170.9194869513696,17.900209317974127,-40.16131604332085,2.935275465522283,-72.87814331054688,4381.2578125,True
1599568366.5944946,0.0,10,0.5,0.5,-0.5388141632080079,-0.1005,-0.001,-0.5,0.2729748236729057,10,1,100,0.4138195827160478,-10,-1,-100,6487.969406009652,-0.048538242908201405,0.01675536621843782,0.9986807781660115,166.9574341983861,17.483465103861416,-36.68259538790823,2.744470089729054,-74.9058837890625,4381.2578125,True
1599568366.653337,0.0,10,0.5,0.5,0.8872595306396485,-0.1005,-0.001,-0.5,0.3722257129743842,10,1,100,0.23163706203630302,-10,-1,-100,6488.100484329741,-0.04570227961146681,0.01854603725087157,0.9987829324435838,158.71470259940185,16.617781409050867,-30.023897963030183,2.3626605773799394,-78.96343994140625,4381.2578125,True
1599568366.7215528,0.0,10,0.5,0.5,1.2059008117675782,-0.1005,-0.001,-0.5,0.3763141384403002,10,1,100,0.19122082732540224,-10,-1,-100,6488.167119042715,-0.042774369024233184,0.020193747352929867,0.9988806564962728,150.06649748556757,15.710841620278304,-23.80071397940276,1.9806564739643795,-82.86672973632812,4381.2578125,True
1599568366.7806537,0.0,10,0.5,0.5,1.6133968322753907,-0.1005,-0.001,-0.5,0.38189473195747803,10,1,100,0.14370269272822822,-10,-1,-100,6488.234736957122,-0.039700060843647245,0.021725060940577603,0.998975438585023,146.05430787020157,15.29032496111899,-18.697438830463543,1.5985447356521778,-86.78927612304688,4381.2578125,True
1599568366.8414917,0.0,10,0.5,0.5,0.794231625366211,-0.1005,-0.001,-0.5,0.3071711212748713,10,1,100,0.2771618289822725,-10,-1,-100,6488.269283146365,-0.03813961001222215,0.02242073253610106,0.9990208610938315,148.87267051546402,15.585291796829226,-16.78108945819797,1.4074691036634386,-88.68490600585938,4381.2578125,True
1599568366.9015453,0.0,10,0.5,0.5,3.0208903694152833,-0.1005,-0.001,-0.5,0.44561250032225497,10,1,100,-0.09930812210261508,-10,-1,-100,6488.307024154696,-0.033320472925284755,0.024294798059445708,0.9991493926692275,156.02747832761065,16.33282121297033,-10.426444172201089,0.8342510464406576,-93.96491241455078,4381.2578125,True
1599568366.965375,0.0,10,0.5,0.5,1.3549238784790039,-0.1005,-0.001,-0.5,0.32002694429209444,10,1,100,0.19951328345456412,-10,-1,-100,6488.341097357916,-0.031680903718690305,0.024839942270879427,0.9991893202029065,157.93553377636567,16.531474289899176,-8.137369288720492,0.6431928749724154,-95.58020782470703,4381.2578125,True
1599568367.0302012,0.0,10,0.5,0.5,3.231037326812744,-0.1005,-0.001,-0.5,0.42229953604701237,10,1,100,-0.18964267100680765,-10,-1,-100,6488.317852501641,-0.026677415682837477,0.02624972398994862,0.9992993883131004,163.34750525441947,17.093429177936482,-0.9167399848184121,0.07004793737031578,-100.04296112060547,4381.2578125,True
1599568367.5987136,0.0,10,0.5,0.5,1.8139954010009767,-0.1005,-0.001,-0.5,0.3248766716078938,10,1,100,0.12799528699642732,-10,-1,-100,6488.3504800966475,-0.02504197856993148,0.02663259378570366,0.9993315787352809,164.8742476833709,17.251580527475838,1.5985210271560208,-0.12100449210165154,-101.39311981201172,4381.2578125,True
1599568367.651539,0.0,10,0.5,0.5,2.632416452026367,-0.1005,-0.001,-0.5,0.36236279547268296,10,1,100,-0.08919414584716984,-10,-1,-100,6488.3552013024455,-0.02160782550392677,0.027308004572303406,0.9993935034626106,168.10144960626724,17.5865392895963,6.777676991543224,-0.5031445505906356,-103.87405395507812,4381.2578125,True
1599568367.7123792,0.0,10,0.5,0.5,3.2986832679748535,-0.1005,-0.001,-0.5,0.37494287104658636,10,1,100,-0.2886999620914987,-10,-1,-100,6488.2685750599485,-0.01669785702201031,0.028025879341629156,0.9994677241702209,173.3950475502312,18.13796206743332,14.960076337795414,-1.0764598878566756,-107.04413604736328,4381.2578125,True
1599568367.7702594,0.0,10,0.5,0.5,2.7647256149291994,-0.1005,-0.001,-0.5,0.33779072937970167,10,1,100,-0.16039908201866399,-10,-1,-100,6488.210360816098,-0.013429566753554018,0.02833050010484162,0.9995083939120378,176.1250385668851,18.423058065055844,20.595075601477628,-1.4587648744527693,-108.78913116455078,4381.2578125,True
1599568367.830063,0.0,10,0.5,0.5,2.352732689666748,-0.1005,-0.001,-0.5,0.3198268392112725,10,1,100,-0.011926710873818164,-10,-1,-100,6488.182971195667,-0.011837481440690453,0.028435225012727258,0.9995255434513003,177.25934794246612,18.541758636730098,23.44588199913132,-1.649949870370992,-109.55103302001953,4381.2578125,True
1599568367.975674,0.0,10,0.5,0.5,2.7564947860717774,-0.1005,-0.001,-0.5,0.32537214801884146,10,1,100,-0.19347460497993274,-10,-1,-100,6488.12430138723,-0.008767820198562119,0.028573349120274105,0.9995532447293723,179.16231564802376,18.741309906099765,29.19446760369208,-2.0323858185582653,-110.85335540771484,4381.2578125,True
1599568368.0465178,0.0,10,0.5,0.5,3.287972280883789,-0.1005,-0.001,-0.5,0.29310896320514374,10,1,100,-0.7094148083378928,-10,-1,-100,6487.853683059337,-0.001314973803050437,0.028399389094119716,0.9995957910790633,182.10299126182437,19.05233475137787,43.65483255791722,-2.98885043951538,-112.81877136230469,4381.2578125,True
1599568368.108319,0.0,10,0.5,0.5,2.4108428131103516,-0.1005,-0.001,-0.5,0.29831010552824416,10,1,100,-0.12486780710337306,-10,-1,-100,6487.7628522318555,0.00011280051236530168,0.02828309158550026,0.9995999469819966,182.4266486515127,19.08731362395253,46.535993128997625,-3.180204059427972,-112.99057006835938,4381.2578125,True
1599568368.1771362,0.0,10,0.5,0.5,2.369742155456543,-0.1005,-0.001,-0.5,0.26563855495731264,10,1,100,-0.42207441888186376,-10,-1,-100,6487.549950397923,0.004082261566695298,0.02787672676017769,0.9996030328313533,182.93305383672381,19.144663864684237,55.10404472071751,-3.7543722969334214,-113.06200408935547,4381.2578125,True
1599568368.2359986,0.0,10,0.5,0.5,2.1426514030456545,-0.1005,-0.001,-0.5,0.26599446525034465,10,1,100,-0.3045887292783302,-10,-1,-100,6487.428378007142,0.006590298833067366,0.02750777902664901,0.999599864973136,182.8837278533628,19.143337748798405,60.71760113210471,-4.137230837879042,-112.74040222167969,4381.2578125,True
1599568368.2958527,0.0,10,0.5,0.5,1.933991032409668,-0.1005,-0.001,-0.5,0.25690983172200904,10,1,100,-0.31588183809793247,-10,-1,-100,6487.244803199195,0.008942753960387535,0.027088640732241067,0.9995930335365907,182.5511119878551,19.11319041338401,66.22855083576076,-4.520142738498288,-112.12303161621094,4381.2578125,True
1599568368.3576887,0.0,10,0.5,0.5,1.9916366363525393,-0.1005,-0.001,-0.5,0.2755774222953019,10,1,100,-0.2030319262310039,-10,-1,-100,6487.152042552247,0.010024546029588048,0.02687689669985784,0.9995884857783656,182.25346106116478,19.084699150731268,68.92786533013413,-4.711615911736805,-111.70319366455078,4381.2578125,True
1599568368.4204845,0.0,10,0.5,0.5,1.5652098220825197,-0.1005,-0.001,-0.5,0.24292977523950343,10,1,100,-0.33045948295438776,-10,-1,-100,6486.905000375467,0.012137668997679717,0.026387997249795323,0.9995780862906346,181.4357458456981,19.005132974966692,74.2103925393507,-5.094591558634033,-110.64219665527344,4381.2578125,True
1599568368.4793656,0.0,10,0.5,0.5,0.8074295486450196,-0.1005,-0.001,-0.5,0.20169635648113632,10,1,100,-0.43923785789499137,-10,-1,-100,6486.628681119531,0.01502137008084155,0.025570182926564093,0.9995601653657457,179.68777272232094,18.83299039258536,81.80821093167134,-5.669115067192725,-108.49625396728516,4381.2578125,True
1599568368.5431957,0.0,10,0.5,0.5,0.19236790084838873,-0.1005,-0.001,-0.5,0.18135919470504147,10,1,100,-0.435448185678314,-10,-1,-100,6486.2283410780365,0.017582600466442153,0.024644341450369638,0.9995416492549548,177.31714840494732,18.59771551927253,88.93914101077937,-6.24369680595383,-105.68525695800781,4381.2578125,True
1599568368.6050632,0.0,10,0.5,0.5,1.5974798278808595,-0.1005,-0.001,-0.5,0.27356425396825124,10,1,100,-0.18226715530896698,-10,-1,-100,6486.2283410780365,0.017582600466442153,0.024644341450369638,0.9995416492549548,177.31714840494732,18.59771551927253,88.93914101077937,-6.24369680595383,-105.68525695800781,4381.2578125,True
1599568368.6648698,0.0,10,0.5,0.5,0.267063882446289,-0.1005,-0.001,-0.5,0.20112159247472172,10,1,100,-0.34913651796223916,-10,-1,-100,6485.979836832499,0.019075639744503714,0.02398934362558292,0.9995302053268583,175.0806510735509,18.37301151571572,93.22589958341466,-6.626784957424872,-103.4706039428711,4381.2578125,True
1599568368.7247097,0.0,10,0.5,0.5,-0.7944780738830566,-0.1005,-0.001,-0.5,0.14621366551735512,10,1,100,-0.42281571159878584,-10,-1,-100,6485.579485269613,0.0210842221089396,0.02289873721749942,0.9995154343039957,171.07322242446642,17.968166098158267,99.02568709474531,-7.201484736415473,-99.86038970947266,4381.2578125,True
1599568368.7836683,0.0,10,0.5,0.5,-0.5884514122009277,-0.1005,-0.001,-0.5,0.16780158964473818,10,1,100,-0.35233543481336116,-10,-1,-100,6485.268958423985,0.022250411358926022,0.022108425569825178,0.9995079472986605,168.14209213785995,17.67095035163865,102.53215614277708,-7.584677214523543,-97.19966125488281,4381.2578125,True
1599568368.8444724,0.0,10,0.5,0.5,-1.6820196449279785,-0.1005,-0.001,-0.5,0.10779509943331286,10,1,100,-0.3963796245298978,-10,-1,-100,6484.803644169238,0.023694468629252893,0.02084969079837232,0.9995018071769504,163.1080088132427,17.156608243913663,107.04107586183116,-8.159589357020177,-93.16577911376953,4381.2578125,True
1599568368.9078474,0.0,10,0.5,0.5,0.33296396331787115,-0.1005,-0.001,-0.5,0.23300276775577095,10,1,100,-0.25368431447682926,-10,-1,-100,6484.803644169238,0.023694468629252893,0.02084969079837232,0.9995018071769504,163.1080088132427,17.156608243913663,107.04107586183116,-8.159589357020177,-93.16577911376953,4381.2578125,True
1599568368.966222,0.0,10,0.5,0.5,-1.1572895576477051,-0.1005,-0.001,-0.5,0.13097519955714,10,1,100,-0.34520669941189874,-10,-1,-100,6484.430598946405,0.02451307966078183,0.019927839223779192,0.9995008705095836,159.90161402271158,16.827561218113768,109.89539552619046,-8.542960354703993,-90.68724822998047,4381.2578125,True
1599568369.0230708,0.0,10,0.5,0.5,-1.2655651290893555,-0.1005,-0.001,-0.5,0.11838490668759621,10,1,100,-0.33604684646339616,-10,-1,-100,6484.059499194962,0.025160828722975207,0.01898165245485875,0.9995031913746228,156.7784226393239,16.50525484322142,112.61509658295624,-8.926411859209436,-88.44671630859375,4381.2578125,True
1599568369.0819142,0.0,10,0.5,0.5,-1.440239373779297,-0.1005,-0.001,-0.5,0.09573518877461673,10,1,100,-0.3361791105562819,-10,-1,-100,6483.74747360812,0.02573905467151788,0.017922309179172112,0.9995080249294164,153.8293939331311,16.19901999474806,115.27590836521645,-9.309939495769871,-86.29397583007812,4381.2578125,True
1599568369.1387613,0.0,10,0.5,0.5,-2.1255133125305177,-0.1005,-0.001,-0.5,0.020067693898747768,10,1,100,-0.34192916580088223,-10,-1,-100,6483.156617614557,0.02630724450460697,0.01627833613308308,0.9995213577804695,149.9380573908555,15.790883121520592,119.35535156362724,-9.885355364510229,-83.36404418945312,4381.2578125,True
1599568369.1986015,0.0,10,0.5,0.5,-1.62477445602417,-0.1005,-0.001,-0.5,0.05357542958386098,10,1,100,-0.3124154205413746,-10,-1,-100,6482.721038537915,0.026547542446839562,0.015096036420427977,0.9995335600541015,153.72906862517513,16.18814941197554,127.1602075186394,-10.268992880446268,-81.76205444335938,4381.2578125,True
1599568369.2584407,0.0,10,0.5,0.5,-1.6104980598449707,-0.1005,-0.001,-0.5,0.03612236508845931,10,1,100,-0.30182032735586495,-10,-1,-100,6482.28545168601,0.026661526145382378,0.013871234554446906,0.9995482739095369,157.05535531217697,16.534386688776088,134.80676485491435,-10.652620445894197,-80.4559326171875,4381.2578125,True
1599568369.320276,0.0,10,0.5,0.5,-1.5655347717285155,-0.1005,-0.001,-0.5,0.017486889834899932,10,1,100,-0.2907971184163046,-10,-1,-100,6481.84839444363,0.026658040438788135,0.012597563182223699,0.9995652306287138,159.77040339557738,16.814558113737963,142.12156737144574,-11.036232021899258,-79.44711303710938,4381.2578125,True
1599568369.380117,0.0,10,0.5,0.5,-1.299056079864502,-0.1005,-0.001,-0.5,0.07159439556227831,10,1,100,-0.2868329693441397,-10,-1,-100,6481.631084958324,0.0266137667882011,0.01194093123593811,0.9995744702514975,160.91344978701107,16.93154412479788,145.65012494442163,-11.228030636000463,-79.05429077148438,4381.2578125,True
1599568369.4409528,0.0,10,0.5,0.5,-1.5445353813171387,-0.1005,-0.001,-0.5,-0.08503436423405974,10,1,100,-0.25780248019891167,-10,-1,-100,6480.975730571547,0.02630563779050238,0.009929338463288034,0.9996046326713959,163.5292564347469,17.19536782323468,155.6830120340184,-11.803397240892128,-78.32144165039062,4381.2578125,True
1599568369.5017915,0.0,10,0.5,0.5,-1.249783090209961,-0.1005,-0.001,-0.5,-0.03873089280399042,10,1,100,-0.25119196177280645,-10,-1,-100,6480.477625247906,0.025963051107665086,0.008531486003275036,0.9996264971096739,164.62413814683137,17.302138025638904,161.87613608378408,-12.18695295250242,-78.20455932617188,4381.2578125,True
1599568369.5681212,0.0,10,0.5,0.5,-1.1609877998352052,-0.1005,-0.001,-0.5,0.02086440361382917,10,1,100,-0.2623934217637661,-10,-1,-100,6480.196345300879,0.025751377775477716,0.007813684829602577,0.9996378408564015,164.9822727369677,17.33550035916134,164.81128822936577,-12.37872500023365,-78.25759887695312,4381.2578125,True
1599568369.6279602,0.0,10,0.5,0.5,-0.9919863647460938,-0.1005,-0.001,-0.5,-0.06144421657447656,10,1,100,-0.2279955200358652,-10,-1,-100,6479.696772411349,0.02524511355040401,0.0064238909921831774,0.9996606513544224,165.31668261636378,17.362093753502958,170.32596981236577,-12.762259650109385,-78.58526611328125,4381.2578125,True
1599568369.6868029,0.0,10,0.5,0.5,-0.5270764678955078,-0.1005,-0.001,-0.5,-0.1629708127199429,10,1,100,-0.17427740248831883,-10,-1,-100,6478.916404750082,0.02429645020006165,0.004248889139991007,0.9996957684459568,164.86435520535608,17.302560865845432,177.62041506056025,-13.33754607844088,-79.63394165039062,4381.2578125,True
1599568369.7466433,0.0,10,0.5,0.5,-0.7531130462646485,-0.1005,-0.001,-0.5,-0.027576469753635688,10,1,100,-0.22837478162253688,-10,-1,-100,6478.637076968676,0.023927134786853717,0.0035149027740910823,0.9997075260691901,164.44744009399963,17.255214221164074,179.75452885286705,-13.529306488288547,-80.13180541992188,4381.2578125,True
1599568369.8096087,0.0,10,0.5,0.5,-0.2721214508056642,-0.1005,-0.001,-0.5,-0.11335760261761768,10,1,100,-0.17633138287504332,-10,-1,-100,6478.074515254237,0.023120435431430886,0.00207941708210858,0.9997305244364901,163.19133166476976,17.117259649142333,183.51326789703555,-13.912828626424472,-81.34786987304688,4381.2578125,True
1599568369.8684509,0.0,10,0.5,0.5,0.4604292175292968,-0.1005,-0.001,-0.5,-0.20465053844259015,10,1,100,-0.10504404842192538,-10,-1,-100,6477.231164633064,0.021742121256032157,-4.367240052224532e-05,0.9997636111881697,160.33505051244995,16.812029444089205,187.87604866843017,-14.488121861294312,-83.58038330078125,4381.2578125,True
1599568369.9272926,0.0,10,0.5,0.5,0.3818171783447265,-0.1005,-0.001,-0.5,-0.1476271149976374,10,1,100,-0.1287362641097003,-10,-1,-100,6476.6695857171435,0.020708964334548857,-0.001442709074364362,0.9997845054744132,160.09877722968798,16.78659173729232,192.6496118530782,-14.871644837976088,-85.30783081054688,4381.2578125,True
1599568369.9871352,0.0,10,0.5,0.5,0.5998653778076172,-0.1005,-0.001,-0.5,-0.1558459108490132,10,1,100,-0.11086353500139462,-10,-1,-100,6476.043068596628,0.019612659665037842,-0.0027765130380909865,0.9998037980305,164.11658858260242,17.210135267945212,202.66805789698577,-15.255100363592852,-87.10830688476562,4381.2578125,True
1599568370.04897,0.0,10,0.5,0.5,0.7291518432617188,-0.1005,-0.001,-0.5,-0.1663286629832154,10,1,100,-0.09144698143555248,-10,-1,-100,6475.41850919486,0.018445869575904866,-0.004070980347904275,0.9998215725891274,167.9975889067788,17.622294508640096,212.77362849000082,-15.638470375273416,-88.8214111328125,4381.2578125,True
1599568370.5847187,0.0,10,0.5,0.5,0.36302203063964844,-0.1005,-0.001,-0.5,-0.10767476551110515,10,1,100,-0.14027102929920332,-10,-1,-100,6475.075225722627,0.0178361515374668,-0.004701823999068815,0.9998298678022247,169.83455778451872,17.818568357301437,217.7881487575347,-15.830120788173613,-89.6363525390625,4381.2578125,True
1599568370.6335475,0.0,10,0.5,0.5,0.8642571250915527,-0.1005,-0.001,-0.5,-0.17868533923327412,10,1,100,-0.06275146897620779,-10,-1,-100,6474.449209119775,0.016584527226468783,-0.005908838615781438,0.9998450075301106,173.29221251824538,18.190379999630213,227.71234568293787,-16.2133489785981,-91.14769744873047,4381.2578125,True
1599568370.6884334,0.0,10,0.5,0.5,0.5212376213073731,-0.1005,-0.001,-0.5,-0.12302519233798127,10,1,100,-0.11639590754886282,-10,-1,-100,6474.105440562824,0.015942697158539274,-0.006487648274248993,0.9998518594407777,174.89711240302637,18.36418119216299,232.59425267537696,-16.404925898832452,-91.83273315429688,4381.2578125,True
1599568370.7432535,0.0,10,0.5,0.5,0.9275632911682129,-0.1005,-0.001,-0.5,-0.189845354195257,10,1,100,-0.033773360215348075,-10,-1,-100,6473.479919508798,0.014616557954109464,-0.007609557126770702,0.9998642162183365,177.85792416431482,18.687236982001753,242.17668968261296,-16.788004493598926,-93.07756042480469,4381.2578125,True
1599568370.8010993,0.0,10,0.5,0.5,0.9217600357055664,-0.1005,-0.001,-0.5,-0.19538345091104656,10,1,100,-0.015089066373757842,-10,-1,-100,6472.792391847819,0.013249919544473318,-0.00866904019350965,0.9998746358290065,180.48085505151624,18.976655434195205,251.48301024363946,-17.170983204764394,-94.1021499633789,4381.2578125,True
1599568370.8589733,0.0,10,0.5,0.5,0.678923023223877,-0.1005,-0.001,-0.5,-0.14698337895943936,10,1,100,-0.07319519444977439,-10,-1,-100,6472.448630221421,0.012545465077533681,-0.009181129651923537,0.9998791517800053,181.67297817761866,19.109411952131325,256.0330515424561,-17.362435756508695,-94.54854583740234,4381.2578125,True
1599568370.917824,0.0,10,0.5,0.5,0.8839081451416017,-0.1005,-0.001,-0.5,-0.20143850083182796,10,1,100,0.010865884501914586,-10,-1,-100,6471.698122512549,0.011150473908349473,-0.010131475225017847,0.9998865036299791,183.84852956408412,19.353988046940575,264.95137218069516,-17.74526869571557,-95.25939178466797,4381.2578125,True
1599568370.975669,0.0,10,0.5,0.5,0.8745676422119141,-0.1005,-0.001,-0.5,-0.2525194449840439,10,1,100,0.1092971565263485,-10,-1,-100,6470.603863890283,0.008997099142821414,-0.011450627235737823,0.9998939620494377,186.46673206379774,19.654858830905802,277.64176272958616,-18.31934969432111,-95.83377075195312,4381.2578125,True
1599568371.0344782,0.0,10,0.5,0.5,0.6443336227416993,-0.1005,-0.001,-0.5,-0.20878715397214484,10,1,100,0.05459861255111148,-10,-1,-100,6469.9153804692905,0.0075473923604723585,-0.012243191947046561,0.9998965652103746,187.82917674950195,19.81592112561694,285.66825636356566,-18.70196827125345,-95.92686462402344,4381.2578125,True
1599568371.093356,0.0,10,0.5,0.5,0.5024580627441406,-0.1005,-0.001,-0.5,-0.20844400896313947,10,1,100,0.06750927602085696,-10,-1,-100,6469.101902208291,0.006123075860706954,-0.012951979749146315,0.9998973718150187,188.90054236468131,19.946642987492087,293.33791685997073,-19.08451406500123,-95.76664733886719,4381.2578125,True
1599568371.151165,0.0,10,0.5,0.5,0.3374434532165528,-0.1005,-0.001,-0.5,-0.20873337070683323,10,1,100,0.08245817682556741,-10,-1,-100,6468.351904303185,0.0047035461206184894,-0.013590889221996723,0.9998965768438487,189.6523447926724,20.043692111000986,300.5782090737376,-19.466995881663447,-95.35729217529297,4381.2578125,True
1599568371.2090476,0.0,10,0.5,0.5,0.3729045394897461,-0.1005,-0.001,-0.5,-0.17795961553849993,10,1,100,0.019648663379893835,-10,-1,-100,6467.946145286551,0.003995998847695871,-0.013883873636491403,0.9998956295764349,189.9163718750015,20.080326683873093,304.0406544761555,-19.658215447373184,-95.07454681396484,4381.2578125,True
1599568371.2658918,0.0,10,0.5,0.5,0.09984696807861332,-0.1005,-0.001,-0.5,-0.2072282977642481,10,1,100,0.10257461374035498,-10,-1,-100,6467.194688603864,0.002610345894833637,-0.014409052001701813,0.9998927769089652,190.2477050812986,20.13248015652009,310.6766303512125,-20.04061676140108,-94.38375091552734,4381.2578125,True
1599568371.324731,0.0,10,0.5,0.5,-0.04686856460571287,-0.1005,-0.001,-0.5,-0.20494707760971867,10,1,100,0.11461644456087904,-10,-1,-100,6466.3807345585665,0.0012533105222847563,-0.014858547238008779,0.9998888202128828,190.35876114293572,20.16068501626873,316.9766008315385,-20.42297222782078,-93.5638198852539,4381.2578125,True
1599568371.3855755,0.0,10,0.5,0.5,-0.19563114547729488,-0.1005,-0.001,-0.5,-0.2034379729120397,10,1,100,0.13022825880487474,-10,-1,-100,6465.505259680445,-0.00011013517549434613,-0.015246870146389632,0.9998837536538846,190.2865258948417,20.168589271685505,322.9823700206288,-20.805285751417877,-92.63330078125,4381.2578125,True
1599568371.444422,0.0,10,0.5,0.5,-0.3314308090209961,-0.1005,-0.001,-0.5,-0.1988720772889712,10,1,100,0.13878745385778954,-10,-1,-100,6464.690333755338,-0.0014152966242109671,-0.015552402984750803,0.9998780524128258,190.03806206211922,20.156667643989596,328.68865993869366,-21.187560798517552,-91.63261413574219,4381.2578125,True
1599568371.5022254,0.0,10,0.5,0.5,-1.0318018165588378,-0.1005,-0.001,-0.5,-0.21345804726179,10,1,100,0.2889409029763941,-10,-1,-100,6462.938416135497,-0.003954146786211805,-0.015956967770893105,0.9998648608200769,189.29406138528395,20.102412318781237,339.6401117609932,-21.951997295988107,-89.63357543945312,4381.2578125,True
1599568371.5620997,0.0,10,0.5,0.5,-0.31290001220703123,-0.1005,-0.001,-0.5,-0.17980880013198708,10,1,100,0.10375622893674086,-10,-1,-100,6462.469186765258,-0.004564963877947937,-0.016013555791164376,0.9998613539564954,189.10201063034017,20.087255166336348,342.3582992531178,-22.143081425538153,-89.16720581054688,4381.2578125,True
1599568371.6210887,0.0,10,0.5,0.5,-0.5815559875488281,-0.1005,-0.001,-0.5,-0.1804528627351581,10,1,100,0.17149652607181876,-10,-1,-100,6461.593717380776,-0.005723743878008065,-0.016066706443662152,0.9998545392706242,188.77147087627043,20.06148772023248,347.88225631858285,-22.525216210975287,-88.33261108398438,4381.2578125,True
1599568371.6808896,0.0,10,0.5,0.5,-0.5311676467895508,-0.1005,-0.001,-0.5,-0.17365023914257127,10,1,100,0.18073732648928884,-10,-1,-100,6460.717270744033,-0.006849122848913836,-0.0160497072637306,0.9998477366144054,188.6942509813468,20.061318338814058,353.8698246049021,-22.90729987703616,-87.72286987304688,4381.2578125,True
1599568371.7405868,0.0,10,0.5,0.5,-0.38023185119628905,-0.1005,-0.001,-0.5,-0.17211826537066294,10,1,100,0.130761039767813,-10,-1,-100,6460.248041172046,-0.007406071853442374,-0.0160175103135804,0.9998442826075747,188.75651445848632,20.071570494627103,357.0562632183606,-23.09831947553306,-87.46786499023438,4381.2578125,True
1599568371.8004086,0.0,10,0.5,0.5,-0.4900678520202637,-0.1005,-0.001,-0.5,-0.16198650649312468,10,1,100,0.1900074257632525,-10,-1,-100,6459.309581799782,-0.008439983895723167,-0.01589392744083752,0.9998380617591757,189.0056129910472,20.104686765475805,363.6823927368565,-23.480310834071837,-87.07394409179688,4381.2578125,True
1599568371.8602524,0.0,10,0.5,0.5,-0.4344114151000977,-0.1005,-0.001,-0.5,-0.15373122524561117,10,1,100,0.1967572139327015,-10,-1,-100,6458.369656104711,-0.009429960205933953,-0.015704704041726286,0.9998322049831544,189.48609815988402,20.161815446949518,370.7875488870794,-23.862232903267554,-86.8399658203125,4381.2578125,True
1599568371.9200933,0.0,10,0.5,0.5,-0.3780104133605957,-0.1005,-0.001,-0.5,-0.1446278642679314,10,1,100,0.204982199536166,-10,-1,-100,6457.36820598715,-0.010393765533338192,-0.015448747077246233,0.9998266378986815,190.18827591117508,20.242241342904244,378.37521315422885,-24.244079081738732,-86.74032592773438,4381.2578125,True
1599568371.9819298,0.0,10,0.5,0.5,-0.3093741592407227,-0.1005,-0.001,-0.5,-0.1352237022177667,10,1,100,0.20747110100880461,-10,-1,-100,6456.366265895194,-0.011281990320679103,-0.01513003000013629,0.9998218835805701,191.07221038121662,20.341992108596415,386.3865474705933,-24.625843877499392,-86.77279663085938,4381.2578125,True
1599568372.041768,0.0,10,0.5,0.5,-0.2261916397094727,-0.1005,-0.001,-0.5,-0.12528942115708763,10,1,100,0.21232335142781505,-10,-1,-100,6455.365788797964,-0.012123422535575313,-0.014750081775072216,0.999817712242413,192.15985589795224,20.463706519459382,394.8847277745918,-25.00752143166749,-86.9393310546875,4381.2578125,True
1599568372.1004918,0.0,10,0.5,0.5,-0.13761062927246098,-0.1005,-0.001,-0.5,-0.11495924093459048,10,1,100,0.21523132886265706,-10,-1,-100,6454.36335689947,-0.012905062411332827,-0.014311492951363702,0.9998143030251481,193.43128484667403,20.605565756637365,403.8484286741461,-25.38910577696453,-87.22628784179688,4381.2578125,True
1599568372.1573396,0.0,10,0.5,0.5,-0.04754744873046876,-0.1005,-0.001,-0.5,-0.10441540949127052,10,1,100,0.21710499591876453,-10,-1,-100,6453.3633639186155,-0.013624540257417798,-0.013818418711979898,0.9998116938739388,194.85667082571314,20.764668583440532,413.232791527753,-25.770591866628884,-87.6156005859375,4381.2578125,True
1599568372.2166915,0.0,10,0.5,0.5,0.1937402160644531,-0.1005,-0.001,-0.5,-0.06192502021805331,10,1,100,0.2511737810970949,-10,-1,-100,6451.766201817198,-0.014580091276953075,-0.012985888716491905,0.9998093756474774,197.20200013091247,21.02747986298574,427.9552619368143,-26.34262668107902,-88.34182739257812,4381.2578125,True
1599568372.274534,0.0,10,0.5,0.5,0.15635060424804686,-0.1005,-0.001,-0.5,-0.07750301966193038,10,1,100,0.2173166120010244,-10,-1,-100,6450.702238205238,-0.0151329303507491,-0.01237346218619913,0.9998089276719458,198.84003476156778,21.212247027283084,438.07690372550985,-26.723848035419294,-88.88424682617188,4381.2578125,True
1599568372.3328948,0.0,10,0.5,0.5,0.3730533203125,-0.1005,-0.001,-0.5,-0.030813742926336915,10,1,100,0.23819172601774355,-10,-1,-100,6449.105067965109,-0.01581775435662308,-0.011395604865679879,0.9998099513591864,201.2876590136868,21.491030062102297,453.4618939522401,-27.295470666795214,-89.69656372070312,4381.2578125,True
1599568372.3947291,0.0,10,0.5,0.5,0.11676627197265625,-0.1005,-0.001,-0.5,-0.09017507169292349,10,1,100,0.1923657746161704,-10,-1,-100,6448.57283906464,-0.01601607509240042,-0.0110504938407658,0.9998106680389591,202.06313316222165,21.580336450753176,458.5581484474819,-27.485955365460278,-89.94577026367188,4381.2578125,True
1599568372.4555664,0.0,10,0.5,0.5,0.13512116165161134,-0.1005,-0.001,-0.5,-0.08545327862511742,10,1,100,0.19295791699450016,-10,-1,-100,6447.978598813876,-0.016194862427276743,-0.010698234275318467,0.9998116193635439,202.8117157473758,21.66709670459824,463.6214591600574,-27.676412174241577,-90.18335723876953,4381.2578125,True
1599568372.515409,0.0,10,0.5,0.5,0.3669964401245117,-0.1005,-0.001,-0.5,-0.0019360903822183695,10,1,100,0.2218551898445007,-10,-1,-100,6446.3194077301305,-0.01661394893741764,-0.009623302477036725,0.999815667385814,204.84753160717105,21.906730664479745,478.48729458300966,-28.24761797846994,-90.76676177978516,4381.2578125,True
1599568372.575247,0.0,10,0.5,0.5,0.2668212219238281,-0.1005,-0.001,-0.5,-0.025532492022809092,10,1,100,0.20278555631249365,-10,-1,-100,6445.195863105473,-0.01681592165688741,-0.008865900352240701,0.9998192939675516,206.02977341502418,22.04905426923515,488.1106986286269,-28.628288327160583,-91.08503723144531,4381.2578125,True
1599568372.6340895,0.0,10,0.5,0.5,0.19432847290039063,-0.1005,-0.001,-0.5,-0.05810759939191751,10,1,100,0.1914794271565018,-10,-1,-100,6444.60113147099,-0.016891719381045268,-0.008479184969097935,0.9998213706650864,206.58396670125458,22.11660787248183,492.8682661750227,-28.81858421535742,-91.22860717773438,4381.2578125,True
1599568372.6949265,0.0,10,0.5,0.5,0.30261113739013673,-0.1005,-0.001,-0.5,0.030172164858968065,10,1,100,0.19780722517047727,-10,-1,-100,6442.814002979663,-0.01701381702418358,-0.007330783033783709,0.9998283800984944,208.06202755905758,22.300702113168107,506.82047686987516,-29.389318395287162,-91.52775573730469,4381.2578125,True
1599568372.7517748,0.0,10,0.5,0.5,0.1873743263244629,-0.1005,-0.001,-0.5,-0.040608203322306,10,1,100,0.18730580903139926,-10,-1,-100,6442.219758094987,-0.017025612230669653,-0.00693658526688925,0.99983099187463,208.47675692507124,22.354030019514163,511.3190429887538,-29.579513496807802,-91.58422088623047,4381.2578125,True
1599568372.8096192,0.0,10,0.5,0.5,0.19782122192382814,-0.1005,-0.001,-0.5,0.00929553895806462,10,1,100,0.18415708111135592,-10,-1,-100,6441.037126042065,-0.017004618462771823,-0.006130809488477364,0.9998366147156003,209.19947300920018,22.449580587778417,520.1017860637448,-29.959832251561664,-91.6479721069336,4381.2578125,True
1599568372.8654706,0.0,10,0.5,0.5,0.11017635345458984,-0.1005,-0.001,-0.5,0.10412423952331003,10,1,100,0.16217923077760393,-10,-1,-100,6438.58689816203,-0.016783530464207125,-0.004542438847717068,0.999848828250787,210.25606202309936,22.599764029801563,536.858002145939,-30.720194841041703,-91.55455017089844,4381.2578125,True
1599568372.9273052,0.0,10,0.5,0.5,0.1571543518066406,-0.1005,-0.001,-0.5,-0.053929722218871365,10,1,100,0.1844530906454195,-10,-1,-100,6438.58689816203,-0.016783530464207125,-0.004542438847717068,0.999848828250787,210.25606202309936,22.599764029801563,536.858002145939,-30.720194841041703,-91.55455017089844,4381.2578125,True
1599568373.4703698,0.0,10,0.5,0.5,0.01994242248535158,-0.1005,-0.001,-0.5,0.07458469052147977,10,1,100,0.15114446376094315,-10,-1,-100,6436.745074943057,-0.01647984678697772,-0.0033803561555483873,0.9998584839076675,210.72582605944837,22.677797125459204,548.7124061277941,-31.290239853518507,-91.32574462890625,4381.2578125,True
1599568373.524226,0.0,10,0.5,0.5,0.07609717407226563,-0.1005,-0.001,-0.5,0.00029532413005483454,10,1,100,0.16788487249002748,-10,-1,-100,6436.144969068933,-0.0163555346400385,-0.0030062480732127384,0.99986171991889,210.88474592634253,22.703981865663753,552.6871696599784,-31.480212978931878,-91.228515625,4381.2578125,True
1599568373.579079,0.0,10,0.5,0.5,-0.011889736938476558,-0.1005,-0.001,-0.5,0.05242327620447,10,1,100,0.14763299988394013,-10,-1,-100,6434.831962833647,-0.016058269598935904,-0.0021992520578693795,0.9998686390060817,211.16909151088777,22.752553557308286,560.573921295074,-31.86009630657358,-91.00086212158203,4381.2578125,True
1599568373.6359272,0.0,10,0.5,0.5,-0.048883863067626945,-0.1005,-0.001,-0.5,0.05238530684616851,10,1,100,0.1413293345890791,-10,-1,-100,6433.581457119435,-0.015731227767378883,-0.0014727136293774007,0.9998751720027338,211.3674235380915,22.79150873222827,568.2621243890908,-32.239897295231835,-90.74966430664062,4381.2578125,True
1599568373.6917772,0.0,10,0.5,0.5,-0.08470011901855469,-0.1005,-0.001,-0.5,0.0640366535874087,10,1,100,0.13188598174241925,-10,-1,-100,6432.270892246859,-0.015349054434529691,-0.0007130238937578395,0.9998819420936118,211.5265002929923,22.82581207176864,575.8704190556173,-32.61961665519219,-90.48091888427734,4381.2578125,True
1599568373.7471392,0.0,10,0.5,0.5,-0.19777764587402344,-0.1005,-0.001,-0.5,0.10687201248645381,10,1,100,0.1000950078423962,-10,-1,-100,6430.289420686313,-0.014714017700981593,0.00035995534581913523,0.9998916781908149,211.68358556811526,22.867551424880865,587.1024262839691,-33.18904384382592,-90.0689697265625,4381.2578125,True
1599568373.8029928,0.0,10,0.5,0.5,-0.07157457122802735,-0.1005,-0.001,-0.5,0.03904281736751806,10,1,100,0.13797365582368412,-10,-1,-100,6429.634627722786,-0.014483153651516124,0.0007117703912809665,0.9998948602944295,211.72982523190717,22.88054533935004,590.8396869226915,-33.37881215096148,-89.93637084960938,4381.2578125,True
1599568373.8608599,0.0,10,0.5,0.5,-0.22091474075317383,-0.1005,-0.001,-0.5,0.11520055511846244,10,1,100,0.0803723365910958,-10,-1,-100,6427.594563987339,-0.013751940212232307,0.0017169922706565166,0.9999039634274592,211.88158323434678,22.920183614699173,602.11829400644,-33.947993350099644,-89.57754516601562,4381.2578125,True
1599568373.9187055,0.0,10,0.5,0.5,-0.0997284423828125,-0.1005,-0.001,-0.5,0.050318569903988496,10,1,100,0.12514939845562134,-10,-1,-100,6426.880689377664,-0.013497221900970469,0.0020338597483580407,0.999906839868335,211.95180224381798,22.935292907690343,605.9441702708407,-34.1376784191404,-89.48092651367188,4381.2578125,True
1599568373.9805787,0.0,10,0.5,0.5,-0.15338967742919923,-0.1005,-0.001,-0.5,0.089861827135053,10,1,100,0.09023717111417481,-10,-1,-100,6425.506162555073,-0.012951263468140408,0.0026754267950999445,0.999912549609236,212.1395681784333,22.970370231808143,613.7501713078119,-34.51698346681131,-89.31146240234375,4381.2578125,True
1599568374.0374265,0.0,10,0.5,0.5,-0.14200189514160155,-0.1005,-0.001,-0.5,0.08948253907235121,10,1,100,0.08478861917919,-10,-1,-100,6424.130172233563,-0.012408889208882369,0.003248659795529098,0.9999177294548461,212.36692599826216,23.00944315736232,621.6984118063203,-34.896200161215724,-89.189697265625,4381.2578125,True
1599568374.0962725,0.0,10,0.5,0.5,-0.1419913482666016,-0.1005,-0.001,-0.5,0.1254313246591935,10,1,100,0.04221096388511078,-10,-1,-100,6422.027613592101,-0.011532452977408974,0.00409056146857137,0.9999251321149978,212.84072276876194,23.082155550933038,634.0707727859821,-35.464853124940305,-89.08868408203125,4381.2578125,True
1599568374.1541727,0.0,10,0.5,0.5,-0.09923064575195313,-0.1005,-0.001,-0.5,0.07035004242265819,10,1,100,0.09684450629534147,-10,-1,-100,6421.310322567122,-0.011236745954037647,0.004348736051421492,0.9999274093828607,213.0245089908255,23.10917156476522,638.2899477668665,-35.65435705074313,-89.07614135742188,4381.2578125,True
1599568374.2110205,0.0,10,0.5,0.5,-0.07667685623168945,-0.1005,-0.001,-0.5,0.12466477185175767,10,1,100,0.02680778342318127,-10,-1,-100,6419.145266501699,-0.010335607109993983,0.005071257768723152,0.9999337265890731,213.67100379131367,23.200663106287447,651.2956621166363,-36.222723438341305,-89.10357666015625,4381.2578125,True
1599568374.2684157,0.0,10,0.5,0.5,-0.04842808914184571,-0.1005,-0.001,-0.5,0.1013858678305833,10,1,100,0.0488680345522869,-10,-1,-100,6417.700920698931,-0.009721842826271053,0.005510520228442985,0.999937558019936,214.18509259706659,23.270922296276417,660.276341192496,-36.60150955193924,-89.17373657226562,4381.2578125,True
1599568374.3302512,0.0,10,0.5,0.5,-0.05510548400878906,-0.1005,-0.001,-0.5,0.0811857660808807,10,1,100,0.07522055942894115,-10,-1,-100,6416.922107695136,-0.009408559350500027,0.005720554681261717,0.9999393752948661,214.46397254879517,23.308537463403116,664.8527871614108,-36.79086431212562,-89.22125244140625,4381.2578125,True
1599568374.3876073,0.0,10,0.5,0.5,-0.009768273925781251,-0.1005,-0.001,-0.5,0.10071258121107633,10,1,100,0.040484544973002926,-10,-1,-100,6415.483622593805,-0.00881279738506373,0.0060841383219755775,0.9999426572874711,215.0536682749445,23.38751834075743,674.1449284526509,-37.16949568076972,-89.33645629882812,4381.2578125,True
1599568374.44645,0.0,10,0.5,0.5,0.013661495971679684,-0.1005,-0.001,-0.5,0.10209320836139911,10,1,100,0.03245178778881839,-10,-1,-100,6413.977266801521,-0.00820332540232583,0.0064223360895086625,0.9999457280530264,215.68558119299732,23.471519848474525,683.625396063924,-37.54802153528627,-89.47149658203125,4381.2578125,True
1599568374.505293,0.0,10,0.5,0.5,0.08575506286621093,-0.1005,-0.001,-0.5,0.11655306527623441,10,1,100,-0.007216372116174763,-10,-1,-100,6411.6906345199095,-0.007293684523254989,0.006856964264838286,0.9999498908481093,216.68456030479007,23.603998874938664,698.1187727594476,-38.11560907304575,-89.70401000976562,4381.2578125,True
1599568374.5651329,0.0,10,0.5,0.5,0.06804018859863281,-0.1005,-0.001,-0.5,0.09963462847491814,10,1,100,0.018070469152652723,-10,-1,-100,6410.125198527705,-0.00670225822415967,0.007093892176474632,0.9999523770802714,217.37444557000885,23.695582735444138,707.9339476650634,-38.49386426342693,-89.86807250976562,4381.2578125,True
1599568374.6279836,0.0,10,0.5,0.5,0.035086129760742185,-0.1005,-0.001,-0.5,0.08786979741714104,10,1,100,0.044320562196418126,-10,-1,-100,6409.404492719099,-0.0064089160756017755,0.007198311390726632,0.9999535539753125,217.7226981582639,23.741938815490528,712.875567758053,-38.682950603622075,-89.94970703125,4381.2578125,True
1599568374.6898181,0.0,10,0.5,0.5,0.08473690643310547,-0.1005,-0.001,-0.5,0.09671384386000373,10,1,100,0.011491120565382054,-10,-1,-100,6407.838568774401,-0.0058492464467517985,0.007370047778986114,0.9999557333761033,218.41724895507005,23.834836387359942,722.7991521879145,-39.06104042777163,-90.10023498535156,4381.2578125,True
1599568374.7496588,0.0,10,0.5,0.5,0.08789399642944336,-0.1005,-0.001,-0.5,0.0949569353321511,10,1,100,0.0059552646353820266,-10,-1,-100,6406.2101453101495,-0.005295296463461508,0.007507218521413878,0.9999577998622919,219.0949969156233,23.926389337626887,732.7289628950236,-39.439019766035855,-90.23065948486328,4381.2578125,True
1599568374.8106508,0.0,10,0.5,0.5,0.09250398178100586,-0.1005,-0.001,-0.5,0.0924487739151585,10,1,100,0.0011707141108644042,-10,-1,-100,6404.6451985607855,-0.0047536109734206975,0.00760624638122101,0.9999597732902565,219.75541243705007,24.0164864121869,742.6616156009131,-39.81688900315626,-90.34674072265625,4381.2578125,True
1599568374.8694909,0.0,10,0.5,0.5,0.11801590957641603,-0.1005,-0.001,-0.5,0.09053440638267837,10,1,100,-0.028382340062288493,-10,-1,-100,6402.233570244862,-0.003997580031933638,0.007676563832011768,0.9999625441593408,220.72029787193597,24.149546957242,757.5854413858317,-40.383486474133846,-90.48567199707031,4381.2578125,True
1599568374.9303284,0.0,10,0.5,0.5,0.0860844352722168,-0.1005,-0.001,-0.5,0.08387551983926914,10,1,100,-0.00596087484077721,-10,-1,-100,6400.609542698599,-0.003519314553317629,0.007677984324514582,0.9999643308547498,221.33730972192552,24.235784298045044,767.5178520733381,-40.76108116482622,-90.54795837402344,4381.2578125,True
1599568374.9891708,0.0,10,0.5,0.5,0.07618066406250001,-0.1005,-0.001,-0.5,0.07997001576754861,10,1,100,-0.00775270471191692,-10,-1,-100,6398.9737958572805,-0.003073592251017426,0.00764199161737127,0.9999660759219757,221.93168491518242,24.319786076634365,777.4287033478986,-41.13856689023288,-90.5831069946289,4381.2578125,True
1599568375.0520034,0.0,10,0.5,0.5,0.06206631546020508,-0.1005,-0.001,-0.5,0.0802331871908503,10,1,100,0.013213902884770562,-10,-1,-100,6398.13883273094,-0.0028642131408362606,0.007610247211729733,0.9999669396637372,222.21959570752566,24.360838346355994,782.3725865204393,-41.327269238889684,-90.58866119384766,4381.2578125,True
1599568375.1118436,0.0,10,0.5,0.5,0.045702392578125,-0.1005,-0.001,-0.5,0.06755544008496524,10,1,100,-0.03163979224755471,-10,-1,-100,6395.662263184204,-0.0022709613687972347,0.007465056495527362,0.9999695573696131,223.04549713763262,24.47999785158985,797.1519012089619,-41.89321516834206,-90.56584930419922,4381.2578125,True
1599568375.1706886,0.0,10,0.5,0.5,0.04569507827758789,-0.1005,-0.001,-0.5,0.07494040645221772,10,1,100,0.0073696251956589034,-10,-1,-100,6394.813628314296,-0.00209083875565866,0.007399648182108693,0.9999704363630352,223.31224562268196,24.51880153849357,802.0744513526009,-42.08181051369005,-90.54669952392578,4381.2578125,True
1599568375.233518,0.0,10,0.5,0.5,0.0045203720092773444,-0.1005,-0.001,-0.5,0.05471148363170196,10,1,100,-0.029697563457349623,-10,-1,-100,6392.28090645175,-0.0015943086827494247,0.007156008820627365,0.9999731244976453,224.09319071820542,24.63305816187668,816.8508140140184,-42.64743756437457,-90.46207427978516,4381.2578125,True
1599568375.294355,0.0,10,0.5,0.5,0.0023479415893554664,-0.1005,-0.001,-0.5,0.05700572208302295,10,1,100,-0.012432364338759078,-10,-1,-100,6390.5211360130925,-0.001304250978812627,0.006955413662083711,0.9999749602615926,224.60840451180894,24.70854787921935,826.7467983388647,-43.02439003652703,-90.38790893554688,4381.2578125,True
1599568375.3541949,0.0,10,0.5,0.5,-0.011568824768066404,-0.1005,-0.001,-0.5,0.05196444118000908,10,1,100,-0.011934293291821885,-10,-1,-100,6388.823865504237,-0.0010492218897221845,0.006727601540759266,0.9999768189867877,225.12397088064378,24.78396599087772,836.696016683787,-43.40123685347983,-90.30293273925781,4381.2578125,True
1599568375.4160302,0.0,10,0.5,0.5,-0.021636491394042966,-0.1005,-0.001,-0.5,0.04680331089236518,10,1,100,-0.010816752281928957,-10,-1,-100,6387.081673109904,-0.0008313967947969356,0.0064742889887408756,0.9999786959537986,225.65004870421126,24.86040712166572,846.7368433213059,-43.777977571898255,-90.21540069580078,4381.2578125,True
1599568375.4718807,0.0,10,0.5,0.5,-0.004217786407470701,-0.1005,-0.001,-0.5,0.05698897659858719,10,1,100,-0.00014005316786942432,-10,-1,-100,6386.170538073173,-0.0007340005315187267,0.006337630863682975,0.9999796476320183,225.92014506117826,24.899353708572324,851.8038006572867,-43.96630805715955,-90.17154693603516,4381.2578125,True
1599568375.5307236,0.0,10,0.5,0.5,-0.03360708618164063,-0.1005,-0.001,-0.5,0.03869581218663261,10,1,100,-0.008992057386987638,-10,-1,-100,6384.417603493319,-0.0005679525988196574,0.006048311921674687,0.9999815475061247,226.47539017996334,24.9788034382149,862.0357881801896,-44.34288860423654,-90.08614349365234,4381.2578125,True
1599568375.5880568,0.0,10,0.5,0.5,-0.03884603958129883,-0.1005,-0.001,-0.5,0.033250364689806626,10,1,100,-0.007027654197532079,-10,-1,-100,6382.598750838428,-0.00043754119986509773,0.0057372721538804065,0.9999834459959478,227.05571011306225,25.060891251443064,872.4198097134016,-44.71936143803628,-90.00638580322266,4381.2578125,True
1599568375.6465945,0.0,10,0.5,0.5,-0.04412925567626953,-0.1005,-0.001,-0.5,0.026983964690716684,10,1,100,-0.005228464916035073,-10,-1,-100,6380.846304604202,-0.0003377380588756093,0.005399273019042508,0.9999853667848693,227.66372186091584,25.145924049172436,882.9690034396453,-45.09572541482536,-89.9312744140625,4381.2578125,True
1599568375.7084012,0.0,10,0.5,0.5,-0.0655384391784668,-0.1005,-0.001,-0.5,0.0017816627401795598,10,1,100,-0.004278569026178314,-10,-1,-100,6378.112898605061,-0.00025794014341291817,0.004864899218905614,0.9999881330408239,228.62663444837702,25.278917317812684,899.1056532789866,-45.66006491844146,-89.83319091796875,4381.2578125,True
1599568375.7682407,0.0,10,0.5,0.5,-0.03273331756591797,-0.1005,-0.001,-0.5,0.03428315050694708,10,1,100,0.0024115434022478634,-10,-1,-100,6377.150006056996,-0.00024804580709196814,0.004676936705094162,0.9999890323080218,228.96427572569968,25.325056098647188,904.5818351930474,-45.848122380607236,-89.8062744140625,4381.2578125,True
1599568376.311154,0.0,10,0.5,0.5,-0.04566496505737305,-0.1005,-0.001,-0.5,0.010357848739131453,10,1,100,0.0038002556734489813,-10,-1,-100,6375.331154126208,-0.00025335087921890255,0.00429103414144635,0.9999907613769884,229.66633162215587,25.42026755861751,915.6901637878473,-46.224152795694636,-89.762451171875,4381.2578125,True
1599568376.3670504,0.0,10,0.5,0.5,-0.044366534423828125,-0.1005,-0.001,-0.5,-0.017093339152809382,10,1,100,0.011029644977001318,-10,-1,-100,6372.54257318622,-0.0003251144455516192,0.003693261897911769,0.9999931270349565,230.79199834479346,25.571129045682714,932.7733342570399,-46.787983708450916,-89.72824096679688,4381.2578125,True
1599568376.4208667,0.0,10,0.5,0.5,-0.030607717895507813,-0.1005,-0.001,-0.5,-0.003227986661454234,10,1,100,0.013497423193269404,-10,-1,-100,6370.6685462842,-0.00041367852285039965,0.0032788468371328073,0.9999945390018379,231.59088970622022,25.677145924947553,944.4495032308912,-47.16372541553709,-89.7227783203125,4381.2578125,True
1599568376.4777174,0.0,10,0.5,0.5,-0.026468345642089844,-0.1005,-0.001,-0.5,0.014896623337354059,10,1,100,0.01082093288910041,-10,-1,-100,6369.687587607652,-0.00047043735705400174,0.003070010286144396,0.9999951768511366,232.0042462782949,25.73173354397277,950.3729877772802,-47.3515520627448,-89.7252197265625,4381.2578125,True
1599568376.5335665,0.0,10,0.5,0.5,-0.011189864349365235,-0.1005,-0.001,-0.5,-0.033553875223264626,10,1,100,0.028592608989393708,-10,-1,-100,6366.789633950219,-0.0006839251340033454,0.0024427945971516674,0.9999967824953074,233.29254363250436,25.901055097438185,968.4609467503382,-47.91485218238585,-89.75277709960938,4381.2578125,True
1599568376.5904129,0.0,10,0.5,0.5,-0.005640051269531252,-0.1005,-0.001,-0.5,-0.018535510527517587,10,1,100,0.027192100172183074,-10,-1,-100,6364.817464251304,-0.0008653185559803932,0.002012669864634643,0.9999976001890268,234.18866378148687,26.018293093072042,980.7768338369419,-48.29023426879008,-89.7850341796875,4381.2578125,True
1599568376.648259,0.0,10,0.5,0.5,0.002519641876220703,-0.1005,-0.001,-0.5,-0.022640960618073972,10,1,100,0.03189795721983945,-10,-1,-100,6362.855548499036,-0.0010727318527953486,0.0015879938724841444,0.9999981637592307,235.1134905177422,26.138935087207116,993.2982194888051,-48.665493483545575,-89.82553100585938,4381.2578125,True
1599568376.70411,0.0,10,0.5,0.5,0.00943031311035156,-0.1005,-0.001,-0.5,-0.027136589667544876,10,1,100,0.03692954749593671,-10,-1,-100,6360.914629834355,-0.001306453679088983,0.0011648275048806796,0.999998468176661,236.05804064677167,26.262006855299088,1005.990453961741,-49.040628430963565,-89.87078857421875,4381.2578125,True
1599568376.7629514,0.0,10,0.5,0.5,0.015493692016601562,-0.1005,-0.001,-0.5,-0.03183556301054456,10,1,100,0.04222808874574348,-10,-1,-100,6358.9102358073,-0.0015662159728812453,0.0007412623634994979,0.9999984987476905,237.01652658687956,26.386881019631268,1018.8313170647108,-49.41563849515305,-89.9185791015625,4381.2578125,True
1599568376.8207986,0.0,10,0.5,0.5,0.006102679443359374,-0.1005,-0.001,-0.5,-0.012943862961613232,10,1,100,0.03166152181940286,-10,-1,-100,6357.938068209332,-0.0017051144716988707,0.0005316946325572595,0.999998404941456,237.50076039033897,26.449971319146442,1025.3071004837911,-49.60309627951397,-89.94271850585938,4381.2578125,True
1599568376.878598,0.0,10,0.5,0.5,0.022451620483398438,-0.1005,-0.001,-0.5,-0.037962035195267425,10,1,100,0.050232094192316515,-10,-1,-100,6355.93318688625,-0.001998884611591739,0.00011750898600612913,0.9999979953239645,238.4753305332602,26.577029575421157,1038.3537233108982,-49.97791697948417,-89.99002075195312,4381.2578125,True
1599568376.9374402,0.0,10,0.5,0.5,0.03837950592041016,-0.1005,-0.001,-0.5,-0.06444862228913913,10,1,100,0.07422073827922299,-10,-1,-100,6352.895103917806,-0.002482440108891339,-0.0004960164615706046,0.9999967957242542,239.9459164491579,26.769082705024054,1058.1351903667369,-50.539909818398456,-90.05589294433594,4381.2578125,True
1599568377.013237,0.0,10,0.5,0.5,0.03001901016235352,-0.1005,-0.001,-0.5,-0.04764154874345977,10,1,100,0.06442419137479527,-10,-1,-100,6350.889247703832,-0.002831015293065869,-0.0008971668558982936,0.9999955902122986,240.93386713871325,26.898286003941767,1071.473117432724,-50.91441183978144,-90.09676361083984,4381.2578125,True
1599568377.070085,0.0,10,0.5,0.5,0.020786072540283203,-0.1005,-0.001,-0.5,-0.02954961085190729,10,1,100,0.04973313838395094,-10,-1,-100,6349.85555836733,-0.0030121492180621157,-0.0010935804938247782,0.9999948655062143,241.42979873080708,26.96320271897803,1078.1862436112071,-51.10161476367432,-90.1153564453125,4381.2578125,True
1599568377.1289275,0.0,10,0.5,0.5,0.0297720085144043,-0.1005,-0.001,-0.5,-0.051799374049376845,10,1,100,0.07225910422090472,-10,-1,-100,6347.787692295271,-0.0033792872830664578,-0.0014706238384804245,0.9999932088184321,242.41724618584195,27.09272775713127,1091.6640213318801,-51.475924043229355,-90.14573669433594,4381.2578125,True
1599568377.1877708,0.0,10,0.5,0.5,0.032401792907714846,-0.1005,-0.001,-0.5,-0.075873433689971,10,1,100,0.10077994547127767,-10,-1,-100,6344.685649638413,-0.003969879206120102,-0.002028687949958566,0.9999900621927653,243.87594432414994,27.284926656987132,1111.9571474812426,-52.03714660124789,-90.17534637451172,4381.2578125,True
1599568377.244619,0.0,10,0.5,0.5,0.021608102416992188,-0.1005,-0.001,-0.5,-0.04035148866407526,10,1,100,0.06460052051643686,-10,-1,-100,6343.6514738168335,-0.0041750547632610985,-0.0022094182257809216,0.9999888436321814,244.35935684086218,27.348781828279034,1118.756038812341,-52.2241563477133,-90.18196105957031,4381.2578125,True
1599568377.301601,0.0,10,0.5,0.5,0.023247718811035156,-0.1005,-0.001,-0.5,-0.07840727378851975,10,1,100,0.11238029572347324,-10,-1,-100,6340.487909923657,-0.004793119296261912,-0.0027162279666614083,0.999984823941366,245.8024357849962,27.539836025486995,1139.2622255120987,-52.78499169659517,-90.19013977050781,4381.2578125,True
1599568377.359447,0.0,10,0.5,0.5,0.016418520355224613,-0.1005,-0.001,-0.5,-0.0637659127227033,10,1,100,0.09821211217333509,-10,-1,-100,6338.357059285976,-0.005223024779791238,-0.0030403325800712083,0.9999817380282263,246.74777013473133,27.665550747844208,1152.9740765349352,-53.15872033757177,-90.1855239868164,4381.2578125,True
1599568377.4172914,0.0,10,0.5,0.5,0.012160398101806642,-0.1005,-0.001,-0.5,-0.06518725610736462,10,1,100,0.1031894161777752,-10,-1,-100,6336.227185241296,-0.005655771793215618,-0.0033444566276283377,0.9999784131946493,247.68357591078038,27.790351882977056,1166.7357603163157,-53.53232001292547,-90.17454528808594,4381.2578125,True
1599568377.47414,0.0,10,0.5,0.5,0.012967779541015627,-0.1005,-0.001,-0.5,-0.050770866988611246,10,1,100,0.08392053858933253,-10,-1,-100,6335.193499154295,-0.0058704150479596505,-0.0034863511777278016,0.9999766915196725,248.1478566411035,27.852399957268652,1173.6349048940035,-53.71907120816799,-90.16670989990234,4381.2578125,True
1599568377.5329833,0.0,10,0.5,0.5,-0.0011981719970703113,-0.1005,-0.001,-0.5,-0.08204921202329685,10,1,100,0.1355938771540951,-10,-1,-100,6331.902498119045,-0.006531783329737187,-0.003896418577984698,0.9999710764461133,249.51719473006713,28.03610081250504,1194.361524209276,-54.27913082953174,-90.13656616210938,4381.2578125,True
1599568377.5938203,0.0,10,0.5,0.5,-0.008649813842773437,-0.1005,-0.001,-0.5,-0.0821381720958424,10,1,100,0.14381026202458164,-10,-1,-100,6328.614429212059,-0.007204040409065875,-0.004266924576953732,0.9999649469638618,250.8643934725441,28.217588169196173,1215.192146304807,-54.83889862440639,-90.09904479980469,4381.2578125,True
1599568377.6526992,0.0,10,0.5,0.5,0.0020248336791992196,-0.1005,-0.001,-0.5,-0.05731972999816022,10,1,100,0.1006712402395362,-10,-1,-100,6327.517266679788,-0.007419034805758814,-0.004375062595382057,0.9999629076869988,251.3099080829411,28.27774264089175,1222.1651115621212,-55.025422847902675,-90.08557891845703,4381.2578125,True
1599568377.7105448,0.0,10,0.5,0.5,-0.006932093048095703,-0.1005,-0.001,-0.5,-0.06938868302060928,10,1,100,0.12728975524455044,-10,-1,-100,6325.323918617563,-0.007852464497718255,-0.004580104474065019,0.9999586798684826,252.19324752275043,28.397272558477184,1236.1434169952533,-55.39837367985884,-90.05945587158203,4381.2578125,True
1599568377.769387,0.0,10,0.5,0.5,-0.0011178909301757809,-0.1005,-0.001,-0.5,-0.05962520135665676,10,1,100,0.10805091383126833,-10,-1,-100,6324.227733629406,-0.0080675264073655,-0.004674920457163066,0.9999565291233343,252.63051051427493,28.45658588836085,1243.1457967318684,-55.584800095480766,-90.04740142822266,4381.2578125,True
1599568377.829227,0.0,10,0.5,0.5,-0.009008168792724609,-0.1005,-0.001,-0.5,-0.07054123964186954,10,1,100,0.1357389735840256,-10,-1,-100,6321.972374076024,-0.0085110217346142,-0.00485794785120213,0.9999519802729069,253.49749132680182,28.574457699264038,1257.1827245433606,-55.95755494929314,-90.02424621582031,4381.2578125,True
1599568377.89037,0.0,10,0.5,0.5,-0.010338538360595704,-0.1005,-0.001,-0.5,-0.06956352425418813,10,1,100,0.13848077563235367,-10,-1,-100,6319.716038867948,-0.008935182989851135,-0.00501304031532652,0.9999475145885083,254.35938578777348,28.6918891783281,1271.2868415520911,-56.33017835346925,-90.00277709960938,4381.2578125,True
1599568377.952172,0.0,10,0.5,0.5,-0.011332906341552734,-0.1005,-0.001,-0.5,-0.06986826595494007,10,1,100,0.14413058717115068,-10,-1,-100,6317.460192211089,-0.009368380541606876,-0.0051547158324021965,0.9999428295411268,255.2143317422061,28.808679205894116,1285.448688941011,-56.702670113998074,-89.9832763671875,4381.2578125,True
1599568378.012012,0.0,10,0.5,0.5,-0.011846890258789062,-0.1005,-0.001,-0.5,-0.06887602045329652,10,1,100,0.14722856653828092,-10,-1,-100,6315.2038571866,-0.009786591441302539,-0.005272569176772115,0.9999382094120801,256.06429974727655,28.92505953322085,1299.677964403173,-57.075029616991856,-89.96621704101562,4381.2578125,True
1599568378.0694091,0.0,10,0.5,0.5,-0.011401414489746093,-0.1005,-0.001,-0.5,-0.06831755077102154,10,1,100,0.1515668631861868,-10,-1,-100,6312.88648694742,-0.010202466938144934,-0.005372878754043046,0.9999335187112544,256.9064066600206,29.04071567346314,1313.959823862618,-57.44725620538915,-89.95278930664062,4381.2578125,True
1599568378.1282496,0.0,10,0.5,0.5,-0.012185868072509766,-0.1005,-0.001,-0.5,-0.07089179326703211,10,1,100,0.17709586618465945,-10,-1,-100,6309.408477822784,-0.010808679188087603,-0.0054857564582746115,0.9999265367667214,258.1546617636125,29.21285425282954,1335.479308146196,-58.0053460288845,-89.94033813476562,4381.2578125,True
1599568378.1956167,0.0,10,0.5,0.5,-0.007171082305908204,-0.1005,-0.001,-0.5,-0.06281809266895713,10,1,100,0.13861414614705872,-10,-1,-100,6308.248328451184,-0.011006059327822431,-0.0055135304222478166,0.9999242309497033,258.5668762638157,29.26989451595278,1342.6785458842307,-58.19130903573389,-89.9383544921875,4381.2578125,True
1599568378.259446,0.0,10,0.5,0.5,-0.005847139739990234,-0.1005,-0.001,-0.5,-0.06601319453510933,10,1,100,0.18163531288164478,-10,-1,-100,6304.771295621875,-0.011573140953424188,-0.005566692582965483,0.9999175337707401,259.78918119025036,29.439716442560815,1364.339266646258,-58.74899612064558,-89.93893432617188,4381.2578125,True
1599568378.3277557,0.0,10,0.5,0.5,-0.00468565673828125,-0.1005,-0.001,-0.5,-0.06164596855244252,10,1,100,0.14511059121039555,-10,-1,-100,6303.549133930006,-0.011752850319552914,-0.005574236465604951,0.9999153956196453,260.19151723930173,29.495861252517102,1371.5785249413332,-58.93482441674171,-89.94137573242188,4381.2578125,True
