Timestamp,Input Throttle,horizon,dT,dt,Input Roll,Roll P,Roll I,Roll D,Input Pitch,Pitch P,Pitch I,Pitch D,Input Yaw,Yaw P,Yaw I,Yaw D,Altitude,Direction X,Direction Y,Direction Z,Drag X,Drag Y,Drag Z,Vertical Velocity,Roll,Mass,Has Fuel
1599569538.1971748,0.0,10,0.5,0.5,-5.432984916687012,-0.1005,-0.03,-0.12575,-0.06719775724968746,10,1,100,0.6903432383349135,-10,-1,-100,6483.6179670300335,-0.06725748064927738,-0.007002515960108389,0.9977110784525451,205.0732393736457,21.49878045210774,-156.76525738827328,9.59082433814707,-35.9444580078125,4381.2578125,True
1599569538.2570148,0.0,10,0.5,0.5,-5.595121444702149,-0.1005,-0.03,-0.12575,-0.06905643693081351,10,1,100,0.6894712303630464,-10,-1,-100,6483.77667490358,-0.06734994133841687,-0.006987343466778559,0.9977049475836977,204.84277736653638,21.47779257453536,-153.51327330259406,9.400810427914136,-35.94281005859375,4381.2578125,True
1599569538.317885,0.0,10,0.5,0.5,-5.757852195739746,-0.1005,-0.03,-0.12575,-0.06773631905441932,10,1,100,0.7080639011201022,-10,-1,-100,6484.1565918076085,-0.06754179357057291,-0.006955197088996242,0.9976922027132032,204.38125732328606,21.43562100984896,-147.02555838745167,9.02079808362335,-35.939422607421875,4381.2578125,True
1599569538.3776922,0.0,10,0.5,0.5,-5.847882949829102,-0.1005,-0.03,-0.12575,-0.0185129653532747,10,1,100,0.7014502389274857,-10,-1,-100,6484.697140276432,-0.067594678858445,-0.006472165169102823,0.9976918715054501,203.7566932228681,21.37898085722723,-137.381580262578,8.450805882991414,-36.256439208984375,4381.2578125,True
1599569538.4370885,0.0,10,0.5,0.5,-5.993700225830078,-0.1005,-0.03,-0.12575,-0.04433335973555623,10,1,100,0.7021383164690939,-10,-1,-100,6484.856804262614,-0.0675875619351993,-0.006261892313430363,0.9976936955680891,203.59193634894973,21.364402786131503,-134.20540296810455,8.260811359971289,-36.500762939453125,4381.2578125,True
1599569538.5019157,0.0,10,0.5,0.5,-6.024928207397461,-0.1005,-0.03,-0.12575,-0.0015066675899922527,10,1,100,0.6975507680760071,-10,-1,-100,6485.175623992574,-0.06747794378146132,-0.005675708977574427,0.9977046223360038,203.31738533455936,21.340417410485706,-127.89852987637644,7.880820658457152,-37.207916259765625,4381.2578125,True
1599569538.5657449,0.0,10,0.5,0.5,-6.045847801208496,-0.1005,-0.03,-0.12575,0.026217981088267173,10,1,100,0.6873436093499442,-10,-1,-100,6485.493928520824,-0.06722415497711581,-0.004885613039741604,0.9977259362033436,203.08638206622166,21.319996978578658,-121.62903189370314,7.500821341421249,-38.20849609375,4381.2578125,True
1599569538.626582,0.0,10,0.5,0.5,-5.862883354187011,-0.1005,-0.03,-0.12575,0.12231072822207942,10,1,100,0.6486847198949648,-10,-1,-100,6485.909323972999,-0.06658088056450452,-0.003289332110459161,0.9977756093619058,202.7092663499662,21.283827983236957,-112.22424759175583,6.930788505049518,-40.260040283203125,4381.2578125,True
1599569538.6895177,0.0,10,0.5,0.5,-6.082107124328614,-0.1005,-0.03,-0.12575,0.03185836527498769,10,1,100,0.6871303683793271,-10,-1,-100,6486.005458816071,-0.06628506346602073,-0.0026574715359846297,0.9977971879126244,202.54260479701227,21.266771217006585,-109.07228820795373,6.740764165708413,-41.09088134765625,4381.2578125,True
1599569538.7513518,0.0,10,0.5,0.5,-5.414993766784669,-0.1005,-0.03,-0.12575,0.29261908317987667,10,1,100,0.5434616590535926,-10,-1,-100,6486.517862382461,-0.06464980050674149,0.00028991503225119387,0.997907971329878,201.3777436481547,21.142349384756823,-96.26393299251443,5.9805652729402485,-45.149749755859375,4381.2578125,True
1599569538.813187,0.0,10,0.5,0.5,-5.788810401916503,-0.1005,-0.03,-0.12575,0.09211634317245011,10,1,100,0.656332928657369,-10,-1,-100,6486.675000039162,-0.06413052772151584,0.001146341626005109,0.9979408606300457,200.89574811441852,21.090230538017785,-92.99236582753176,5.79048162274508,-46.34814453125,4381.2578125,True
1599569538.8753262,0.0,10,0.5,0.5,-5.315882629394531,-0.1005,-0.03,-0.12575,0.19966069829921068,10,1,100,0.5748196202090317,-10,-1,-100,6486.869142005919,-0.0629202741608056,0.0028951791600372975,0.9980143571297762,199.59651535619213,20.94968701365963,-86.34409161647378,5.410257795689881,-48.966552734375,4381.2578125,True
1599569538.935645,0.0,10,0.5,0.5,-5.284798194885254,-0.1005,-0.03,-0.12575,0.12403197749835015,10,1,100,0.6197159924431775,-10,-1,-100,6486.965227984707,-0.062232219459722724,0.0037885135267616316,0.9980545065407873,198.74824132805304,20.858032731980515,-82.96458399195808,5.220112925417904,-50.386566162109375,4381.2578125,True
1599569538.9974804,0.0,10,0.5,0.5,-4.727747337341309,-0.1005,-0.03,-0.12575,0.2522972165159756,10,1,100,0.5207181989809412,-10,-1,-100,6487.157872624928,-0.06071156213100055,0.005756916296111477,0.9981387499432998,196.55464563143738,20.621602688179586,-76.0863316710809,4.839744077705763,-53.44635009765625,4381.2578125,True
1599569539.0613093,0.0,10,0.5,0.5,-4.301701583862306,-0.1005,-0.03,-0.12575,0.2727326619848248,10,1,100,0.4794938088876684,-10,-1,-100,6487.351964451605,-0.058960636573793766,0.007721032789359772,0.9982304488380819,193.58345393408652,20.30263053194508,-69.05834453197056,4.45924644405587,-56.8021240234375,4381.2578125,True
1599569539.122493,0.0,10,0.5,0.5,-3.3988503341674807,-0.1005,-0.03,-0.12575,0.41779660073841607,10,1,100,0.3184908627149925,-10,-1,-100,6487.578624107526,-0.05591306557963728,0.010812644567251969,0.9983770909906484,187.29567484276586,19.631631823308915,-58.274459327809325,3.8881869955803556,-62.388580322265625,4381.2578125,True
1599569539.1833305,0.0,10,0.5,0.5,-3.57103360748291,-0.1005,-0.03,-0.12575,0.22308388404290522,10,1,100,0.4980938087430991,-10,-1,-100,6487.67516864615,-0.054785814074479466,0.011838095710335844,0.9984279513646188,184.63542141705028,19.349014356372077,-54.63739256612672,3.697734121155115,-64.39862060546875,4381.2578125,True
1599569539.2441676,0.0,10,0.5,0.5,-2.280373046875,-0.1005,-0.03,-0.12575,0.45364924654682515,10,1,100,0.20492702244690264,-10,-1,-100,6487.839792599552,-0.05110719495882752,0.014851169400674932,0.9985827443887026,174.76025607758152,18.304746653573392,-43.72904488411988,3.1260043053956608,-70.87310791015625,4381.2578125,True
1599569539.307,0.0,10,0.5,0.5,-1.942360885620117,-0.1005,-0.03,-0.12575,0.36824888947474554,10,1,100,0.27289267806585504,-10,-1,-100,6487.969397291308,-0.048394932346230476,0.01679746905349962,0.9986870258277115,166.39908420549742,17.42500295284168,-36.55979909023017,2.744462250642136,-75.5596923828125,4381.2578125,True
1599569539.3678367,0.0,10,0.5,0.5,-1.8730036392211915,-0.1005,-0.03,-0.12575,0.2807244577895992,10,1,100,0.38364666845745177,-10,-1,-100,6488.003926237114,-0.04695235727572022,0.017753469412939385,0.9987393506165945,161.68898940850463,16.930371557144845,-33.0561123891389,2.5535772382003588,-78.01400756835938,4381.2578125,True
1599569539.4306717,0.0,10,0.5,0.5,-0.3158495330810549,-0.1005,-0.03,-0.12575,0.46453228348232933,10,1,100,0.038496509635681964,-10,-1,-100,6488.167094585951,-0.042519285261632095,0.020277664923836092,0.9988898471233336,145.35476799669883,15.217983342545319,-23.052755701377905,1.9806085349220295,-85.82479858398438,4381.2578125,True
1599569539.491506,0.0,10,0.5,0.5,-0.5569695281982421,-0.1005,-0.03,-0.12575,0.30071473067862664,10,1,100,0.3077551813027777,-10,-1,-100,6488.200655817054,-0.0409566724843982,0.021065745523437773,0.9989388296309979,148.00969306837985,15.49592078990612,-21.210696907776658,1.7895607686029238,-88.57687377929688,4381.2578125,True
1599569539.5533416,0.0,10,0.5,0.5,0.5115625629425049,-0.1005,-0.03,-0.12575,0.38609702095279647,10,1,100,0.10360462419640626,-10,-1,-100,6488.26924910408,-0.03770016816928802,0.022541866374328662,0.9990348149991416,155.9639644890961,16.32838224268969,-17.5803728538997,1.4074628784434915,-94.3040542602539,4381.2578125,True
1599569539.6181684,0.0,10,0.5,0.5,1.9451762199401856,-0.1005,-0.03,-0.12575,0.44149502963351667,10,1,100,-0.11264567723920937,-10,-1,-100,6488.306983942166,-0.032796099734582654,0.02437036417873823,0.9991649019015805,168.645514109193,17.653254556636266,-11.272737844362739,0.8344690917539541,-103.2413101196289,4381.2578125,True
1599569539.6800056,0.0,10,0.5,0.5,1.6618742809295655,-0.1005,-0.03,-0.12575,0.31915336806244166,10,1,100,0.18661045964843753,-10,-1,-100,6488.341054539895,-0.031083743731462218,0.024903516670389314,0.9992064930398943,172.41793054455417,18.04720349595792,-8.888185568076606,0.6435157899647352,-106.29621887207031,4381.2578125,True
1599569539.7468264,0.0,10,0.5,0.5,3.471821334838867,-0.1005,-0.03,-0.12575,0.4123288165500399,10,1,100,-0.19185432371846994,-10,-1,-100,6488.318296605721,-0.02611181014605569,0.026219629845522074,0.9993151176589196,182.61723501957306,19.113484084268695,-1.0336903185907906,0.07064675930375985,-115.33763122558594,4381.2578125,True
1599569539.8176355,0.0,10,0.5,0.5,3.1505750217437747,-0.1005,-0.03,-0.12575,0.3219916809189108,10,1,100,0.12245129617124437,-10,-1,-100,6488.350437267218,-0.024476286390532235,0.026580843330561345,0.9993469718633089,185.0995929892717,19.372924112698687,1.7850578762745886,-0.12035417107435009,-118.24089813232422,4381.2578125,True
1599569539.885397,0.0,10,0.5,0.5,4.8203502292633065,-0.1005,-0.03,-0.12575,0.3787883793517884,10,1,100,-0.26060955552316345,-10,-1,-100,6488.327746445662,-0.019534629349819883,0.027412150350332093,0.9994333255747159,190.1139716450289,19.896746557772836,10.567630869421972,-0.6935659806308889,-126.52082824707031,4381.2578125,True
1599569539.9542131,0.0,10,0.5,0.5,5.111954948425293,-0.1005,-0.03,-0.12575,0.33885584263461405,10,1,100,-0.11884836978348651,-10,-1,-100,6488.268541131401,-0.016359654242813906,0.027793441870013317,0.999479807851101,191.77885055040522,20.070268527386116,16.538495068532626,-1.075864191010138,-131.67381286621094,4381.2578125,True
1599569540.5556946,0.0,10,0.5,0.5,5.731332263946533,-0.1005,-0.03,-0.12575,0.33226185884413995,10,1,100,-0.14100955536883636,-10,-1,-100,6488.211309568142,-0.01330097089303567,0.028070128878158743,0.9995174595964126,192.0094555054863,20.093512674305742,22.44727820422959,-1.4582765154156214,-136.5313720703125,4381.2578125,True
1599569540.6140485,0.0,10,0.5,0.5,5.8204024810791015,-0.1005,-0.03,-0.12575,0.31933887784586046,10,1,100,0.0008949402282351082,-10,-1,-100,6488.182947719237,-0.011840982704467637,0.02819480209515639,0.9995323127660293,191.63261607194949,20.0535195827278,25.343123513088546,-1.649519248935523,-138.84896850585938,4381.2578125,True
1599569540.6719687,0.0,10,0.5,0.5,7.16089933013916,-0.1005,-0.03,-0.12575,0.32921082960722226,10,1,100,-0.327358316027019,-10,-1,-100,6488.033439056831,-0.007557489569409992,0.02839068900191998,0.999568333396674,189.013973108099,19.777364014231594,33.700215606104315,-2.2233486833210767,-145.35885620117188,4381.2578125,True
1599569540.730781,0.0,10,0.5,0.5,6.9700636901855475,-0.1005,-0.03,-0.12575,0.3151602675591043,10,1,100,-0.051035067309433524,-10,-1,-100,6488.003144568414,-0.006205797328531081,0.028434376586287183,0.9995763974342664,187.7238877264095,19.641430315907833,36.352734641864714,-2.41464542794329,-147.38067626953125,4381.2578125,True
1599569540.7926157,0.0,10,0.5,0.5,8.146867023468017,-0.1005,-0.03,-0.12575,0.3169545090360485,10,1,100,-0.3447118682492724,-10,-1,-100,6487.8536891429685,-0.002335828347225132,0.028485047030764172,0.9995914895604042,182.9827072456016,19.141623406431062,43.866636453971665,-2.9885500813405206,-153.00196838378906,4381.2578125,True
1599569540.8534539,0.0,10,0.5,0.5,7.979554145812989,-0.1005,-0.03,-0.12575,0.3164772410794524,10,1,100,-0.0932728876138618,-10,-1,-100,6487.760911364574,-0.0011311747985301463,0.02852303165081781,0.9995924955245621,181.1982138984921,18.95346527262479,46.22287948381528,-3.179845671059343,-154.7269744873047,4381.2578125,True
1599569540.9153206,0.0,10,0.5,0.5,8.978481990814208,-0.1005,-0.03,-0.12575,0.31195966013094184,10,1,100,-0.35707256789897807,-10,-1,-100,6487.549491873593,0.002334914094754596,0.028513203737716087,0.9995906889266133,175.69077814669845,18.372497553790637,52.91813358736284,-3.7536910278208,-159.45870971679688,4381.2578125,True
1599569540.9772565,0.0,10,0.5,0.5,9.145480895996094,-0.1005,-0.03,-0.12575,0.3161464619492377,10,1,100,-0.24692812168251643,-10,-1,-100,6487.426955436356,0.0044587301919176104,0.028540246038797033,0.9995826999709032,171.859350985273,17.967963160403407,57.04829453363997,-4.136239026703721,-162.24169921875,4381.2578125,True
1599569541.0390906,0.0,10,0.5,0.5,9.4899022064209,-0.1005,-0.03,-0.12575,0.3210443484140644,10,1,100,-0.2551087471136543,-10,-1,-100,6487.243394414312,0.006437536860001195,0.02860757491427065,0.9995699899340219,168.0607239033612,17.56651403813333,60.956746455394004,-4.518811313268338,-164.72735595703125,4381.2578125,True
1599569541.1053731,0.0,10,0.5,0.5,9.786982803344728,-0.1005,-0.03,-0.12575,0.32850751864796646,10,1,100,-0.2616302925233478,-10,-1,-100,6487.058868935332,0.008272127729065467,0.02873554323540583,0.999552820244033,164.43664719497755,17.18323894953792,64.70275283539083,-4.901443613871385,-166.91534423828125,4381.2578125,True
1599569541.1662097,0.0,10,0.5,0.5,10.045349395751954,-0.1005,-0.03,-0.12575,0.33410312325338276,10,1,100,-0.2671492463668777,-10,-1,-100,6486.813317930559,0.009967717388636095,0.02890189074979124,0.9995325534074151,161.10823078540207,16.831142996532154,68.35421609055118,-5.284166703361883,-168.80609130859375,4381.2578125,True
1599569541.2270465,0.0,10,0.5,0.5,10.264804718017578,-0.1005,-0.03,-0.12575,0.34408444380026854,10,1,100,-0.2705496660071317,-10,-1,-100,6486.628322435194,0.011518922086537455,0.029143098893411816,0.999508876509285,158.15175875703048,16.51851056682486,71.9734378420035,-5.667001095322391,-170.39898681640625,4381.2578125,True
1599569541.2888837,0.0,10,0.5,0.5,10.31408743286133,-0.1005,-0.03,-0.12575,0.33615964787527464,10,1,100,-0.19727465845104625,-10,-1,-100,6486.4730836400995,0.01224173546612791,0.029289473336659436,0.9994960063274081,156.84640466559657,16.38055102778364,73.79745204475972,-5.858462403704287,-171.08380126953125,4381.2578125,True
1599569541.3527112,0.0,10,0.5,0.5,10.668888191223145,-0.1005,-0.03,-0.12575,0.38231228165081604,10,1,100,-0.3416838066982817,-10,-1,-100,6486.134327515843,0.014193649681607249,0.029841293333630614,0.9994538696312563,153.7474934790499,16.053328980985516,79.45587935483309,-6.433011626437835,-172.69149780273438,4381.2578125,True
1599569541.4135485,0.0,10,0.5,0.5,10.630199718475343,-0.1005,-0.03,-0.12575,0.35180381297162755,10,1,100,-0.21215719897408938,-10,-1,-100,6485.980071043596,0.014772057582722955,0.030064319145841477,0.9994388040440844,153.00514549896906,15.975019959707646,81.43482885698994,-6.624578504730785,-173.0784454345703,4381.2578125,True
1599569541.4755418,0.0,10,0.5,0.5,10.803396862030029,-0.1005,-0.03,-0.12575,0.41456461176307974,10,1,100,-0.32295654793106604,-10,-1,-100,6485.577852062881,0.016289597132500704,0.03083618689857812,0.9993917042895727,151.70035147911835,15.837342798681513,87.77357382089727,-7.1994221973877375,-173.79281616210938,4381.2578125,True
1599569541.537377,0.0,10,0.5,0.5,10.790875373840333,-0.1005,-0.03,-0.12575,0.3722652041051613,10,1,100,-0.2197240984470745,-10,-1,-100,6485.423599676229,0.01671486466250689,0.031151241917586937,0.9993749113452398,151.5789485545808,15.824400762785002,90.0478728978527,-7.3910818735475114,-173.8817138671875,4381.2578125,True
1599569541.599213,0.0,10,0.5,0.5,10.812870971679688,-0.1005,-0.03,-0.12575,0.41035870791978807,10,1,100,-0.26220636533326847,-10,-1,-100,6485.112653534859,0.017474601251870864,0.03178156193483713,0.9993420688793553,151.82710102425054,15.849871068413805,94.8951786267816,-7.774462645740073,-173.83709716796875,4381.2578125,True
1599569541.6610453,0.0,10,0.5,0.5,10.711540401458741,-0.1005,-0.03,-0.12575,0.47519588049176453,10,1,100,-0.27653861184452755,-10,-1,-100,6484.584959057043,0.01828373141861324,0.03294106232308615,0.9992900437702953,153.4114535332164,16.014202237565748,103.01692562413638,-8.349668764485267,-173.21067810058594,4381.2578125,True
1599569541.7238774,0.0,10,0.5,0.5,10.734885509490967,-0.1005,-0.03,-0.12575,0.4050449216099703,10,1,100,-0.21854331175637193,-10,-1,-100,6484.429732425138,0.018481305028887972,0.0333534780612882,0.9992727289712475,154.2714196886917,16.103319014334332,105.9871036013409,-8.541434358518401,-172.85321044921875,4381.2578125,True
1599569541.7847145,0.0,10,0.5,0.5,10.453877433776855,-0.1005,-0.03,-0.12575,0.5163182935102161,10,1,100,-0.2326383492655752,-10,-1,-100,6483.90301714919,0.018779773036221557,0.034735779445268775,0.999220068729125,157.68741768874094,16.45632891481056,115.67791634722296,-9.116799615266789,-171.33377075195312,4381.2578125,True
1599569541.8475466,0.0,10,0.5,0.5,10.33924750518799,-0.1005,-0.03,-0.12575,0.4882274819604102,10,1,100,-0.2019399742358494,-10,-1,-100,6483.52908676432,0.018764020492029503,0.035731742517802444,0.9991852451430697,160.68470597454356,16.76496029079568,122.87161983555724,-9.500414247193012,-169.9490966796875,4381.2578125,True
1599569541.9083846,0.0,10,0.5,0.5,10.131501075744628,-0.1005,-0.03,-0.12575,0.5048279762556156,10,1,100,-0.180618449235478,-10,-1,-100,6483.155643448466,0.01854928149875563,0.036782087401312745,0.9991511408201874,164.19917891119894,17.125642796339637,130.66799217685542,-9.884038408362132,-168.26724243164062,4381.2578125,True
1599569541.9692209,0.0,10,0.5,0.5,9.88684672164917,-0.1005,-0.03,-0.12575,0.5206807208468813,10,1,100,-0.15659509681843856,-10,-1,-100,6482.718721088022,0.01812993598650391,0.037874250778911205,0.9991180343428203,168.1550453931702,17.53016791669884,139.05283100351173,-10.267651604153844,-166.28846740722656,4381.2578125,True
1599569542.0350459,0.0,10,0.5,0.5,9.867450664520263,-0.1005,-0.03,-0.12575,0.4735899911061158,10,1,100,-0.1680488832536076,-10,-1,-100,6482.500991402776,0.017849259682681248,0.0384317263450435,0.9991017997876492,170.27514312537522,17.746372003703154,143.45918498119823,-10.45944726971958,-165.18783569335938,4381.2578125,True
1599569542.0968812,0.0,10,0.5,0.5,9.43388191986084,-0.1005,-0.03,-0.12575,0.5420595082169282,10,1,100,-0.11654112917928003,-10,-1,-100,6482.064551753108,0.017123049640257706,0.03955336573599006,0.9990707344477527,174.74322755586107,18.20072003300268,152.6726961064222,-10.843002767298147,-162.764404296875,4381.2578125,True
1599569542.161707,0.0,10,0.5,0.5,8.757548225402832,-0.1005,-0.03,-0.12575,0.6154603441879503,10,1,100,-0.026673243739419567,-10,-1,-100,6481.410371773876,0.015645120231775975,0.041232393528553124,0.9990270866882638,181.80800348531534,18.915723025618874,167.35791656075008,-11.41820621389095,-158.57437133789062,4381.2578125,True
1599569542.225046,0.0,10,0.5,0.5,8.889067123413087,-0.1005,-0.03,-0.12575,0.5097628105409858,10,1,100,-0.10913755816719052,-10,-1,-100,6481.193124201149,0.015052196122891166,0.041788731078082626,0.9990130796675096,184.1980808497821,19.156736711924225,172.43512601222048,-11.609895591302038,-157.02981567382812,4381.2578125,True
1599569542.2909026,0.0,10,0.5,0.5,8.28400001525879,-0.1005,-0.03,-0.12575,0.5712736618888392,10,1,100,-0.018427871727303008,-10,-1,-100,6480.693681747653,0.013690742879114162,0.04284458461795971,0.9989879404318815,188.92846011007939,19.63258359980578,182.76851963882717,-11.993190049012515,-153.71987915039062,4381.2578125,True
1599569542.357723,0.0,10,0.5,0.5,7.393589962005616,-0.1005,-0.03,-0.12575,0.6248064932405923,10,1,100,0.11268894780003982,-10,-1,-100,6479.975508959498,0.011265262469558768,0.04428211037350493,0.9989555488420697,195.58448970188508,20.299950075915454,198.3846078493268,-12.56788308608567,-148.20314025878906,4381.2578125,True
1599569542.4195583,0.0,10,0.5,0.5,7.098119785308838,-0.1005,-0.03,-0.12575,0.5752582861800832,10,1,100,0.07591247655617239,-10,-1,-100,6479.474582688301,0.009401171874506595,0.045128578603166665,0.9989369496422903,199.47026101855948,20.68889035725578,208.57017055303794,-12.950825412045386,-144.1578369140625,4381.2578125,True
1599569542.4803953,0.0,10,0.5,0.5,7.042812549591065,-0.1005,-0.03,-0.12575,0.5322246035368146,10,1,100,0.0009541218178612115,-10,-1,-100,6479.195308561553,0.008396509650409008,0.045497431879594985,0.9989291678182454,201.17610708695688,20.85974962183247,213.5039856659536,-13.142239527719791,-142.0253448486328,4381.2578125,True
1599569542.547219,0.0,10,0.5,0.5,6.212705539703369,-0.1005,-0.03,-0.12575,0.5605319029700012,10,1,100,0.13523137175700448,-10,-1,-100,6478.633331311867,0.006271903093456826,0.0460812142263208,0.9989180071091993,203.97622747967657,21.14114770707328,222.86657004569807,-13.524956662375715,-137.5413818359375,4381.2578125,True
1599569542.611429,0.0,10,0.5,0.5,5.03840858078003,-0.1005,-0.03,-0.12575,0.5704935276996103,10,1,100,0.30714250467364734,-10,-1,-100,6477.78961242619,0.002788775359171997,0.04669403192377252,0.9989053459235754,206.23760185050395,21.37318537022225,235.0383748743223,-14.098791272422744,-130.26634216308594,4381.2578125,True
1599569542.6737776,0.0,10,0.5,0.5,4.665340759277344,-0.1005,-0.03,-0.12575,0.5267197855963521,10,1,100,0.2328034731648577,-10,-1,-100,6477.226146016619,0.000312051487745088,0.04684517782856732,0.9989021132914271,206.42385010072292,21.399926709413183,241.73107551070572,-14.481237986798554,-125.05158996582031,4381.2578125,True
1599569542.7405925,0.0,10,0.5,0.5,3.954951904296875,-0.1005,-0.03,-0.12575,0.5027571794681921,10,1,100,0.2654119994216746,-10,-1,-100,6476.663156867842,-0.00222001389934595,0.04675709273041248,0.9989038221058554,205.51542878908674,21.320725360735942,247.12699002059702,-14.86365334620763,-119.54557800292969,4381.2578125,True
1599569542.804422,0.0,10,0.5,0.5,3.870086898803711,-0.1005,-0.03,-0.12575,0.4977756802183164,10,1,100,0.1547704200533948,-10,-1,-100,6476.3203784435755,-0.0034984743810447107,0.04662518016891428,0.9989063285670089,204.42245483680546,21.217425246629308,249.02897077670275,-15.054869639012182,-116.68330383300781,4381.2578125,True
1599569542.8682506,0.0,10,0.5,0.5,2.0625226593017576,-0.1005,-0.03,-0.12575,0.4333898646393207,10,1,100,0.45645478311823945,-10,-1,-100,6475.4126297144685,-0.007385893033530516,0.045915031528979265,0.9989180439174128,198.278692739374,20.61670108589203,250.92061545206258,-15.628663440484797,-107.65867614746094,4381.2578125,True
1599569542.9300873,0.0,10,0.5,0.5,1.605585012435913,-0.1005,-0.03,-0.12575,0.4201131812505834,10,1,100,0.35334087856986446,-10,-1,-100,6474.786617773934,-0.009962112595208366,0.04514499355236719,0.9989307713099026,192.53465066508616,20.046227561275035,249.73731173241995,-16.011386177523462,-101.2778091430664,4381.2578125,True
1599569542.9919212,0.0,10,0.5,0.5,0.7409374237060548,-0.1005,-0.03,-0.12575,0.3882049477701818,10,1,100,0.37035416929460935,-10,-1,-100,6474.161573973019,-0.01243729406198198,0.044152792897503096,0.9989473682811151,184.66295201451382,19.25022786678198,245.37741957368067,-16.394317344476345,-94.60503387451172,4381.2578125,True
1599569543.0527577,0.0,10,0.5,0.5,-0.15659790992736833,-0.1005,-0.03,-0.12575,0.35713286060433097,10,1,100,0.38531956318309296,-10,-1,-100,6473.472555959714,-0.014801960288460989,0.04296843634382437,0.9989667739468544,174.70039982576196,18.22701051685197,237.6864004378833,-16.77747541627049,-87.63998413085938,4381.2578125,True
1599569543.6432083,0.0,10,0.5,0.5,-1.089642318725586,-0.1005,-0.03,-0.12575,0.32510018139664154,10,1,100,0.39823740669019475,-10,-1,-100,6472.785972468206,-0.017047088951540133,0.041602506158827754,0.9989888028599635,173.537625011055,18.108684170932126,241.6233604124728,-17.16074360709938,-80.39425659179688,4381.2578125,True
1599569543.7020187,0.0,10,0.5,0.5,-1.2029228134155274,-0.1005,-0.03,-0.12575,0.3797269186436337,10,1,100,0.29252013904732416,-10,-1,-100,6472.441213745275,-0.01810391839522058,0.040860898989004184,0.9990008183542943,180.81927735036516,18.865168906616624,254.63887388145056,-17.35228974561769,-76.68359375,4381.2578125,True
1599569543.7608612,0.0,10,0.5,0.5,-2.6045836791992185,-0.1005,-0.03,-0.12575,0.2804295053108603,10,1,100,0.4069449877040697,-10,-1,-100,6471.752180163749,-0.0200827384940926,0.039288752636355104,0.99902606449024,193.88884986022347,20.214638224917643,279.21439516857043,-17.735116006496135,-69.23297119140625,4381.2578125,True
1599569543.81771,0.0,10,0.5,0.5,-3.50129931640625,-0.1005,-0.03,-0.12575,0.25372711740996545,10,1,100,0.40838079034784347,-10,-1,-100,6471.002596141421,-0.021873926322689412,0.03762351177056364,0.9990525525262822,204.60356555566298,21.312972283042832,301.1537585275454,-18.117547787567364,-61.93780517578125,4381.2578125,True
1599569543.8775506,0.0,10,0.5,0.5,-5.130118026733399,-0.1005,-0.03,-0.12575,0.12673671246859275,10,1,100,0.4894267412961884,-10,-1,-100,6469.907266314491,-0.024218891195661982,0.034963581544066195,0.9990950872038478,216.25001261707857,22.50263118463801,328.61224772550474,-18.690495797493362,-51.52081298828125,4381.2578125,True
1599569543.9363925,0.0,10,0.5,0.5,-4.776415283203125,-0.1005,-0.03,-0.12575,0.2939297051436956,10,1,100,0.33191807737413254,-10,-1,-100,6469.500978315598,-0.024898781519712615,0.034076120827193405,0.9991090374269488,218.72365460565885,22.756027711867336,335.8495159518266,-18.881328708428615,-48.19635009765625,4381.2578125,True
1599569543.9957447,0.0,10,0.5,0.5,-6.71915860748291,-0.1005,-0.03,-0.12575,0.092226203686887,10,1,100,0.46218593550665976,-10,-1,-100,6468.343151320005,-0.02668166206356465,0.031447078398012356,0.9991492231742739,223.33175108523696,23.239682084786004,353.5890023674867,-19.453555141409534,-38.670013427734375,4381.2578125,True
1599569544.055584,0.0,10,0.5,0.5,-7.0807647781372065,-0.1005,-0.03,-0.12575,0.16538632830858696,10,1,100,0.39259114312983096,-10,-1,-100,6467.5921059411485,-0.027652241019068022,0.029735284552709552,0.9991752430976223,223.85658585711326,23.311432743727263,361.55975644734224,-19.834944526786344,-32.6917724609375,4381.2578125,True
1599569544.1184182,0.0,10,0.5,0.5,-7.185759490966797,-0.1005,-0.03,-0.12575,0.24204233509979176,10,1,100,0.3431312006490995,-10,-1,-100,6467.185334043694,-0.028068867748406386,0.028889989945081282,0.9991884242445443,223.40059564031273,23.276327985402922,364.3919135392771,-20.025648916440254,-29.814422607421875,4381.2578125,True
1599569544.1797628,0.0,10,0.5,0.5,-8.870836929321289,-0.1005,-0.03,-0.12575,0.07503938691446549,10,1,100,0.4244368372463893,-10,-1,-100,6465.966005559312,-0.02917255094988351,0.026617206957327545,0.9992199390348789,219.61196834255398,22.929282876808998,368.7655080022013,-20.597912670949434,-21.626434326171875,4381.2578125,True
1599569544.2406049,0.0,10,0.5,0.5,-9.190200691223145,-0.1005,-0.03,-0.12575,0.14412271865925874,10,1,100,0.37693371172807344,-10,-1,-100,6465.089487559744,-0.029730988545913096,0.0251939356474009,0.9992403784508898,215.42565752834741,22.528879471558216,368.66345737415736,-20.979605224296712,-16.539306640625,4381.2578125,True
1599569544.3039477,0.0,10,0.5,0.5,-9.826033424377442,-0.1005,-0.03,-0.12575,0.14405629749529655,10,1,100,0.37507180810527885,-10,-1,-100,6464.277427515364,-0.030210201873374247,0.023914365691896502,0.999257447716215,210.9038291972098,22.0923840922004,367.72850625626927,-21.36146726227096,-11.748260498046875,4381.2578125,True
1599569544.365832,0.0,10,0.5,0.5,-9.935243881225587,-0.1005,-0.03,-0.12575,0.20591673025053975,10,1,100,0.35248823719553785,-10,-1,-100,6463.808168570395,-0.030429539450542963,0.02332889378766481,0.9992646325390845,208.44842239470722,21.852340629993222,366.81713003273154,-21.552460279703684,-9.463714599609375,4381.2578125,True
1599569544.427667,0.0,10,0.5,0.5,-11.27728476715088,-0.1005,-0.03,-0.12575,0.08668255000506375,10,1,100,0.38730641695189083,-10,-1,-100,6462.524423028692,-0.030936059972157322,0.021727208471448666,0.9992851888252109,200.39851333319868,21.050647200920583,362.3980352376269,-22.125667642424283,-3.0548095703125,4381.2578125,True
1599569544.4885125,0.0,10,0.5,0.5,-11.530995170593261,-0.1005,-0.03,-0.12575,0.14659697786879394,10,1,100,0.36645228002686536,-10,-1,-100,6461.586405873997,-0.031198711807352446,0.02083025871301255,0.9992961226300794,195.29932263881832,20.533802747543927,359.5288914785898,-22.50795064973519,0.847869873046875,4381.2578125,True
1599569544.5493507,0.0,10,0.5,0.5,-11.613714401245119,-0.1005,-0.03,-0.12575,0.19097513479853706,10,1,100,0.35270506362441434,-10,-1,-100,6461.1796552836895,-0.03130616621695147,0.020431136107278338,0.9993010020179918,192.66218059925427,20.26266832767416,357.81218307436814,-22.69912164709796,2.688201904296875,4381.2578125,True
1599569544.612211,0.0,10,0.5,0.5,-13.033120666503907,-0.1005,-0.03,-0.12575,0.09296165432384924,10,1,100,0.38790033718038885,-10,-1,-100,6459.302669126424,-0.0317179841810074,0.01918967026567727,0.9993126267763197,196.36310478831587,20.654138880067126,377.5033264320667,-23.463679300005445,9.309967041015625,4381.2578125,True
1599569544.674017,0.0,10,0.5,0.5,-12.344373641967774,-0.1005,-0.03,-0.12575,0.21588249767072246,10,1,100,0.34722217298653973,-10,-1,-100,6459.302669126424,-0.0317179841810074,0.01918967026567727,0.9993126267763197,196.36310478831587,20.654138880067126,377.5033264320667,-23.463679300005445,9.309967041015625,4381.2578125,True
1599569544.7358851,0.0,10,0.5,0.5,-13.119066223144532,-0.1005,-0.03,-0.12575,0.1689422971806101,10,1,100,0.3634830562801873,-10,-1,-100,6458.36320823268,-0.03186211426262062,0.018772528092391733,0.9993159649799138,202.6078992094533,21.3004669006502,396.13269072400465,-23.84565206657164,12.177093505859375,4381.2578125,True
1599569544.7962048,0.0,10,0.5,0.5,-13.73210856628418,-0.1005,-0.03,-0.12575,0.1701458696953917,10,1,100,0.37465213634201855,-10,-1,-100,6456.892505555996,-0.0320912302950909,0.018413447195768977,0.9993153145531776,210.39203840786016,22.092469057971147,421.68032011385947,-24.418181913766432,15.923431396484375,4381.2578125,True
1599569544.8590364,0.0,10,0.5,0.5,-13.855127883911134,-0.1005,-0.03,-0.12575,0.19815137238543837,10,1,100,0.3656245872648984,-10,-1,-100,6455.891048421618,-0.032214795624503516,0.01834906345944104,0.9993125230942683,214.6636742564844,22.518527189845276,437.2737896766611,-24.79958915061009,18.051483154296875,4381.2578125,True
1599569544.9219015,0.0,10,0.5,0.5,-13.906962989807129,-0.1005,-0.03,-0.12575,0.20624999121997353,10,1,100,0.3607715389512151,-10,-1,-100,6455.421328452532,-0.03228075111468278,0.018370379208718653,0.9993100030897318,216.55748914164667,22.704927422740262,444.68055635473536,-24.99021247063256,19.00469970703125,4381.2578125,True
1599569544.9827447,0.0,10,0.5,0.5,-14.260568325042724,-0.1005,-0.03,-0.12575,0.22039930686141523,10,1,100,0.36821048105658544,-10,-1,-100,6454.421346501214,-0.032406455080129744,0.018523427292514296,0.9993031093269342,219.90937935823436,23.030177239962477,458.7756228753553,-25.37130744185051,20.689620971679688,4381.2578125,True
1599569545.0435824,0.0,10,0.5,0.5,-14.45354708480835,-0.1005,-0.03,-0.12575,0.23735133191958235,10,1,100,0.368273223827736,-10,-1,-100,6453.357406530646,-0.032519504605156,0.01882103983876199,0.9992938758341428,222.74672278442594,23.299706384898695,472.0066037597464,-25.75221265750306,22.0792236328125,4381.2578125,True
1599569545.105412,0.0,10,0.5,0.5,-14.601812583923342,-0.1005,-0.03,-0.12575,0.2561133740422147,10,1,100,0.36954845560272703,-10,-1,-100,6452.355485580978,-0.03263243042164979,0.019264802689768087,0.9992817379808863,225.13569181102912,23.5211362064828,484.4662289772914,-26.13294357298301,23.173614501953125,4381.2578125,True
1599569545.1692414,0.0,10,0.5,0.5,-14.712029312133788,-0.1005,-0.03,-0.12575,0.27722407678362515,10,1,100,0.3702224326315106,-10,-1,-100,6451.29156096885,-0.03273991393816554,0.019861562084716674,0.9992665392110738,227.1304181946951,23.700645230371343,496.22971878721944,-26.51351631462339,23.972991943359375,4381.2578125,True
1599569545.2330377,0.0,10,0.5,0.5,-14.821549655914307,-0.1005,-0.03,-0.12575,0.34749547576650486,10,1,100,0.37512545593090135,-10,-1,-100,6449.632945966441,-0.03288089575797322,0.02104341931998935,0.9992377200633873,229.61197007684544,23.91593248970997,512.9982553682706,-27.084111693769948,24.619125366210938,4381.2578125,True
1599569545.297897,0.0,10,0.5,0.5,-14.78242141723633,-0.1005,-0.03,-0.12575,0.3985255956139436,10,1,100,0.3727903596789645,-10,-1,-100,6448.0358766767895,-0.032986775708619895,0.02258005994243731,0.9992006873102847,231.45024692895973,24.063916151148135,528.5680833865692,-27.654433106287218,24.602310180664062,4381.2578125,True
1599569545.362723,0.0,10,0.5,0.5,-14.795855422973634,-0.1005,-0.03,-0.12575,0.3111479076032649,10,1,100,0.3636413373437968,-10,-1,-100,6447.442164301174,-0.03299870383204479,0.023179581172132226,0.9991865654431555,231.9047390199337,24.096794534355674,533.4407118809497,-27.844488266701628,24.449569702148438,4381.2578125,True
1599569545.4245627,0.0,10,0.5,0.5,-14.732834270477296,-0.1005,-0.03,-0.12575,0.39723684827501216,10,1,100,0.36193727025218514,-10,-1,-100,6446.319201485952,-0.0329930227983533,0.024503220793343727,0.9991551694393518,232.57508363200142,24.13787306150026,542.6846384816834,-28.22453223864652,23.92340087890625,4381.2578125,True
1599569545.487394,0.0,10,0.5,0.5,-14.738532459259032,-0.1005,-0.03,-0.12575,0.3454135256772901,10,1,100,0.3600933861491638,-10,-1,-100,6445.786044809385,-0.03297027582814878,0.025229872267558913,0.9991378355648326,232.78808691735222,24.145826575064167,547.0416972536652,-28.4145248084394,23.550064086914062,4381.2578125,True
1599569545.5503888,0.0,10,0.5,0.5,-14.583109775543212,-0.1005,-0.03,-0.12575,0.44547485943800746,10,1,100,0.3566977974038913,-10,-1,-100,6444.598158803186,-0.03291804097554797,0.026793857724844588,0.9990988398384579,232.95880527870494,24.13557983109021,555.1805644228236,-28.794461068487454,22.58270263671875,4381.2578125,True
1599569545.6152081,0.0,10,0.5,0.5,-14.262626995086672,-0.1005,-0.03,-0.12575,0.5849495497912018,10,1,100,0.335966346384153,-10,-1,-100,6442.8766591328895,-0.03268150765494883,0.029475956708755035,0.9990310741080596,232.52620048444706,24.050247493268504,565.7671275792216,-29.364273529413705,20.581100463867188,4381.2578125,True
1599569545.6750495,0.0,10,0.5,0.5,-14.329826099395754,-0.1005,-0.03,-0.12575,0.4249520852308231,10,1,100,0.34828567355959344,-10,-1,-100,6442.277118260856,-0.03257822119911287,0.03044974926229178,0.9990052413643109,232.18190259961833,24.001678793582826,568.8055974496441,-29.554194692805854,19.767059326171875,4381.2578125,True
1599569545.7368734,0.0,10,0.5,0.5,-13.773212280273437,-0.1005,-0.03,-0.12575,0.6797686853062831,10,1,100,0.3009795197233254,-10,-1,-100,6440.49463289883,-0.032054215098392326,0.03364095821217161,0.99891982322156,230.46310434529025,23.78792927072113,576.1680009924921,-30.123938865949462,16.885101318359375,4381.2578125,True
1599569545.7987115,0.0,10,0.5,0.5,-13.866233283996582,-0.1005,-0.03,-0.12575,0.4881720817670784,10,1,100,0.3268248479037229,-10,-1,-100,6439.896084815264,-0.03181332909512568,0.03478720072032196,0.9988882633998307,229.63659161227636,23.691792098229268,577.956332405252,-30.31385415375437,15.77783203125,4381.2578125,True
1599569545.861542,0.0,10,0.5,0.5,-13.430086097717288,-0.1005,-0.03,-0.12575,0.6393293727110726,10,1,100,0.2947942571721583,-10,-1,-100,6438.650664139306,-0.03130399698081727,0.037189827792098944,0.9988177894299937,227.55575894146517,23.458109853082018,580.3754976157834,-30.69369726616061,13.343353271484375,4381.2578125,True
1599569545.9229195,0.0,10,0.5,0.5,-13.085337104797363,-0.1005,-0.03,-0.12575,0.6827670805300364,10,1,100,0.25950381131987127,-10,-1,-100,6437.393543079728,-0.030521579095313518,0.03975424392073032,0.9987432269106106,224.84785149798523,23.16446699219176,581.057023259405,-31.073569342720532,10.61602783203125,4381.2578125,True
1599569545.9858348,0.0,10,0.5,0.5,-12.703004776000975,-0.1005,-0.03,-0.12575,0.7254097507282843,10,1,100,0.24405779861802762,-10,-1,-100,6436.14816198952,-0.029672112899032717,0.042457579054035376,0.9986575587742664,221.4420792143622,22.805038618931974,579.7513950973187,-31.453481879391397,7.59576416015625,4381.2578125,True
1599569546.0496628,0.0,10,0.5,0.5,-12.282657203674317,-0.1005,-0.03,-0.12575,0.768397358391524,10,1,100,0.20538957260823099,-10,-1,-100,6434.8940142993815,-0.028551365748627485,0.04528842742863133,0.998565860549483,217.26737891329591,22.374064684151026,576.1974844467783,-31.833442641551994,4.282684326171875,4381.2578125,True
1599569546.113009,0.0,10,0.5,0.5,-11.39166446685791,-0.1005,-0.03,-0.12575,0.9744128983286098,10,1,100,0.08711024898669167,-10,-1,-100,6432.922745159012,-0.026461275994472122,0.04971589885347817,0.9984128055438467,209.40735152073518,21.58062095340594,566.0498566642499,-32.40347559313766,-1.23638916015625,4381.2578125,True
1599569546.7987082,0.0,10,0.5,0.5,-11.09597169494629,-0.1005,-0.03,-0.12575,0.8685861963993666,10,1,100,0.10680414082749407,-10,-1,-100,6431.669140165555,-0.02474614705273243,0.05275655192526771,0.9983007434811421,210.27018553236908,21.69463954594351,575.5597749291762,-32.783440413038264,-5.28216552734375,4381.2578125,True
1599569546.8735476,0.0,10,0.5,0.5,-11.038570831298829,-0.1005,-0.03,-0.12575,0.7359572524109653,10,1,100,0.17180896948461588,-10,-1,-100,6431.018419629661,-0.023785320906145466,0.05429146186863598,0.9982418022090431,213.330571600168,22.027621242317082,587.5807206114795,-32.97331235401087,-7.4150390625,4381.2578125,True
1599569546.9478242,0.0,10,0.5,0.5,-10.207649047851563,-0.1005,-0.03,-0.12575,0.9168868436807629,10,1,100,0.023270503820855742,-10,-1,-100,6429.639350306359,-0.021569580345712956,0.05730908946036904,0.9981234500145426,219.24855499854482,22.68247137019766,611.3726539975604,-33.352808373658945,-11.90185546875,4381.2578125,True
1599569547.0256157,0.0,10,0.5,0.5,-9.029566413879396,-0.1005,-0.03,-0.12575,1.1145968283457635,10,1,100,-0.175985477174196,-10,-1,-100,6427.599825965823,-0.017753860591595113,0.06182533318599176,0.9979290699295893,228.4207987654182,23.71730565818499,648.6492542928014,-33.921359072313834,-19.182708740234375,4381.2578125,True
1599569547.099419,0.0,10,0.5,0.5,-8.655373352050782,-0.1005,-0.03,-0.12575,0.9832933049271294,10,1,100,-0.12036336979948448,-10,-1,-100,6426.287202301552,-0.014803680295355176,0.06471171874641227,0.9977941894532149,233.91544592482302,24.353665896316862,672.2255108673407,-34.29990078311221,-24.405059814453125,4381.2578125,True
1599569547.1712272,0.0,10,0.5,0.5,-8.575686248779299,-0.1005,-0.03,-0.12575,0.8496249757205356,10,1,100,-0.0022441304064686196,-10,-1,-100,6425.563756078831,-0.01321097279216426,0.06609333488307452,0.997725985069006,236.40278506460126,24.64664091321043,683.3965336385647,-34.489026127064015,-27.127044677734375,4381.2578125,True
1599569547.2440686,0.0,10,0.5,0.5,-6.848396659851074,-0.1005,-0.03,-0.12575,1.130070638997133,10,1,100,-0.4138639537451585,-10,-1,-100,6423.471536743222,-0.008037506689992294,0.06987257966701747,0.9975235441316083,243.49997371195334,25.488103199606105,716.3178308755255,-35.05583637278949,-35.73773193359375,4381.2578125,True
1599569547.3208566,0.0,10,0.5,0.5,-7.1092572555541995,-0.1005,-0.03,-0.12575,0.8813107679592203,10,1,100,-0.10352640146889973,-10,-1,-100,6422.7480855438625,-0.006176046229079515,0.07101942306503342,0.9974558125553663,245.26205387429926,25.703563952429423,725.6580447200382,-35.24460613803918,-38.755950927734375,4381.2578125,True
1599569547.3926697,0.0,10,0.5,0.5,-5.200430290222168,-0.1005,-0.03,-0.12575,1.099872026261168,10,1,100,-0.5670506324914273,-10,-1,-100,6420.655850465293,-0.00029131286138124146,0.07402296318960108,0.997256494617833,248.29900635703478,26.100020013645334,747.2524262134284,-35.81054812704678,-48.25567626953125,4381.2578125,True
1599569547.4634793,0.0,10,0.5,0.5,-4.720436981201172,-0.1005,-0.03,-0.12575,0.9753283199534504,10,1,100,-0.4366300110638622,-10,-1,-100,6419.218685944914,0.003847111775469101,0.07559511639480973,0.9971311739727338,248.17132208059203,26.122545745897284,755.269246847482,-36.187661401197595,-54.96051025390625,4381.2578125,True
1599569547.5313,0.0,10,0.5,0.5,-4.618766586303711,-0.1005,-0.03,-0.12575,0.8949229205055591,10,1,100,-0.26110524451229244,-10,-1,-100,6418.436133684008,0.005986083215073377,0.07626986184316283,0.9970692428222662,247.38160748774058,26.052283636374458,757.0575009143306,-36.37620589118258,-58.424072265625,4381.2578125,True
1599569547.6001158,0.0,10,0.5,0.5,-2.4421758117675783,-0.1005,-0.03,-0.12575,0.9651875376817232,10,1,100,-0.7422858905773004,-10,-1,-100,6416.274937794195,0.012277033824152059,0.07750066030697814,0.9969167077005294,241.82187341433698,25.487889873231737,752.3719231613873,-36.941964255454806,-69.2647705078125,4381.2578125,True
1599569547.668974,0.0,10,0.5,0.5,-2.768617462158203,-0.1005,-0.03,-0.12575,0.868516714115543,10,1,100,-0.34909447067394184,-10,-1,-100,6415.491854806081,0.014388828419892785,0.07771964306126465,0.9968714153285428,238.84463512951808,25.17731009371056,747.1846265365376,-37.130636754104245,-73.027099609375,4381.2578125,True
1599569547.7347996,0.0,10,0.5,0.5,-1.3054280548095702,-0.1005,-0.03,-0.12575,0.865264938744601,10,1,100,-0.6054571810053746,-10,-1,-100,6413.989135452197,0.01860652232015592,0.07787060164942483,0.9967898307697097,231.1078867247789,24.36705789882265,730.8980187358599,-37.50817680232678,-80.77484130859375,4381.2578125,True
1599569547.8036108,0.0,10,0.5,0.5,0.6610279235839844,-0.1005,-0.03,-0.12575,0.7866978070020989,10,1,100,-0.8309452251533335,-10,-1,-100,6411.772068384453,0.024457625919093166,0.07727900346967186,0.9967094763054759,214.9600329823266,22.68311486433665,690.9367880865798,-38.07505573063692,-92.95587158203125,4381.2578125,True
1599569547.8704312,0.0,10,0.5,0.5,0.2871726245880126,-0.1005,-0.03,-0.12575,0.8055623338673145,10,1,100,-0.4590458901048974,-10,-1,-100,6410.993307350669,0.026360215866582656,0.07690125783710451,0.996690190361347,208.37258260027184,22.000452336871344,673.3625723792014,-38.264168126563966,-97.16474151611328,4381.2578125,True
1599569547.9342275,0.0,10,0.5,0.5,2.908512540817261,-0.1005,-0.03,-0.12575,0.6721962137881872,10,1,100,-0.8280162131131612,-10,-1,-100,6408.640834015096,0.031408144947413,0.07533560805863847,0.9966634710820886,211.27112305048317,22.370661830876934,693.6689883250498,-38.83132243168107,-110.16139221191406,4381.2578125,True
1599569547.998126,0.0,10,0.5,0.5,2.476446138381958,-0.1005,-0.03,-0.12575,0.7598809280960541,10,1,100,-0.4927595238415331,-10,-1,-100,6407.861536019249,0.03291352361693724,0.07470445745520302,0.9966624022202509,216.66840034831617,22.97012820501753,715.1176477324152,-39.0200792862469,-114.4884262084961,4381.2578125,True
1599569548.0619228,0.0,10,0.5,0.5,5.0571302280426025,-0.1005,-0.03,-0.12575,0.5779154921284995,10,1,100,-0.793067184368295,-10,-1,-100,6405.51624931721,0.03697658334870618,0.07247310291202014,0.9966846951961086,228.43278825267456,24.305991332737335,765.6858388830917,-39.5855552225918,-127.29554748535156,4381.2578125,True
1599569548.127747,0.0,10,0.5,0.5,4.624426967620851,-0.1005,-0.03,-0.12575,0.7175049814578531,10,1,100,-0.5137565895736741,-10,-1,-100,6404.73007587844,0.0380972068828995,0.07171500310328217,0.9966973267535225,231.19151747454455,24.625881823843024,778.8787848441983,-39.77383302348099,-131.45321655273438,4381.2578125,True
1599569548.1916485,0.0,10,0.5,0.5,7.054474197387695,-0.1005,-0.03,-0.12575,0.5209782664342617,10,1,100,-0.720404557175814,-10,-1,-100,6402.318769990816,0.040963436987542484,0.06924274233448004,0.9967584659606199,236.25598645681768,25.226156012178237,808.0218179344816,-40.338266420488615,-143.49032592773438,4381.2578125,True
1599569548.2554853,0.0,10,0.5,0.5,7.526575912475587,-0.1005,-0.03,-0.12575,0.5911273849780947,10,1,100,-0.593030613146423,-10,-1,-100,6400.693629522109,0.042379358178975764,0.06763934009461174,0.9968093647593321,236.36140504269773,25.260421857100123,816.4512385375739,-40.71442718891344,-151.13925170898438,4381.2578125,True
1599569548.3178885,0.0,10,0.5,0.5,7.65008464050293,-0.1005,-0.03,-0.12575,0.6617552586698656,10,1,100,-0.5164812332695972,-10,-1,-100,6399.844917707727,0.04294329005925776,0.06683273811030427,0.9968396355259785,235.56088017566506,25.18196576117098,817.7168878012139,-40.90252183128158,-154.85079956054688,4381.2578125,True
1599569548.383222,0.0,10,0.5,0.5,9.05622258758545,-0.1005,-0.03,-0.12575,0.5875700862643165,10,1,100,-0.562557244777803,-10,-1,-100,6398.216338720173,0.043848869635371115,0.06543495010720245,0.9968929450729243,232.46450481704042,24.859195684698744,814.9515666828468,-41.27880430524009,-162.043701171875,4381.2578125,True
1599569548.4472136,0.0,10,0.5,0.5,9.954456649780273,-0.1005,-0.03,-0.12575,0.5791288122653075,10,1,100,-0.5363542927698569,-10,-1,-100,6396.525743247592,0.044410967552388096,0.06409880002397546,0.9969548684853027,227.6873928083073,24.353398572227196,806.0645230292257,-41.65526675284961,-168.93402099609375,4381.2578125,True
1599569548.5110433,0.0,10,0.5,0.5,11.52510223388672,-0.1005,-0.03,-0.12575,0.5277212660474485,10,1,100,-0.5114582045084447,-10,-1,-100,6394.0523435022915,0.04467749818217861,0.06242875880401193,0.9970489312116892,218.12173771124532,23.343440849106955,783.5652563687909,-42.22036161695539,-178.69830322265625,4381.2578125,True
1599569548.5733829,0.0,10,0.5,0.5,-69.52160791015625,-0.1005,-0.03,-0.12575,0.5993315851704188,10,1,100,-0.47078458399083356,-10,-1,-100,6392.361260120291,0.04453338649335934,0.061574699231556715,0.9971084865259028,210.62068778853472,22.559037499745454,763.9697995135315,-42.59735280823437,175.17330932617188,4381.2578125,True
1599569548.63821,0.0,10,0.5,0.5,-24.560672241210938,-0.1005,-0.03,-0.12575,0.6128588003128157,10,1,100,-0.4450973999048443,-10,-1,-100,6390.601340419496,0.04415692397406379,0.06093376603864384,0.9971646013680472,205.04046231404763,21.990091323285128,750.8985075227151,-42.97448054685761,169.3497314453125,4381.2578125,True
1599569548.701301,0.0,10,0.5,0.5,-24.8757844581604,-0.1005,-0.03,-0.12575,0.6308023823465321,10,1,100,-0.4185554088047904,-10,-1,-100,6388.914191398886,0.0435631732189245,0.06052674178304461,0.9972155050279886,212.56587069541237,22.83772125531305,785.8924172305819,-43.35131196969664,163.7421417236328,4381.2578125,True
1599569548.7636945,0.0,10,0.5,0.5,-24.470321788787846,-0.1005,-0.03,-0.12575,0.6552864949110735,10,1,100,-0.34165453520051514,-10,-1,-100,6386.253866630606,0.04231831314524063,0.06039016290229476,0.9972773879905107,223.56059632258413,24.096719290216253,838.2550043678904,-43.91578894993486,154.97427368164062,4381.2578125,True
1599569548.8274713,0.0,10,0.5,0.5,-26.432163665771487,-0.1005,-0.03,-0.12575,0.66781189896596,10,1,100,-0.46656265319513646,-10,-1,-100,6386.253866630606,0.04231831314524063,0.06039016290229476,0.9972773879905107,223.56059632258413,24.096719290216253,838.2550043678904,-43.91578894993486,154.97427368164062,4381.2578125,True
1599569548.8913002,0.0,10,0.5,0.5,-25.202859512329102,-0.1005,-0.03,-0.12575,0.7160619893330367,10,1,100,-0.28848214456907145,-10,-1,-100,6383.5828572041355,0.04069816772486031,0.060836847886933804,0.9973176710973396,232.76188032331393,25.175255275942007,884.9156749066841,-44.479363146050055,145.58334350585938,4381.2578125,True
1599569548.9511402,0.0,10,0.5,0.5,-26.53338712692261,-0.1005,-0.03,-0.12575,0.7018663864212344,10,1,100,-0.38285050035820434,-10,-1,-100,6382.737620931468,0.040084730750283154,0.061120058293959896,0.9973251991375833,235.67963238288914,25.519035594351973,900.1038200284285,-44.66703436763217,142.31019592285156,4381.2578125,True
1599569549.0119772,0.0,10,0.5,0.5,-26.307071449279785,-0.1005,-0.03,-0.12575,0.7639820916929407,10,1,100,-0.3037818508879242,-10,-1,-100,6380.922182391514,0.03881085355940044,0.06194740387537762,0.9973245393547135,240.79475832610856,26.1257790306165,927.998390989745,-45.0421280204696,135.55043029785156,4381.2578125,True
1599569549.0758076,0.0,10,0.5,0.5,-25.634602432250976,-0.1005,-0.03,-0.12575,0.8740246722127769,10,1,100,-0.19492890229287976,-10,-1,-100,6378.1961822593585,0.03666779114053027,0.06370309381433027,0.9972950360506949,245.76903782806752,26.728578059196597,959.9632553034804,-45.604311265329784,124.87510681152344,4381.2578125,True
1599569549.1426306,0.0,10,0.5,0.5,-26.167842670440674,-0.1005,-0.03,-0.12575,0.8718127152469853,10,1,100,-0.24560014595941213,-10,-1,-100,6376.374040440773,0.035187239498900284,0.06527942661024334,0.9972464362623138,246.96602989517763,26.88717860288037,973.2316416566658,-45.97894948975512,117.40280151367188,4381.2578125,True
1599569549.2094502,0.0,10,0.5,0.5,-27.12638850402832,-0.1005,-0.03,-0.12575,0.8143766897999483,10,1,100,-0.30964676137074054,-10,-1,-100,6375.407818693784,0.034432152927233534,0.06618771922264013,0.9972129224337704,246.84613387407737,26.88456620592972,977.0671467682185,-46.16626727929787,113.56015014648438,4381.2578125,True
1599569549.278266,0.0,10,0.5,0.5,-25.637961898803713,-0.1005,-0.03,-0.12575,0.9541032586110177,10,1,100,-0.21301053487240026,-10,-1,-100,6373.585782253649,0.032876382378975326,0.06827948765947323,0.9971243929654069,245.05827697948567,26.705378463338008,978.5820046938726,-46.54097251883499,105.66268920898438,4381.2578125,True
1599569549.3565655,0.0,10,0.5,0.5,-23.639710483551024,-0.1005,-0.03,-0.12575,1.1591787858687284,10,1,100,-0.12415469054480355,-10,-1,-100,6370.709334884188,0.030664520151757975,0.07203874037564538,0.9969303421448024,238.22989143036742,25.982454066270414,963.9558663533369,-47.10339334220421,93.28569030761719,4381.2578125,True
1599569549.4553013,0.0,10,0.5,0.5,-23.03801690673828,-0.1005,-0.03,-0.12575,1.1082115865993678,10,1,100,-0.1919345289130044,-10,-1,-100,6368.797196972999,0.029281642705877815,0.07498243921645079,0.9967548440863464,230.72226324313073,25.18720550199337,941.8123064018395,-47.478687942995926,84.68135070800781,4381.2578125,True
1599569549.5560317,0.0,10,0.5,0.5,-21.89865872192383,-0.1005,-0.03,-0.12575,1.1795316242287062,10,1,100,-0.1906413518984139,-10,-1,-100,6366.822184772347,0.02802457675534445,0.07829362734443682,0.996536367131142,220.78723822355738,24.141480937030313,909.1736889531477,-47.85429474160281,75.79527282714844,4381.2578125,True
1599569550.2501807,0.0,10,0.5,0.5,-20.704251655578616,-0.1005,-0.03,-0.12575,1.2508578242240802,10,1,100,-0.1987906397683408,-10,-1,-100,6364.935186958406,0.026968868268576994,0.08193594249307103,0.996272644145208,227.6666888423071,24.954710875184,945.6687930847613,-48.22973121478678,66.62712097167969,4381.2578125,True
1599569550.3121493,0.0,10,0.5,0.5,-19.48214722824097,-0.1005,-0.03,-0.12575,1.3233440432621497,10,1,100,-0.2138248797637919,-10,-1,-100,6362.992657109047,0.02615828937098003,0.08588692271526081,0.9959614351990175,239.9910018499356,26.385027786778704,1005.4430172209934,-48.60447202000203,57.17681884765625,4381.2578125,True
1599569550.3770673,0.0,10,0.5,0.5,-19.32212063217163,-0.1005,-0.03,-0.12575,1.159859139017813,10,1,100,-0.26044724550546583,-10,-1,-100,6362.021442614612,0.025857899553888283,0.0879699811837382,0.9957874529442485,245.36271059521334,27.01863846962898,1032.3200693034773,-48.79159626597072,52.34587097167969,4381.2578125,True
1599569550.4411805,0.0,10,0.5,0.5,-16.305087856292726,-0.1005,-0.03,-0.12575,1.6789736093072922,10,1,100,-0.2460487177523442,-10,-1,-100,6359.0454941879725,0.025465697607872418,0.09455923626925075,0.9951934731907762,258.19982263747073,28.56194089037194,1100.0779936609279,-49.352151885115944,37.42913818359375,4381.2578125,True
1599569550.5062082,0.0,10,0.5,0.5,-15.588553874969485,-0.1005,-0.03,-0.12575,1.5279288928916466,10,1,100,-0.3075182907572993,-10,-1,-100,6357.042315499159,0.025678148405660003,0.0991482833409791,0.9947412983308744,264.0204659406795,29.27882113098196,1134.2360724856687,-49.725357611027725,27.130905151367188,4381.2578125,True
1599569550.5760572,0.0,10,0.5,0.5,-15.423702922821047,-0.1005,-0.03,-0.12575,1.3281979422909527,10,1,100,-0.31377020676772044,-10,-1,-100,6356.070797567023,0.025936765722919128,0.10147361853097062,0.9945000698471897,265.6487276792219,29.490173576586177,1145.950827893795,-49.911890959048364,21.87548828125,4381.2578125,True
1599569550.64092,0.0,10,0.5,0.5,-12.145990997314453,-0.1005,-0.03,-0.12575,1.8677153900594412,10,1,100,-0.4409548411744467,-10,-1,-100,6353.033823719481,0.027335819403401584,0.10846018559312341,0.9937248820064082,264.86915279313797,29.47895318162231,1156.8151827218753,-50.47156037887568,5.68310546875,4381.2578125,True
1599569550.7266595,0.0,10,0.5,0.5,-11.359288986206055,-0.1005,-0.03,-0.12575,1.6733438962764988,10,1,100,-0.4595944790309492,-10,-1,-100,6351.030907937675,0.028782174514331633,0.11300806870802316,0.9931771054736961,259.3141149823305,28.909837695505086,1141.9590874226385,-50.844974474126325,-5.46807861328125,4381.2578125,True
1599569550.7925167,0.0,10,0.5,0.5,-9.87755470275879,-0.1005,-0.03,-0.12575,1.700896381043653,10,1,100,-0.515305777405328,-10,-1,-100,6348.965039749746,0.030605220369160056,0.1173557401936949,0.9926182301014551,249.58717144814617,27.88872143032822,1108.2570297312575,-51.218774522929436,-16.90557861328125,4381.2578125,True
1599569550.8573112,0.0,10,0.5,0.5,-9.692819107055664,-0.1005,-0.03,-0.12575,1.4983828641186188,10,1,100,-0.4470286975247878,-10,-1,-100,6347.9325950883795,0.031640630804032545,0.11942861566228048,0.9923384887442964,243.1672300751436,27.211939884917225,1084.2126822786995,-51.40583071350107,-22.7320556640625,4381.2578125,True
1599569550.922163,0.0,10,0.5,0.5,-7.444627113342285,-0.1005,-0.03,-0.12575,1.725786565307199,10,1,100,-0.5953553950157201,-10,-1,-100,6345.865245570312,0.033927050218335385,0.12334295883696553,0.9917839834201927,239.07391766184344,26.856301792948436,1074.7113664196706,-51.779995794359635,-34.600738525390625,4381.2578125,True
1599569550.98634,0.0,10,0.5,0.5,-4.483005065917968,-0.1005,-0.03,-0.12575,1.905976150648736,10,1,100,-0.787104773935795,-10,-1,-100,6342.7672868260415,0.03774246387429341,0.12850189702947146,0.9909908016124696,259.3042554259412,29.32743067586774,1179.7176751656434,-52.33965165298419,-52.945159912109375,4381.2578125,True
1599569551.0501385,0.0,10,0.5,0.5,-5.04330933380127,-0.1005,-0.03,-0.12575,1.5613331249992903,10,1,100,-0.5542535716784466,-10,-1,-100,6341.671766750049,0.03908366156418544,0.13001998154010533,0.9907407692222254,263.91859257176696,29.914515480362187,1205.4364488748145,-52.525830532597595,-59.204345703125,4381.2578125,True
1599569551.113265,0.0,10,0.5,0.5,-1.1492076416015622,-0.1005,-0.03,-0.12575,1.8395338049140242,10,1,100,-0.8512380416304627,-10,-1,-100,6338.510998204118,0.04299076758909625,0.133890928185037,0.9900631359927757,271.7736949481947,30.97479158135766,1255.8693724994594,-53.08377221929857,-78.41558837890625,4381.2578125,True
1599569551.1810863,0.0,10,0.5,0.5,-1.7360841445922852,-0.1005,-0.03,-0.12575,1.5760528501546203,10,1,100,-0.5980685395580913,-10,-1,-100,6337.476380689535,0.044225209347465225,0.13497893309905687,0.9898610096764157,271.92851144676536,31.037979547375855,1261.4592081339056,-53.269697854835194,-84.96322631835938,4381.2578125,True
1599569551.2471726,0.0,10,0.5,0.5,2.318262279510498,-0.1005,-0.03,-0.12575,1.7684775010291305,10,1,100,-0.8547613943660798,-10,-1,-100,6334.252191207255,0.047664139570653456,0.13768477016542677,0.989328577300526,263.314896319998,30.175712619545063,1235.8218221028217,-53.82791944339015,-105.03584289550781,4381.2578125,True
1599569551.3132627,0.0,10,0.5,0.5,3.28303176689148,-0.1005,-0.03,-0.12575,1.6597326703761432,10,1,100,-0.7192089480047608,-10,-1,-100,6332.060075179674,0.04953839264858737,0.13912311344561365,0.9890352405040952,249.90046048606334,28.72991267891225,1182.035559223636,-54.2007059680132,-118.77359771728516,4381.2578125,True
1599569551.3762085,0.0,10,0.5,0.5,3.507038206100464,-0.1005,-0.03,-0.12575,1.587737792321192,10,1,100,-0.623333607181984,-10,-1,-100,6330.96372707549,0.05035048091809734,0.1397483239654181,0.9889060799793744,241.09897506910957,27.772471619571313,1144.8308832255134,-54.38731809636521,-125.74888610839844,4381.2578125,True
1599569551.4430335,0.0,10,0.5,0.5,7.672289608001709,-0.1005,-0.03,-0.12575,1.7300825761705305,10,1,100,-0.7298931569284206,-10,-1,-100,6327.675044564763,0.052037858609525124,0.14158643133181847,0.9885572030661935,255.98907502356124,29.69462387384414,1229.4767270137138,-54.94624619133566,-146.44082641601562,4381.2578125,True
1599569551.5073707,0.0,10,0.5,0.5,9.994354686737061,-0.1005,-0.03,-0.12575,1.7528476858698283,10,1,100,-0.6460139472717924,-10,-1,-100,6324.386265272042,0.05278981584281707,0.14344236567023233,0.9882497270802603,271.78644218904765,31.730311189649257,1319.9563403293175,-55.50324906495767,-166.4871063232422,4381.2578125,True
1599569551.5692058,0.0,10,0.5,0.5,7.90480014038086,-0.1005,-0.03,-0.12575,1.5696556270292379,10,1,100,-0.5729331424464763,-10,-1,-100,6324.386265272042,0.05278981584281707,0.14344236567023233,0.9882497270802603,271.78644218904765,31.730311189649257,1319.9563403293175,-55.50324906495767,-166.4871063232422,4381.2578125,True
1599569551.631553,0.0,10,0.5,0.5,11.235177490234376,-0.1005,-0.03,-0.12575,1.7364237731844645,10,1,100,-0.5733192561272084,-10,-1,-100,6322.130938524962,0.05277617799843783,0.1449401675381587,0.9880318936501431,276.50983691674884,32.39153241031688,1352.8448706718605,-55.87417475044829,-179.45823669433594,4381.2578125,True
1599569551.6948917,0.0,10,0.5,0.5,-68.60333028030396,-0.1005,-0.03,-0.12575,1.7786487891862075,10,1,100,-0.5369228541528943,-10,-1,-100,6319.874213195057,0.052419236563668266,0.14667072549946333,0.9877954858772858,275.18153727307936,32.33413498010395,1356.3795996623762,-56.24520637072012,167.88729858398438,4381.2578125,True
1599569551.7577238,0.0,10,0.5,0.5,-21.446506282806396,-0.1005,-0.03,-0.12575,1.9636730693638118,10,1,100,-0.45644066639036746,-10,-1,-100,6316.5213134540245,0.05135096484785525,0.14991086188048272,0.987365085416456,262.940050837082,31.058539971565793,1310.6651102394283,-56.802461231113696,149.5032196044922,4381.2578125,True
1599569551.8195589,0.0,10,0.5,0.5,-21.739381900787357,-0.1005,-0.03,-0.12575,1.9347033180267257,10,1,100,-0.4597824141234771,-10,-1,-100,6314.203397269128,0.050402588088091,0.1525785154568037,0.9870052561840894,249.03176515536487,29.553103444625634,1250.6141720421313,-57.17453887761486,137.55767822265625,4381.2578125,True
1599569551.8813934,0.0,10,0.5,0.5,-22.54671488952637,-0.1005,-0.03,-0.12575,1.8343493814587886,10,1,100,-0.49867100186866875,-10,-1,-100,6313.045244407491,0.04988834421440649,0.15407534693706176,0.9867988349090044,253.51716024141297,30.166790412991734,1277.8300284779584,-57.36044901419527,131.53610229492188,4381.2578125,True
1599569551.9452226,0.0,10,0.5,0.5,-21.247836383819582,-0.1005,-0.03,-0.12575,2.050920383419635,10,1,100,-0.4317623402778701,-10,-1,-100,6310.787691366044,0.04881056721964626,0.15739002959442075,0.9863295124409305,271.01146383235687,32.43312653798396,1375.9425614468082,-57.73140401653157,119.31153869628906,4381.2578125,True
1599569552.0080543,0.0,10,0.5,0.5,-20.67386393737793,-0.1005,-0.03,-0.12575,2.1358715294029964,10,1,100,-0.4260313797057331,-10,-1,-100,6308.470315624378,0.04777933196959839,0.16115905432264238,0.9857712182075365,284.2872538561412,34.20964730122766,1453.6641300214853,-58.10142781263277,106.82328796386719,4381.2578125,True
1599569552.069889,0.0,10,0.5,0.5,-20.05555052947998,-0.1005,-0.03,-0.12575,2.2229839604513075,10,1,100,-0.43170002408428987,-10,-1,-100,6306.090210681665,0.04689571591749493,0.16535790733023104,0.9851180408011785,293.6710412590895,35.51073864687562,1512.2993527926494,-58.47086512415712,94.06559753417969,4381.2578125,True
1599569552.1307275,0.0,10,0.5,0.5,-19.43382308959961,-0.1005,-0.03,-0.12575,2.310825776411089,10,1,100,-0.4438335113410733,-10,-1,-100,6303.772385863471,0.046207407702182575,0.16995199795858382,0.984368423845122,297.7547918617607,36.15752652550133,1544.2526045064674,-58.84010657969114,81.03785705566406,4381.2578125,True
1599569552.1925614,0.0,10,0.5,0.5,-17.278747787475588,-0.1005,-0.03,-0.12575,2.6813403265240514,10,1,100,-0.46501179379864177,-10,-1,-100,6300.234382312861,0.04578018680891345,0.1774726584105784,0.9830603389479321,291.0699633521861,35.5752049827285,1525.9898721229772,-59.39446248712554,60.98973083496094,4381.2578125,True
