Timestamp,Input Throttle,horizon,dT,dt,Input Roll,Roll P,Roll I,Roll D,Input Pitch,Pitch P,Pitch I,Pitch D,Input Yaw,Yaw P,Yaw I,Yaw D,Altitude,Direction X,Direction Y,Direction Z,Drag X,Drag Y,Drag Z,Vertical Velocity,Roll,Mass,Has Fuel
1599566173.9235582,0.0,10,0.5,0.5,-0.054662330627441406,-0.001,-0.03,-0.37525,-0.06860264834306834,10,1,100,0.6815901774131996,-10,-1,-100,6483.617967169615,-0.06725793188041787,-0.0070027535700985565,0.9977110463664345,205.0731851813613,21.498773813231747,-156.76520503769382,9.590823628706406,-35.944610595703125,4381.2578125,True
1599566173.9783714,0.0,10,0.5,0.5,-0.21748460388183594,-0.001,-0.03,-0.37525,-0.06735387861147915,10,1,100,0.6998982905259286,-10,-1,-100,6483.997882486903,-0.06744514259436067,-0.0069720814569484086,0.9976986232428029,204.61213322120574,21.456740592604792,-150.26670336904976,9.21080136175107,-35.941253662109375,4381.2578125,True
1599566174.0352614,0.0,10,0.5,0.5,-0.37938862609863283,-0.001,-0.03,-0.37525,-0.05217156732838161,10,1,100,0.7006640118141437,-10,-1,-100,6484.316759834415,-0.06756098148911575,-0.006799838450186525,0.99769197449778,204.1496826925919,21.41437881498034,-143.78949946108614,8.8307976984754,-35.938629150390625,4381.2578125,True
1599566174.0921142,0.0,10,0.5,0.5,-0.5396693115234374,-0.001,-0.03,-0.37525,-0.05296355895133781,10,1,100,0.6982737304905877,-10,-1,-100,6484.5389356797095,-0.06758314067096158,-0.006644272151111518,0.9976915218366,203.93203591332468,21.394543844482666,-140.56867502489644,8.640800800180864,-35.941070556640625,4381.2578125,True
1599566174.1459794,0.0,10,0.5,0.5,-0.6876401290893555,-0.001,-0.03,-0.37525,-0.02703439820482168,10,1,100,0.7036494373326315,-10,-1,-100,6484.856804818031,-0.06759071622513912,-0.006261088352301263,0.9976934869251265,203.51783406337324,21.35690566053097,-134.15659479112207,8.26081239185295,-35.98126220703125,4381.2578125,True
1599566174.2028282,0.0,10,0.5,0.5,-0.723581169128418,-0.001,-0.03,-0.37525,0.08634410845973506,10,1,100,0.6726369354439192,-10,-1,-100,6485.493931142497,-0.06725422515156211,-0.004876333848839333,0.9977239550935206,202.79772477363247,21.291947003471698,-121.45645683479158,7.500831115499986,-36.356536865234375,4381.2578125,True
1599566174.2676532,0.0,10,0.5,0.5,-0.9539138488769532,-0.001,-0.03,-0.37525,0.0005010846222200868,10,1,100,0.6943351676472942,-10,-1,-100,6485.5900863233255,-0.06708444062729409,-0.004393424213443315,0.9977376286626679,202.64272039609574,21.278030504380055,-118.30638032965383,7.310829220505379,-36.546356201171875,4381.2578125,True
1599566174.3220885,0.0,10,0.5,0.5,-1.0959545059204099,-0.001,-0.03,-0.37525,0.011051148603057524,10,1,100,0.6956918765559457,-10,-1,-100,6485.750201071263,-0.06688143892201336,-0.0038545117594271008,0.9977534845175022,202.49855710535442,21.265096249201815,-115.16587409521132,7.120822616591173,-36.78436279296875,4381.2578125,True
1599566174.380904,0.0,10,0.5,0.5,-1.1075410690307617,-0.001,-0.03,-0.37525,0.08864164310430855,10,1,100,0.6630271037464237,-10,-1,-100,6486.005467955372,-0.06633913812901521,-0.002655719113256054,0.9977935988511307,202.23468425490364,21.241258957670677,-108.9073072712634,6.740791356738638,-37.415252685546875,4381.2578125,True
1599566174.4407425,0.0,10,0.5,0.5,-0.9683537673950198,-0.001,-0.03,-0.37525,0.21304734133562137,10,1,100,0.6060452341159531,-10,-1,-100,6486.420307293185,-0.06526781210407714,-0.0004325324336220258,0.9978676894352481,201.85801970086956,21.205938971254287,-99.54944815543814,6.170682019859956,-38.83367919921875,4381.2578125,True
1599566174.4986126,0.0,10,0.5,0.5,-1.1636649322509767,-0.001,-0.03,-0.37525,0.17799171260324223,10,1,100,0.6168905038209109,-10,-1,-100,6486.675519680604,-0.06433313834044754,0.001270252043417846,0.9979276696088826,201.5677272003274,21.177024262438863,-93.30557073946392,5.790553822611523,-40.13720703125,4381.2578125,True
1599566174.5564623,0.0,10,0.5,0.5,-1.3536392822265626,-0.001,-0.03,-0.37525,0.10928757062039304,10,1,100,0.6512863671945477,-10,-1,-100,6486.772112977575,-0.0637987834892173,0.002186133908506813,0.997960388013387,201.38765686467062,21.15847844548902,-90.17275771354822,5.600469504680794,-40.89892578125,4381.2578125,True
1599566174.6132815,0.0,10,0.5,0.5,-0.9699873123168945,-0.001,-0.03,-0.37525,0.22835522263270866,10,1,100,0.5693454527875175,-10,-1,-100,6486.965284509468,-0.06257140381994876,0.004092861335640147,0.9980320976351854,200.90699043814456,21.107859932820947,-83.86952759021864,5.220252466437996,-42.638763427734375,4381.2578125,True
1599566174.6711254,0.0,10,0.5,0.5,-0.41558935546875,-0.001,-0.03,-0.37525,0.3861195454213372,10,1,100,0.44994806473621207,-10,-1,-100,6487.25452076213,-0.06037470929984655,0.007250568567670868,0.9981494495978067,199.70915261746597,20.979746998850903,-74.282787159269,4.649778704618422,-45.794036865234375,4381.2578125,True
1599566174.7291203,0.0,10,0.5,0.5,-0.6406055145263674,-0.001,-0.03,-0.37525,0.3167926336969694,10,1,100,0.47834077614619774,-10,-1,-100,6487.447655022261,-0.058642382959272696,0.009478335180460196,0.9982340567637756,198.43638280573023,20.843228430812083,-67.78401287673643,4.269338606998427,-48.264312744140625,4381.2578125,True
1599566174.7909544,0.0,10,0.5,0.5,-0.5020565795898437,-0.001,-0.03,-0.37525,0.3439985239349078,10,1,100,0.43588839079639696,-10,-1,-100,6487.57876796776,-0.05668974490399452,0.011736595263765606,0.9983228561714566,196.6392294784584,20.65069037824205,-61.19430789371261,3.888776389474392,-50.998321533203125,4381.2578125,True
1599566174.8587728,0.0,10,0.5,0.5,-0.3934620208740236,-0.001,-0.03,-0.37525,0.3729622326432801,10,1,100,0.3916732715614779,-10,-1,-100,6487.770907524275,-0.054522267842740155,0.014037762755835176,0.9984138738649897,194.24425565671604,20.39471182970098,-54.540830112645075,3.508068502598293,-53.896942138671875,4381.2578125,True
1599566174.9166186,0.0,10,0.5,0.5,-0.27262655639648425,-0.001,-0.03,-0.37525,0.39831933171000317,10,1,100,0.3447596407444784,-10,-1,-100,6487.8385315994965,-0.05213676675488579,0.01634349666107838,0.9985062081275389,191.18889007521992,20.069142990416992,-47.862482383531194,3.1271902442204276,-56.970672607421875,4381.2578125,True
1599566174.9814458,0.0,10,0.5,0.5,-0.15230608367919918,-0.001,-0.03,-0.37525,0.41845486287232636,10,1,100,0.29607787258273516,-10,-1,-100,6487.968167347368,-0.04953897212097245,0.018604306850574678,0.9985989034681578,187.49120556745714,19.67631635144254,-41.22367862510697,2.746119569439788,-60.195068359375,4381.2578125,True
1599566175.0482674,0.0,10,0.5,0.5,-0.03608781433105457,-0.001,-0.03,-0.37525,0.4362700679638416,10,1,100,0.2463621921976723,-10,-1,-100,6488.099269945407,-0.046740652783012517,0.02080221795461797,0.9986904320687099,183.10047788426158,19.211337994417278,-34.67382274161276,2.364841498325075,-63.53814697265625,4381.2578125,True
1599566175.112097,0.0,10,0.5,0.5,0.7255723114013672,-0.001,-0.03,-0.37525,0.5621172301667146,10,1,100,0.024613035075667367,-10,-1,-100,6488.200967037352,-0.04219766755586805,0.023925079750694134,0.9988227807833416,175.07799386059398,18.36633408095985,-25.13516586362949,1.7924683807323722,-68.69970703125,4381.2578125,True
1599566175.1749294,0.0,10,0.5,0.5,-1.1256156005859375,-0.001,-0.03,-0.37525,0.25209653332982573,10,1,100,0.47669801071165635,-10,-1,-100,6488.200967037352,-0.04219766755586805,0.023925079750694134,0.9988227807833416,175.07799386059398,18.36633408095985,-25.13516586362949,1.7924683807323722,-68.69970703125,4381.2578125,True
1599566175.2387578,0.0,10,0.5,0.5,0.9157725448608398,-0.001,-0.03,-0.37525,0.5616879018221292,10,1,100,-0.060206939608377474,-10,-1,-100,6488.301712045562,-0.037336350840170784,0.02671978405894945,0.9989454690050819,165.65112856336563,17.377459352360994,-16.183927514223296,1.2195781960053518,-73.90365600585938,4381.2578125,True
1599566175.31007,0.0,10,0.5,0.5,-0.31407980346679687,-0.001,-0.03,-0.37525,0.37639710308474095,10,1,100,0.24004937659968015,-10,-1,-100,6488.273777897935,-0.03566951583959178,0.027555392602729562,0.9989836765324439,162.32481541054327,17.028767627336297,-13.375456277279065,1.0285327601221805,-75.57577514648438,4381.2578125,True
1599566175.3678935,0.0,10,0.5,0.5,0.44642094421386724,-0.001,-0.03,-0.37525,0.4840186968548956,10,1,100,0.009408495466309563,-10,-1,-100,6488.341455282061,-0.03207993527736227,0.029274955927681017,0.9990564822411356,155.48146733998894,16.31120640938437,-8.052252011349173,0.6463736002603313,-79.02725219726562,4381.2578125,True
1599566175.4267652,0.0,10,0.5,0.5,1.1655434646606446,-0.001,-0.03,-0.37525,0.5384634006256126,10,1,100,-0.22030124647382432,-10,-1,-100,6488.318251035642,-0.026752557519226873,0.031315150238509566,0.999151471015141,144.1301170916038,15.120143985809753,-0.8440022352023941,0.07307415511056226,-84.13555908203125,4381.2578125,True
1599566175.503566,0.0,10,0.5,0.5,-0.014075653076171979,-0.001,-0.03,-0.37525,0.40593911298459884,10,1,100,0.10394160254614579,-10,-1,-100,6488.350890934584,-0.02488436471872603,0.031947307401640174,0.999179732551822,142.4928212046421,14.948238766541884,1.3477127012743837,-0.11802029897486488,-85.83087158203125,4381.2578125,True
1599566175.563783,0.0,10,0.5,0.5,1.3037107257843017,-0.001,-0.03,-0.37525,0.5113520724096764,10,1,100,-0.31368486451806377,-10,-1,-100,6488.327748820768,-0.019416346929617915,0.03346401395867252,0.9992513023467533,150.0581708633041,15.740729441676718,8.314210946759584,-0.6912630956459598,-90.76947784423828,4381.2578125,True
1599566175.6312423,0.0,10,0.5,0.5,0.6978397941589356,-0.001,-0.03,-0.37525,0.4492363704266574,10,1,100,-0.176353730632926,-10,-1,-100,6488.269054380362,-0.015723632356498398,0.03426258579494939,0.9992891686594834,154.73671275252377,16.229785897570473,13.314314215535743,-1.073391915883401,-93.81517791748047,4381.2578125,True
1599566175.6920798,0.0,10,0.5,0.5,0.22054073143005376,-0.001,-0.03,-0.37525,0.40736181523401893,10,1,100,-0.015704642446900285,-10,-1,-100,6488.241179684992,-0.01385780658241223,0.034593647618045856,0.9993053791215191,156.86888068055046,16.452365001499295,15.901310499610013,-1.264456195355221,-95.31614685058594,4381.2578125,True
1599566175.750924,0.0,10,0.5,0.5,0.822585594177246,-0.001,-0.03,-0.37525,0.4296961177358585,10,1,100,-0.21700178828357816,-10,-1,-100,6488.184470420238,-0.010361520776728278,0.03508511436209261,0.9993306127790703,160.97471693725822,16.880814122937988,21.251651601803,-1.6466098566664928,-98.15986633300781,4381.2578125,True
1599566175.8157494,0.0,10,0.5,0.5,1.760504337310791,-0.001,-0.03,-0.37525,0.43620145797040816,10,1,100,-0.6405357462324182,-10,-1,-100,6488.005190734519,-0.0033617123781889942,0.03558089628189339,0.9993611452871598,168.3624950657989,17.653409369116297,32.55562312879244,-2.4111501615419657,-103.25393676757812,4381.2578125,True
1599566175.8775856,0.0,10,0.5,0.5,0.8228645839691161,-0.001,-0.03,-0.37525,0.3888250872741293,10,1,100,-0.3066125984016787,-10,-1,-100,6487.885058284854,-6.922059177607604e-05,0.03559031664217229,0.9993664615994574,171.903682744639,18.0257840705816,38.51818069358074,-2.793592415779902,-105.56688690185547,4381.2578125,True
1599566175.9404194,0.0,10,0.5,0.5,0.82333176612854,-0.001,-0.03,-0.37525,0.37948147923131387,10,1,100,-0.31388146477088963,-10,-1,-100,6487.763478137669,0.0029561551535481354,0.035505874594233676,0.9993650954561135,174.9722921439027,18.34999945613083,44.58143424375896,-3.176158951945884,-107.62246704101562,4381.2578125,True
1599566176.0022507,0.0,10,0.5,0.5,0.14811539459228518,-0.001,-0.03,-0.37525,0.3887207322243258,10,1,100,-0.01520645733778246,-10,-1,-100,6487.763478137669,0.0029561551535481354,0.035505874594233676,0.9993650954561135,174.9722921439027,18.34999945613083,44.58143424375896,-3.176158951945884,-107.62246704101562,4381.2578125,True
1599566176.0633764,0.0,10,0.5,0.5,0.9089188919067382,-0.001,-0.03,-0.37525,0.3633469686756422,10,1,100,-0.3503797943275766,-10,-1,-100,6487.6414225396,0.005971334498518163,0.03526953954500332,0.9993599965701,177.50813890699916,18.619243340454545,50.68474047657089,-3.5588336390115103,-109.41653442382812,4381.2578125,True
1599566176.134416,0.0,10,0.5,0.5,1.1624006309509278,-0.001,-0.03,-0.37525,0.3259244082950541,10,1,100,-0.5105306560878804,-10,-1,-100,6487.429546502535,0.010138574562659364,0.03471088950650993,0.9993459678487246,180.44616514407753,18.933711606384716,59.85190951337833,-4.133031809759206,-111.67796325683594,4381.2578125,True
1599566176.1982453,0.0,10,0.5,0.5,0.8958932723999022,-0.001,-0.03,-0.37525,0.32726958967853764,10,1,100,-0.38125200951399624,-10,-1,-100,6487.245985219488,0.01271987516186025,0.034212742409452275,0.9993336244881843,182.0437741436822,19.10635109522284,65.98794259912273,-4.515944528308034,-113.01896667480469,4381.2578125,True
1599566176.2635834,0.0,10,0.5,0.5,0.8756039505004882,-0.001,-0.03,-0.37525,0.3162954428542809,10,1,100,-0.3874698204022803,-10,-1,-100,6487.061452580965,0.015093822876398657,0.03365943577876954,0.9993193778237419,183.39249019173823,19.253477083789047,72.12837519744014,-4.898936436163775,-114.12507629394531,4381.2578125,True
1599566176.321429,0.0,10,0.5,0.5,0.8325198593139649,-0.001,-0.03,-0.37525,0.3020394425802544,10,1,100,-0.39777494576809946,-10,-1,-100,6486.81539868773,0.017317624251820204,0.03302737806658153,0.9993044041673788,184.5318707910617,19.379165264635898,78.26699243212128,-5.281992090796884,-114.95179748535156,4381.2578125,True
1599566176.8641095,0.0,10,0.5,0.5,0.7913820648193359,-0.001,-0.03,-0.37525,0.2891015412744513,10,1,100,-0.40312732040404514,-10,-1,-100,6486.631356721511,0.01935957851631727,0.03233658674322282,0.9992895235503416,185.39624209744915,19.47648160424128,84.35454508812694,-5.665096571054163,-115.51042175292969,4381.2578125,True
1599566176.9179657,0.0,10,0.5,0.5,0.7465253715515136,-0.001,-0.03,-0.37525,0.277917781148979,10,1,100,-0.4044740602018507,-10,-1,-100,6486.384812234086,0.021201124482846428,0.03160942274595503,0.999275415846067,186.01695186458363,19.548725408544804,90.38083192957694,-6.048238187820451,-115.80999755859375,4381.2578125,True
1599566176.973816,0.0,10,0.5,0.5,0.6929107933044434,-0.001,-0.03,-0.37525,0.30860407181503496,10,1,100,-0.3162517633290741,-10,-1,-100,6486.231021335465,0.022050906447337662,0.031230941275890226,0.9992689256811066,186.24496385324608,19.576404897249112,93.36848660512214,-6.239819768066965,-115.86616516113281,4381.2578125,True
1599566177.029669,0.0,10,0.5,0.5,0.6325809974670411,-0.001,-0.03,-0.37525,0.21602485632266766,10,1,100,-0.48310763578606863,-10,-1,-100,6485.828233163804,0.024320197867357722,0.030049201048960954,0.9992525073733924,186.62456535442914,19.62838228554476,102.21268519285393,-6.814594166017594,-115.67971801757812,4381.2578125,True
1599566177.0934958,0.0,10,0.5,0.5,0.5747668342590331,-0.001,-0.03,-0.37525,0.2411074879500214,10,1,100,-0.40078928851445017,-10,-1,-100,6485.580694682896,0.025615419598803237,0.029207876287951445,0.9992450901763414,186.63615556736815,19.638522102283613,107.99346346690002,-7.197793455127329,-115.27586364746094,4381.2578125,True
1599566177.1523407,0.0,10,0.5,0.5,0.3778373050689697,-0.001,-0.03,-0.37525,0.1844956000253929,10,1,100,-0.44650377482795556,-10,-1,-100,6485.116353050224,0.027187880808017158,0.027934107522542797,0.9992399635593485,186.34241370351512,19.622512685006082,116.47889890861909,-7.772604447010782,-114.28865814208984,4381.2578125,True
1599566177.2151718,0.0,10,0.5,0.5,0.6043385658264159,-0.001,-0.03,-0.37525,0.26198876147124756,10,1,100,-0.3403332935815393,-10,-1,-100,6484.962055541226,0.02763291703569012,0.027487287778063123,0.9992401467648829,186.25261953911556,19.61847380954117,119.30853839934821,-7.964209419314867,-113.86722564697266,4381.2578125,True
1599566177.2939835,0.0,10,0.5,0.5,0.40637377357482907,-0.001,-0.03,-0.37525,0.20858112368499238,10,1,100,-0.3792485318292653,-10,-1,-100,6484.588511486654,0.028375366369942114,0.026602130941141507,0.9992432963061407,185.94794766365624,19.597936534704875,124.87860185819214,-8.347419723002012,-112.90330505371094,4381.2578125,True
1599566177.364798,0.0,10,0.5,0.5,0.12512014579772945,-0.001,-0.03,-0.37525,0.1443238456903338,10,1,100,-0.3939030808112325,-10,-1,-100,6484.123146498459,0.029169311217999917,0.02522020457259615,0.9992562697148233,185.19472160961277,19.537721731387965,132.9936820196757,-8.922235816465607,-111.19535064697266,4381.2578125,True
1599566177.4565594,0.0,10,0.5,0.5,0.5143025226593018,-0.001,-0.03,-0.37525,0.23108952443841943,10,1,100,-0.33537766533873614,-10,-1,-100,6483.904867091449,0.029346234131628315,0.024760358799997672,0.9992625897002184,184.8504190994782,19.508290759002296,135.61698818132368,-9.11384202328701,-110.54966735839844,4381.2578125,True
1599566177.53136,0.0,10,0.5,0.5,0.22655025482177737,-0.001,-0.03,-0.37525,0.17386403563930627,10,1,100,-0.34458618247102574,-10,-1,-100,6483.531289162813,0.029579851836238756,0.023829600944249466,0.999278330838903,184.0156200040003,19.434651799158733,140.7232666004099,-9.497057916595427,-109.17601013183594,4381.2578125,True
1599566177.618132,0.0,10,0.5,0.5,0.4563311576843261,-0.001,-0.03,-0.37525,0.2143457045795722,10,1,100,-0.3285259003350612,-10,-1,-100,6483.314467270975,0.029636937845266824,0.023359206234661672,0.9992877460467743,183.5364188616669,19.39159989092279,143.21055431995495,-9.688668445057472,-108.46722412109375,4381.2578125,True
1599566177.6915102,0.0,10,0.5,0.5,-0.1653310050964354,-0.001,-0.03,-0.37525,0.09609468972340807,10,1,100,-0.3186600366183586,-10,-1,-100,6482.722577027627,0.029591475625720117,0.02186406565135427,0.9993229243860493,181.8466745078887,19.23671042885032,150.38215366424993,-10.263517328890297,-106.16661071777344,4381.2578125,True
1599566177.7503533,0.0,10,0.5,0.5,0.04634871292114262,-0.001,-0.03,-0.37525,0.13187081434500175,10,1,100,-0.3000788910454622,-10,-1,-100,6482.2869546958245,0.029374371767125523,0.020838599777293427,0.9993512390759359,180.46558808851117,19.10705933685902,154.86376158299132,-10.646769918496773,-104.51205444335938,4381.2578125,True
1599566177.8131876,0.0,10,0.5,0.5,-0.03511383247375488,-0.001,-0.03,-0.37525,0.11551699220227737,10,1,100,-0.28274690623791543,-10,-1,-100,6481.850345445913,0.02901484642115295,0.01976606023709668,0.999383530757767,178.85320760303858,18.953071036318853,159.0592224274326,-11.030044871777402,-102.73442840576172,4381.2578125,True
1599566177.8775258,0.0,10,0.5,0.5,0.25147360610961916,-0.001,-0.03,-0.37525,0.1639935466118605,10,1,100,-0.29437008886791227,-10,-1,-100,6481.632526542526,0.028790580106157537,0.019240303709778445,0.9994002767711776,177.94339251847134,18.865055356274823,161.02765049789087,-11.221692833408781,-101.8232192993164,4381.2578125,True
1599566177.9365406,0.0,10,0.5,0.5,-0.13396209144592286,-0.001,-0.03,-0.37525,0.09388317708289864,10,1,100,-0.2566861809236129,-10,-1,-100,6481.195417277631,0.02824266365730613,0.018132879692692,0.999436616611374,176.2545179107439,18.702604166083578,165.00622592134113,-11.60501160579892,-99.98941040039062,4381.2578125,True
1599566178.000371,0.0,10,0.5,0.5,-0.8812303009033202,-0.001,-0.03,-0.37525,-0.051878492768904105,10,1,100,-0.15099077903048364,-10,-1,-100,6480.198135090526,0.026783136189665845,0.01580952850403827,0.999516244202327,172.7731223784052,18.364470001650922,172.56180263084067,-12.371745229837796,-96.2850341796875,4381.2578125,True
1599566178.075306,0.0,10,0.5,0.5,0.45898206329345703,-0.001,-0.03,-0.37525,0.1793773658527585,10,1,100,-0.29678430277648465,-10,-1,-100,6480.198135090526,0.026783136189665845,0.01580952850403827,0.999516244202327,172.7731223784052,18.364470001650922,172.56180263084067,-12.371745229837796,-96.2850341796875,4381.2578125,True
1599566178.1343474,0.0,10,0.5,0.5,-0.29259837532043453,-0.001,-0.03,-0.37525,0.046765515849455846,10,1,100,-0.1990105278163865,-10,-1,-100,6479.698510754155,0.025896452940054347,0.014612521391343298,0.9995578262130265,171.14855664877123,18.20594353274672,176.3053279719394,-12.755159533282988,-94.40636444091797,4381.2578125,True
1599566178.1961815,0.0,10,0.5,0.5,-0.6030255908966063,-0.001,-0.03,-0.37525,-0.03573430490533469,10,1,100,-0.1232849964729556,-10,-1,-100,6478.918069614447,0.024405099502005045,0.012783560043312187,0.9996204138126215,168.72159193264758,17.966143432379624,181.75230210236344,-13.330330531892423,-91.83634948730469,4381.2578125,True
1599566178.2647705,0.0,10,0.5,0.5,-0.012576860427856384,-0.001,-0.03,-0.37525,0.0743938322663141,10,1,100,-0.21014632345307105,-10,-1,-100,6478.637251699925,0.02384367639662876,0.012132074647481563,0.9996420818776293,167.94262806813705,17.88851171314735,183.5531666557524,-13.522063657365248,-90.98072052001953,4381.2578125,True
1599566178.3266053,0.0,10,0.5,0.5,-0.37853039741516115,-0.001,-0.03,-0.37525,0.0002268385429883557,10,1,100,-0.1405624813127278,-10,-1,-100,6478.075128987664,0.022705977973600504,0.010875776282502744,0.9996830277915673,166.28029081903753,17.72057578374201,186.96879532305366,-13.90554115411308,-89.29415893554688,4381.2578125,True
1599566178.3924296,0.0,10,0.5,0.5,-0.6657580490112305,-0.001,-0.03,-0.37525,-0.08799838113870621,10,1,100,-0.04989062039868933,-10,-1,-100,6477.231219161535,0.020853676578585487,0.00894162876211464,0.9997425525845324,163.89561590565728,17.476118712977634,192.03525780812728,-14.480772862658014,-86.98321533203125,4381.2578125,True
1599566178.4514525,0.0,10,0.5,0.5,-0.6605000610351561,-0.001,-0.03,-0.37525,-0.11382244179455261,10,1,100,-0.013571819373147748,-10,-1,-100,6476.324820861919,0.018847341387601947,0.006959364074904288,0.999798152115862,161.7001969546457,17.246732087743595,197.1205747534841,-15.055998583096478,-84.8321533203125,4381.2578125,True
1599566178.5102954,0.0,10,0.5,0.5,-0.38254630279541013,-0.001,-0.03,-0.37525,-0.0591606572944096,10,1,100,-0.061827756084686436,-10,-1,-100,6475.76223137998,0.017471333825025036,0.0056658730330436235,0.999831310960578,160.66686135567,17.136825626146248,200.94077834492464,-15.439465227661675,-83.56829833984375,4381.2578125,True
1599566178.5706453,0.0,10,0.5,0.5,-0.17439157104492187,-0.001,-0.03,-0.37525,-0.0018553971003760494,10,1,100,-0.12118318344807388,-10,-1,-100,6475.41843944171,0.01677030287715058,0.00502326938827672,0.9998467501102664,161.80324362190402,17.257383268374817,204.92214113005133,-15.631180026288463,-83.006591796875,4381.2578125,True
1599566178.642213,0.0,10,0.5,0.5,-0.5546611938476562,-0.001,-0.03,-0.37525,-0.15064253412631928,10,1,100,0.04815755786740383,-10,-1,-100,6474.449090708862,0.014603970149651415,0.003098391747620429,0.9998885558023186,166.0216526380891,17.702551807405612,218.15449583061,-16.206214440076362,-81.57110595703125,4381.2578125,True
1599566178.7060416,0.0,10,0.5,0.5,-0.06013691711425781,-0.001,-0.03,-0.37525,0.04057411626366807,10,1,100,-0.16725779827851106,-10,-1,-100,6474.449090708862,0.014603970149651415,0.003098391747620429,0.9998885558023186,166.0216526380891,17.702551807405612,218.15449583061,-16.206214440076362,-81.57110595703125,4381.2578125,True
1599566178.7638872,0.0,10,0.5,0.5,-0.41801939392089843,-0.001,-0.03,-0.37525,-0.10245318398409298,10,1,100,-0.0009663705870241734,-10,-1,-100,6473.82402775751,0.013103301867037911,0.0018096991424193449,0.999912510407383,168.49902549311014,17.96152440463152,226.75598810007304,-16.589477366093345,-80.73724365234375,4381.2578125,True
1599566178.8287148,0.0,10,0.5,0.5,-0.5387206344604492,-0.001,-0.03,-0.37525,-0.17840958851102115,10,1,100,0.09894956145271783,-10,-1,-100,6472.792212447384,0.010842361456185268,-4.071342869105687e-05,0.9999412190426347,171.87000034753723,18.31039032698876,239.48440497976068,-17.164227917579936,-79.69378662109375,4381.2578125,True
1599566178.9075062,0.0,10,0.5,0.5,-0.41149054718017575,-0.001,-0.03,-0.37525,-0.130658295987843,10,1,100,0.04566466710513581,-10,-1,-100,6472.104672838235,0.009283698974975265,-0.001277145585424345,0.9999560899522018,173.90918224846465,18.51913942066146,247.86031870190988,-17.547298026785707,-79.08807373046875,4381.2578125,True
1599566178.9683409,0.0,10,0.5,0.5,-0.3193568420410156,-0.001,-0.03,-0.37525,-0.0740008299805754,10,1,100,-0.02320297433833697,-10,-1,-100,6471.760418655118,0.0085060388937447,-0.001873916745813169,0.9999620671497333,174.87392695404358,18.61721309456478,252.02048897677173,-17.73880392044991,-78.82366943359375,4381.2578125,True
1599566179.0301757,0.0,10,0.5,0.5,-0.4697246170043945,-0.001,-0.03,-0.37525,-0.20565169420378776,10,1,100,0.1576387998324953,-10,-1,-100,6470.666147520533,0.0061679680902364895,-0.0036016713908973794,0.9999744917410792,177.46196364951564,18.87726222931438,264.24019786851346,-18.313206104901237,-78.24380493164062,4381.2578125,True
1599566179.0920439,0.0,10,0.5,0.5,-0.32608036041259764,-0.001,-0.03,-0.37525,-0.09600431043953495,10,1,100,0.011946249768310685,-10,-1,-100,6470.259891460417,0.005380277549892839,-0.00416416003388708,0.999976855924525,178.20634195199023,18.95092461996884,268.1941018325375,-18.504636060053812,-78.116943359375,4381.2578125,True
1599566179.1518505,0.0,10,0.5,0.5,-0.3815688781738281,-0.001,-0.03,-0.37525,-0.21845715516753353,10,1,100,0.1939283472723207,-10,-1,-100,6469.164183478453,0.003022055321214619,-0.005778608730396984,0.999978737205335,180.1406360217791,19.13917802501022,279.74593228197523,-19.078818936008872,-77.896484375,4381.2578125,True
1599566179.215682,0.0,10,0.5,0.5,-0.2988289260864258,-0.001,-0.03,-0.37525,-0.22412443863572779,10,1,100,0.21874697325033338,-10,-1,-100,6467.945937007084,0.0006657287667104954,-0.007287406048059172,0.9999732249006968,181.64345135401064,19.280635577543755,290.8106813951583,-19.65284902149081,-77.94174194335938,4381.2578125,True
1599566179.2825027,0.0,10,0.5,0.5,-0.3310063781738281,-0.001,-0.03,-0.37525,-0.07447577441314263,10,1,100,-0.015275224789034998,-10,-1,-100,6467.945937007084,0.0006657287667104954,-0.007287406048059172,0.9999732249006968,181.64345135401064,19.280635577543755,290.8106813951583,-19.65284902149081,-77.94174194335938,4381.2578125,True
1599566179.3406923,0.0,10,0.5,0.5,-0.1821305999755859,-0.001,-0.03,-0.37525,-0.2621094222493908,10,1,100,0.31428095577092524,-10,-1,-100,6466.3805522720795,-0.002317565382577379,-0.008983724848574447,0.9999569598630447,183.0003781275917,19.4002881119802,304.7413007318428,-20.418003716611377,-78.36636352539062,4381.2578125,True
1599566179.4065151,0.0,10,0.5,0.5,-0.21686818695068366,-0.001,-0.03,-0.37525,-0.18403258409056372,10,1,100,0.18601395374214452,-10,-1,-100,6465.505583816674,-0.0038482041039117772,-0.009805059668875182,0.9999445245262683,183.4274041580343,19.433780705061825,311.358646798151,-20.800493927972727,-78.72308349609375,4381.2578125,True
1599566179.467934,0.0,10,0.5,0.5,-0.27893173980712893,-0.001,-0.03,-0.37525,-0.13829111421935772,10,1,100,0.10972361705809189,-10,-1,-100,6465.097398041864,-0.004530734875296252,-0.010125337271400074,0.9999384731005354,183.56921794474113,19.443105337981542,314.55824574763824,-20.991718569708652,-78.92996215820312,4381.2578125,True
1599566179.5347552,0.0,10,0.5,0.5,-0.275367073059082,-0.001,-0.03,-0.37525,-0.14138930540507094,10,1,100,0.11803796228352541,-10,-1,-100,6464.690190234338,-0.005212826809212005,-0.010435496262799451,0.999931961112558,183.67617563073856,19.448886309909835,317.7044935669792,-21.182930144130278,-79.15185546875,4381.2578125,True
1599566179.5955925,0.0,10,0.5,0.5,0.03818978118896482,-0.001,-0.03,-0.37525,-0.24017814173833596,10,1,100,0.35475987580367074,-10,-1,-100,6462.938318897155,-0.007971749121332932,-0.011607213539212772,0.9999008569902325,183.83062098104497,19.444995919282647,329.85754712513693,-21.94764594775427,-80.20602416992188,4381.2578125,True
1599566179.6599326,0.0,10,0.5,0.5,-0.35323995971679684,-0.001,-0.03,-0.37525,-0.12397974377634388,10,1,100,0.08051542339308586,-10,-1,-100,6462.938318897155,-0.007971749121332932,-0.011607213539212772,0.9999008569902325,183.83062098104497,19.444995919282647,329.85754712513693,-21.94764594775427,-80.20602416992188,4381.2578125,True
1599566179.720769,0.0,10,0.5,0.5,-0.1056521759033203,-0.001,-0.03,-0.37525,-0.17690764791579391,10,1,100,0.2265404615348326,-10,-1,-100,6462.06287632219,-0.00928639517970193,-0.012081098538527485,0.999883898221523,183.67468779374096,19.41990585508568,335.5304606987646,-22.329929049185473,-80.84841918945312,4381.2578125,True
1599566179.7771285,0.0,10,0.5,0.5,0.048320144653320296,-0.001,-0.03,-0.37525,-0.1898852721567958,10,1,100,0.2971921252838867,-10,-1,-100,6460.716752698179,-0.011110482473456425,-0.012622684268727568,0.9998586025139048,183.21713797017276,19.36114154071936,343.62043242837916,-22.903264750501503,-81.87655639648438,4381.2578125,True
1599566179.842953,0.0,10,0.5,0.5,-0.1842821426391602,-0.001,-0.03,-0.37525,-0.15454811473724772,10,1,100,0.18399008941571124,-10,-1,-100,6460.248026090325,-0.011726786470981942,-0.012787566160060543,0.9998494689855899,183.02276038556408,19.33787631727167,346.2330885861046,-23.094352529445167,-82.25201416015625,4381.2578125,True
1599566179.9097733,0.0,10,0.5,0.5,-0.016298629760742145,-0.001,-0.03,-0.37525,-0.16443677267243506,10,1,100,0.24646063663787793,-10,-1,-100,6459.308130801888,-0.01284371097508148,-0.013022355533308586,0.9998327146801872,182.48605981763154,19.277019449309908,351.16247234184794,-23.476493150558177,-83.03857421875,4381.2578125,True
1599566180.5694692,0.0,10,0.5,0.5,0.00399240875244139,-0.001,-0.03,-0.37525,-0.1595817909707327,10,1,100,0.25126041785037195,-10,-1,-100,6458.369698790368,-0.013890449953702104,-0.013186450630350195,0.9998165696365793,183.74213978277342,19.40739624824491,359.57561054332484,-23.85856757130176,-83.83633422851562,4381.2578125,True
1599566180.621331,0.0,10,0.5,0.5,0.3481338653564452,-0.001,-0.03,-0.37525,-0.1592694709013969,10,1,100,0.3620375382260669,-10,-1,-100,6456.428862734232,-0.015838574769889785,-0.013328968058137899,0.9997857161210916,188.68828943584597,19.93093198079641,381.6018962002668,-24.622394878091985,-85.50302124023438,4381.2578125,True
1599566180.6881518,0.0,10,0.5,0.5,-0.25695062255859374,-0.001,-0.03,-0.37525,-0.14537011896155272,10,1,100,0.16842409367389663,-10,-1,-100,6456.428862734232,-0.015838574769889785,-0.013328968058137899,0.9997857161210916,188.68828943584597,19.93093198079641,381.6018962002668,-24.622394878091985,-85.50302124023438,4381.2578125,True
1599566180.743006,0.0,10,0.5,0.5,0.08285892486572269,-0.001,-0.03,-0.37525,-0.14198167255132335,10,1,100,0.2636157994086598,-10,-1,-100,6455.427922149189,-0.016693674058483456,-0.01329525160823878,0.999772252831165,191.13838079264724,20.193291166559746,392.8266720317583,-25.004139471404926,-86.353759765625,4381.2578125,True
1599566180.8068342,0.0,10,0.5,0.5,0.23242375946044916,-0.001,-0.03,-0.37525,-0.1268369091024489,10,1,100,0.30067450157230585,-10,-1,-100,6453.893787086126,-0.017797497206647875,-0.013124320844844868,0.9997554707504936,194.62879472870458,20.57111904210074,409.59677214090226,-25.576536066420214,-87.54232788085938,4381.2578125,True
1599566180.8676717,0.0,10,0.5,0.5,0.1119669494628906,-0.001,-0.03,-0.37525,-0.12342308868515149,10,1,100,0.2627607063380526,-10,-1,-100,6452.830823414959,-0.01844736943186294,-0.012936515322233487,0.9997461383433107,196.8502911915325,20.814298626265842,420.7562415937462,-25.957984760603775,-88.34909057617188,4381.2578125,True
1599566180.9305038,0.0,10,0.5,0.5,-0.015648651123046864,-0.001,-0.03,-0.37525,-0.12957078430979604,10,1,100,0.23003395523684467,-10,-1,-100,6452.298607518664,-0.018731123153583353,-0.012820462714826255,0.9997423571906829,197.95081005622185,20.935557215853425,426.37290718930797,-26.148663524005784,-88.74960327148438,4381.2578125,True
1599566180.9963293,0.0,10,0.5,0.5,0.14453142547607423,-0.001,-0.03,-0.37525,-0.1119683762671538,10,1,100,0.25751869296290275,-10,-1,-100,6451.29618306458,-0.019230356218135274,-0.012554266303908115,0.9997362571184933,200.08537579552006,21.172517290291708,437.5779475872234,-26.529928403853162,-89.51177978515625,4381.2578125,True
1599566181.0571673,0.0,10,0.5,0.5,0.2819222354888916,-0.001,-0.03,-0.37525,-0.08421383394035775,10,1,100,0.27610821343916697,-10,-1,-100,6449.63799512689,-0.019845818395926078,-0.012060017743706951,0.9997303133666687,203.03628607162665,21.504856335847194,454.10932397427035,-27.101595368981798,-90.57621002197266,4381.2578125,True
1599566181.1220336,0.0,10,0.5,0.5,0.03866917800903319,-0.001,-0.03,-0.37525,-0.11276992250123875,10,1,100,0.23333097438839567,-10,-1,-100,6449.105283323326,-0.020009064537160757,-0.01187096308354695,0.99972932215266,203.97264037271216,21.611506922391754,459.58387584852096,-27.29208955110331,-90.92491912841797,4381.2578125,True
1599566181.1848273,0.0,10,0.5,0.5,0.30433786010742186,-0.001,-0.03,-0.37525,-0.06396165967368886,10,1,100,0.2555753155066743,-10,-1,-100,6447.446103322785,-0.020353177445211108,-0.011256430450832643,0.9997294838812093,206.6656476526301,21.92171058156383,475.94320592727615,-27.863386206707055,-91.9159164428711,4381.2578125,True
1599566181.2596238,0.0,10,0.5,0.5,0.06853612899780273,-0.001,-0.03,-0.37525,-0.10087393858145688,10,1,100,0.22969292588572146,-10,-1,-100,6446.914850900532,-0.020424837703710483,-0.011035085156780726,0.9997304901323956,207.50186914572112,22.019400453489915,481.31898350327793,-28.053756914563785,-92.21314239501953,4381.2578125,True
1599566181.3164716,0.0,10,0.5,0.5,0.2917486667633057,-0.001,-0.03,-0.37525,-0.0431967201614919,10,1,100,0.23483108207832581,-10,-1,-100,6445.196085663862,-0.02053252457415739,-0.010311609161007807,0.9997360082297337,209.82036303789727,22.294454108939675,497.1795727249763,-28.624687445592325,-93.04933166503906,4381.2578125,True
1599566181.3738272,0.0,10,0.5,0.5,0.09334961700439452,-0.001,-0.03,-0.37525,-0.08780281012939871,10,1,100,0.22350606755557523,-10,-1,-100,6444.601352214231,-0.020523199824534787,-0.010062156672647152,0.9997387415080289,210.53672865604833,22.380823000918255,502.3888837110112,-28.814937614375864,-93.29582214355469,4381.2578125,True
1599566181.4346652,0.0,10,0.5,0.5,0.32600263786315914,-0.001,-0.03,-0.37525,0.005534202581071276,10,1,100,0.20099695954037206,-10,-1,-100,6442.285883172299,-0.020306613137679615,-0.00898980256307464,0.999753382046169,213.04040792862247,22.690710558908922,522.6068625216087,-29.57564752854164,-94.10465240478516,4381.2578125,True
1599566181.4970143,0.0,10,0.5,0.5,0.04217605590820313,-0.001,-0.03,-0.37525,-0.10128775654800287,10,1,100,0.22290653981899233,-10,-1,-100,6442.285883172299,-0.020306613137679615,-0.00898980256307464,0.999753382046169,213.04040792862247,22.690710558908922,522.6068625216087,-29.57564752854164,-94.10465240478516,4381.2578125,True
1599566181.5528886,0.0,10,0.5,0.5,0.17874607276916502,-0.001,-0.03,-0.37525,-0.03721554460179259,10,1,100,0.19883140536561467,-10,-1,-100,6441.092498655082,-0.020086058057461803,-0.008410915829708328,0.99976287526924,214.09598829251564,22.826238432735213,532.371219582312,-29.95583325227497,-94.42173767089844,4381.2578125,True
1599566181.6107335,0.0,10,0.5,0.5,0.1710626335144043,-0.001,-0.03,-0.37525,-0.0338945903692679,10,1,100,0.19017747568282933,-10,-1,-100,6439.843447757419,-0.019805649592053127,-0.007858473348975199,0.9997729645478818,215.0477634320691,22.951528844711643,541.9568258378362,-30.335909660690934,-94.67233276367188,4381.2578125,True
1599566181.6835804,0.0,10,0.5,0.5,0.2291787014007568,-0.001,-0.03,-0.37525,0.04416936203803529,10,1,100,0.13284971804217394,-10,-1,-100,6437.395630965941,-0.01902904837824481,-0.006650849520019537,0.9997968101161756,216.61936024541623,23.16865245039876,560.4980731473576,-31.095745825609498,-95.03557586669922,4381.2578125,True
1599566181.7394311,0.0,10,0.5,0.5,0.12981999015808104,-0.001,-0.03,-0.37525,-0.04263337362797021,10,1,100,0.18510933013982583,-10,-1,-100,6436.7437583962455,-0.018798877175686523,-0.006347042879954156,0.9998031392547301,216.95744775165429,23.217424204976965,565.0315453844124,-31.285640493286756,-95.09822082519531,4381.2578125,True
1599566181.7992709,0.0,10,0.5,0.5,0.15798680877685545,-0.001,-0.03,-0.37525,0.025639409280540343,10,1,100,0.12540306343186125,-10,-1,-100,6434.901909824694,-0.018047946555435197,-0.005455215108184253,0.9998222403273772,217.8655142408048,23.35301701848997,578.4376454733999,-31.855174520922734,-95.20228576660156,4381.2578125,True
1599566181.8602118,0.0,10,0.5,0.5,0.13120394706726074,-0.001,-0.03,-0.37525,-0.028578113514465514,10,1,100,0.16876388716245316,-10,-1,-100,6434.232946710312,-0.017761567326293713,-0.005142622991386801,0.9998290254612946,218.16640114948746,23.39819410400802,582.9284739526059,-32.044969566620374,-95.20868682861328,4381.2578125,True
1599566181.91706,0.0,10,0.5,0.5,0.13621551513671876,-0.001,-0.03,-0.37525,-0.025249982128325174,10,1,100,0.1646037602074339,-10,-1,-100,6433.581562338048,-0.01746582439146257,-0.004833549383665473,0.9998357774048107,218.44549458453116,23.441100142288608,587.3741722037612,-32.23473996240333,-95.20450592041016,4381.2578125,True
1599566181.9764118,0.0,10,0.5,0.5,0.1285450916290283,-0.001,-0.03,-0.37525,0.008410953020252326,10,1,100,0.12881257428850768,-10,-1,-100,6432.264144800371,-0.01687438066979192,-0.004251544929638418,0.9998485783571042,218.94201503608446,23.5204489429252,596.1359683820984,-32.6142083752321,-95.16276550292969,4381.2578125,True
1599566182.0597415,0.0,10,0.5,0.5,0.11812090492248535,-0.001,-0.03,-0.37525,0.017394673808402913,10,1,100,0.1152547589863367,-10,-1,-100,6430.951121678692,-0.016216768801121363,-0.003646062156760643,0.9998618517777345,219.36268008423326,23.591776855888206,604.7357420232162,-32.99358196953892,-95.07854461669922,4381.2578125,True
1599566182.1103938,0.0,10,0.5,0.5,0.07721964263916015,-0.001,-0.03,-0.37525,0.05517808904861562,10,1,100,0.06586267000056625,-10,-1,-100,6428.976460723556,-0.015173638879128905,-0.0027569956250573812,0.9998810727573,219.84908998387277,23.683258012024844,617.3084924174835,-33.56246875888677,-94.8780746459961,4381.2578125,True
1599566182.171189,0.0,10,0.5,0.5,0.12238348197937013,-0.001,-0.03,-0.37525,-0.0008457322861357003,10,1,100,0.12970679600664559,-10,-1,-100,6428.263065692619,-0.01481040643578971,-0.002463726978313989,0.9998872846029112,219.97437170938593,23.709749108538176,621.4131830799034,-33.752052312245084,-94.79200744628906,4381.2578125,True
1599566182.2410026,0.0,10,0.5,0.5,-0.005436847686767582,-0.001,-0.03,-0.37525,0.09580528970895813,10,1,100,9.276136390465317e-05,-10,-1,-100,6425.564760912443,-0.013306681764748862,-0.0013238799984567745,0.9999105857836296,220.31070146921192,23.797468348360272,637.4325455168935,-34.51016645405036,-94.36349487304688,4381.2578125,True
1599566182.2998445,0.0,10,0.5,0.5,0.15443598175048828,-0.001,-0.03,-0.37525,-0.01752594894171149,10,1,100,0.14981533168525898,-10,-1,-100,6425.564760912443,-0.013306681764748862,-0.0013238799984567745,0.9999105857836296,220.31070146921192,23.797468348360272,637.4325455168935,-34.51016645405036,-94.36349487304688,4381.2578125,True
1599566182.3631868,0.0,10,0.5,0.5,0.05496423721313476,-0.001,-0.03,-0.37525,0.04551733429415575,10,1,100,0.060919372806746475,-10,-1,-100,6424.126744139125,-0.012503738835501927,-0.0007556019413321295,0.9999215397124115,220.40057179857016,23.83245078569115,645.2512256841353,-34.88909376371032,-94.10447692871094,4381.2578125,True
1599566182.4270163,0.0,10,0.5,0.5,0.04617806625366211,-0.001,-0.03,-0.37525,0.04549320691847262,10,1,100,0.057934495310968254,-10,-1,-100,6422.752206628211,-0.011752378321079624,-0.0002442879936692279,0.9999309085767747,220.4382071868538,23.861397287469465,652.9354259845111,-35.267936455155564,-93.83071899414062,4381.2578125,True
1599566182.487856,0.0,10,0.5,0.5,-0.09012983322143553,-0.001,-0.03,-0.37525,0.10915343231680222,10,1,100,-0.046180228375542226,-10,-1,-100,6419.869836947066,-0.010128549063758667,0.0007945349831777563,0.9999483892721782,220.4097820198365,23.906669995475152,668.0398051933964,-36.02537125882785,-93.20634460449219,4381.2578125,True
1599566182.5447013,0.0,10,0.5,0.5,0.13815962982177735,-0.001,-0.03,-0.37525,0.005864850429560257,10,1,100,0.11543939553029992,-10,-1,-100,6419.869836947066,-0.010128549063758667,0.0007945349831777563,0.9999483892721782,220.4097820198365,23.906669995475152,668.0398051933964,-36.02537125882785,-93.20634460449219,4381.2578125,True
1599566182.6025465,0.0,10,0.5,0.5,0.003736305236816423,-0.001,-0.03,-0.37525,0.05998834943767481,10,1,100,0.025976239654951327,-10,-1,-100,6418.431829177076,-0.009321917897007957,0.0012814503520089402,0.9999557288858926,220.32774964056108,23.921100400734524,675.4039475382835,-36.4039656874418,-92.86500549316406,4381.2578125,True
1599566182.6763496,0.0,10,0.5,0.5,-0.1301617603302002,-0.001,-0.03,-0.37525,0.11125032923034846,10,1,100,-0.06806483896054102,-10,-1,-100,6415.483555860934,-0.007740563815069002,0.002185088689714643,0.9999676540064897,220.1462363520373,23.94614013942718,690.103272539654,-37.160910663897326,-92.18701934814453,4381.2578125,True
1599566182.7391813,0.0,10,0.5,0.5,0.11557796478271483,-0.001,-0.03,-0.37525,0.021469610544425713,10,1,100,0.08922294873474923,-10,-1,-100,6415.483555860934,-0.007740563815069002,0.002185088689714643,0.9999676540064897,220.1462363520373,23.94614013942718,690.103272539654,-37.160910663897326,-92.18701934814453,4381.2578125,True
1599566182.827944,0.0,10,0.5,0.5,-0.09312148857116698,-0.001,-0.03,-0.37525,0.08767963241104296,10,1,100,-0.03458528389688502,-10,-1,-100,6413.263322678162,-0.006621791768476017,0.0027825051754886434,0.9999742044366562,219.95331812683756,23.956920126767475,700.9677284878865,-37.728406320998474,-91.65379333496094,4381.2578125,True
1599566182.8927708,0.0,10,0.5,0.5,-0.02837165260314939,-0.001,-0.03,-0.37525,0.07026175889085705,10,1,100,-0.005852812810109798,-10,-1,-100,6411.693977830117,-0.005873374749332455,0.0031624974649598603,0.9999777507919053,219.85300947966238,23.966271321837056,708.3084721322616,-38.10663480898718,-91.31909942626953,4381.2578125,True
1599566182.9695656,0.0,10,0.5,0.5,-0.04555846786499021,-0.001,-0.03,-0.37525,0.07292161141499809,10,1,100,-0.014266865913901618,-10,-1,-100,6410.190552364918,-0.00512326180099967,0.0035280469533682337,0.9999806523494409,219.7503855301812,23.974637856172144,715.6488839218493,-38.484780892831,-90.9638900756836,4381.2578125,True
1599566183.0583284,0.0,10,0.5,0.5,-0.1229534740447998,-0.001,-0.03,-0.37525,0.08900624063597276,10,1,100,-0.05378678947539008,-10,-1,-100,6407.842400256428,-0.0040895083791961055,0.004002177729428502,0.9999836291133164,219.55372590806516,23.981016691852982,726.531114035964,-39.05184639274658,-90.4310302734375,4381.2578125,True
1599566183.1266553,0.0,10,0.5,0.5,-0.062481460571289046,-0.001,-0.03,-0.37525,0.0738577491310413,10,1,100,-0.024953719600342136,-10,-1,-100,6406.275990799186,-0.003419500658653579,0.004291166894283223,0.9999849463376591,219.44592813632238,23.98680043462477,733.869964488413,-39.42978661756852,-90.089599609375,4381.2578125,True
1599566183.1969774,0.0,10,0.5,0.5,-0.06736358642578123,-0.001,-0.03,-0.37525,0.0731822592748478,10,1,100,-0.02822251174586715,-10,-1,-100,6404.651965510915,-0.0027882617819850785,0.004543620359196708,0.9999857904541778,219.3660721103113,23.994845012157498,741.309657772401,-39.807642672352735,-89.76593017578125,4381.2578125,True
1599566183.2588136,0.0,10,0.5,0.5,-0.013627586364746098,-0.001,-0.03,-0.37525,0.06130152483847512,10,1,100,0.0004781120177300424,-10,-1,-100,6403.86192538403,-0.0024819960076662103,0.004661708572991016,0.9999860539872536,219.34403359696367,24.000538496699406,745.0934014692931,-39.99653871848126,-89.61337280273438,4381.2578125,True
1599566183.3256412,0.0,10,0.5,0.5,-0.07597652435302733,-0.001,-0.03,-0.37525,0.07309269471150376,10,1,100,-0.033885934491376744,-10,-1,-100,6402.2369248729665,-0.0018981235655263526,0.0048727383356589994,0.9999863266805413,219.33417732983096,24.01513181630012,752.7864800611371,-40.374265795251894,-89.32415771484375,4381.2578125,True
1599566183.3891938,0.0,10,0.5,0.5,-0.029500053405761714,-0.001,-0.03,-0.37525,0.06261544360791359,10,1,100,-0.006696507767693281,-10,-1,-100,6401.451280202484,-0.0016212559468249512,0.004966071029884846,0.9999863547407439,219.3459158297445,24.023995202040354,756.6954806837317,-40.563096312757864,-89.18746948242188,4381.2578125,True
1599566183.4520297,0.0,10,0.5,0.5,-0.1351436080932617,-0.001,-0.03,-0.37525,0.07993052925871456,10,1,100,-0.06625347555104952,-10,-1,-100,6398.980577992392,-0.000833694138946115,0.00520580063751547,0.9999861022003282,219.43391829705735,24.05539441933851,768.6308024317141,-41.129453939305264,-88.79428100585938,4381.2578125,True
1599566183.5178497,0.0,10,0.5,0.5,-0.04376421356201171,-0.001,-0.03,-0.37525,0.0632649126241487,10,1,100,-0.01465080291010252,-10,-1,-100,6398.197863823269,-0.0005931230373158938,0.005269484936912892,0.999985940267943,219.47956500570623,24.06733407536651,772.6757244543636,-41.318194773895854,-88.67205810546875,4381.2578125,True
1599566183.576731,0.0,10,0.5,0.5,-0.09504035186767577,-0.001,-0.03,-0.37525,0.06941324368128417,10,1,100,-0.04280383672822466,-10,-1,-100,6396.504017573432,-0.00012396597269745527,0.00538101278255594,0.9999855145620218,219.60314220252474,24.094313647697135,780.8957163066906,-41.69560768195733,-88.43765258789062,4381.2578125,True
1599566183.6355746,0.0,10,0.5,0.5,-0.09376879882812499,-0.001,-0.03,-0.37525,0.06657744293718958,10,1,100,-0.04104031845362992,-10,-1,-100,6394.813589170692,0.0002812817301169594,0.0054546048942691275,0.9999850839717741,219.76659966129077,24.125112751414978,789.2817375601248,-42.0729279240031,-88.230224609375,4381.2578125,True
1599566184.1697295,0.0,10,0.5,0.5,-0.12394754791259766,-0.001,-0.03,-0.37525,0.06658669334495453,10,1,100,-0.06295317867099905,-10,-1,-100,6392.277458279976,0.0008439833314414951,0.005519839492314524,0.9999844094105246,220.1299105022125,24.183399650543755,802.3395954551578,-42.63872970039823,-87.96493530273438,4381.2578125,True
1599566184.227575,0.0,10,0.5,0.5,-0.06036383056640625,-0.001,-0.03,-0.37525,0.06081014478241581,10,1,100,-0.024959834829073876,-10,-1,-100,6391.432244203403,0.0010056512143457191,0.005525249902002817,0.9999842300152315,220.27678291804648,24.205454606822762,806.8023380531284,-42.82728191436126,-87.88900756835938,4381.2578125,True
1599566184.2884126,0.0,10,0.5,0.5,-0.10756235504150391,-0.001,-0.03,-0.37525,0.057584199379692405,10,1,100,-0.05555549637042981,-10,-1,-100,6388.83068258618,0.0014267415292955228,0.0054997197862331265,0.9999838586151686,220.8109138291425,24.28141021513363,820.5911039591808,-43.39278966390619,-87.70538330078125,4381.2578125,True
1599566184.3402734,0.0,10,0.5,0.5,-0.07550804901123047,-0.001,-0.03,-0.37525,0.054448470093826196,10,1,100,-0.03888283116891571,-10,-1,-100,6387.078241204144,0.0016541494016804156,0.005447134778910045,0.9999837961249457,221.25616202686024,24.341553791169343,830.1681537759024,-43.76966793418954,-87.62387084960938,4381.2578125,True
1599566184.3951273,0.0,10,0.5,0.5,-0.07232634735107421,-0.001,-0.03,-0.37525,0.051017196533537805,10,1,100,-0.036325994351600055,-10,-1,-100,6385.325311758672,0.0018338797278644062,0.005367422806971969,0.999983913699393,221.76447583682844,24.408498231171073,840.0307689027983,-44.146441860957836,-87.56689453125,4381.2578125,True
1599566184.4579592,0.0,10,0.5,0.5,-0.06267079162597655,-0.001,-0.03,-0.37525,0.053530880953890136,10,1,100,-0.026375693606098972,-10,-1,-100,6384.417596945423,0.0019034209237149416,0.005317359341330272,0.9999840512120292,222.0419637562499,24.44450893060071,845.070146674781,-44.33478903475323,-87.54974365234375,4381.2578125,True
1599566184.5148072,0.0,10,0.5,0.5,-0.06616584014892578,-0.001,-0.03,-0.37525,0.038007367973893105,10,1,100,-0.03658249168972196,-10,-1,-100,6381.753532641218,0.0020562250144569648,0.005130404901554715,0.9999847253254602,222.9721561318897,24.563310597541367,860.6481253967592,-44.89966852821375,-87.53640747070312,4381.2578125,True
1599566184.5716555,0.0,10,0.5,0.5,-0.06221376800537109,-0.001,-0.03,-0.37525,0.048511720656468776,10,1,100,-0.02460263971868525,-10,-1,-100,6380.84630562528,0.002083602879800831,0.0050560089768148615,0.9999850475743454,223.3119232780991,24.606215953265632,865.9859884474058,-45.087906652026376,-87.54364013671875,4381.2578125,True
1599566184.6334903,0.0,10,0.5,0.5,-0.04856362915039063,-0.001,-0.03,-0.37525,0.027468099401483013,10,1,100,-0.024329325060120147,-10,-1,-100,6378.119739375426,0.002103573782383648,0.004797264739242486,0.9999862805200699,224.41169642008333,24.74401520843971,882.4130859929757,-45.65245227983896,-87.59613037109375,4381.2578125,True
1599566184.6973197,0.0,10,0.5,0.5,-0.04808477020263673,-0.001,-0.03,-0.37525,0.031345586093109695,10,1,100,-0.018060245793992312,-10,-1,-100,6376.304795459961,0.002062712482534973,0.004597823264139944,0.9999873025386103,225.20971220643764,24.843284666905152,893.7079870801003,-46.02867316458672,-87.65646362304688,4381.2578125,True
1599566184.7521737,0.0,10,0.5,0.5,-0.04259228515624999,-0.001,-0.03,-0.37525,0.02719666601816433,10,1,100,-0.01331630702526654,-10,-1,-100,6374.423444564571,0.0019808196477273813,0.0043795742693927935,0.9999884477746441,226.05895654542067,24.94848053896941,905.2821793783487,-46.40477731800814,-87.73580932617188,4381.2578125,True
1599566184.8229835,0.0,10,0.5,0.5,-0.01702081298828126,-0.001,-0.03,-0.37525,0.009342093934817781,10,1,100,0.00031261858915727567,-10,-1,-100,6371.631447454682,0.001781438804756367,0.004019888405431253,0.9999903334397752,227.41791133508326,25.116301266158377,923.1357798588848,-46.968710832739895,-87.88473510742188,4381.2578125,True
1599566184.879835,0.0,10,0.5,0.5,-0.07291802978515625,-0.001,-0.03,-0.37525,0.04516014418131468,10,1,100,-0.019703044466985214,-10,-1,-100,6371.631447454682,0.001781438804756367,0.004019888405431253,0.9999903334397752,227.41791133508326,25.116301266158377,923.1357798588848,-46.968710832739895,-87.88473510742188,4381.2578125,True
1599566184.9396746,0.0,10,0.5,0.5,-0.02816187286376954,-0.001,-0.03,-0.37525,0.016528033183121228,10,1,100,0.0002170912826998661,-10,-1,-100,6369.754003372742,0.001600024209508811,0.0037609417885211324,0.9999916475848147,228.37567070582804,25.234396106576757,935.3540513209166,-47.34451518974702,-88.00225830078125,4381.2578125,True
1599566185.0035377,0.0,10,0.5,0.5,0.0025542373657226614,-0.001,-0.03,-0.37525,-0.0031722240421157358,10,1,100,0.01954803719059621,-10,-1,-100,6366.795990195591,0.0012594151830230401,0.0033479754283646766,0.9999936024464995,229.87734937927266,25.419574253683805,954.115313896495,-47.90799078555897,-88.19808959960938,4381.2578125,True
1599566185.0633779,0.0,10,0.5,0.5,-0.04131974792480469,-0.001,-0.03,-0.37525,0.02155135977067424,10,1,100,0.00036305475974804206,-10,-1,-100,6365.871672400273,0.0011247017851753604,0.003199147178682905,0.9999942502350818,230.3957192800954,25.483514024701,960.4888537996379,-48.09575365784647,-88.27175903320312,4381.2578125,True
1599566185.1321943,0.0,10,0.5,0.5,-0.007871307373046865,-0.001,-0.03,-0.37525,0.0038528085429181645,10,1,100,0.01870251498235448,-10,-1,-100,6363.897548118606,0.0008362206206888107,0.0029048784970495552,0.9999954311975585,231.46798738582532,25.615731852789185,973.4560058885844,-48.47118422123775,-88.42837524414062,4381.2578125,True
1599566185.1940467,0.0,10,0.5,0.5,-0.0030523605346679736,-0.001,-0.03,-0.37525,-0.00010326647988438686,10,1,100,0.02494467842809943,-10,-1,-100,6361.9497916445835,0.0005183271710976916,0.002603420401179673,0.9999964767633726,232.5698016762242,25.751793755881387,986.6457618029845,-48.846486529490804,-88.59027099609375,4381.2578125,True
1599566185.2618635,0.0,10,0.5,0.5,0.036154388427734364,-0.001,-0.03,-0.37525,-0.02320810999215907,10,1,100,0.05349511262627166,-10,-1,-100,6358.9737139632925,-2.879329786970666e-05,0.002121553180800588,0.9999977490889903,234.2630500794814,25.961498355983895,1006.7921706512915,-49.40919686223276,-88.84759521484375,4381.2578125,True
1599566185.3301945,0.0,10,0.5,0.5,-0.02323881530761719,-0.001,-0.03,-0.37525,0.006961278775903766,10,1,100,0.020463685595988972,-10,-1,-100,6358.0020338001195,-0.00022395132658272317,0.001960191707036938,0.9999980537452436,234.84195365217465,26.033320260405887,1013.6214786450039,-49.59670135962739,-88.9364013671875,4381.2578125,True
1599566185.3933039,0.0,10,0.5,0.5,0.014826499938964843,-0.001,-0.03,-0.37525,-0.013216960702021881,10,1,100,0.04647730269385915,-10,-1,-100,6355.9976382502355,-0.0006357763592032691,0.0016324587643225714,0.9999984654322245,236.0123807403623,26.178852062342425,1027.4140329112952,-49.97161105304302,-89.11593627929688,4381.2578125,True
1599566185.4681032,0.0,10,0.5,0.5,0.017550384521484372,-0.001,-0.03,-0.37525,-0.016281288450378694,10,1,100,0.05259530832777741,-10,-1,-100,6353.99324355647,-0.001063402261887631,0.001309159578238149,0.9999985776374026,237.19481563491587,26.326376521875453,1041.366061866789,-50.346387411838435,-89.29122924804688,4381.2578125,True
1599566185.5474005,0.0,10,0.5,0.5,0.0219910888671875,-0.001,-0.03,-0.37525,-0.021476265846700253,10,1,100,0.06148964530645484,-10,-1,-100,6351.9253731662175,-0.001530424472255351,0.0009704884589468355,0.9999983579751949,238.37758144176794,26.474592350186917,1055.427777136193,-50.7210296372687,-89.46664428710938,4381.2578125,True
1599566185.6097493,0.0,10,0.5,0.5,0.027084465026855464,-0.001,-0.03,-0.37525,-0.024103959081557796,10,1,100,0.0674827236373756,-10,-1,-100,6349.919515725458,-0.002006461863528002,0.0006414896846801041,0.9999977812984261,239.57750061161542,26.625380921084062,1069.6749309821423,-51.095536607495895,-89.64251708984375,4381.2578125,True
1599566185.6685913,0.0,10,0.5,0.5,0.030906585693359377,-0.001,-0.03,-0.37525,-0.02791850316139859,10,1,100,0.07506108609289822,-10,-1,-100,6347.852135582594,-0.0025048387087596748,0.0003105580819880148,0.9999968146632874,240.7826231052855,26.77742096073557,1084.056270990403,-51.46990746850662,-89.81500244140625,4381.2578125,True
1599566185.7329664,0.0,10,0.5,0.5,0.034046722412109376,-0.001,-0.03,-0.37525,-0.031223182286352635,10,1,100,0.08219445757641816,-10,-1,-100,6345.784756389097,-0.003019335350737029,-1.7570078553124457e-05,0.9999954416422768,241.9891975154478,26.930292579096673,1098.555962071586,-51.8441412929349,-89.98248291015625,4381.2578125,True
1599566185.7967603,0.0,10,0.5,0.5,0.036900657653808594,-0.001,-0.03,-0.37525,-0.03451898411020081,10,1,100,0.08933782837086941,-10,-1,-100,6343.7164020346245,-0.00354823199872426,-0.00034290595266438353,0.99999364621241,243.19346713588536,27.08357091634647,1113.1576090912595,-52.21823766008358,-90.14346313476562,4381.2578125,True
1599566185.8566003,0.0,10,0.5,0.5,0.039284671783447266,-0.001,-0.03,-0.37525,-0.03743204161579461,10,1,100,0.09630583049133401,-10,-1,-100,6341.586037128349,-0.004088406741062864,-0.0006621956478620954,0.9999914231768409,244.3924133312948,27.236909179724123,1127.847658862256,-52.59219608122164,-90.29667663574219,4381.2578125,True
1599566185.915442,0.0,10,0.5,0.5,0.0918782787322998,-0.001,-0.03,-0.37525,-0.07391921381719678,10,1,100,0.16433433542257017,-10,-1,-100,6337.32531068963,-0.005193727702643596,-0.0012811918307372699,0.9999856917676592,246.76307388239786,27.542446476075344,1157.440292006469,-53.3396973967089,-90.5756607055664,4381.2578125,True
1599566185.9753206,0.0,10,0.5,0.5,0.016233795166015624,-0.001,-0.03,-0.37525,-0.02884931808033571,10,1,100,0.08504217776475495,-10,-1,-100,6336.290158442804,-0.005473031748641601,-0.001431095903914566,0.9999839988159771,247.34794926123072,27.61834346123255,1164.8724825281506,-53.526486038617975,-90.63907623291016,4381.2578125,True
1599566186.038115,0.0,10,0.5,0.5,0.0412867317199707,-0.001,-0.03,-0.37525,-0.04555791255578021,10,1,100,0.1178974028387245,-10,-1,-100,6334.098762075533,-0.0060208564907467295,-0.0017161856587516477,0.9999804018049065,248.5073408045303,27.76942011576737,1179.7722192686076,-53.89995898666326,-90.75533294677734,4381.2578125,True
1599566186.1099231,0.0,10,0.5,0.5,0.02122100448608398,-0.001,-0.03,-0.37525,-0.03226260809493425,10,1,100,0.09308266649827619,-10,-1,-100,6333.0645878338255,-0.006288394943991368,-0.0018514475367566912,0.999978513884697,249.07562242072387,27.843893068435147,1187.2098227614613,-54.086643504969516,-90.80487823486328,4381.2578125,True
1599566186.1737525,0.0,10,0.5,0.5,0.04161105728149414,-0.001,-0.03,-0.37525,-0.04996244295733216,10,1,100,0.1293725815151442,-10,-1,-100,6330.871728201862,-0.0068567700446561086,-0.0021324471908603527,0.9999742183544197,250.18253868057167,27.989910023217856,1202.0258744013604,-54.459908931567966,-90.89641571044922,4381.2578125,True
1599566186.2450972,0.0,10,0.5,0.5,0.056615850448608396,-0.001,-0.03,-0.37525,-0.0645961435489771,10,1,100,0.16331690714216837,-10,-1,-100,6327.581707479083,-0.007677217327713001,-0.002518114213015174,0.9999673591847451,251.81725456038205,28.206992045589182,1224.3303620617935,-55.01954797129707,-91.01618957519531,4381.2578125,True
1599566186.3129163,0.0,10,0.5,0.5,0.05385821723937988,-0.001,-0.03,-0.37525,-0.06624648838396247,10,1,100,0.17178998711718219,-10,-1,-100,6324.229677708936,-0.008494951261661042,-0.002880851364476065,0.9999597674399094,253.42186405549523,28.42176072193943,1246.7319021296294,-55.578875764441236,-91.11736297607422,4381.2578125,True
1599566186.3907094,0.0,10,0.5,0.5,0.030205759048461914,-0.001,-0.03,-0.37525,-0.042670246785130816,10,1,100,0.11955655999011354,-10,-1,-100,6323.132516377256,-0.008758050852683273,-0.002993381660863438,0.9999571671884222,253.94747206961844,28.49253624618862,1254.2074285810363,-55.765249200656854,-91.14501953125,4381.2578125,True
1599566186.4635148,0.0,10,0.5,0.5,0.04600989151000976,-0.001,-0.03,-0.37525,-0.06655866420237712,10,1,100,0.17895230481961721,-10,-1,-100,6319.780488172779,-0.009531976601606292,-0.003310144078115734,0.9999490908882553,255.47608651501076,28.700064294776062,1276.554233569688,-56.32416242705614,-91.20533752441406,4381.2578125,True
1599566186.5348349,0.0,10,0.5,0.5,0.031708101272583,-0.001,-0.03,-0.37525,-0.04649529131400318,10,1,100,0.1309496114212741,-10,-1,-100,6318.620826891623,-0.009793717574639661,-0.0034130181237912844,0.9999462157553051,255.96735272165972,28.767374654347496,1283.9641854177653,-56.51039807461609,-91.2190170288086,4381.2578125,True
1599566186.6076398,0.0,10,0.5,0.5,0.03361902236938476,-0.001,-0.03,-0.37525,-0.04726105493512707,10,1,100,0.13351961538286822,-10,-1,-100,6317.524643681245,-0.010049840939926691,-0.0035110007232557025,0.9999433351800509,256.4532744911333,28.834170379306315,1291.372947689416,-56.696599363942624,-91.23038482666016,4381.2578125,True
1599566186.677454,0.0,10,0.5,0.5,0.03766997718811035,-0.001,-0.03,-0.37525,-0.0664384266805797,10,1,100,0.18753670212600138,-10,-1,-100,6314.0476155132055,-0.010769330139454945,-0.0037723884578251808,0.9999348931873868,257.87362459521563,29.030834347140207,1313.562550781169,-57.254997989069466,-91.24726867675781,4381.2578125,True
1599566186.7582378,0.0,10,0.5,0.5,0.032868963241577155,-0.001,-0.03,-0.37525,-0.058324899829063075,10,1,100,0.16847919630535024,-10,-1,-100,6311.790795158362,-0.011245346360301244,-0.003934125888280091,0.9999290299009884,258.78747975666846,29.158588456711918,1328.3124146762798,-57.62709305848824,-91.24649810791016,4381.2578125,True
1599566186.8351343,0.0,10,0.5,0.5,0.027604484558105463,-0.001,-0.03,-0.37525,-0.06545915013144768,10,1,100,0.19491544700615682,-10,-1,-100,6308.3127918626415,-0.011913668394832889,-0.004144000427597571,0.9999204427182365,260.1194697382967,29.346331926602996,1350.4219788793605,-58.18497988536164,-91.22782135009766,4381.2578125,True
1599566186.9154384,0.0,10,0.5,0.5,0.026784963607788082,-0.001,-0.03,-0.37525,-0.058462196376371525,10,1,100,0.17621818449258933,-10,-1,-100,6305.932436039788,-0.012346144882055734,-0.004269102653848369,0.9999146700939445,260.9704850080466,29.467603866271038,1365.0905592311397,-58.55673451262537,-91.20364379882812,4381.2578125,True
1599566186.9978523,0.0,10,0.5,0.5,0.0367792739868164,-0.001,-0.03,-0.37525,-0.04616563929759055,10,1,100,0.1335194732540448,-10,-1,-100,6305.932436039788,-0.012346144882055734,-0.004269102653848369,0.9999146700939445,260.9704850080466,29.467603866271038,1365.0905592311397,-58.55673451262537,-91.20364379882812,4381.2578125,True
