Timestamp,Input Throttle,horizon,dT,dt,Input Roll,Roll P,Roll I,Roll D,Input Pitch,Pitch P,Pitch I,Pitch D,Input Yaw,Yaw P,Yaw I,Yaw D,Altitude,Direction X,Direction Y,Direction Z,Drag X,Drag Y,Drag Z,Vertical Velocity,Roll,Mass,Has Fuel
1599574261.2053356,0.0,10,0.5,0.5,-10.812686157226564,-0.2,-0.03,-0.5,-0.06715819616430027,10,1,100,0.6903821672359112,-10,-1,-100,6483.6179671976715,-0.06725843122187056,-0.0070021290777309625,0.9977110170875892,205.07323597138432,21.498778645419698,-156.76525309903494,9.590824254238544,-35.944580078125,4381.2578125,True
1599574261.273154,0.0,10,0.5,0.5,-10.975578735351563,-0.2,-0.03,-0.5,-0.06735569990227094,10,1,100,0.699887320392836,-10,-1,-100,6483.997882956406,-0.0674454963587064,-0.006971530861523583,0.9976986031755155,204.6119492224316,21.456720800509352,-150.26657461742062,9.210801798231214,-35.941253662109375,4381.2578125,True
1599574261.3439708,0.0,10,0.5,0.5,-11.10851303100586,-0.2,-0.03,-0.5,-0.0520314748533761,10,1,100,0.7005435741336845,-10,-1,-100,6484.316759961308,-0.06756020742951152,-0.006798065409198263,0.9976920389973921,204.14952510758482,21.414361741694144,-143.7893943564352,8.830798107698882,-35.98065185546875,4381.2578125,True
1599574261.4147873,0.0,10,0.5,0.5,-11.097133575439454,-0.2,-0.03,-0.5,-0.034031731186495925,10,1,100,0.6995191726348245,-10,-1,-100,6484.6971405613,-0.06759375910986334,-0.00647055545064979,0.9976919442601297,203.75656776974438,21.378965742887413,-137.38149387325896,8.450805796299887,-36.256561279296875,4381.2578125,True
1599574261.4836032,0.0,10,0.5,0.5,-11.225313354492187,-0.2,-0.03,-0.5,-0.044108064059858454,10,1,100,0.7019567132580686,-10,-1,-100,6484.8568040878745,-0.06758497122574916,-0.006258539827681157,0.9976938921050084,203.59213406208372,21.36442155454673,-134.20553156384702,8.260811277403427,-36.5008544921875,4381.2578125,True
1599574262.175949,0.0,10,0.5,0.5,-11.012885986328126,-0.2,-0.03,-0.5,-0.0021534501344987397,10,1,100,0.6970381135371602,-10,-1,-100,6485.17562348675,-0.06747082681434097,-0.005678703189453964,0.9977050866158172,203.31799687301148,21.340479398059212,-127.89891283685351,7.880820550861591,-37.208099365234375,4381.2578125,True
1599574262.24108,0.0,10,0.5,0.5,-10.397232147216798,-0.2,-0.03,-0.5,0.07959112631176557,10,1,100,0.6681869026204947,-10,-1,-100,6485.59008058731,-0.06704343831671443,-0.004403284002290973,0.9977403412053999,202.97324944900754,21.309589777126764,-118.49893877136653,7.310815900084085,-38.81903076171875,4381.2578125,True
1599574262.3079019,0.0,10,0.5,0.5,-10.347405914306641,-0.2,-0.03,-0.5,0.07409122276623366,10,1,100,0.6657987098564899,-10,-1,-100,6485.909322090796,-0.06657224389527507,-0.003289808151645553,0.9977761840739,202.71024087347755,21.283928789265666,-112.22478494711592,6.930788360547252,-40.260223388671875,4381.2578125,True
1599574262.3732402,0.0,10,0.5,0.5,-10.002496826171875,-0.2,-0.03,-0.5,0.10507000159226607,10,1,100,0.6489755397764132,-10,-1,-100,6486.165060746251,-0.06593042719878833,-0.00199294138159338,0.9978222321405926,202.33891859101658,21.245445265272927,-105.904709535544,6.550731016434751,-41.99554443359375,4381.2578125,True
1599574262.441059,0.0,10,0.5,0.5,-10.329594299316406,-0.2,-0.03,-0.5,0.05369186606798829,10,1,100,0.6771231186111948,-10,-1,-100,6486.261182193994,-0.06554290780302678,-0.0012792337850561176,0.9978489318517344,202.08553801988646,21.21851308475887,-102.71675986635456,6.360687943762443,-42.9735107421875,4381.2578125,True
1599574262.5105941,0.0,10,0.5,0.5,-9.436097351074219,-0.2,-0.03,-0.5,0.15389494037467333,10,1,100,0.622546285723953,-10,-1,-100,6486.5178585712565,-0.06463487995535679,0.0002816912816613086,0.9979089402060582,201.37845630225934,21.142425277504078,-96.26427136191869,5.980565115418555,-45.1500244140625,4381.2578125,True
1599574262.5774167,0.0,10,0.5,0.5,-8.767053405761718,-0.2,-0.03,-0.5,0.18544876847380024,10,1,100,0.5912081822798602,-10,-1,-100,6486.772069600876,-0.06352689329095278,0.001980945397433402,0.9979781609254444,200.30912626060794,21.026755298955006,-89.68724478160287,5.600379671600814,-47.621002197265625,4381.2578125,True
1599574262.6482272,0.0,10,0.5,0.5,-6.986628417968751,-0.2,-0.03,-0.5,0.3262182314937517,10,1,100,0.476632298397086,-10,-1,-100,6487.061792985536,-0.06148159610898551,0.004797305642626721,0.9980966883015205,197.74227415021986,20.749502841169043,-79.54602553146229,5.029942250406723,-51.87939453125,4381.2578125,True
1599574262.7198894,0.0,10,0.5,0.5,-6.822864685058594,-0.2,-0.03,-0.5,0.26412557533214975,10,1,100,0.5005651013609972,-10,-1,-100,6487.255406909855,-0.05984533198079675,0.006782613199468062,0.9981846183939596,195.18001036500036,20.47384693269035,-72.59174247950456,4.64951278521224,-55.0869140625,4381.2578125,True
1599574262.79469,0.0,10,0.5,0.5,-7.1700845642089845,-0.2,-0.03,-0.5,0.17949022977521703,10,1,100,0.5642937625825555,-10,-1,-100,6487.351963862311,-0.05894421462730211,0.007805977683669785,0.9982307580286096,193.5844506110508,20.302734436276957,-69.05869223730838,4.459245975103173,-56.80126953125,4381.2578125,True
1599574262.863506,0.0,10,0.5,0.5,-5.41063900756836,-0.2,-0.03,-0.5,0.2993908431039803,10,1,100,0.437552142371583,-10,-1,-100,6487.544090112206,-0.05698067571911491,0.00981352868364979,0.9983270492425658,189.66159214090638,19.883555827423077,-61.89492335391187,4.078586872803885,-60.452301025390625,4381.2578125,True
1599574262.93332,0.0,10,0.5,0.5,-4.404083892822266,-0.2,-0.03,-0.5,0.3262995031350018,10,1,100,0.39240003709492277,-10,-1,-100,6487.67517058854,-0.05479470316469802,0.011869115382210804,0.9984270952879515,184.63051574667364,19.348495176840792,-54.63592822825705,3.6977333259305576,-64.39849853515625,4381.2578125,True
1599574263.0031328,0.0,10,0.5,0.5,-1.7686449279785155,-0.2,-0.03,-0.5,0.4577378474861633,10,1,100,0.20279990482051108,-10,-1,-100,6487.83979467873,-0.05109495303559894,0.014917931511927284,0.9985823757175445,174.75855151652132,18.30456428434141,-43.728608849405745,3.1260036650733216,-70.87249755859375,4381.2578125,True
1599574263.0749414,0.0,10,0.5,0.5,-3.299372802734375,-0.2,-0.03,-0.5,0.26209838000867347,10,1,100,0.42472339047217,-10,-1,-100,6487.934869951103,-0.049763100324941835,0.015894489434907292,0.9986345673226283,170.7615126978634,17.88365879171959,-40.12415531463166,2.935272837471457,-73.1788330078125,4381.2578125,True
1599574263.1448197,0.0,10,0.5,0.5,-0.9745180053710936,-0.2,-0.03,-0.5,0.37479219841699785,10,1,100,0.24757124838986844,-10,-1,-100,6488.00392764702,-0.04695654868439068,0.017790497322404338,0.9987384946724903,161.68801621833435,16.93026411291372,-33.05590284179489,2.553576470552013,-78.0137939453125,4381.2578125,True
1599574263.2156305,0.0,10,0.5,0.5,0.30609112548828143,-0.2,-0.03,-0.5,0.37666647282111476,10,1,100,0.20531973982661372,-10,-1,-100,6488.1335385785205,-0.04403793016887698,0.019513843595523207,0.9988392616505275,151.16066357672986,15.826183538922479,-26.284350982290338,2.1716339183295355,-83.1466064453125,4381.2578125,True
1599574263.2884357,0.0,10,0.5,0.5,1.6539004516601563,-0.2,-0.03,-0.5,0.3910586274283091,10,1,100,0.1470983316833785,-10,-1,-100,6488.200656362809,-0.040874079580550095,0.021193876019956797,0.9989395022911515,148.01655409646156,15.49663387468449,-21.21166723451894,1.789559746717996,-88.57550048828125,4381.2578125,True
1599574263.3650298,0.0,10,0.5,0.5,5.108639556884766,-0.2,-0.03,-0.5,0.45850700420994217,10,1,100,-0.07229476965552467,-10,-1,-100,6488.301355027477,-0.036023962500545084,0.023316878985072613,0.9990788744038954,160.29720854223794,16.781387069420063,-15.617368195367572,1.21643767849458,-97.21310424804688,4381.2578125,True
1599574263.438832,0.0,10,0.5,0.5,4.962545349121093,-0.2,-0.03,-0.5,0.38173870413039807,10,1,100,0.042416657641235034,-10,-1,-100,6488.306983680464,-0.032680739615609654,0.02453215206777982,0.9991647225423345,168.44374572009016,17.632114816318307,-11.25920116654518,0.8344655369580201,-102.97982788085938,4381.2578125,True
1599574263.5126364,0.0,10,0.5,0.5,4.18066943359375,-0.2,-0.03,-0.5,0.32137252644149644,10,1,100,0.18835373401115893,-10,-1,-100,6488.341055825003,-0.03099284186209056,0.02507202640137062,0.9992051026918551,171.92446115324546,17.995496243798797,-8.862647569543553,0.643508809241339,-105.77669525146484,4381.2578125,True
1599574263.5874374,0.0,10,0.5,0.5,8.504963874816895,-0.2,-0.03,-0.5,0.41856246060402,10,1,100,-0.1925024251455159,-10,-1,-100,6488.318305844325,-0.026021470978162712,0.02643066969818729,0.9993119146429897,181.1732967480494,18.962199026282406,-1.0251839895577095,0.07062393710067472,-113.74212646484375,4381.2578125,True
1599574263.6607819,0.0,10,0.5,0.5,8.143387886047364,-0.2,-0.03,-0.5,0.35989686591715536,10,1,100,-0.06593755247364663,-10,-1,-100,6488.322046271642,-0.0226807773850098,0.02711736988812682,0.9993749199312351,185.35235677384006,19.39889848763652,4.625494900631706,-0.3114196432017877,-118.68679809570312,4381.2578125,True
1599574263.7355819,0.0,10,0.5,0.5,9.088816566467285,-0.2,-0.03,-0.5,0.35240375660373724,10,1,100,-0.0898256407875361,-10,-1,-100,6488.327760656597,-0.019455813248180603,0.027659661562944488,0.9994280436595098,188.60149028326975,19.73833915015249,10.483959755017834,-0.6935953155387948,-123.33665466308594,4381.2578125,True
1599574263.8103886,0.0,10,0.5,0.5,9.969500053405763,-0.2,-0.03,-0.5,0.34548690674506854,10,1,100,-0.11591055145741755,-10,-1,-100,6488.268558382755,-0.01631565497205279,0.02807819015038082,0.9994725682282191,190.8096032238186,19.968889700633188,16.455232451497693,-1.0758904253252912,-127.69125366210938,4381.2578125,True
1599574263.8857377,0.0,10,0.5,0.5,9.402403770446778,-0.2,-0.03,-0.5,0.32213916469656384,10,1,100,0.024163783754353407,-10,-1,-100,6488.241651369259,-0.014764775446000779,0.028235342392413373,0.99949225452027,191.4901475743713,20.039807677835057,19.44995205874785,-1.2670825047706629,-129.75791931152344,4381.2578125,True
1599574263.9585445,0.0,10,0.5,0.5,11.262416725158692,-0.2,-0.03,-0.5,0.33447388302827447,10,1,100,-0.1535702353824114,-10,-1,-100,6488.1829700944945,-0.011768386405835987,0.028480846556303965,0.9995250604466299,192.10350645147278,20.1033065645829,25.405746777997503,-1.6495494016083643,-133.6695098876953,4381.2578125,True
1599574264.0303605,0.0,10,0.5,0.5,11.989292137145997,-0.2,-0.03,-0.5,0.3284156529917446,10,1,100,-0.17321704866258034,-10,-1,-100,6488.124308811151,-0.00889512492474195,0.028640805520453522,0.999550189341042,191.89282562170737,20.080268775879325,31.26826479025284,-2.0321135889462036,-137.28536987304688,4381.2578125,True
1599574264.1041653,0.0,10,0.5,0.5,13.736370841979982,-0.2,-0.03,-0.5,0.3195552710386105,10,1,100,-0.3428634866371235,-10,-1,-100,6487.974824914825,-0.004769900464574987,0.028698903897833267,0.9995767208997121,190.44714157043833,19.926731514176478,39.80740809038858,-2.6060993067172933,-142.1551971435547,4381.2578125,True
1599574264.1779654,0.0,10,0.5,0.5,13.449659339904786,-0.2,-0.03,-0.5,0.3127523908905942,10,1,100,-0.21637496735604925,-10,-1,-100,6487.853704952751,-0.0021980048233747585,0.02868498348963947,0.9995860845855127,188.9683139978224,19.76976579061075,45.30609985043604,-2.9888204665068723,-145.0314483642578,4381.2578125,True
1599574264.2517707,0.0,10,0.5,0.5,13.943454887390137,-0.2,-0.03,-0.5,0.3114090336126476,10,1,100,-0.22903958494950455,-10,-1,-100,6487.732600677293,0.00022750343330028364,0.028656340932916628,0.9995892968447212,187.24593783766608,19.586576105580747,50.65051499760533,-3.371575388605495,-147.61111450195312,4381.2578125,True
1599574264.3255706,0.0,10,0.5,0.5,14.377303176879884,-0.2,-0.03,-0.5,0.3100846744592842,10,1,100,-0.24063493053930504,-10,-1,-100,6487.549500743509,0.0025095410399163347,0.028615004148563883,0.9995873567334407,185.4764578175697,19.397627036696253,55.87725878182815,-3.7543574060922342,-149.89422607421875,4381.2578125,True
1599574264.3953843,0.0,10,0.5,0.5,14.734697463989258,-0.2,-0.03,-0.5,0.30943858764355225,10,1,100,-0.2501862270554198,-10,-1,-100,6487.426960113691,0.00464501336697008,0.028569565978599845,0.9995810141007156,183.75808978378404,19.213163667890676,61.01458771837682,-4.137165645688825,-151.88064575195312,4381.2578125,True
1599574264.4661984,0.0,10,0.5,0.5,15.023622268676759,-0.2,-0.03,-0.5,0.3118701956543022,10,1,100,-0.25701263305051775,-10,-1,-100,6487.243394635734,0.006623568454472575,0.028549043900466198,0.9995704479591713,182.174333632326,19.041938389066246,66.09760830781832,-4.520004595851346,-153.57000732421875,4381.2578125,True
1599574264.5376365,0.0,10,0.5,0.5,15.244296691894531,-0.2,-0.03,-0.5,0.31411655927069254,10,1,100,-0.26300822357727066,-10,-1,-100,6487.0588614986045,0.008453051737261094,0.02855000042382323,0.9995566234046608,180.76478356026925,18.888144749837654,71.15448742354006,-4.90288088404991,-154.96237182617188,4381.2578125,True
1599574264.606456,0.0,10,0.5,0.5,15.396620910644533,-0.2,-0.03,-0.5,0.3172214995824816,10,1,100,-0.26729550409962205,-10,-1,-100,6486.813299563364,0.010132676629354475,0.02857866780218821,0.9995401885922233,179.6009980146416,18.759316898915547,76.23188836694835,-5.285802214010541,-156.05764770507812,4381.2578125,True
1599574264.676267,0.0,10,0.5,0.5,15.233234939575196,-0.2,-0.03,-0.5,0.3172770480183621,10,1,100,-0.18797886570448744,-10,-1,-100,6486.721038742224,0.010915913953051457,0.02860492192701913,0.9995311907409987,179.13022816589032,18.706253193024153,78.79379091866575,-5.477281931374735,-156.49386596679688,4381.2578125,True
1599574264.7511048,0.0,10,0.5,0.5,15.687618041992188,-0.2,-0.03,-0.5,0.3298052396289038,10,1,100,-0.3452822874209504,-10,-1,-100,6486.380784700275,0.013037356898963024,0.028742569168442422,0.9995018219306488,178.23647778876014,18.60020646954966,86.64977070739313,-6.051805793884704,-157.35675048828125,4381.2578125,True
1599574264.8248694,0.0,10,0.5,0.5,15.459239654541017,-0.2,-0.03,-0.5,0.3298081268453017,10,1,100,-0.27070161525636455,-10,-1,-100,6486.134257920319,0.01426799666481939,0.028867636759296315,0.9994814074404316,178.11593276388868,18.578285549283937,92.09157016682317,-6.434895377081643,-157.56082153320312,4381.2578125,True
1599574264.8932755,0.0,10,0.5,0.5,15.338052352905274,-0.2,-0.03,-0.5,0.3374162482944575,10,1,100,-0.2670782941016804,-10,-1,-100,6485.825231388444,0.015336513625892237,0.02905034591609994,0.9994602887318523,178.40163704425348,18.598061772960154,97.752546219815,-6.818043229261143,-157.46743774414062,4381.2578125,True
1599574264.9620914,0.0,10,0.5,0.5,15.148646759033204,-0.2,-0.03,-0.5,0.34418066701427014,10,1,100,-0.26215148339026384,-10,-1,-100,6485.576752285357,0.016247163021809886,0.029277607717532024,0.9994392684801219,179.09241603721492,18.65935797516302,103.66987362086529,-7.201244906711378,-157.0768585205078,4381.2578125,True
1599574265.031943,0.0,10,0.5,0.5,14.89107292175293,-0.2,-0.03,-0.5,0.3499474761521568,10,1,100,-0.2557877913289391,-10,-1,-100,6485.267724891892,0.01700261103609706,0.029536070104828692,0.9994190971663078,180.18839238017756,18.76212972726783,109.88138173929127,-7.58449244678971,-156.38934326171875,4381.2578125,True
1599574265.1027575,0.0,10,0.5,0.5,14.935675765991212,-0.2,-0.03,-0.5,0.3404104289835781,10,1,100,-0.21639952096192036,-10,-1,-100,6485.111501579639,0.017318131254843248,0.02968349814996925,0.999409311677363,180.87909780801735,18.82809196502575,113.10348677031523,-7.776130168415401,-155.93414306640625,4381.2578125,True
1599574265.1715744,0.0,10,0.5,0.5,14.382286026000978,-0.2,-0.03,-0.5,0.36099017319592386,10,1,100,-0.24203825017488725,-10,-1,-100,6484.802469095448,0.017826526157559596,0.03000359956368984,0.999390813935357,182.5264375944142,18.987126019136603,119.78978229004574,-8.159425495568703,-154.8010711669922,4381.2578125,True
1599574265.2433822,0.0,10,0.5,0.5,13.373370880126954,-0.2,-0.03,-0.5,0.3870882942281987,10,1,100,-0.24283271111211258,-10,-1,-100,6484.2737256492255,0.018285741207000973,0.030530534171308125,0.999366558451765,185.56899407047422,19.283816183411872,130.42091518439102,-8.734390223663182,-152.54515075683594,4381.2578125,True
1599574265.3151975,0.0,10,0.5,0.5,13.863934158325197,-0.2,-0.03,-0.5,0.35473142612805747,10,1,100,-0.2060731688826633,-10,-1,-100,6484.118959934218,0.01836009296852565,0.030713611801189387,0.9993595854527604,186.70458345863034,19.39504315258614,134.11703181934894,-8.926042897259244,-151.6449432373047,4381.2578125,True
1599574265.3888993,0.0,10,0.5,0.5,12.099147277832033,-0.2,-0.03,-0.5,0.39950189800523306,10,1,100,-0.19414853408792895,-10,-1,-100,6483.528673118795,0.01831180023874216,0.03128510944178395,0.9993427439568627,190.32929416701847,19.750902752720748,145.59043360188048,-9.500965711917338,-148.49972534179688,4381.2578125,True
1599574265.460708,0.0,10,0.5,0.5,11.921015991210938,-0.2,-0.03,-0.5,0.38391131185312427,10,1,100,-0.17391986011260052,-10,-1,-100,6483.155158470268,0.018077277187994466,0.03166048361592823,0.9993351919284509,192.80373805575556,19.994278600839017,153.47888811495412,-9.884200482284223,-146.03292846679688,4381.2578125,True
1599574265.5341678,0.0,10,0.5,0.5,11.186759185791015,-0.2,-0.03,-0.5,0.3858134775871185,10,1,100,-0.1534577762381163,-10,-1,-100,6482.718159271055,0.017673473724556677,0.03201637263141617,0.9993310763756091,195.19867074142095,20.23019147021183,161.45995358635122,-10.2673801251613,-143.27052307128906,4381.2578125,True
1599574265.6059446,0.0,10,0.5,0.5,11.480719955444336,-0.2,-0.03,-0.5,0.36880654282988207,10,1,100,-0.16472955811308065,-10,-1,-100,6482.500388393644,0.017405754522967692,0.03218243711509204,0.9993304410708298,196.32612248405343,20.341423260188208,165.44903534793988,-10.458945027000869,-141.778564453125,4381.2578125,True
1599574265.680742,0.0,10,0.5,0.5,9.935896377563477,-0.2,-0.03,-0.5,0.385971065626829,10,1,100,-0.12073085073565168,-10,-1,-100,6482.063862257521,0.016760504053640102,0.032486598588225085,0.9993316298486883,198.35193285083434,20.54175976433563,173.3356266635941,-10.842018987774097,-138.57322692871094,4381.2578125,True
1599574265.7565424,0.0,10,0.5,0.5,7.730551803588867,-0.2,-0.03,-0.5,0.3946960915980601,10,1,100,-0.046657649714573896,-10,-1,-100,6481.409541816451,0.015500053307667194,0.032839510171838414,0.9993404399498366,200.5275168320198,20.75862569602586,184.6160813699698,-11.416484973004822,-133.21250915527344,4381.2578125,True
1599574265.8263938,0.0,10,0.5,0.5,7.5820860595703135,-0.2,-0.03,-0.5,0.37589576620210463,10,1,100,-0.060167194402416274,-10,-1,-100,6480.973967748927,0.014478368997334417,0.03298642370782638,0.999350925692344,201.1623354298609,20.82395394299267,191.4791121003303,-11.799369255523482,-129.27066040039062,4381.2578125,True
1599574265.898205,0.0,10,0.5,0.5,6.508017547607421,-0.2,-0.03,-0.5,0.36675119330213024,10,1,100,-0.03641643718101098,-10,-1,-100,6480.474906809628,0.013336230706162307,0.03303384632730853,0.9993652535221423,200.9321467812105,20.804759645574975,197.53662070193988,-12.182193035352984,-125.03494262695312,4381.2578125,True
1599574265.968997,0.0,10,0.5,0.5,6.9769695892333985,-0.2,-0.03,-0.5,0.36056579176862047,10,1,100,-0.08277336933185311,-10,-1,-100,6480.193146806792,0.01272343191142386,0.03301797210674802,0.9993737678158023,200.43191228150397,20.757281032184274,200.17750923172892,-12.373589913189456,-122.80693054199219,4381.2578125,True
1599574266.0378156,0.0,10,0.5,0.5,3.014570724487305,-0.2,-0.03,-0.5,0.33981304634863596,10,1,100,0.07568182246083989,-10,-1,-100,6479.475292239338,0.010730896999269497,0.03281261836793366,0.9994039123024441,198.19631025645597,20.546436660405114,207.2479564816204,-12.947761648407097,-115.682373046875,4381.2578125,True
1599574266.1076338,0.0,10,0.5,0.5,2.887427185058593,-0.2,-0.03,-0.5,0.3284924216282449,10,1,100,0.03543976072331062,-10,-1,-100,6478.913704887964,0.009292274182169666,0.03252111019285637,0.999427851839415,195.02440671332695,20.23680961188296,210.04382764029043,-13.3305824948033,-110.5658950805664,4381.2578125,True
1599574266.972938,0.0,10,0.5,0.5,3.4640836105346686,-0.2,-0.03,-0.5,0.33650406634840335,10,1,100,-0.02501962063163672,-10,-1,-100,6478.632908659289,0.008542265566266225,0.03232781225774112,0.9994408147827583,192.86638030773724,20.023540476713627,210.74551329202217,-13.522024018085592,-107.89763641357422,4381.2578125,True
1599574267.0567188,0.0,10,0.5,0.5,-1.2274150085449218,-0.2,-0.03,-0.5,0.2687257032035857,10,1,100,0.14693167219567915,-10,-1,-100,6477.7890457577305,0.0063059141730345235,0.03153531326209999,0.9994827459560787,184.8753730410344,19.226192453292125,210.7300758505969,-14.096536044086452,-99.45303344726562,4381.2578125,True
1599574267.141527,0.0,10,0.5,0.5,-1.3340452423095703,-0.2,-0.03,-0.5,0.27132357598911866,10,1,100,0.09444180174394015,-10,-1,-100,6477.225488192285,0.004760382237431988,0.03083891398172137,0.9995130315035324,177.6080139316059,18.489021388894862,208.04148813778508,-14.479740872352505,-93.45663452148438,4381.2578125,True
1599574267.2302961,0.0,10,0.5,0.5,-0.6564982147216797,-0.2,-0.03,-0.5,0.29657251273960156,10,1,100,0.026563665120483165,-10,-1,-100,6476.945173027227,0.003983922967357051,0.03043658090013917,0.9995287604170774,173.18931835186822,18.036161261093284,205.5972533339449,-14.671410590375029,-90.3485107421875,4381.2578125,True
1599574267.3145387,0.0,10,0.5,0.5,-3.541083251953125,-0.2,-0.03,-0.5,0.2405032576414161,10,1,100,0.11189212116410995,-10,-1,-100,6476.319600026938,0.002513952740607123,0.02956296670479738,0.9995597586143757,164.05230622426768,17.091942823389893,199.93146154142835,-15.054864742385627,-84.21426391601562,4381.2578125,True
1599574267.3971696,0.0,10,0.5,0.5,-4.737641586303711,-0.2,-0.03,-0.5,0.2171088746173893,10,1,100,0.128252775893982,-10,-1,-100,6475.757015135838,0.0010406884919874962,0.028559074448329183,0.9995915647073644,170.52064418754125,17.76307255258756,213.20553449618748,-15.438290288993542,-78.33328247070312,4381.2578125,True
1599574267.4760659,0.0,10,0.5,0.5,-7.808041000366211,-0.2,-0.03,-0.5,0.1274723704742151,10,1,100,0.2146849856656203,-10,-1,-100,6474.788625704357,-0.0010721739314949238,0.026835592676837872,0.9996392856469494,185.9795876676036,19.353984399519643,241.35974012431407,-16.012976416391105,-69.964599609375,4381.2578125,True
1599574267.5538578,0.0,10,0.5,0.5,-7.457074661254883,-0.2,-0.03,-0.5,0.1617472138955794,10,1,100,0.14937853232741327,-10,-1,-100,6474.163543705014,-0.0023861643728246445,0.025586015328085875,0.999669776495827,194.2610361844618,20.197443800942157,258.2547793280994,-16.395753498455782,-64.724365234375,4381.2578125,True
1599574267.6291666,0.0,10,0.5,0.5,-6.767635223388672,-0.2,-0.03,-0.5,0.2138275299571017,10,1,100,0.08882233611040663,-10,-1,-100,6473.819265990867,-0.0030164542663477407,0.024930249663214863,0.9996846421023926,197.9959116214424,20.57619406049037,266.35328976245614,-16.587036003472058,-62.215179443359375,4381.2578125,True
1599574267.7077768,0.0,10,0.5,0.5,-9.030401916503907,-0.2,-0.03,-0.5,0.13495930756729585,10,1,100,0.15749873419685867,-10,-1,-100,6473.131691445131,-0.004201278378276831,0.023624281008610908,0.999712079854402,204.2550092067951,21.20815492796639,281.2390295649874,-16.969401084018095,-57.419525146484375,4381.2578125,True
1599574267.783573,0.0,10,0.5,0.5,-9.939792198181152,-0.2,-0.03,-0.5,0.11317916769833938,10,1,100,0.16276161872006228,-10,-1,-100,6472.4436340038665,-0.005313968746095631,0.02224712353214793,0.9997383793926843,209.0558933786189,21.691055043512847,294.4691487061453,-17.351525622567376,-52.922698974609375,4381.2578125,True
1599574267.8596628,0.0,10,0.5,0.5,-12.186443084716796,-0.2,-0.03,-0.5,0.01674899367222446,10,1,100,0.21815898768057224,-10,-1,-100,6471.349300406524,-0.006816521312560666,0.02012768850669472,0.9997741800989726,213.90923852661322,22.17999763476009,311.47234536325436,-17.924345426168365,-46.736785888671875,4381.2578125,True
1599574267.9344614,0.0,10,0.5,0.5,-11.877788848876953,-0.2,-0.03,-0.5,0.0727007320384205,10,1,100,0.16839651590790472,-10,-1,-100,6470.661744579789,-0.007718162597335905,0.018719952127571222,0.9997949756617416,216.16020104603757,22.410829602593992,321.6062713219158,-18.306042011067035,-42.985137939453125,4381.2578125,True
1599574268.0062692,0.0,10,0.5,0.5,-12.571271820068361,-0.2,-0.03,-0.5,0.059771320985303245,10,1,100,0.17120453199523603,-10,-1,-100,6469.91120674659,-0.008552019779893892,0.01733366892047984,0.9998131859899825,217.83514032369342,22.587942025243542,331.01529879520314,-18.687631403633397,-39.531005859375,4381.2578125,True
1599574268.0790749,0.0,10,0.5,0.5,-12.127600067138673,-0.2,-0.03,-0.5,0.12264125625241536,10,1,100,0.13244273878405982,-10,-1,-100,6469.505423421622,-0.008946295514165686,0.01665686806371566,0.9998212402939244,218.4145554769328,22.651947986006945,335.3667933030936,-18.878396084228577,-37.915374755859375,4381.2578125,True
1599574268.1499197,0.0,10,0.5,0.5,-14.538975982666017,-0.2,-0.03,-0.5,-0.03304032582765193,10,1,100,0.21310138345434304,-10,-1,-100,6468.347164008184,-0.010027569998456462,0.014638040264694048,0.9998425754173181,219.35965230145828,22.76976293091207,347.29135164874253,-19.450608434682664,-33.51495361328125,4381.2578125,True
1599574268.222691,0.0,10,0.5,0.5,-13.39607196044922,-0.2,-0.03,-0.5,0.0963145751331471,10,1,100,0.14283793339323314,-10,-1,-100,6467.94089916232,-0.010361726112264855,0.01399135139630315,0.9998484268718332,219.4718389710536,22.790367925271415,350.96739721786037,-19.641326629882496,-32.19659423828125,4381.2578125,True
1599574268.2954962,0.0,10,0.5,0.5,-15.306797241210939,-0.2,-0.03,-0.5,-0.048001369686127476,10,1,100,0.21198763113715188,-10,-1,-100,6466.783633053652,-0.011285692965961956,0.012103165873300325,0.9998630638793102,219.4281408358266,22.81837382447544,361.40858882251996,-20.213445775326072,-28.687164306640625,4381.2578125,True
1599574268.3673065,0.0,10,0.5,0.5,-14.375339752197267,-0.2,-0.03,-0.5,0.07466458544237373,10,1,100,0.15316701979138225,-10,-1,-100,6466.377373399446,-0.011582839522004017,0.011514035762152118,0.9998666235098935,219.33781981362318,22.821394366134324,364.76819961894466,-20.404142298868205,-27.66552734375,4381.2578125,True
1599574268.439113,0.0,10,0.5,0.5,-15.801547302246096,-0.2,-0.03,-0.5,-0.059652831232852255,10,1,100,0.21219772199954184,-10,-1,-100,6465.093658066937,-0.012381827879156745,0.009769592067607205,0.9998756149687839,219.0118622486739,22.828267974541838,374.75419154659755,-20.976200354038,-25.046417236328125,4381.2578125,True
1599574268.5119178,0.0,10,0.5,0.5,-15.552060180664062,-0.2,-0.03,-0.5,-0.00536177201279886,10,1,100,0.18821461824028346,-10,-1,-100,6464.2811487832805,-0.012882715851937895,0.008689884419058682,0.9998792534806697,218.8622950662324,22.842151840876998,381.52757475747615,-21.357539103837155,-23.6707763671875,4381.2578125,True
1599574268.585303,0.0,10,0.5,0.5,-15.707601593017579,-0.2,-0.03,-0.5,-0.009998084940767593,10,1,100,0.19187463603026073,-10,-1,-100,6463.40467874473,-0.013364460764278876,0.007678508474772208,0.9998812087923661,218.8451836723547,22.871134211319276,388.53857585401886,-21.73884149867786,-22.591339111328125,4381.2578125,True
1599574268.6571155,0.0,10,0.5,0.5,-15.540459686279299,-0.2,-0.03,-0.5,0.03816181225481522,10,1,100,0.17114381381853472,-10,-1,-100,6462.935927998973,-0.013607995992253425,0.007208210481773369,0.9998814250433524,218.9072181240119,22.89336665007169,392.1745384190805,-21.929475578365597,-22.162567138671875,4381.2578125,True
1599574268.7269733,0.0,10,0.5,0.5,-15.977841949462892,-0.2,-0.03,-0.5,-0.06333306897529939,10,1,100,0.22180806370736328,-10,-1,-100,6461.591203306918,-0.01428462134995153,0.005868451332996835,0.9998807483254396,219.42353808289354,22.995720592446833,403.7189906032625,-22.501290597761088,-21.320709228515625,4381.2578125,True
1599574268.798814,0.0,10,0.5,0.5,-15.704427185058595,-0.2,-0.03,-0.5,0.02474601093067738,10,1,100,0.17915817144490756,-10,-1,-100,6461.183979896479,-0.014506797562227431,0.005461630303788396,0.9998798544919851,219.7214447337431,23.043309483005103,407.8171976975053,-22.6918607735023,-21.188018798828125,4381.2578125,True
1599574268.8695967,0.0,10,0.5,0.5,-15.718555786132814,-0.2,-0.03,-0.5,-0.021205712270790232,10,1,100,0.2035963561576829,-10,-1,-100,6460.245509602362,-0.014925886250732516,0.004684227555185497,0.9998776304787709,220.51627758707582,23.15969869661383,416.4260780282729,-23.072938114013752,-21.144744873046875,4381.2578125,True
1599574268.9394083,0.0,10,0.5,0.5,-15.391655792236328,-0.2,-0.03,-0.5,-0.054030383710313094,10,1,100,0.23232513941595073,-10,-1,-100,6458.836832908564,-0.015563593709673867,0.0036881406003776624,0.9998720779028445,222.21477654819967,23.38806342548762,430.43460571660705,-23.64436855281386,-21.63385009765625,4381.2578125,True
1599574269.0082245,0.0,10,0.5,0.5,-15.180900177001952,-0.2,-0.03,-0.5,-0.019428591344252795,10,1,100,0.21317974865887956,-10,-1,-100,6457.899344667676,-0.01596454978583135,0.003106535309149202,0.9998677325469149,223.66744303810339,23.57419683011644,440.5073156809312,-24.025176952027007,-22.329559326171875,4381.2578125,True
1599574269.077041,0.0,10,0.5,0.5,-15.226816253662111,-0.2,-0.03,-0.5,0.009433642663953141,10,1,100,0.19559376090522473,-10,-1,-100,6457.366636673105,-0.01616492918746868,0.002848365926801702,0.9998652818634676,224.48248045021475,23.676583838558255,445.75818620794854,-24.21553213375209,-22.78814697265625,4381.2578125,True
1599574269.1483624,0.0,10,0.5,0.5,-14.197677032470704,-0.2,-0.03,-0.5,-0.03664833424655073,10,1,100,0.24039901678495185,-10,-1,-100,6455.894978451426,-0.01675024725180426,0.002202617307149713,0.9998572786623107,227.2155812148087,24.013531135490005,462.2664357083715,-24.786382910361564,-24.6068115234375,4381.2578125,True
1599574269.219719,0.0,10,0.5,0.5,-14.001226684570314,-0.2,-0.03,-0.5,-0.010323545475980911,10,1,100,0.22277615705387888,-10,-1,-100,6454.894505521981,-0.017118175476942627,0.0018617684369807732,0.999851739952793,229.21399409373012,24.25571137887414,473.79260906819565,-25.166757097968414,-26.188385009765625,4381.2578125,True
1599574269.2895336,0.0,10,0.5,0.5,-13.470913848876954,-0.2,-0.03,-0.5,-0.004466988835535073,10,1,100,0.22546506472072492,-10,-1,-100,6453.892567881965,-0.017473249878926102,0.001611354629905861,0.9998460326844955,231.27506542510582,24.502917302325827,485.5860177649279,-25.546968036680752,-28.06488037109375,4381.2578125,True
1599574269.3613412,0.0,10,0.5,0.5,-12.872748840332031,-0.2,-0.03,-0.5,0.00136363308876691,10,1,100,0.22703708564324981,-10,-1,-100,6452.891606640536,-0.017806600626284353,0.0014422269626449282,0.9998404097432371,233.3140670193789,24.745354203812695,497.4716999066659,-25.927012536173002,-30.236297607421875,4381.2578125,True
1599574269.4341452,0.0,10,0.5,0.5,-13.096812561035156,-0.2,-0.03,-0.5,0.011371994995413939,10,1,100,0.21135243609763854,-10,-1,-100,6452.3588999443455,-0.017963242123800814,0.0013847014493037154,0.9998376890947339,234.29535498478697,24.86131213137831,503.3840957996976,-26.116972839730845,-31.4326171875,4381.2578125,True
1599574269.5049567,0.0,10,0.5,0.5,-10.842996612548829,-0.2,-0.03,-0.5,0.010884598168908494,10,1,100,0.24248502324423152,-10,-1,-100,6450.762240679818,-0.018385322803990398,0.0013320507841013754,0.9998300883380644,236.9196502516103,25.168840694669058,520.6185473126579,-26.686617717595013,-35.463531494140625,4381.2578125,True
1599574269.57477,0.0,10,0.5,0.5,-11.771950469970703,-0.2,-0.03,-0.5,0.017940655659264088,10,1,100,0.21421967413936993,-10,-1,-100,6450.229532275116,-0.018508548862080584,0.0013520866833931053,0.9998277879118087,237.63639988143476,25.25197674586339,526.0734080155186,-26.876426580568236,-36.954498291015625,4381.2578125,True
1599574269.643585,0.0,10,0.5,0.5,-10.227988006591797,-0.2,-0.03,-0.5,0.024860384070665795,10,1,100,0.2261649246607771,-10,-1,-100,6449.1035672129365,-0.01872590877180141,0.0014362369781908684,0.9998236232276234,238.7305679343402,25.377558304110174,536.2961728669352,-27.255951475610864,-40.157379150390625,4381.2578125,True
1599574269.7133985,0.0,10,0.5,0.5,-8.024538391113282,-0.2,-0.03,-0.5,0.04448368594796741,10,1,100,0.2301508421956912,-10,-1,-100,6447.444400427747,-0.018956869471808538,0.0016931780847299284,0.9998188687196309,239.61671380031618,25.47249506748923,550.0474668528504,-27.825055550174802,-45.5135498046875,4381.2578125,True
1599574269.7862046,0.0,10,0.5,0.5,-9.280282440185548,-0.2,-0.03,-0.5,0.030905997326634526,10,1,100,0.21321515342638112,-10,-1,-100,6446.913154102629,-0.019010152646924947,0.001804612246139156,0.9998176621119381,239.6211929151209,25.469366335809042,553.9836396617633,-28.01472324638261,-47.44610595703125,4381.2578125,True
1599574269.8560178,0.0,10,0.5,0.5,-7.31257992553711,-0.2,-0.03,-0.5,0.048653607699668325,10,1,100,0.2145220554765415,-10,-1,-100,6445.78425234789,-0.01906788625797818,0.002068206808703,0.9998160521987278,238.9789351967355,25.387982634326804,560.34049917472,-28.394040558220787,-51.531829833984375,4381.2578125,True
1599574269.9254096,0.0,10,0.5,0.5,-6.208791564941407,-0.2,-0.03,-0.5,0.05546551323948671,10,1,100,0.20805159286113606,-10,-1,-100,6444.595777602517,-0.01905944202697182,0.0023698868345761585,0.9998155436409316,237.32945722063914,25.192241007738495,564.2785757448578,-28.773376164570344,-55.911651611328125,4381.2578125,True
1599574269.996731,0.0,10,0.5,0.5,-3.3249379272460935,-0.2,-0.03,-0.5,0.08181328974778804,10,1,100,0.19522100198059758,-10,-1,-100,6442.874582486576,-0.0189333589302793,0.002883204718720319,0.9998165907055989,232.5998150215823,24.64919870323449,564.5520367626747,-29.342535849010158,-63.032501220703125,4381.2578125,True
1599574270.0675423,0.0,10,0.5,0.5,-3.200265777587891,-0.2,-0.03,-0.5,0.07056111461990489,10,1,100,0.1890009339819826,-10,-1,-100,6441.680241201771,-0.01876086448870655,0.0032464086121535137,0.9998187289677861,227.7118313596616,24.10099950957255,560.2411280221842,-29.722159678150522,-68.14706420898438,4381.2578125,True
1599574270.1393495,0.0,10,0.5,0.5,-1.8580086975097654,-0.2,-0.03,-0.5,0.07437211380956374,10,1,100,0.17999332467576915,-10,-1,-100,6440.492732291459,-0.018521296490072635,0.0036095992518628546,0.9998219503339422,221.265347617812,23.390994204408507,551.7510710400123,-30.101985041970455,-73.55535888671875,4381.2578125,True
1599574270.2088256,0.0,10,0.5,0.5,1.628415069580078,-0.2,-0.03,-0.5,0.09632401077054453,10,1,100,0.15109704913480884,-10,-1,-100,6438.647987359087,-0.018040306664245553,0.004137312625968845,0.9998287003180569,208.4067697952632,22.005802530572318,530.1553041949968,-30.672155727092534,-82.218505859375,4381.2578125,True
1599574270.2826526,0.0,10,0.5,0.5,-0.4386900024414062,-0.2,-0.03,-0.5,0.06199773032383881,10,1,100,0.17822150128768294,-10,-1,-100,6438.059600819484,-0.017849942765919558,0.004302444723966178,0.9998314200467251,203.22321766455465,21.45617963356503,520.3846141898786,-30.862327337976268,-85.25308227539062,4381.2578125,True
1599574270.35424,0.0,10,0.5,0.5,0.3644973754882814,-0.2,-0.03,-0.5,0.06323513460398231,10,1,100,0.17461207961850037,-10,-1,-100,6437.395530766109,-0.017644670485081684,0.0044611317992009,0.9998343682363309,199.30797558521735,21.04467401229305,513.7133656216341,-31.052529916243188,-88.36105346679688,4381.2578125,True
1599574270.4273496,0.0,10,0.5,0.5,3.249004791259766,-0.2,-0.03,-0.5,0.07895804720209643,10,1,100,0.14681624791845393,-10,-1,-100,6436.154303034884,-0.017206352885489305,0.0047455784413780394,0.9998406977642172,210.11898900626034,22.20242723471416,548.6593927857587,-31.432646398811908,-94.49517059326172,4381.2578125,True
1599574270.499158,0.0,10,0.5,0.5,6.733085731506348,-0.2,-0.03,-0.5,0.09174027353636491,10,1,100,0.10637712637511587,-10,-1,-100,6434.237770144944,-0.01644184534145345,0.005117593446071836,0.9998517269871011,224.71087648651047,23.792306752549084,598.119740438734,-32.00199874954366,-103.6440200805664,4381.2578125,True
1599574270.5749557,0.0,10,0.5,0.5,6.531788879394531,-0.2,-0.03,-0.5,0.07567444841720328,10,1,100,0.12186995676257743,-10,-1,-100,6432.981401732657,-0.015890017220675477,0.005306724148164788,0.9998596631685578,232.53474960883347,24.659752897742592,626.7681528794712,-32.38100305854438,-109.65049743652344,4381.2578125,True
1599574270.646763,0.0,10,0.5,0.5,7.728338790893555,-0.2,-0.03,-0.5,0.07266119309264618,10,1,100,0.11380517253821547,-10,-1,-100,6431.668392094318,-0.015317928044326124,0.005448323813171988,0.9998678296895323,239.57592124864658,25.444409796869248,653.7938456677326,-32.75958615706077,-115.40111541748047,4381.2578125,True
1599574270.7193716,0.0,10,0.5,0.5,8.852776573181153,-0.2,-0.03,-0.5,0.06904728560731925,10,1,100,0.10552588096935059,-10,-1,-100,6430.3485454076435,-0.0147259820642758,0.005541398497876837,0.9998762115156707,244.85186814442,26.036336221470098,676.4059271214519,-33.137816744422736,-120.8600845336914,4381.2578125,True
1599574270.796136,0.0,10,0.5,0.5,9.909984298706055,-0.2,-0.03,-0.5,0.06438235075719576,10,1,100,0.09802690220970897,-10,-1,-100,6428.973034882802,-0.014123501709020585,0.005581186809171799,0.9998846818775035,248.44160527057755,26.439725963195,694.6530136407955,-33.51578041467753,-126.02181243896484,4381.2578125,True
1599574270.8699715,0.0,10,0.5,0.5,9.23110991668701,-0.2,-0.03,-0.5,0.060575210540979196,10,1,100,0.1247109185353893,-10,-1,-100,6428.311891303398,-0.013822590046094471,0.005580625110022506,0.9998888901411991,249.66963389356263,26.57690914604711,702.2730249130555,-33.70468797669728,-128.49090576171875,4381.2578125,True
1599574270.942374,0.0,10,0.5,0.5,11.461568260192871,-0.2,-0.03,-0.5,0.056475956105262806,10,1,100,0.08838324860683694,-10,-1,-100,6426.939798554522,-0.013223053995396599,0.005541056683327401,0.9998972184849136,251.1289157874069,26.736305015290853,714.8053367344268,-34.08240263336217,-133.20547485351562,4381.2578125,True
1599574271.017212,0.0,10,0.5,0.5,12.348765312194825,-0.2,-0.03,-0.5,0.05054269232440726,10,1,100,0.08280285131470172,-10,-1,-100,6425.620441176812,-0.012631669658168984,0.005449870493726474,0.9999053654387741,251.44106671427465,26.762216568261085,724.1457777598748,-34.460038160119716,-137.62193298339844,4381.2578125,True
1599574271.0869892,0.0,10,0.5,0.5,14.543881507873536,-0.2,-0.03,-0.5,0.03278748327836827,10,1,100,0.04562099384434384,-10,-1,-100,6423.527635601931,-0.011760774531965855,0.005204519852061858,0.9999172951577134,250.219767041026,26.603432505235883,733.2839607403938,-35.0264580693341,-143.68798828125,4381.2578125,True
1599574271.7263048,0.0,10,0.5,0.5,12.987967475891114,-0.2,-0.03,-0.5,0.04589391665046015,10,1,100,0.10132178986147461,-10,-1,-100,6422.800575084169,-0.011480771559167031,0.005099947401155896,0.9999210880969116,249.46165070945645,26.509508417340367,735.2807528170493,-35.21527493983845,-145.56103515625,4381.2578125,True
1599574271.7871432,0.0,10,0.5,0.5,14.67056723022461,-0.2,-0.03,-0.5,0.029095850706327534,10,1,100,0.06867203783795509,-10,-1,-100,6421.36598493671,-0.01093461254852367,0.0048518496926949276,0.9999284443413806,247.55858367817038,26.276867020194906,738.0656140116843,-35.59294274170757,-149.0837860107422,4381.2578125,True
1599574271.852966,0.0,10,0.5,0.5,13.045511100769042,-0.2,-0.03,-0.5,0.05387904717708672,10,1,100,0.12273721562299816,-10,-1,-100,6421.36598493671,-0.01093461254852367,0.0048518496926949276,0.9999284443413806,247.55858367817038,26.276867020194906,738.0656140116843,-35.59294274170757,-149.0837860107422,4381.2578125,True
1599574271.9191797,0.0,10,0.5,0.5,16.471881340026854,-0.2,-0.03,-0.5,0.00417378759262068,10,1,100,0.036805250949548785,-10,-1,-100,6419.208242347813,-0.01015791778301245,0.004400397218704754,0.999938724727986,244.05067231779756,25.85361808742315,740.0760108124846,-36.15955189707876,-153.80960083007812,4381.2578125,True
1599574271.9849622,0.0,10,0.5,0.5,16.169322677612307,-0.2,-0.03,-0.5,0.009010203426083788,10,1,100,0.06063825844603762,-10,-1,-100,6417.770237001125,-0.009673186255480616,0.004034905955921959,0.9999450729923087,241.49406756386415,25.547906279173358,740.5864418719651,-36.537366936706285,-156.58834838867188,4381.2578125,True
1599574272.052863,0.0,10,0.5,0.5,16.62399587249756,-0.2,-0.03,-0.5,0.001670538655547192,10,1,100,0.05812183060361749,-10,-1,-100,6416.256549830316,-0.00921423806443767,0.003637286485061771,0.9999509327781625,238.91379926923452,25.241068185975283,740.877894527158,-36.91523569220721,-159.069580078125,4381.2578125,True
1599574272.1215858,0.0,10,0.5,0.5,16.27285383605957,-0.2,-0.03,-0.5,0.018537955168487337,10,1,100,0.07930169029438014,-10,-1,-100,6415.539257369353,-0.008994019582173364,0.003430921571055702,0.9999536671210966,237.64976309293195,25.091243090625017,741.0491625414422,-37.10418706414212,-160.19862365722656,4381.2578125,True
1599574272.1894047,0.0,10,0.5,0.5,17.862706604003908,-0.2,-0.03,-0.5,-0.03748429335169472,10,1,100,0.03251610325450538,-10,-1,-100,6413.31902204419,-0.008372887052901425,0.002735978211356681,0.9999612038402422,234.1149437181956,24.673179372638856,742.157044907436,-37.671087176248975,-163.14041137695312,4381.2578125,True
1599574272.2602158,0.0,10,0.5,0.5,17.594614990234376,-0.2,-0.03,-0.5,-0.02376806545638411,10,1,100,0.05249048121827653,-10,-1,-100,6411.745768324938,-0.00799421561409076,0.0022314545729258226,0.9999655559704066,232.07255036356673,24.431420908836404,743.7295739358196,-38.04903835195984,-164.73040771484375,4381.2578125,True
1599574272.3310273,0.0,10,0.5,0.5,17.78615922546387,-0.2,-0.03,-0.5,-0.03157756195264161,10,1,100,0.050394892798745344,-10,-1,-100,6410.246734726243,-0.007635133915034488,0.0017047271297688839,0.9999693988495411,230.3608611481159,24.22745349681181,746.254241997975,-38.42698309423374,-166.02357482910156,4381.2578125,True
1599574272.4018369,0.0,10,0.5,0.5,17.904179168701173,-0.2,-0.03,-0.5,-0.04001751377512673,10,1,100,0.04863904191530356,-10,-1,-100,6408.683737951098,-0.0072964843084219804,0.0011523387946238866,0.9999727163438208,229.0325009337424,24.066424916912766,749.935859752709,-38.8049031182296,-167.0201416015625,4381.2578125,True
1599574272.4722207,0.0,10,0.5,0.5,17.741296661376953,-0.2,-0.03,-0.5,-0.016895655482951154,10,1,100,0.06451123278165874,-10,-1,-100,6407.904437729623,-0.007136717571423607,0.0008639550276996052,0.9999741600881574,228.52599682653272,24.003306162332482,752.2683325702889,-38.993847957394095,-167.40731811523438,4381.2578125,True
1599574272.542035,0.0,10,0.5,0.5,17.98916581726074,-0.2,-0.03,-0.5,-0.053434800762531244,10,1,100,0.046083672667658795,-10,-1,-100,6406.335583267617,-0.0068274044412769954,0.0002732392776495262,0.9999766556719673,227.84555461335944,23.913252286481097,758.0004652614125,-39.371695943782605,-167.95944213867188,4381.2578125,True
1599574272.6128821,0.0,10,0.5,0.5,17.96098748779297,-0.2,-0.03,-0.5,-0.09735106881662636,10,1,100,0.029169173977190543,-10,-1,-100,6403.986942980322,-0.006396176342236952,-0.0006588514679650054,0.9999793272077889,227.69976409714275,23.87177386057321,769.49841042178,-39.93832830738117,-168.232666015625,4381.2578125,True
1599574272.682736,0.0,10,0.5,0.5,17.736416107177735,-0.2,-0.03,-0.5,-0.07619329582624804,10,1,100,0.04234131158263674,-10,-1,-100,6402.351198410848,-0.006127317268105311,-0.0013092639834414404,0.9999803707128044,228.2027036715373,23.907108712806856,779.224540277079,-40.315962817041786,-168.04519653320312,4381.2578125,True
1599574272.753546,0.0,10,0.5,0.5,17.721329864501953,-0.2,-0.03,-0.5,-0.04818534303540838,10,1,100,0.054454892955744794,-10,-1,-100,6401.502565176925,-0.005996246912275142,-0.0016410719994675088,0.9999806757661167,228.634630255878,23.943398651593636,784.7259132026762,-40.50473701944008,-167.84063720703125,4381.2578125,True
1599574272.8243577,0.0,10,0.5,0.5,17.110263580322265,-0.2,-0.03,-0.5,-0.1274485705319441,10,1,100,0.023800737281673548,-10,-1,-100,6399.098267947906,-0.005601343347349034,-0.002658491938110142,0.9999807785019271,230.63667709329573,24.123860776249597,803.8037492826904,-41.07085730252259,-166.7839813232422,4381.2578125,True
1599574272.8971705,0.0,10,0.5,0.5,17.30853985595703,-0.2,-0.03,-0.5,-0.06481432425786605,10,1,100,0.048996773773281974,-10,-1,-100,6398.256472104113,-0.0054744792348261255,-0.003008481085739857,0.9999804893689997,231.5315438013203,24.206710888705015,811.0135287028373,-41.2594885174848,-166.2842559814453,4381.2578125,True
1599574272.9689453,0.0,10,0.5,0.5,16.20894581604004,-0.2,-0.03,-0.5,-0.14817783053202938,10,1,100,0.019338348482474767,-10,-1,-100,6395.776496690582,-0.005092161091541666,-0.004079280859443722,0.9999787144550065,234.8492850496565,24.516862182947033,835.1006331617905,-41.82511960348618,-164.34298706054688,4381.2578125,True
1599574273.0447428,0.0,10,0.5,0.5,16.014791915893554,-0.2,-0.03,-0.5,-0.12208032946262842,10,1,100,0.02885030328383456,-10,-1,-100,6394.086072655162,-0.004833709690861382,-0.004809748157241437,0.9999767505163749,237.54004259033536,24.76908920112407,853.0858465542283,-42.20196303752831,-162.6806640625,4381.2578125,True
1599574273.1190596,0.0,10,0.5,0.5,15.466355285644532,-0.2,-0.03,-0.5,-0.13079079718775322,10,1,100,0.024736640125819078,-10,-1,-100,6392.395649857237,-0.004563903683555686,-0.00554707315702503,0.9999742000484602,240.5560104866907,25.051112904335664,872.447586192492,-42.57858698560965,-160.72413635253906,4381.2578125,True
1599574273.1953676,0.0,10,0.5,0.5,14.8503572845459,-0.2,-0.03,-0.5,-0.13908961482897977,10,1,100,0.02007800374679064,-10,-1,-100,6390.642728769453,-0.004278758419491037,-0.006286722033610675,0.9999710842581698,243.83194700014948,25.355957647344095,892.9789233369866,-42.954972393996144,-158.47360229492188,4381.2578125,True
1599574273.2681732,0.0,10,0.5,0.5,13.200455856323243,-0.2,-0.03,-0.5,-0.1884018188510981,10,1,100,-0.0014515723742174053,-10,-1,-100,6388.041182556888,-0.0038264101775612215,-0.007400922251561146,0.9999652918651625,249.06539611901286,25.839032738052467,925.398925529655,-43.519064210277705,-154.54736328125,4381.2578125,True
1599574273.3419764,0.0,10,0.5,0.5,14.104528091430664,-0.2,-0.03,-0.5,-0.1182022244451419,10,1,100,0.02576522131136686,-10,-1,-100,6387.192555733956,-0.003665338076824624,-0.00776867689916269,0.9999631057974184,250.849762858619,26.00255600359735,936.476673813641,-43.70695791945961,-153.0919189453125,4381.2578125,True
1599574273.417773,0.0,10,0.5,0.5,12.595247817993164,-0.2,-0.03,-0.5,-0.16146041802961741,10,1,100,0.0038101785316600467,-10,-1,-100,6385.439638648648,-0.0033218001765807576,-0.008489792133721873,0.9999584436730924,254.40277102818396,26.326370870149752,958.7582143894542,-44.08253266507646,-149.96109008789062,4381.2578125,True
1599574273.492572,0.0,10,0.5,0.5,11.709933181762695,-0.2,-0.03,-0.5,-0.16849487182224798,10,1,100,-0.001550379841627654,-10,-1,-100,6383.620805300656,-0.002963311115776013,-0.0092027732649357,0.999953262783549,257.8342998266529,26.636870519702672,980.8216902080426,-44.45782095476215,-146.5375518798828,4381.2578125,True
1599574273.5653777,0.0,10,0.5,0.5,10.756515869140626,-0.2,-0.03,-0.5,-0.1741434681148632,10,1,100,-0.00787154012594165,-10,-1,-100,6381.867890528636,-0.002582704090456572,-0.009895414531185254,0.9999477038379743,261.0166217299286,26.922989481857556,1002.1625471970464,-44.83282628313957,-142.82144165039062,4381.2578125,True
1599574273.6391802,0.0,10,0.5,0.5,9.736755325317382,-0.2,-0.03,-0.5,-0.17813339428654024,10,1,100,-0.014512611587728375,-10,-1,-100,6380.046129367547,-0.0021790685443834664,-0.010554781445160935,0.9999419224379602,263.8084061063249,27.172681346224742,1022.2073886944673,-45.20756300679493,-138.81297302246094,4381.2578125,True
1599574273.712981,0.0,10,0.5,0.5,8.648263900756836,-0.2,-0.03,-0.5,-0.1818742296353081,10,1,100,-0.020684403378163782,-10,-1,-100,6378.23413383821,-0.0017590157686679965,-0.011181353233437243,0.9999359395498267,266.0533022422259,27.372608098106422,1040.306550182123,-45.58205668193389,-134.5125274658203,4381.2578125,True
1599574273.7882004,0.0,10,0.5,0.5,7.4944597778320325,-0.2,-0.03,-0.5,-0.18410811087986834,10,1,100,-0.026930170596160527,-10,-1,-100,6376.419208639767,-0.001323400039056575,-0.01176481553193535,0.9999299164080632,267.58363556374974,27.508195569911017,1055.7465779349473,-45.95634668368188,-129.9203338623047,4381.2578125,True
1599574273.8630006,0.0,10,0.5,0.5,8.00847737121582,-0.2,-0.03,-0.5,-0.1565267149220931,10,1,100,-0.008160813711858346,-10,-1,-100,6375.508084244095,-0.0011012074471323978,-0.012038173051522313,0.999926932196418,268.02623864697387,27.54695612730318,1062.232091835236,-46.143431293530625,-127.51490783691406,4381.2578125,True
1599574273.938796,0.0,10,0.5,0.5,3.754313247680664,-0.2,-0.03,-0.5,-0.21056395229508104,10,1,100,-0.0605632278075373,-10,-1,-100,6372.653615342453,-0.0004259765047282675,-0.012772026500088083,0.9999183436076662,267.7885384202888,27.520754053019395,1075.5254648074174,-46.70454117408727,-119.8616943359375,4381.2578125,True
1599574274.0126,0.0,10,0.5,0.5,5.5774629669189455,-0.2,-0.03,-0.5,-0.16138359094414942,10,1,100,-0.01820177885344504,-10,-1,-100,6371.753232210176,-0.00020073680386604474,-0.012986176073351697,0.999915655910901,267.1110607592512,27.45667899412134,1077.5531597120892,-46.891561236495164,-117.16509246826172,4381.2578125,True
1599574274.0869372,0.0,10,0.5,0.5,0.8455125350952146,-0.2,-0.03,-0.5,-0.20120776820674702,10,1,100,-0.06889938783485924,-10,-1,-100,6368.862626798102,0.0004616178482272913,-0.013537817975231514,0.9999082529879587,262.9642067746772,27.062248063816376,1074.918185339153,-47.45271918000468,-108.63922882080078,4381.2578125,True
1599574274.1602519,0.0,10,0.5,0.5,0.7421562957763674,-0.2,-0.03,-0.5,-0.1777033732759904,10,1,100,-0.049037630333804386,-10,-1,-100,6366.95101665461,0.00087944523109796,-0.013820389622046226,0.9999041071056666,258.22542148893945,26.60360541071359,1064.844047439146,-47.82701455401299,-102.5921859741211,4381.2578125,True
1599574274.23206,0.0,10,0.5,0.5,-0.8077293472290039,-0.2,-0.03,-0.5,-0.17334444807957516,10,1,100,-0.05004133767287068,-10,-1,-100,6364.978857531794,0.0012645936046012808,-0.014032800346920985,0.9999007357320218,252.60249570988023,26.0530638918657,1050.812198726433,-48.20153543167812,-96.26175689697266,4381.2578125,True
1599574274.3068614,0.0,10,0.5,0.5,-2.39861181640625,-0.2,-0.03,-0.5,-0.16830550381758777,10,1,100,-0.04931162590013467,-10,-1,-100,6363.035016273148,0.001604251196469993,-0.014175701487987257,0.9998982327544249,245.44655995080547,25.336909071050908,1029.9960045591286,-48.57632514739896,-89.68280029296875,4381.2578125,True
1599574274.3848298,0.0,10,0.5,0.5,-1.6295113525390628,-0.2,-0.03,-0.5,-0.1598951613001169,10,1,100,-0.032636833730564904,-10,-1,-100,6362.064315698459,0.001757635482730073,-0.014225262787018859,0.9998972710314546,241.1673442861975,24.90151260346873,1016.4534282742933,-48.763835445653086,-86.30999755859375,4381.2578125,True
1599574274.4596288,0.0,10,0.5,0.5,-4.771315933227539,-0.2,-0.03,-0.5,-0.1611577355391102,10,1,100,-0.046295806749760304,-10,-1,-100,6360.122423719964,0.0020176694031163642,-0.014278459659818565,0.9998960218942379,232.02594667981333,23.957215120143367,986.4384617138561,-49.13908330671501,-79.6375732421875,4381.2578125,True
1599574274.5324345,0.0,10,0.5,0.5,-8.278290039062501,-0.2,-0.03,-0.5,-0.1542576161691634,10,1,100,-0.050793333284615105,-10,-1,-100,6357.145374039421,0.0022915171309009596,-0.014261276544067525,0.9998956770286451,242.48362943853482,25.000176284400656,1044.239828315956,-49.70157268409089,-70.09677124023438,4381.2578125,True
1599574274.604014,0.0,10,0.5,0.5,-7.879925643920899,-0.2,-0.03,-0.5,-0.14877016003723492,10,1,100,-0.03433160568277941,-10,-1,-100,6355.140978299663,0.002387531253261215,-0.014193500054901656,0.9998964167606095,251.82686530009278,25.92195080411514,1093.6823060017255,-50.07584423033415,-64.10739135742188,4381.2578125,True
1599574274.676829,0.0,10,0.5,0.5,-7.092294799804687,-0.2,-0.03,-0.5,-0.15045839838912156,10,1,100,-0.027196091274245833,-10,-1,-100,6354.107285593171,0.002406776925601693,-0.014145273297946763,0.9998970540351425,255.83431587077672,26.311344251227357,1115.7510988339384,-50.26278044887671,-61.2261962890625,4381.2578125,True
1599574274.7693849,0.0,10,0.5,0.5,-11.559622802734376,-0.2,-0.03,-0.5,-0.13430091255053855,10,1,100,-0.019623243035741995,-10,-1,-100,6351.067239303957,0.0023528536860790658,-0.013953296150548052,0.9998998797910053,265.4095346309244,27.225707054720765,1171.9826516200558,-50.82289020757079,-53.03759765625,4381.2578125,True
1599574274.8410945,0.0,10,0.5,0.5,-11.213782020568848,-0.2,-0.03,-0.5,-0.13513257607030635,10,1,100,-0.010638311356189747,-10,-1,-100,6349.061373201781,0.002219829916253525,-0.013785452848476935,0.9999025120705045,269.95430597555713,27.65185797485816,1201.8377333584133,-51.19580903170086,-47.957489013671875,4381.2578125,True
1599574274.912902,0.0,10,0.5,0.5,-10.554247039794923,-0.2,-0.03,-0.5,-0.1416211725807249,10,1,100,-0.013435179310048112,-10,-1,-100,6348.028166312608,0.0021227269141126308,-0.013691630146804046,0.9999040120403414,271.7387681026696,27.818158207899035,1214.7044813931072,-51.3821514321066,-45.531097412109375,4381.2578125,True
1599574274.9862864,0.0,10,0.5,0.5,-14.289700325012207,-0.2,-0.03,-0.5,-0.11623615166516749,10,1,100,0.021089797271919408,-10,-1,-100,6344.926590335555,0.001719457778073009,-0.013375680918301118,0.9999090631777079,275.40199434861046,28.16061337605097,1246.0537345621249,-51.94082164409736,-38.706146240234375,4381.2578125,True
1599574275.0590918,0.0,10,0.5,0.5,-12.53647299194336,-0.2,-0.03,-0.5,-0.1348131445544067,10,1,100,5.972306454753856e-06,-10,-1,-100,6343.8919174957555,0.0015441070957471481,-0.013257933481772104,0.9999109174986889,276.1325649989598,28.230538881925135,1254.372329555786,-52.126954058041704,-36.58245849609375,4381.2578125,True
1599574275.1311755,0.0,10,0.5,0.5,-14.448349700927736,-0.2,-0.03,-0.5,-0.11895951421636262,10,1,100,0.02807339943879309,-10,-1,-100,6341.761047759559,0.0011295936325212196,-0.013007600780041886,0.9999147595371178,276.9865007044336,28.317127192932762,1268.330786206092,-52.49912668646153,-32.561859130859375,4381.2578125,True
1599574275.2039807,0.0,10,0.5,0.5,-16.424578247070315,-0.2,-0.03,-0.5,-0.09754335472737263,10,1,100,0.07012660658374052,-10,-1,-100,6338.595504473662,0.0003710322754074069,-0.012586440203120849,0.9999207187862766,277.0559120497894,28.342930409634615,1283.8446407065885,-53.057240130777664,-27.09716796875,4381.2578125,True
1599574275.276787,0.0,10,0.5,0.5,-15.019354614257812,-0.2,-0.03,-0.5,-0.12314179019246607,10,1,100,0.02721488550947002,-10,-1,-100,6337.5622963238275,7.30345397315898e-05,-0.012437818200563208,0.9999226446802602,276.83239282097713,28.330731342938122,1287.8932830560318,-53.243257021940195,-25.42645263671875,4381.2578125,True
1599574275.3515854,0.0,10,0.5,0.5,-17.51026254272461,-0.2,-0.03,-0.5,-0.08338881789409763,10,1,100,0.10665460262372493,-10,-1,-100,6334.334741944796,-0.0009180349368385891,-0.011942974321292462,0.9999282587147018,275.67298726212164,28.25394036695348,1297.7656723069188,-53.8012851674727,-20.8660888671875,4381.2578125,True
1599574275.423499,0.0,10,0.5,0.5,-16.31860888671875,-0.2,-0.03,-0.5,-0.11286245602945363,10,1,100,0.04829787022211485,-10,-1,-100,6333.238058226183,-0.0012854863789876602,-0.011763104346580119,0.9999299859994702,275.1751765398301,28.21941662607843,1300.5282386123988,-53.98729291530639,-19.496368408203125,4381.2578125,True
1599574275.4933116,0.0,10,0.5,0.5,-18.319658966064456,-0.2,-0.03,-0.5,-0.06794683797579898,10,1,100,0.14716515727253565,-10,-1,-100,6329.947519187583,-0.002514970060213742,-0.011193427995400552,0.9999341888821022,273.54511364173203,28.10629701165368,1308.1315892509726,-54.545320565469524,-15.83819580078125,4381.2578125,True
1599574275.5681117,0.0,10,0.5,0.5,-17.350770111083985,-0.2,-0.03,-0.5,-0.1012437647083238,10,1,100,0.07313207176058015,-10,-1,-100,6328.850836587022,-0.0029552291532685,-0.010980748708401307,0.9999353427989506,273.0012062783176,28.06944149039806,1310.6491090281602,-54.73133067821833,-14.768768310546875,4381.2578125,True
1599574275.642914,0.0,10,0.5,0.5,-18.255188568115237,-0.2,-0.03,-0.5,-0.07569741206590813,10,1,100,0.13511088555781853,-10,-1,-100,6326.656985128415,-0.0039142038550481545,-0.010557714063598282,0.9999366048314926,271.97257427803055,28.00236286585603,1315.9474433873363,-55.103347644584105,-12.8551025390625,4381.2578125,True
1599574275.7167149,0.0,10,0.5,0.5,-19.013232421875,-0.2,-0.03,-0.5,-0.03622282405002136,10,1,100,0.20971972170263461,-10,-1,-100,6323.366457092343,-0.005458773066374204,-0.00981712623734493,0.9999369109244091,270.7378547273511,27.933551476830218,1325.3498651053776,-55.661343878383434,-10.545318603515625,4381.2578125,True
1599574275.7875252,0.0,10,0.5,0.5,-18.759162048339842,-0.2,-0.03,-0.5,-0.051017140088549295,10,1,100,0.17984680970584999,-10,-1,-100,6321.111578328535,-0.006584829303204891,-0.009281593408993007,0.9999352439267443,270.2104490741549,27.917708693660746,1333.056896438319,-56.03330050861037,-9.379119873046875,4381.2578125,True
1599574276.4860606,0.0,10,0.5,0.5,-18.865408905029298,-0.2,-0.03,-0.5,-0.037891684424820556,10,1,100,0.1978908391664696,-10,-1,-100,6318.854262835695,-0.007765163480512102,-0.008679037913614433,0.9999321859691361,269.9857523072841,27.932730956281627,1342.2725322657848,-56.405203870826476,-8.51092529296875,4381.2578125,True
1599574276.5518847,0.0,10,0.5,0.5,-18.729157165527344,-0.2,-0.03,-0.5,-0.06199707299408381,10,1,100,0.1481000706726302,-10,-1,-100,6317.6950892851455,-0.008377465058017359,-0.00835433514377851,0.9999300091323928,269.9961615203067,27.952856987400782,1347.502429797336,-56.59112944526436,-8.188507080078125,4381.2578125,True
1599574276.6177087,0.0,10,0.5,0.5,-18.919751556396484,-0.2,-0.03,-0.5,-0.019144914416507938,10,1,100,0.22855715015541528,-10,-1,-100,6315.43778095732,-0.009657577671653435,-0.0076734330978218395,0.9999239219150671,270.27574883807944,28.019996038921246,1359.295473447015,-56.962916005220244,-7.7669677734375,4381.2578125,True
1599574276.6875226,0.0,10,0.5,0.5,-18.814810699462893,-0.2,-0.03,-0.5,0.04003165066707652,10,1,100,0.3237771232523725,-10,-1,-100,6312.022288306616,-0.011678106519284583,-0.006520793723558408,0.9999105465377086,271.4035285190264,28.195450351954115,1380.7029090187416,-57.520392590480384,-7.69146728515625,4381.2578125,True
1599574276.7563543,0.0,10,0.5,0.5,-18.592408294677735,-0.2,-0.03,-0.5,0.019769351029892288,10,1,100,0.27830441552669716,-10,-1,-100,6309.703473515925,-0.013091780790913627,-0.00566207172601854,0.9998982679350394,272.67641417413296,28.368392701394335,1397.765153948362,-57.891873957743925,-8.01171875,4381.2578125,True
1599574276.8242657,0.0,10,0.5,0.5,-18.355875305175783,-0.2,-0.03,-0.5,0.040013870186314776,10,1,100,0.2968535087685744,-10,-1,-100,6307.384178124717,-0.014534834345128074,-0.004702920674669875,0.9998833037548369,274.364486838991,28.58690408889365,1417.1067357288125,-58.26319010628229,-8.627593994140625,4381.2578125,True
1599574276.8920445,0.0,10,0.5,0.5,-18.392375274658203,-0.2,-0.03,-0.5,0.0016053300619193328,10,1,100,0.23428670149144665,-10,-1,-100,6306.223557335441,-0.015266984906181032,-0.004186034181229893,0.9998746902935928,275.33428828213425,28.71039379729106,1427.4918440234142,-58.44877936987406,-9.0462646484375,4381.2578125,True
1599574276.9629009,0.0,10,0.5,0.5,-17.429809509277344,-0.2,-0.03,-0.5,0.1348673257355324,10,1,100,0.410195316642777,-10,-1,-100,6302.683112717583,-0.017520553048738622,-0.0025108416942763103,0.9998433506779212,278.7726234075318,29.14170562808904,1461.6961874032509,-59.00523781561495,-10.74493408203125,4381.2578125,True
1599574277.0366597,0.0,10,0.5,0.5,-17.235154296875002,-0.2,-0.03,-0.5,0.10491233292694874,10,1,100,0.3545293438790247,-10,-1,-100,6300.301344654523,-0.01905082765394442,-0.0012675728883686519,0.9998177129980607,281.52942555503273,29.483339988428796,1487.2145479120884,-59.37592057462891,-12.245391845703125,4381.2578125,True
1599574277.1064785,0.0,10,0.5,0.5,-16.724457153320312,-0.2,-0.03,-0.5,0.13223017747234175,10,1,100,0.3696275684199891,-10,-1,-100,6297.919587699813,-0.0205668865594243,0.00010324320073372278,0.9997884738873984,284.6104241248602,29.86394423116784,1514.7001932287753,-59.746343265336144,-14.0394287109375,4381.2578125,True
