Timestamp,Input Throttle,horizon,dT,dt,Input Roll,Roll P,Roll I,Roll D,Input Pitch,Pitch P,Pitch I,Pitch D,Input Yaw,Yaw P,Yaw I,Yaw D,Altitude,Direction X,Direction Y,Direction Z,Drag X,Drag Y,Drag Z,Vertical Velocity,Roll,Mass,Has Fuel
1599570840.7933247,0.0,10,0.5,0.5,-8.122620361328124,-0.15025,-0.0155,-0.2505,-0.06716736998877605,10,1,100,0.6903694188686398,-10,-1,-100,6483.617967236321,-0.06725831527127367,-0.007002307295791333,0.9977110236533447,205.07311946422388,21.49876598604141,-156.7651653222473,9.590824348256291,-35.94464111328125,4381.2578125,True
1599570840.8651352,0.0,10,0.5,0.5,-8.206936540222168,-0.15025,-0.0155,-0.2505,-0.06735756065510318,10,1,100,0.6998923586399066,-10,-1,-100,6483.997882791213,-0.0674454368567286,-0.006971709631860522,0.9976986059487173,204.61209126194737,21.456735194198995,-150.26668166273876,9.210801982585744,-35.941314697265625,4381.2578125,True
1599570840.9558926,0.0,10,0.5,0.5,-8.274105409240724,-0.15025,-0.0155,-0.2505,-0.051998826467512374,10,1,100,0.7005498375107567,-10,-1,-100,6484.316759887268,-0.06756021043609833,-0.006797930799643631,0.997692039710989,204.14943579923312,21.414351821183384,-143.78933375554197,8.830798257681845,-35.980712890625,4381.2578125,True
1599570841.0286949,0.0,10,0.5,0.5,-8.326281814575195,-0.15025,-0.0155,-0.2505,-0.052814717978249666,10,1,100,0.6980432956249611,-10,-1,-100,6484.538935982389,-0.06758034493616713,-0.0066411873015443925,0.9976917317536186,203.94226541092485,21.395589250217753,-140.5757294635708,8.640801208866476,-36.084075927734375,4381.2578125,True
1599570841.1034951,0.0,10,0.5,0.5,-8.141638835144043,-0.15025,-0.0155,-0.2505,0.0017923968072609403,10,1,100,0.6987592117502417,-10,-1,-100,6485.016949083656,-0.06754372067833571,-0.005996227453129948,0.997698296607375,203.44698705493423,21.35171273286518,-131.04561533494646,8.070816548534667,-36.817962646484375,4381.2578125,True
1599570841.1775537,0.0,10,0.5,0.5,-8.065765390014649,-0.15025,-0.0155,-0.2505,0.012550337391065272,10,1,100,0.6896205292150521,-10,-1,-100,6485.3357548842905,-0.06736594358391602,-0.005306649742488478,0.9977142221666279,203.19988607443594,21.330134880192638,-124.7614645920866,7.6908224644564,-37.671722412109375,4381.2578125,True
1599570841.252353,0.0,10,0.5,0.5,-8.14555560913086,-0.15025,-0.0155,-0.2505,-0.009932506820994662,10,1,100,0.6988389403618357,-10,-1,-100,6485.493927771575,-0.06722689001433806,-0.004879326180430878,0.9977257826853154,203.0868354014918,21.320041793610343,-121.62929990445849,7.500821120240706,-38.20867919921875,4381.2578125,True
1599570841.3322828,0.0,10,0.5,0.5,-7.841620028686522,-0.15025,-0.0155,-0.2505,0.05699919337045638,10,1,100,0.6750862622155109,-10,-1,-100,6485.750193352927,-0.06682342888610573,-0.0038779444621103868,0.9977572805540695,202.85033412363651,21.297830960625248,-115.3654024957523,7.120805197140882,-39.5030517578125,4381.2578125,True
1599570841.4070818,0.0,10,0.5,0.5,-7.607636697387695,-0.15025,-0.0155,-0.2505,0.08893388215602006,10,1,100,0.6610069943089759,-10,-1,-100,6486.005455922103,-0.06626790412593866,-0.002673756688802897,0.9977982841776811,202.543313690649,21.26684239633874,-109.07266522858984,6.74076387650081,-41.09130859375,4381.2578125,True
1599570841.480885,0.0,10,0.5,0.5,-6.905665811157226,-0.15025,-0.0155,-0.2505,0.20680987924077157,10,1,100,0.5966615336675618,-10,-1,-100,6486.420284666121,-0.06511767933438671,-0.0005050098698539809,0.9978774638216534,201.7701983698525,21.184677603061964,-99.50464288066769,6.170633136574628,-44.02490234375,4381.2578125,True
1599570841.5716443,0.0,10,0.5,0.5,-6.780630841064453,-0.15025,-0.0155,-0.2505,0.1711975228305333,10,1,100,0.6078916853250961,-10,-1,-100,6486.6749971095705,-0.06411491483046762,0.0011432885526154626,0.9979418673387579,200.89744900828057,21.090409600334,-92.99314766395005,5.790481262792591,-46.34844970703125,4381.2578125,True
1599570841.6504314,0.0,10,0.5,0.5,-6.8367493606567376,-0.15025,-0.0155,-0.2505,0.10426873781125379,10,1,100,0.6447215046179785,-10,-1,-100,6486.772071967716,-0.0635409849117863,0.0020258930766411365,0.9979771735834855,200.30940534112307,21.026781167065483,-89.68736783375648,5.600379542285738,-47.620574951171875,4381.2578125,True
1599570841.730218,0.0,10,0.5,0.5,-5.430543014526366,-0.15025,-0.0155,-0.2505,0.3215371079007745,10,1,100,0.47640701820030884,-10,-1,-100,6487.0617955442285,-0.061492648247319856,0.004795248187743299,0.9980960173281672,197.7407982821071,20.749339709918416,-79.54543028992686,5.0299422014858255,-51.8795166015625,4381.2578125,True
1599570841.8119998,0.0,10,0.5,0.5,-5.84480730895996,-0.15025,-0.0155,-0.2505,0.1535057273018955,10,1,100,0.5937955277302648,-10,-1,-100,6487.1578719528625,-0.06070320824097613,0.005774746484221468,0.9981391550341544,196.55640343127376,20.621783923269568,-76.08700239249205,4.839743537271797,-53.44647216796875,4381.2578125,True
1599570841.8882315,0.0,10,0.5,0.5,-4.149126193237305,-0.15025,-0.0155,-0.2505,0.3895540462758785,10,1,100,0.37471188078781603,-10,-1,-100,6487.448518036865,-0.058000117932727926,0.00879980607734168,0.9982777918659668,191.75116643313234,20.106583663944118,-65.49149082552464,4.2689387335919395,-58.590057373046875,4381.2578125,True
1599570841.9640284,0.0,10,0.5,0.5,-4.6574310974121085,-0.15025,-0.0155,-0.2505,0.19856061628419133,10,1,100,0.5329673131625204,-10,-1,-100,6487.544091173448,-0.0569901248584047,0.009800105404317016,0.9983266417374064,189.66194207835335,19.883588177965176,-61.895036783134806,4.078586897539118,-60.452606201171875,4381.2578125,True
1599570842.0527914,0.0,10,0.5,0.5,-3.507556304931641,-0.15025,-0.0155,-0.2505,0.3326923730031188,10,1,100,0.39058738451989294,-10,-1,-100,6487.675170900067,-0.05478701891111016,0.01191511462160593,0.9984269690880688,184.63091774406774,19.348533980369865,-54.636047158704834,3.6977333668471815,-64.39804077148438,4381.2578125,True
1599570842.1344934,0.0,10,0.5,0.5,-1.860496607971191,-0.15025,-0.0155,-0.2505,0.45106348843112426,10,1,100,0.20531070124253248,-10,-1,-100,6487.839795581647,-0.051111170812051146,0.014898683649575866,0.9985818331232204,174.75635349244746,18.304330004230042,-43.72805795124799,3.126003655277164,-70.87289428710938,4381.2578125,True
1599570842.2222598,0.0,10,0.5,0.5,-2.5097192153930665,-0.15025,-0.0155,-0.2505,0.2651809160450748,10,1,100,0.42327225261512325,-10,-1,-100,6487.934871090343,-0.049765243241815645,0.015904107900482918,0.9986343074003479,170.75976197894477,17.883471652354093,-40.12374188508124,2.9352727307874495,-73.1788330078125,4381.2578125,True
1599570842.3214757,0.0,10,0.5,0.5,-0.0862236648559569,-0.15025,-0.0155,-0.2505,0.46779788565560904,10,1,100,0.09054587547722026,-10,-1,-100,6488.100470516947,-0.04553188989569709,0.01864321342995847,0.9987889054227281,156.61575648613513,16.398080779937903,-29.626386352625538,2.362629010864024,-80.54351806640625,4381.2578125,True
1599570842.4072475,0.0,10,0.5,0.5,0.24177961120605485,-0.15025,-0.0155,-0.2505,0.38386605160940007,10,1,100,0.17680301544915383,-10,-1,-100,6488.1670959633775,-0.042485347934823885,0.02035288521697088,0.99888976132214,145.3537498361611,15.21786932580249,-23.052581017350796,1.9806074771156372,-85.82424926757812,4381.2578125,True
1599570842.5025084,0.0,10,0.5,0.5,1.1994982418060303,-0.15025,-0.0155,-0.2505,0.3834731327398714,10,1,100,0.13307168250289841,-10,-1,-100,6488.234707341413,-0.03933787000442378,0.021886097036655214,0.9989862515270254,152.05619639037923,15.919531171876764,-19.465282670128314,1.5985060764183534,-91.36225128173828,4381.2578125,True
1599570842.6172023,0.0,10,0.5,0.5,2.1256616821289063,-0.15025,-0.0155,-0.2505,0.3817770572305377,10,1,100,0.09161892283861706,-10,-1,-100,6488.30135798885,-0.03612168599339145,0.02324645236450156,0.9990769871503696,159.9856301087967,16.748770227551997,-15.586985526398584,1.21643581198445,-96.96582794189453,4381.2578125,True
1599570842.7279055,0.0,10,0.5,0.5,3.0069111167907714,-0.15025,-0.0155,-0.2505,0.3789571124041758,10,1,100,0.048153701029668594,-10,-1,-100,6488.306989775039,-0.032825808478057016,0.024440729342143353,0.9991622075754197,167.81979460760397,17.56678531051649,-11.217353267230445,0.834455528579078,-102.49311828613281,4381.2578125,True
1599570842.813677,0.0,10,0.5,0.5,3.814765319824219,-0.15025,-0.0155,-0.2505,0.37260108508940515,10,1,100,0.011094713848009252,-10,-1,-100,6488.311663321918,-0.029517999398613277,0.025451684543630775,0.9992401610550864,174.2526255203639,18.2383552744236,-6.3173052010385895,0.4525371145643322,-107.77426147460938,4381.2578125,True
1599570842.9064288,0.0,10,0.5,0.5,3.5834360111236574,-0.15025,-0.0155,-0.2505,0.3215415399693561,10,1,100,0.1568312675622714,-10,-1,-100,6488.345257967128,-0.027861670831552367,0.02589141897255863,0.9992764190763543,177.39424001529832,18.566732529893756,-3.717599440039154,0.26157532082963986,-110.30791473388672,4381.2578125,True
1599570843.023117,0.0,10,0.5,0.5,5.8959136646270744,-0.15025,-0.0155,-0.2505,0.3969940012570084,10,1,100,-0.22277723018028356,-10,-1,-100,6488.322048257687,-0.02293141165840727,0.02696248054368239,0.9993733911818367,184.34401738510354,19.293123198151036,4.6007550404532545,-0.3114492033928675,-117.46919250488281,4381.2578125,True
1599570843.117864,0.0,10,0.5,0.5,5.081901034927368,-0.15025,-0.0155,-0.2505,0.32205689115547653,10,1,100,0.08866299939659028,-10,-1,-100,6488.355175956851,-0.021309592321931217,0.027241247002033633,0.9994017289042716,186.01130669669413,19.46728186340438,7.49095095434979,-0.5025220905340886,-119.70906066894531,4381.2578125,True
1599570843.2151196,0.0,10,0.5,0.5,7.1121067058563225,-0.15025,-0.0155,-0.2505,0.3634083827815734,10,1,100,-0.2801954420338686,-10,-1,-100,6488.268551149289,-0.016509044892576197,0.027859373194087954,0.9994755158391662,190.17452666358082,19.902232440971524,16.40076626145953,-1.075914621556513,-125.98628234863281,4381.2578125,True
1599570843.3367937,0.0,10,0.5,0.5,7.15070054283142,-0.15025,-0.0155,-0.2505,0.33093568797683204,10,1,100,-0.1441931332850452,-10,-1,-100,6488.211318506859,-0.013411528398469338,0.028115231356554592,0.9995147145849251,191.5639259769553,20.047109162991948,22.39571380625728,-1.4583238952867141,-129.80209350585938,4381.2578125,True
1599570843.4324932,0.0,10,0.5,0.5,7.681917961502075,-0.15025,-0.0155,-0.2505,0.3241885317624446,10,1,100,-0.16528824718298307,-10,-1,-100,6488.153617026983,-0.010433030878842965,0.028277880976914745,0.9995456534416708,192.1348889832291,20.106216464874063,28.358602365239385,-1.8408416800998983,-133.3223114013672,4381.2578125,True
1599570843.5262158,0.0,10,0.5,0.5,8.165846937942504,-0.15025,-0.0155,-0.2505,0.319328581525145,10,1,100,-0.18333682951562105,-10,-1,-100,6488.033437730861,-0.007590366309845899,0.028374358360757666,0.9995685479880294,192.01076846304247,20.09227165387319,34.235967464359014,-2.2234540931071223,-136.54656982421875,4381.2578125,True
1599570843.6359227,0.0,10,0.5,0.5,9.144088053131103,-0.15025,-0.0155,-0.2505,0.31180027935762333,10,1,100,-0.3464214679702048,-10,-1,-100,6487.882989825332,-0.003552399537256513,0.028387727543342758,0.9995906749177148,190.94677080308895,19.978662287547355,42.84662459090884,-2.7975132545044974,-140.8282470703125,4381.2578125,True
1599570843.721697,0.0,10,0.5,0.5,8.139514652633666,-0.15025,-0.0155,-0.2505,0.3109774886169982,10,1,100,0.05411828064312034,-10,-1,-100,6487.882989825332,-0.003552399537256513,0.028387727543342758,0.9995906749177148,190.94677080308895,19.978662287547355,42.84662459090884,-2.7975132545044974,-140.8282470703125,4381.2578125,True
1599570843.8149478,0.0,10,0.5,0.5,9.194437314224242,-0.15025,-0.0155,-0.2505,0.307486726607122,10,1,100,-0.22501818487174075,-10,-1,-100,6487.7613899363205,-0.0010414074952494131,0.028352405163070065,0.9995974472715994,189.8559618428783,19.86226098769947,48.43886909862499,-3.180289245520562,-143.31234741210938,4381.2578125,True
1599570843.9002378,0.0,10,0.5,0.5,9.89773493232727,-0.15025,-0.0155,-0.2505,0.3014642449047047,10,1,100,-0.3611809947326249,-10,-1,-100,6487.549476371729,0.002453268458125658,0.028262907055873424,0.9995975137817338,187.97488236287887,19.66058810004797,56.63283494791369,-3.754530415364261,-146.48260498046875,4381.2578125,True
1599570843.9895513,0.0,10,0.5,0.5,9.52401605606079,-0.15025,-0.0155,-0.2505,0.30168263698783887,10,1,100,-0.13790581844279992,-10,-1,-100,6487.518719884334,0.0035729132319321515,0.028181374624556502,0.9995964407776308,187.40600350536755,19.599015463583346,59.34536085555931,-3.9459622488278767,-147.3917999267578,4381.2578125,True
1599570844.0673397,0.0,10,0.5,0.5,10.256364504241944,-0.15025,-0.0155,-0.2505,0.30073140412721666,10,1,100,-0.36344591423029055,-10,-1,-100,6487.243359652348,0.006617041783560388,0.02809749857546194,0.9995832858405729,185.80756468703254,19.424250311338472,67.42137856673351,-4.520310880892533,-149.6718292236328,4381.2578125,True
1599570844.1521142,0.0,10,0.5,0.5,10.19245224609375,-0.15025,-0.0155,-0.2505,0.2987902736068804,10,1,100,-0.26834540214574054,-10,-1,-100,6487.058821281418,0.008494493416903339,0.028002822570124347,0.9995717510562693,184.92228772313499,19.325469205365042,72.7980618370589,-4.903257212154988,-150.8216552734375,4381.2578125,True
1599570844.2319002,0.0,10,0.5,0.5,10.12880430908203,-0.15025,-0.0155,-0.2505,0.301951808780889,10,1,100,-0.1811127725937153,-10,-1,-100,6486.905031293281,0.009385513234642628,0.027945364294693853,0.9995653899349253,184.56147606046372,19.28430476289177,75.50060494851233,-5.094745962515319,-151.28550720214844,4381.2578125,True
1599570844.3196654,0.0,10,0.5,0.5,10.424296284484862,-0.15025,-0.0155,-0.2505,0.3057006755704127,10,1,100,-0.35680973474482375,-10,-1,-100,6486.628727918956,0.011772051777931048,0.02792736453062713,0.9995406350455749,183.84923968787987,19.198240079822906,83.71511768365218,-5.669279497385887,-152.22970581054688,4381.2578125,True
1599570844.397458,0.0,10,0.5,0.5,10.28378908996582,-0.15025,-0.0155,-0.2505,0.30676681495854013,10,1,100,-0.2004535455543006,-10,-1,-100,6486.472989724483,0.012500025931318697,0.0279210119363188,0.9995319736977744,183.76058583316333,19.18468848517941,86.51045460658405,-5.860814233546492,-152.3961639404297,4381.2578125,True
1599570844.4722607,0.0,10,0.5,0.5,10.23577765274048,-0.15025,-0.0155,-0.2505,0.3157381387681425,10,1,100,-0.4067363229593529,-10,-1,-100,6485.979923662497,0.015018854599679613,0.027997206472875284,0.9994951677903346,184.198456192437,19.211317001778994,98.09607942278069,-6.627071765513697,-152.31910705566406,4381.2578125,True
1599570844.5560331,0.0,10,0.5,0.5,10.272891235351562,-0.15025,-0.0155,-0.2505,0.3080796330054473,10,1,100,-0.15671058153695488,-10,-1,-100,6485.979923662497,0.015018854599679613,0.027997206472875284,0.9994951677903346,184.198456192437,19.211317001778994,98.09607942278069,-6.627071765513697,-152.31910705566406,4381.2578125,True
1599570844.6324105,0.0,10,0.5,0.5,9.955204803466795,-0.15025,-0.0155,-0.2505,0.3223493386983802,10,1,100,-0.3225149222195132,-10,-1,-100,6485.578141221078,0.016509283829396565,0.028127286089238736,0.9994680081546855,185.38982234069712,19.31945701373169,107.33112601011206,-7.201875844444764,-151.48193359375,4381.2578125,True
1599570844.7072115,0.0,10,0.5,0.5,10.006061109161376,-0.15025,-0.0155,-0.2505,0.31895946086461385,10,1,100,-0.21951473285923728,-10,-1,-100,6485.423380291089,0.016911898961023426,0.028214927868420208,0.9994588063141533,185.93740897204876,19.370873566205105,110.52561017021092,-7.393493465991331,-151.05393981933594,4381.2578125,True
1599570845.363062,0.0,10,0.5,0.5,9.68874691696167,-0.15025,-0.0155,-0.2505,0.3212676794971192,10,1,100,-0.26262844975178107,-10,-1,-100,6485.112389154267,0.017656711388341063,0.028315629636323825,0.9994430777494271,187.2555733328657,19.496544790952303,117.10814348745416,-7.7767451253996285,-149.9769287109375,4381.2578125,True
1599570845.424896,0.0,10,0.5,0.5,9.701858301544188,-0.15025,-0.0155,-0.2505,0.32247177541840005,10,1,100,-0.22103319493544965,-10,-1,-100,6484.957136238809,0.01794287146197553,0.028418000974600788,0.9994350757224337,188.00752899497203,19.568894248885393,120.49119282506868,-7.968376094100219,-149.32643127441406,4381.2578125,True
1599570845.4931576,0.0,10,0.5,0.5,9.253975102996826,-0.15025,-0.0155,-0.2505,0.332913086386754,10,1,100,-0.24571610200656868,-10,-1,-100,6484.584615899483,0.01841711083894575,0.028605695470565663,0.9994210945417308,189.65998330269193,19.728866748502007,127.43031552353912,-8.35164013054874,-147.8035430908203,4381.2578125,True
1599570845.5651696,0.0,10,0.5,0.5,8.901724446868895,-0.15025,-0.0155,-0.2505,0.33563155371523984,10,1,100,-0.23465104754247157,-10,-1,-100,6484.27458882099,0.018738625579770483,0.028800492103610475,0.9994095234517085,191.46313968888802,19.90450201942568,134.5822994348231,-8.734896306703972,-145.98431396484375,4381.2578125,True
1599570845.6349857,0.0,10,0.5,0.5,8.940188722991943,-0.15025,-0.0155,-0.2505,0.3270757470307652,10,1,100,-0.21476818796708824,-10,-1,-100,6484.118840374984,0.018841655609521186,0.028899022502147882,0.9994047420901666,192.39293219994082,19.99535163018119,138.22220778918447,-8.926517759839603,-144.96363830566406,4381.2578125,True
1599570845.7083116,0.0,10,0.5,0.5,8.277475756835939,-0.15025,-0.0155,-0.2505,0.33976761305683856,10,1,100,-0.21372410685837787,-10,-1,-100,6483.745813478134,0.01891940071391392,0.02910309286653572,0.9993973515385299,194.2529010263835,20.17756166583883,145.5923011998378,-9.309739788858103,-142.70005798339844,4381.2578125,True
1599570845.7821128,0.0,10,0.5,0.5,7.246530731201171,-0.15025,-0.0155,-0.2505,0.35026327955624875,10,1,100,-0.18804641577003423,-10,-1,-100,6483.155007086461,0.018750808730938196,0.02938295191058274,0.9993923400291579,196.8482686196498,20.432969441688492,156.71763116107178,-9.884494856748839,-138.75010681152344,4381.2578125,True
1599570845.8509285,0.0,10,0.5,0.5,7.628078290557862,-0.15025,-0.0155,-0.2505,0.33166332787323,10,1,100,-0.19072744310044115,-10,-1,-100,6482.93723410333,0.018618523582026456,0.029467018984927398,0.9993923380593668,197.600622978125,20.507356344520215,160.3905700487502,-10.076053455624399,-137.28564453125,4381.2578125,True
1599570845.930715,0.0,10,0.5,0.5,6.709105181884765,-0.15025,-0.0155,-0.2505,0.3391853627085082,10,1,100,-0.1619581136838108,-10,-1,-100,6482.500704066479,0.018233452571062465,0.029610489539641387,0.9993951971650463,198.8336696409717,20.629926361283346,167.58110942833048,-10.459126494775358,-134.13525390625,4381.2578125,True
1599570846.0035195,0.0,10,0.5,0.5,5.355950940704345,-0.15025,-0.0155,-0.2505,0.3390880199102129,10,1,100,-0.10758275937282799,-10,-1,-100,6481.846377509879,0.01738749918668475,0.029738684015351055,0.9994064666316044,199.72827288744438,20.721076952518025,177.67014496931145,-11.033623443203936,-128.85655212402344,4381.2578125,True
1599570846.0743313,0.0,10,0.5,0.5,5.085920924377441,-0.15025,-0.0155,-0.2505,0.3280876158324184,10,1,100,-0.11116552522088409,-10,-1,-100,6481.40933390148,0.016650588890209466,0.029753835541519048,0.9994185645464955,199.45419695719048,20.69677758520984,183.64731360512553,-11.416553286958493,-124.968994140625,4381.2578125,True
1599570846.145142,0.0,10,0.5,0.5,4.3451321556091305,-0.15025,-0.0155,-0.2505,0.31963320940085327,10,1,100,-0.0906356466561888,-10,-1,-100,6480.9737449657405,0.015794949836005732,0.029689443956016453,0.9994343682690027,198.37309065033105,20.59336458493895,188.84459803221537,-11.799446886209598,-120.78718566894531,4381.2578125,True
1599570846.2189438,0.0,10,0.5,0.5,3.5546862361907956,-0.15025,-0.0155,-0.2505,0.30995815722300896,10,1,100,-0.06973237335580473,-10,-1,-100,6480.474670586176,0.014829019049113365,0.029541795273959677,0.9994535419548186,196.81501214928124,20.444962017582384,193.51158109439712,-12.182326465746378,-116.31119537353516,4381.2578125,True
1599570846.2867625,0.0,10,0.5,0.5,2.7155630863189697,-0.15025,-0.0155,-0.2505,0.2979661294706001,10,1,100,-0.049106851862126794,-10,-1,-100,6479.974610573263,0.013766657312713988,0.029297699765428533,0.999475924639953,194.0534884901323,20.175383221647074,196.8673752705209,-12.5652273799078,-111.54127502441406,4381.2578125,True
1599570846.3595679,0.0,10,0.5,0.5,1.827733949279785,-0.15025,-0.0155,-0.2505,0.28404974408224154,10,1,100,-0.029681636494492333,-10,-1,-100,6479.4760079542175,0.012628801020160656,0.028948830156268035,0.9995011148654998,189.91362922401856,19.764812786674923,198.61701969253622,-12.948195735711135,-106.47750091552734,4381.2578125,True
1599570846.4313765,0.0,10,0.5,0.5,1.977753633117676,-0.15025,-0.0155,-0.2505,0.2952128241277618,10,1,100,-0.07749143312275233,-10,-1,-100,6479.194722130778,0.012034668773177591,0.02873311323230493,0.9995146697030012,187.34179508552413,19.507540910142247,198.86513099582245,-13.139718744905828,-103.83544921875,4381.2578125,True
1599570846.502187,0.0,10,0.5,0.5,-0.7736470195770266,-0.15025,-0.0155,-0.2505,0.22714822921378192,10,1,100,0.06655065283212268,-10,-1,-100,6478.352319546393,0.010191333887185702,0.0279185742382425,0.9995582473903678,178.53352989587276,18.619158863315974,197.92795384593433,-13.714486322466923,-95.4686508178711,4381.2578125,True
1599570846.5874753,0.0,10,0.5,0.5,-1.1272599849700926,-0.15025,-0.0155,-0.2505,0.23237512610262415,10,1,100,0.023658764646706423,-10,-1,-100,6477.789736055536,0.008913282496918452,0.02722693274051371,0.9995895395254363,170.42241815240416,17.78720694392358,194.30072595874904,-14.097862140459863,-89.52377319335938,4381.2578125,True
1599570846.658287,0.0,10,0.5,0.5,-0.947394282913208,-0.15025,-0.0155,-0.2505,0.2580936842770741,10,1,100,-0.03167736822531651,-10,-1,-100,6477.507466652081,0.008263296296498532,0.026834009258932007,0.9996057492238666,166.12714902817189,17.34307906910401,192.02153526737456,-14.289606991149917,-86.44131469726562,4381.2578125,True
1599570846.735082,0.0,10,0.5,0.5,-2.7006880756378173,-0.15025,-0.0155,-0.2505,0.20486160965259298,10,1,100,0.04113387174922259,-10,-1,-100,6476.945856204256,0.007019543165688762,0.025995402215708546,0.9996374168054079,163.75112648225638,17.095907298853263,194.4405952345893,-14.673140963592147,-80.323974609375,4381.2578125,True
1599570846.8068898,0.0,10,0.5,0.5,-4.743331463241577,-0.15025,-0.0155,-0.2505,0.12539077184662079,10,1,100,0.12521499258001412,-10,-1,-100,6476.039476491627,0.005133910090146317,0.024513972997996236,0.9996863048451948,180.4827522202889,18.827009972508694,222.85483616574038,-15.248075554508414,-71.5908203125,4381.2578125,True
1599570846.8816912,0.0,10,0.5,0.5,-5.881432447433472,-0.15025,-0.0155,-0.2505,0.08797355862385647,10,1,100,0.13476761628580627,-10,-1,-100,6475.132123155403,0.0033433258776005862,0.02283182619127221,0.9997337294924322,193.43870561560612,20.15153985534046,248.0166913871072,-15.822405967311191,-63.498443603515625,4381.2578125,True
1599570846.9591098,0.0,10,0.5,0.5,-4.964826021194458,-0.15025,-0.0155,-0.2505,0.19203073072014154,10,1,100,0.01921414804543161,-10,-1,-100,6474.789797362988,0.00277732778107006,0.022254810311275453,0.9997484733013627,197.05585021326766,20.518936023123164,255.76685881613875,-16.013711628277065,-60.948883056640625,4381.2578125,True
1599570847.030918,0.0,10,0.5,0.5,-5.403794694519043,-0.15025,-0.0155,-0.2505,0.18342251575370744,10,1,100,0.02491497758754658,-10,-1,-100,6474.446496997378,0.0022219144168122125,0.021658618452458714,0.9997629555764984,200.25536292699888,20.84295707012682,263.0829978318329,-16.204952261480557,-58.473968505859375,4381.2578125,True
1599570847.1051722,0.0,10,0.5,0.5,-7.66207487564087,-0.15025,-0.0155,-0.2505,0.03710694500016787,10,1,100,0.14539879932628333,-10,-1,-100,6473.4766618249705,0.0006321809270401095,0.019793428920604927,0.9998038910300564,207.5906922143905,21.583199457686923,282.5606476478665,-16.77832285649506,-51.4970703125,4381.2578125,True
1599570847.1774938,0.0,10,0.5,0.5,-7.713947192001343,-0.15025,-0.0155,-0.2505,0.07883005336263427,10,1,100,0.09566138319400018,-10,-1,-100,6472.789095603395,-0.0003499669896473007,0.018485426150610874,0.9998290686628073,210.8204894846089,21.909395421120745,293.62381641558113,-17.16032506499968,-47.21917724609375,4381.2578125,True
1599570847.2602727,0.0,10,0.5,0.5,-8.32517744255066,-0.15025,-0.0155,-0.2505,0.0661917956188699,10,1,100,0.10061125894752254,-10,-1,-100,6472.101046617259,-0.0012765688427925814,0.01719075555029269,0.9998514131087677,213.0226482908503,22.134455135534065,303.4328670208458,-17.542183583249184,-43.238922119140625,4381.2578125,True
1599570847.3341506,0.0,10,0.5,0.5,-8.884705001831055,-0.15025,-0.0155,-0.2505,0.050759710256123386,10,1,100,0.10584302928227417,-10,-1,-100,6471.350992635707,-0.0021560703462133258,0.01588324315460387,0.9998715287213422,214.80329012449144,22.321778402561456,312.77463928005346,-17.923934317276533,-39.5567626953125,4381.2578125,True
1599570847.4139407,0.0,10,0.5,0.5,-8.732781317138672,-0.15025,-0.0155,-0.2505,0.1076303538311736,10,1,100,0.06518064472769872,-10,-1,-100,6471.006730442401,-0.0025758960780604694,0.015221913817919864,0.9998808219478533,215.4038793274079,22.387595900497473,317.06450753576496,-18.114779792538414,-37.827484130859375,4381.2578125,True
1599570847.4907324,0.0,10,0.5,0.5,-9.671601222229004,-0.15025,-0.0155,-0.2505,0.029415260756978562,10,1,100,0.11314410591253483,-10,-1,-100,6470.25619839353,-0.0033837334883522383,0.013920215479751733,0.999897383709287,216.13093890857766,22.474195488651375,324.9956132086562,-18.4964296405355,-34.5919189453125,4381.2578125,True
1599570847.5655317,0.0,10,0.5,0.5,-10.109449012756349,-0.15025,-0.0155,-0.2505,0.01746028299885949,10,1,100,0.11807799793654569,-10,-1,-100,6469.50567233644,-0.004153527173695726,0.012639149180648674,0.9999114961435371,216.36169567787044,22.514248932054116,332.2213317936424,-18.87804408270133,-31.65374755859375,4381.2578125,True
1599570847.639335,0.0,10,0.5,0.5,-10.97798489074707,-0.15025,-0.0155,-0.2505,-0.06554465526144454,10,1,100,0.16031868635949162,-10,-1,-100,6468.3483999772,-0.005228902748522185,0.010730748400749808,0.9999287522692836,216.09304745526322,22.517925902653793,342.13567140948294,-19.45043407025833,-27.804351806640625,4381.2578125,True
1599570847.723111,0.0,10,0.5,0.5,-10.523757731628416,-0.15025,-0.0155,-0.2505,0.056353726678380574,10,1,100,0.09180261099770702,-10,-1,-100,6467.942626277916,-0.005575850559960812,0.01011500668919518,0.9999332960403963,215.9059549942251,22.510570073346667,345.28477517913444,-19.64122630128128,-26.669677734375,4381.2578125,True
1599570847.7989082,0.0,10,0.5,0.5,-11.478369793701171,-0.15025,-0.0155,-0.2505,-0.08028546530428272,10,1,100,0.16953539666137138,-10,-1,-100,6466.784883072367,-0.0065903255506283035,0.008324103209414105,0.9999436368690466,215.24696030288607,22.48179141787053,354.55368841450263,-20.213590185837155,-23.7109375,4381.2578125,True
1599570847.8727121,0.0,10,0.5,0.5,-11.432877545166015,-0.15025,-0.0155,-0.2505,-0.0290789612660476,10,1,100,0.14059441136893291,-10,-1,-100,6465.9723715356085,-0.007241464548606182,0.007173645096545307,0.999948048654139,214.84986807127834,22.46916268174343,360.78406298616414,-20.59514956995773,-22.109466552734375,4381.2578125,True
1599570847.9435215,0.0,10,0.5,0.5,-11.600296823120118,-0.15025,-0.0155,-0.2505,-0.03520401956719592,10,1,100,0.14789696351526788,-10,-1,-100,6465.095412238967,-0.007892638070393074,0.006083564267403287,0.999950347022338,214.57941968295913,22.470935151905216,367.2177798153319,-20.97668678243179,-20.8043212890625,4381.2578125,True
1599570848.0233083,0.0,10,0.5,0.5,-11.718634327697753,-0.15025,-0.0155,-0.2505,-0.040707101517462034,10,1,100,0.15567866537384556,-10,-1,-100,6464.282423014985,-0.008548499769749368,0.005053828097620129,0.9999506897708739,214.50373139783048,22.493907399453047,373.985451793172,-21.358190487097108,-19.795379638671875,4381.2578125,True
1599570848.1030962,0.0,10,0.5,0.5,-11.787812783813477,-0.15025,-0.0155,-0.2505,-0.04669778450067415,10,1,100,0.16248309108970332,-10,-1,-100,6463.40645008022,-0.009199985247556563,0.00407427712292685,0.9999493789874416,214.66832987876498,22.542670426404385,381.1863377761059,-21.739648424355508,-19.082763671875,4381.2578125,True
1599570848.1854622,0.0,10,0.5,0.5,-11.80800004272461,-0.15025,-0.0155,-0.2505,-0.0504000700075769,10,1,100,0.17064762545990564,-10,-1,-100,6462.52999350219,-0.009860064253563722,0.0031608545195353694,0.9999463926289359,215.11355117651553,22.621369113233378,388.91614334071727,-22.121046629603004,-18.6661376953125,4381.2578125,True
1599570848.2647593,0.0,10,0.5,0.5,-11.781716883850098,-0.15025,-0.0155,-0.2505,-0.05367271768601911,10,1,100,0.17879494187338463,-10,-1,-100,6461.592017398099,-0.010527580618987764,0.002311683591464898,0.9999419113954988,215.85989680356514,22.732146305130694,397.23927378271446,-22.502369693269927,-18.54541015625,4381.2578125,True
1599570848.3525255,0.0,10,0.5,0.5,-11.706195906066894,-0.15025,-0.0155,-0.2505,-0.055883900469962854,10,1,100,0.1871557423147025,-10,-1,-100,6460.715568244341,-0.011203926548721023,0.0015301615696270599,0.9999360632737784,216.91717372753712,22.87605985381293,406.2027754323203,-22.883602338456193,-18.720458984375,4381.2578125,True
1599570848.4323113,0.0,10,0.5,0.5,-11.690573298645019,-0.15025,-0.0155,-0.2505,-0.018980863366186842,10,1,100,0.157815340025434,-10,-1,-100,6460.245851371787,-0.01154564610096243,0.0011652682394551904,0.9999326678362107,217.56193214201966,22.960401312485757,410.933020264664,-23.074179818096464,-18.91888427734375,4381.2578125,True
1599570848.5121028,0.0,10,0.5,0.5,-11.337891610717772,-0.15025,-0.0155,-0.2505,-0.09138615764591985,10,1,100,0.2385840295189716,-10,-1,-100,6458.838168041082,-0.012584818558984561,0.00018401297326618588,0.9999207911035068,219.9367163714609,23.260415804451636,426.11552810832865,-23.645732861336626,-19.95733642578125,4381.2578125,True
1599570848.5928876,0.0,10,0.5,0.5,-10.925802819824218,-0.15025,-0.0155,-0.2505,-0.08546320481294656,10,1,100,0.25063918243931504,-10,-1,-100,6457.3675026571145,-0.013632741303735962,-0.0006451640668641255,0.999906861726567,222.8941377257392,23.622371338333423,442.70384824834343,-24.21697774718806,-21.66070556640625,4381.2578125,True
1599570848.665692,0.0,10,0.5,0.5,-11.35567464904785,-0.15025,-0.0155,-0.2505,-0.0034424275275432396,10,1,100,0.1465511495394857,-10,-1,-100,6457.3675026571145,-0.013632741303735962,-0.0006451640668641255,0.999906861726567,222.8941377257392,23.622371338333423,442.70384824834343,-24.21697774718806,-21.66070556640625,4381.2578125,True
1599570848.7394948,0.0,10,0.5,0.5,-10.40789105682373,-0.15025,-0.0155,-0.2505,-0.07005384687737064,10,1,100,0.265412950222677,-10,-1,-100,6455.895865004975,-0.014707492876533038,-0.001243614416259457,0.999891065604884,226.275922381264,24.02855070289722,460.45870573620647,-24.787869298893874,-24.0274658203125,4381.2578125,True
1599570848.8172925,0.0,10,0.5,0.5,-10.215536456298828,-0.15025,-0.0155,-0.2505,-0.04613953705742696,10,1,100,0.23655425423466678,-10,-1,-100,6454.895407163189,-0.015415992656633796,-0.001563596300361486,0.9998799439617839,228.65366394898797,24.311091387406,472.74020013692575,-25.16825051134187,-25.974395751953125,4381.2578125,True
1599570848.8891006,0.0,10,0.5,0.5,-9.302022396850585,-0.15025,-0.0155,-0.2505,-0.045896400241625696,10,1,100,0.2825202085121221,-10,-1,-100,6453.361274372553,-0.01647171250207782,-0.0018462627472215175,0.9998626275649656,232.19307820947165,24.72798431035261,491.4038725004136,-25.738490633298053,-29.446990966796875,4381.2578125,True
1599570848.984025,0.0,10,0.5,0.5,-9.632903820800783,-0.15025,-0.0155,-0.2505,-0.024382990079275402,10,1,100,0.2155266914885139,-10,-1,-100,6452.89156313485,-0.016815815182035475,-0.0019022734793727723,0.9998567946037941,233.3131403457539,24.85899892187938,497.57671155117856,-25.928482892250095,-30.75189208984375,4381.2578125,True
1599570849.0578258,0.0,10,0.5,0.5,-8.80672360534668,-0.15025,-0.0155,-0.2505,-0.022792063210987153,10,1,100,0.25557652580610296,-10,-1,-100,6451.8281181431375,-0.017486401793130997,-0.0019341265116177397,0.9998452304766804,235.37559062059458,25.098850843356104,509.65051240693384,-26.30834150966677,-33.5823974609375,4381.2578125,True
1599570849.7689276,0.0,10,0.5,0.5,-8.881084197998048,-0.15025,-0.0155,-0.2505,-0.017413292172636083,10,1,100,0.22483151180049904,-10,-1,-100,6451.295907455031,-0.017810199656644942,-0.0019103260677617161,0.9998395608508923,236.28563398979566,25.20393298892092,515.4752894733452,-26.498211485208856,-35.10797119140625,4381.2578125,True
1599570849.8377414,0.0,10,0.5,0.5,-7.226715132141113,-0.15025,-0.0155,-0.2505,-0.0012518964483029284,10,1,100,0.2956692670104642,-10,-1,-100,6449.698783613625,-0.018742535240741008,-0.001738639805273767,0.9998228315578601,238.311252450771,25.434667080338578,531.5654946958338,-27.06761831984018,-40.126373291015625,4381.2578125,True
1599570849.9055595,0.0,10,0.5,0.5,-6.962902262878417,-0.15025,-0.0155,-0.2505,0.005712114307823413,10,1,100,0.26573992306148164,-10,-1,-100,6448.572347050649,-0.019311485472983246,-0.0015166122797338204,0.9998123656046767,239.0419005203155,25.513387562381187,541.0100186506156,-27.447090570552028,-43.83953857421875,4381.2578125,True
1599570849.980326,0.0,10,0.5,0.5,-6.250207641601562,-0.15025,-0.0155,-0.2505,0.016359755899527904,10,1,100,0.2658478878968059,-10,-1,-100,6447.445420209086,-0.019823579303602776,-0.0012164263099974644,0.9998027535522326,239.22324396871002,25.52545213705285,549.2523712865218,-27.826494821880427,-47.846588134765625,4381.2578125,True
1599570850.0481434,0.0,10,0.5,0.5,-5.489798432922363,-0.15025,-0.0155,-0.2505,0.02682660500290894,10,1,100,0.26455754890040684,-10,-1,-100,6446.31751371827,-0.020271760760562477,-0.0008478574708944646,0.9997941472390083,238.47191631041554,25.429822156494986,555.3495774858089,-28.20587797792742,-52.147491455078125,4381.2578125,True
1599570850.1279342,0.0,10,0.5,0.5,-4.678607986450195,-0.15025,-0.0155,-0.2505,0.03679385004000264,10,1,100,0.26238553973524525,-10,-1,-100,6445.190092472243,-0.020653417438609076,-0.00042199930464176727,0.9997866063639247,236.6112377331818,25.208493845364853,558.7970184446835,-28.585294853370144,-56.742156982421875,4381.2578125,True
1599570850.19263,0.0,10,0.5,0.5,-3.8199121246337895,-0.15025,-0.0155,-0.2505,0.04675010307342986,10,1,100,0.2580276532150336,-10,-1,-100,6444.067550582578,-0.02095535551886581,5.4908951244916234e-05,0.9997804109203606,233.46717049483013,24.8449811651433,559.0731336420502,-28.964804762448768,-61.63037109375,4381.2578125,True
1599570850.2674325,0.0,10,0.5,0.5,-2.9125638275146484,-0.15025,-0.0155,-0.2505,0.055928088590941026,10,1,100,0.2525494284530144,-10,-1,-100,6442.874692215002,-0.021175006855024273,0.0005704267747087242,0.9997756216761762,228.87554010044786,24.325204038671984,555.6562636260119,-29.3444663165714,-66.81210327148438,4381.2578125,True
1599570850.33834,0.0,10,0.5,0.5,-3.0702750244140624,-0.15025,-0.0155,-0.2505,0.03397110364633626,10,1,100,0.23958458968982038,-10,-1,-100,6442.28045908513,-0.02125255199518207,0.0008372733969776606,0.9997737884176354,225.9886132066148,24.00299015155065,552.4007767977224,-29.534369951880663,-69.51303100585938,4381.2578125,True
1599570850.411145,0.0,10,0.5,0.5,-0.26317070007324217,-0.15025,-0.0155,-0.2505,0.09746120003643975,10,1,100,0.243676639003223,-10,-1,-100,6440.492869158043,-0.021356214628344503,0.0016545534326991341,0.9997705609537052,214.7604393164386,22.77357512110119,535.7030618560326,-30.10442712254832,-78.0560302734375,4381.2578125,True
1599570850.4809587,0.0,10,0.5,0.5,-1.1342704208374021,-0.15025,-0.0155,-0.2505,0.046287044948182365,10,1,100,0.23274780616394064,-10,-1,-100,6439.90302661492,-0.021347582348284863,0.0019290532553305731,0.9997702533489489,210.11553006762043,22.27357051510763,527.6370033213664,-30.294567549661632,-81.05038452148438,4381.2578125,True
1599570850.5577543,0.0,10,0.5,0.5,1.9501047447204591,-0.15025,-0.0155,-0.2505,0.10789173395196974,10,1,100,0.21782554812314148,-10,-1,-100,6438.059760835371,-0.02120086212723098,0.0027351508310998643,0.9997714950902498,203.73982743863186,21.598926179714947,521.9006810142292,-30.865199239960468,-90.44090270996094,4381.2578125,True
1599570850.6305585,0.0,10,0.5,0.5,2.2700696937561036,-0.15025,-0.0155,-0.2505,0.08350779835949332,10,1,100,0.21110123036255946,-10,-1,-100,6436.801453832304,-0.021004115104007168,0.003242227584925458,0.9997741320463265,214.78835690761323,22.791885413097926,557.4378623883231,-31.245247374716918,-96.91452026367188,4381.2578125,True
1599570850.7043645,0.0,10,0.5,0.5,3.3927323616027834,-0.15025,-0.0155,-0.2505,0.08450167843816286,10,1,100,0.2017548670044602,-10,-1,-100,6435.547537291772,-0.020738748479974596,0.003707915507423304,0.9997780532068475,225.31199403648642,23.94253802461387,592.3359793680105,-31.624817804103103,-103.55715942382812,4381.2578125,True
1599570850.7801583,0.0,10,0.5,0.5,3.121560723495483,-0.15025,-0.0155,-0.2505,0.061528018098432835,10,1,100,0.21136774272727965,-10,-1,-100,6434.892746307538,-0.02058406390181028,0.0039179400322261445,0.9997804489282585,229.78112013232354,24.43676750825824,607.9491183599645,-31.814420635777545,-106.81719207763672,4381.2578125,True
1599570850.8519666,0.0,10,0.5,0.5,6.143704671859741,-0.15025,-0.0155,-0.2505,0.10316045402640495,10,1,100,0.1665402127113692,-10,-1,-100,6432.981589984847,-0.020035634645933307,0.004483015565480182,0.9997892157428856,241.1131086730931,25.70014223694586,650.0723950399479,-32.38256031301995,-116.18473815917969,4381.2578125,True
1599570850.9307573,0.0,10,0.5,0.5,6.2447222873687736,-0.15025,-0.0155,-0.2505,0.07978498783586627,10,1,100,0.1746223086979238,-10,-1,-100,6431.668582853512,-0.019611097815734443,0.004779757253187935,0.9997962586262575,246.6074377718436,26.31603886675174,673.150012198183,-32.7608479584333,-122.06234741210938,4381.2578125,True
1599570851.0040698,0.0,10,0.5,0.5,5.999021296691895,-0.15025,-0.0155,-0.2505,0.06417217171776088,10,1,100,0.19180008425547335,-10,-1,-100,6431.010858507943,-0.0193825388912615,0.004903292415210441,0.9998001174782987,248.61882263194047,26.54161974892144,682.8043366548834,-32.949887129059654,-124.88947296142578,4381.2578125,True
1599570851.0758758,0.0,10,0.5,0.5,8.60054072189331,-0.15025,-0.0155,-0.2505,0.08085869502776494,10,1,100,0.13834459113533018,-10,-1,-100,6428.973228374845,-0.018690428538797307,0.005163353805648663,0.9998119861546538,252.0481210233596,26.92118711537712,704.8920085371648,-33.516730562927265,-132.92364501953125,4381.2578125,True
1599570851.1526709,0.0,10,0.5,0.5,8.683382341766357,-0.15025,-0.0155,-0.2505,0.06426207940833588,10,1,100,0.15321502682589572,-10,-1,-100,6427.653381607961,-0.018198752291431714,0.005244962127317082,0.9998206318071847,252.46783588167068,26.958736453961095,714.541599009915,-33.89450600714781,-137.90708923339844,4381.2578125,True
1599570851.2259026,0.0,10,0.5,0.5,8.481585664367676,-0.15025,-0.0155,-0.2505,0.05763610363259658,10,1,100,0.17470808387215125,-10,-1,-100,6426.936573155574,-0.017950035732735237,0.005255651359331998,0.9998250718730665,252.2072667685345,26.92292275875829,718.0453413889555,-34.08338555804348,-140.28709411621094,4381.2578125,True
1599570851.3036923,0.0,10,0.5,0.5,10.659361087036133,-0.15025,-0.0155,-0.2505,0.04985817647076571,10,1,100,0.11993779321811905,-10,-1,-100,6424.9096815489465,-0.017229106715806828,0.0051916362341434584,0.9998380892899547,249.8944306444356,26.638580561135385,724.1078179387061,-34.6500743634043,-146.97991943359375,4381.2578125,True
1599570851.3764982,0.0,10,0.5,0.5,9.904811729431152,-0.15025,-0.0155,-0.2505,0.04994774557557975,10,1,100,0.1652851790352453,-10,-1,-100,6424.182619257015,-0.0169895763491289,0.0051320217618312375,0.999842495920289,248.70804773716208,26.496287768006265,724.8812157590652,-34.839003871204774,-149.0619354248047,4381.2578125,True
1599570851.4528356,0.0,10,0.5,0.5,11.78820184173584,-0.15025,-0.0155,-0.2505,0.024659570095461783,10,1,100,0.11226470403296535,-10,-1,-100,6422.086881162366,-0.01629346673281449,0.004846216287930959,0.9998555081258078,244.25925071446244,25.97057740058346,724.3728483675433,-35.405934842162324,-154.861328125,4381.2578125,True
1599570851.5286748,0.0,10,0.5,0.5,11.815276747131348,-0.15025,-0.0155,-0.2505,0.022870366597798637,10,1,100,0.13313300817741863,-10,-1,-100,6420.645452453871,-0.015854392829975656,0.004569092824606034,0.9998638715438982,240.78770592163934,25.566466637821737,722.3080085505383,-35.78401946128613,-158.35552978515625,4381.2578125,True
1599570851.6114533,0.0,10,0.5,0.5,11.675338416671753,-0.15025,-0.0155,-0.2505,0.032127734657704125,10,1,100,0.15328692476047948,-10,-1,-100,6419.928644976579,-0.015642751860942574,0.004400728337771261,0.9998679602349074,238.9652720124044,25.356154521057466,720.9379024049134,-35.97310075070686,-159.99114990234375,4381.2578125,True
1599570851.6822634,0.0,10,0.5,0.5,12.55489310951233,-0.15025,-0.0155,-0.2505,0.009502925461098537,10,1,100,0.1294334910344247,-10,-1,-100,6418.480381987174,-0.015237495112298357,0.004042064436341152,0.9998757325076927,235.2383437401399,24.92984143366984,717.7841417297126,-36.35133576434846,-163.03887939453125,4381.2578125,True
1599570851.762051,0.0,10,0.5,0.5,13.463790282821655,-0.15025,-0.0155,-0.2505,-0.029121582726013666,10,1,100,0.10794638506535051,-10,-1,-100,6416.256719341036,-0.014677718561724245,0.0033655450813553484,0.9998866124136917,229.70133248754152,24.30576199629725,712.7940598605253,-36.91884156677521,-167.05345153808594,4381.2578125,True
1599570851.8320594,0.0,10,0.5,0.5,13.447213827514647,-0.15025,-0.0155,-0.2505,-0.019012110132895076,10,1,100,0.12616819834062679,-10,-1,-100,6414.815295502194,-0.014338760745822597,0.002843829734336473,0.9998931505779585,226.21154763772128,23.91840743994355,709.8139937723897,-37.297254372766055,-169.35842895507812,4381.2578125,True
1599570851.9100678,0.0,10,0.5,0.5,13.343526831054687,-0.15025,-0.0155,-0.2505,0.0020284548827294233,10,1,100,0.14203844795210668,-10,-1,-100,6414.03599106404,-0.014178848334919076,0.0025629295772534567,0.999896190437726,224.56402139818758,23.73727912158566,708.5493214111497,-37.48647616829538,-170.39956665039062,4381.2578125,True
1599570851.9841719,0.0,10,0.5,0.5,13.878321434020997,-0.15025,-0.0155,-0.2505,-0.035639170927555266,10,1,100,0.12332252621811199,-10,-1,-100,6412.53597633529,-0.013866983131021844,0.001967571047584548,0.9999019129109697,221.51607326525283,23.40547891421639,706.6526653126294,-37.86493785304731,-172.25917053222656,4381.2578125,True
1599570852.056963,0.0,10,0.5,0.5,14.357149068450926,-0.15025,-0.0155,-0.2505,-0.08733050691344765,10,1,100,0.10886844233714775,-10,-1,-100,6410.250312215881,-0.013455780412744424,0.0009594039482971977,0.9999090066188764,217.68867137626225,22.996287754310934,705.8599643261769,-38.43263876723686,-174.49273681640625,4381.2578125,True
1599570852.1262863,0.0,10,0.5,0.5,14.288573278045654,-0.15025,-0.0155,-0.2505,-0.06760850363880466,10,1,100,0.12215275788436131,-10,-1,-100,6408.68047804723,-0.013206156561378768,0.0002260268262471303,0.9999127693657833,218.4162232703988,23.075418362954643,715.8782480844021,-38.81103782915423,-175.61135864257812,4381.2578125,True
1599570852.199093,0.0,10,0.5,0.5,14.379118675231933,-0.15025,-0.0155,-0.2505,-0.08050771875223045,10,1,100,0.12003051823714625,-10,-1,-100,6407.115040667588,-0.012963372172242353,-0.0005534852448880889,0.9999158187747645,220.84001651088508,23.33711014450666,731.5836032428839,-39.18927464440123,-176.433837890625,4381.2578125,True
1599570852.2699022,0.0,10,0.5,0.5,14.326855191040039,-0.15025,-0.0155,-0.2505,-0.04789897909382168,10,1,100,0.13093112711859822,-10,-1,-100,6406.332323103794,-0.012844782894277514,-0.0009607806749047365,0.9999170407853313,221.8682920963804,23.449515925794437,738.8948759464831,-39.378335728636564,-176.73410034179688,4381.2578125,True
1599570852.3486912,0.0,10,0.5,0.5,14.431948451232909,-0.15025,-0.0155,-0.2505,-0.10201876956313195,10,1,100,0.11823981125753605,-10,-1,-100,6404.765912408591,-0.012624334870059548,-0.0018180201850958634,0.9999186571775203,223.57465331317573,23.638639874514055,752.4597901767601,-39.756351098072685,-177.11294555664062,4381.2578125,True
1599570852.4264827,0.0,10,0.5,0.5,14.396968073272705,-0.15025,-0.0155,-0.2505,-0.11598637300676912,10,1,100,0.11545708156210688,-10,-1,-100,6403.138469483587,-0.01240137404807648,-0.002718653636100074,0.9999194041742198,224.83527308512888,23.781617375216168,764.6456854631331,-40.134235521218734,-177.1962432861328,4381.2578125,True
1599570852.5112562,0.0,10,0.5,0.5,14.109951808929443,-0.15025,-0.0155,-0.2505,-0.2410549950924231,10,1,100,0.0905365810003925,-10,-1,-100,6399.878709351411,-0.011974710678498307,-0.0046682526849985365,0.9999174034494225,226.0740400485462,23.931106860402398,784.8830474095711,-40.8896691995648,-176.47735595703125,4381.2578125,True
1599570852.5850592,0.0,10,0.5,0.5,14.30464013671875,-0.15025,-0.0155,-0.2505,-0.04689846997921221,10,1,100,0.13293261716988716,-10,-1,-100,6399.878709351411,-0.011974710678498307,-0.0046682526849985365,0.9999174034494225,226.0740400485462,23.931106860402398,784.8830474095711,-40.8896691995648,-176.47735595703125,4381.2578125,True
1599570852.6628506,0.0,10,0.5,0.5,13.994376145172119,-0.15025,-0.0155,-0.2505,-0.16237376090818403,10,1,100,0.1080332096342887,-10,-1,-100,6398.246392646222,-0.011750501564599525,-0.005711198891244339,0.9999146503178185,226.05252203891874,23.935726243384405,792.8453401640401,-41.267247263039344,-175.6756134033203,4381.2578125,True
1599570852.7356575,0.0,10,0.5,0.5,13.500102895355225,-0.15025,-0.0155,-0.2505,-0.2390377836838677,10,1,100,0.08678793253897528,-10,-1,-100,6395.7766820525285,-0.011355743802707164,-0.007348755532639014,0.999908517252858,225.17083338052427,23.847091153388565,801.7927743630507,-41.83348169295391,-173.92068481445312,4381.2578125,True
1599570852.8183746,0.0,10,0.5,0.5,13.648941006469725,-0.15025,-0.0155,-0.2505,-0.139408065904169,10,1,100,0.11282773761319675,-10,-1,-100,6394.928057153593,-0.011235881555596409,-0.00792324929356398,0.9999054840765205,224.63946775710693,23.790385229502327,803.9124259729851,-42.02219800294608,-173.18869018554688,4381.2578125,True
1599570852.8971653,0.0,10,0.5,0.5,12.773362521362305,-0.15025,-0.0155,-0.2505,-0.2752759359400807,10,1,100,0.07066703925362502,-10,-1,-100,6392.388533987803,-0.01074565489027884,-0.009672603664511456,0.9998954803574863,225.90917303043855,23.91561603505182,820.5811886809014,-42.58820805487444,-170.55133056640625,4381.2578125,True
1599570852.9719634,0.0,10,0.5,0.5,12.574474243164062,-0.15025,-0.0155,-0.2505,-0.23510222564765337,10,1,100,0.08081756923962066,-10,-1,-100,6390.642952163587,-0.01039450865047292,-0.010888711516813677,0.9998866886559791,229.6987482562279,24.30281112172583,842.5806877009675,-42.96529201162263,-168.42605590820312,4381.2578125,True
1599570853.0447695,0.0,10,0.5,0.5,12.125100068664551,-0.15025,-0.0155,-0.2505,-0.25057216912391733,10,1,100,0.07060937221694051,-10,-1,-100,6388.9525496679125,-0.009984818335462964,-0.01212550429935271,0.9998766301640889,233.83211175068544,24.71907418020655,866.1344571545507,-43.34212974189651,-166.00723266601562,4381.2578125,True
1599570853.1215696,0.0,10,0.5,0.5,11.627503475952146,-0.15025,-0.0155,-0.2505,-0.26556186606581583,10,1,100,0.059549558583648916,-10,-1,-100,6387.196232982911,-0.009514428802022912,-0.013375981597837773,0.9998652703043872,238.2329139273022,25.1557852245125,890.9906818689228,-43.71869735913464,-163.29510498046875,4381.2578125,True
1599570853.1950035,0.0,10,0.5,0.5,11.081181411743163,-0.15025,-0.0155,-0.2505,-0.280786173063683,10,1,100,0.048470389324884074,-10,-1,-100,6385.436501951306,-0.008988909420241399,-0.014640674695156857,0.9998524141851662,242.81327714113038,25.603508401500516,916.8420676424188,-44.0949715710887,-160.29000854492188,4381.2578125,True
1599570853.2717977,0.0,10,0.5,0.5,10.486102701568601,-0.15025,-0.0155,-0.2505,-0.29421259423935275,10,1,100,0.03505810720604466,-10,-1,-100,6383.621110232547,-0.008392336930839515,-0.015901615866081152,0.9998383405799594,247.47276108699543,26.052005424287646,943.3202672392807,-44.470931873621765,-156.9920654296875,4381.2578125,True
1599570853.3426092,0.0,10,0.5,0.5,9.843111850738527,-0.15025,-0.0155,-0.2505,-0.3066375983509784,10,1,100,0.020955598395143035,-10,-1,-100,6381.8682219387265,-0.007725050381963841,-0.017150668455953397,0.9998230734325498,252.09700301043904,26.490243394573557,969.9886844466287,-44.84656243938002,-153.4014892578125,4381.2578125,True
1599570853.4303746,0.0,10,0.5,0.5,9.150679214477538,-0.15025,-0.0155,-0.2505,-0.3176227645035917,10,1,100,0.0059171409434189,-10,-1,-100,6380.056742799119,-0.006985576324603495,-0.018374688306523782,0.9998067676071468,256.5557724546494,26.906284551088252,996.3330438136352,-45.22185376665604,-149.5185089111328,4381.2578125,True
1599570854.0753162,0.0,10,0.5,0.5,9.26085550918579,-0.15025,-0.0155,-0.2505,-0.26242676268372245,10,1,100,0.03572426223725329,-10,-1,-100,6379.145633340464,-0.006588632761710763,-0.018974139527393248,0.9997982656253842,258.67855818511714,27.10206577915498,1009.2031777074486,-45.409371782459075,-147.46743774414062,4381.2578125,True
1599570854.139146,0.0,10,0.5,0.5,8.001914171600342,-0.15025,-0.0155,-0.2505,-0.33129398787341374,10,1,100,-0.018285897364128847,-10,-1,-100,6377.330738882767,-0.005741107263651165,-0.020134592335367452,0.9997807949140032,262.612536686317,27.46076494879041,1033.9316079431826,-45.78415812188655,-143.14620971679688,4381.2578125,True
1599570854.2109563,0.0,10,0.5,0.5,8.128062815856934,-0.15025,-0.0155,-0.2505,-0.2777261627092436,10,1,100,0.016415869395367017,-10,-1,-100,6376.419630493852,-0.005291095394403261,-0.020691467983813543,0.9997719077180567,264.38200327298006,27.620194722397933,1045.6137577831328,-45.971431184039176,-140.87608337402344,4381.2578125,True
1599570854.2807667,0.0,10,0.5,0.5,6.743605310058594,-0.15025,-0.0155,-0.2505,-0.3412919162060556,10,1,100,-0.04281554482206717,-10,-1,-100,6374.538820370566,-0.004348484983561106,-0.02176557191026346,0.999753644933474,267.41694037342404,27.890203767348293,1067.145562680632,-46.3457559127126,-136.1171875,4381.2578125,True
1599570854.3527274,0.0,10,0.5,0.5,6.888188326263427,-0.15025,-0.0155,-0.2505,-0.2899904423010899,10,1,100,-0.0036780793102439216,-10,-1,-100,6373.631130316528,-0.0038528579544183698,-0.022265764934815104,0.9997446630002336,268.63644394069166,27.99693942264302,1076.7944264999553,-46.5328181866205,-133.6282501220703,4381.2578125,True
1599570854.431477,0.0,10,0.5,0.5,4.2941751815795906,-0.15025,-0.0155,-0.2505,-0.3950459447169855,10,1,100,-0.1258710388968926,-10,-1,-100,6370.780129746883,-0.002297017350210934,-0.023666317469428867,0.9997172745975379,270.8124592586581,28.17893373852262,1099.979206155709,-47.09369094050455,-125.72480773925781,4381.2578125,True
1599570854.5132585,0.0,10,0.5,0.5,3.958324433898926,-0.15025,-0.0155,-0.2505,-0.3448445857831903,10,1,100,-0.09044621463622365,-10,-1,-100,6368.87441460893,-0.0012112219409846307,-0.024473816205250885,0.9996997375521117,270.78178495640327,28.162430277984694,1109.511197364354,-47.467437090330016,-120.091796875,4381.2578125,True
1599570854.5840695,0.0,10,0.5,0.5,2.932931914901733,-0.15025,-0.0155,-0.2505,-0.3395870039349048,10,1,100,-0.1036317890503231,-10,-1,-100,6366.901802781387,-0.00011133697199550236,-0.025151170546913675,0.9996836530744106,269.3333036246184,28.01217367042113,1113.212192488942,-47.84115096586578,-114.16751861572266,4381.2578125,True
1599570854.6616302,0.0,10,0.5,0.5,3.1197206172943117,-0.15025,-0.0155,-0.2505,-0.30362418603449237,10,1,100,-0.054453809436567864,-10,-1,-100,6365.97799510113,0.00043395773063425395,-0.025431603826893523,0.9996764702679962,268.0187934240225,27.88026185240355,1112.5902905926778,-48.028026227426174,-111.09611511230469,4381.2578125,True
1599570854.7314072,0.0,10,0.5,0.5,1.2745893440246585,-0.15025,-0.0155,-0.2505,-0.3307794687331212,10,1,100,-0.12100089940596559,-10,-1,-100,6364.00976941362,0.0015272364526443772,-0.02592588125561643,0.9996627012297384,264.0910456029612,27.488115631297934,1105.809068694334,-48.40187704423116,-104.73567962646484,4381.2578125,True
1599570854.807204,0.0,10,0.5,0.5,-1.2433612785339356,-0.15025,-0.0155,-0.2505,-0.3347298632347878,10,1,100,-0.18603145625154313,-10,-1,-100,6361.096237282734,0.0031045741596340596,-0.02640427232906232,0.9996465255389326,255.3685730735604,26.610632070173622,1083.2164942025852,-48.963067358310255,-94.6500244140625,4381.2578125,True
1599570854.8800092,0.0,10,0.5,0.5,-1.6386934600830076,-0.15025,-0.0155,-0.2505,-0.3047178437268927,10,1,100,-0.137252047168317,-10,-1,-100,6359.09186310845,0.004086256349848674,-0.02655958209775802,0.9996388803502172,247.79846283954484,25.83573836449763,1060.1912317999122,-49.33754375007962,-87.56350708007812,4381.2578125,True
1599570854.9538116,0.0,10,0.5,0.5,-1.413167366027832,-0.15025,-0.0155,-0.2505,-0.29326245697764175,10,1,100,-0.09046615912960984,-10,-1,-100,6358.120679476764,0.004544434482770532,-0.026590792017249655,0.9996360727260332,243.2194402416885,25.360591510901877,1045.0757237370358,-49.52490635333062,-83.91162109375,4381.2578125,True
1599570855.0256205,0.0,10,0.5,0.5,-4.8887346824646,-0.15025,-0.0155,-0.2505,-0.2844314419397324,10,1,100,-0.17883577695498465,-10,-1,-100,6355.082604642492,0.00575537882940547,-0.026533519694594297,0.9996313560243829,231.37608748899828,24.10445318908365,1006.9820202520704,-50.08741506822051,-73.17657470703125,4381.2578125,True
1599570855.1099126,0.0,10,0.5,0.5,-3.6775667488098147,-0.15025,-0.0155,-0.2505,-0.2832026292366977,10,1,100,-0.09767027623435962,-10,-1,-100,6354.111902485602,0.006109183807237944,-0.026465948424166993,0.999631047660695,237.4399903983992,24.718799708591497,1037.743772779563,-50.274782366333255,-69.73202514648438,4381.2578125,True
1599570855.2016675,0.0,10,0.5,0.5,-5.584748406982422,-0.15025,-0.0155,-0.2505,-0.2679118407454029,10,1,100,-0.13240502824321032,-10,-1,-100,6352.107016326161,0.0067375387673827844,-0.026261694479776443,0.9996323969211927,247.98954020031064,25.770394069465695,1092.9554826026192,-50.649046992916844,-63.0670166015625,4381.2578125,True
1599570855.2772715,0.0,10,0.5,0.5,-7.791108309173584,-0.15025,-0.0155,-0.2505,-0.24307026738573964,10,1,100,-0.1439009132028744,-10,-1,-100,6349.004948404618,0.007405065361586319,-0.025847817157051416,0.9996384623228571,260.0418404685632,26.939284644184887,1160.3168763393048,-51.209382740548435,-53.63763427734375,4381.2578125,True
1599570855.349163,0.0,10,0.5,0.5,-7.899152895355225,-0.15025,-0.0155,-0.2505,-0.24641684469475308,10,1,100,-0.1096511849258657,-10,-1,-100,6346.938524471014,0.007692713565341661,-0.025500739383790785,0.9996452042844409,265.77588208390165,27.48066502163002,1195.5644784747249,-51.5823527039596,-47.73095703125,4381.2578125,True
1599570855.4239235,0.0,10,0.5,0.5,-7.6603786197662345,-0.15025,-0.0155,-0.2505,-0.26085961462702534,10,1,100,-0.0914523404150507,-10,-1,-100,6345.904334176797,0.007781673299986983,-0.025316194253995526,0.9996492064065005,268.0163499703373,27.689196150395123,1210.5069164751787,-51.7686969235812,-44.8916015625,4381.2578125,True
1599570855.4977245,0.0,10,0.5,0.5,-10.282649416732788,-0.15025,-0.0155,-0.2505,-0.21451940321563928,10,1,100,-0.09089415748157915,-10,-1,-100,6342.802244426799,0.007850791654297215,-0.02472725622278078,0.99966340728772,272.5200593780529,28.102576202108338,1245.6805938634386,-52.32731023974692,-36.829437255859375,4381.2578125,True
1599570855.5711396,0.0,10,0.5,0.5,-10.37021075592041,-0.15025,-0.0155,-0.2505,-0.22678509469668812,10,1,100,-0.0704920004008063,-10,-1,-100,6340.672331472044,0.00772240368002526,-0.024304453957897668,0.9996747761143178,273.9206989357038,28.229255346032602,1262.0412889881934,-52.699480944112565,-31.8341064453125,4381.2578125,True
1599570855.6469433,0.0,10,0.5,0.5,-11.096460644531248,-0.15025,-0.0155,-0.2505,-0.22185066834231965,10,1,100,-0.05509376043950061,-10,-1,-100,6338.60296223918,0.007461505313293076,-0.023877138766938002,0.9996870551241345,274.2705982372091,28.26057481388043,1273.659050090846,-53.07155129740497,-27.142364501953125,4381.2578125,True
1599570855.7208586,0.0,10,0.5,0.5,-11.773555622863768,-0.15025,-0.0155,-0.2505,-0.21662077187117001,10,1,100,-0.03844045291858691,-10,-1,-100,6336.411032673088,0.007069862867016016,-0.023443564482992237,0.9997001632106365,273.75947617587013,28.214371589573684,1281.3195644230686,-53.44358298926338,-22.7537841796875,4381.2578125,True
1599570855.8041613,0.0,10,0.5,0.5,-11.602834576416015,-0.15025,-0.0155,-0.2505,-0.2356280879088833,10,1,100,-0.05065967442354651,-10,-1,-100,6335.376346697682,0.006822612267369008,-0.023225060941142805,0.9997069813230922,273.2385209285525,28.16733134628581,1283.9091836617765,-53.62959935422254,-20.673126220703125,4381.2578125,True
1599570855.8819776,0.0,10,0.5,0.5,-13.482536622619628,-0.15025,-0.0155,-0.2505,-0.18500577581354058,10,1,100,0.026595896083020792,-10,-1,-100,6332.147774328943,0.005894545414504785,-0.022569226210188798,0.9997279051635148,270.87266888916406,27.952752573377463,1287.8344676847753,-54.1877018425958,-14.885162353515625,4381.2578125,True
1599570855.9597423,0.0,10,0.5,0.5,-12.830252796936033,-0.15025,-0.0155,-0.2505,-0.2262725987225694,10,1,100,-0.025074547461381935,-10,-1,-100,6331.052053235238,0.005520774706298001,-0.022351708228689034,0.9997349259608278,269.8841744700064,27.862527232959536,1288.1609937397034,-54.373763197076705,-13.107025146484375,4381.2578125,True
1599570856.0361314,0.0,10,0.5,0.5,-13.796588313293457,-0.15025,-0.0155,-0.2505,-0.2009756902224549,10,1,100,0.031492906164827174,-10,-1,-100,6328.858168406296,0.004667839724109101,-0.021927547246643742,0.9997486653874845,267.7190932719051,27.66357057328977,1287.844105252175,-54.745936008197184,-9.7774658203125,4381.2578125,True
1599570856.112294,0.0,10,0.5,0.5,-14.805445170593261,-0.15025,-0.0155,-0.2505,-0.17128768149116622,10,1,100,0.11048237297623148,-10,-1,-100,6325.568563834764,0.003176846610776859,-0.021275619247145768,0.999768601062897,264.3278417044164,27.34855795783539,1286.4738831505147,-55.30432330734019,-5.34844970703125,4381.2578125,True
1599570856.1821077,0.0,10,0.5,0.5,-14.292876071166994,-0.15025,-0.0155,-0.2505,-0.21334429297482582,10,1,100,0.024231800325208497,-10,-1,-100,6324.40839167987,0.002609599774533725,-0.02106913127939601,0.9997746154489762,263.39027594910084,27.26221641795417,1286.9012679349123,-55.49047884927189,-4.022918701171875,4381.2578125,True
1599570856.2564197,0.0,10,0.5,0.5,-14.996272158813476,-0.15025,-0.0155,-0.2505,-0.18582947021257307,10,1,100,0.101333844057717,-10,-1,-100,6322.215002050158,0.00139769504722212,-0.02063514115903448,0.9997860958214521,261.56340284866235,27.09179531828763,1287.9248049587059,-55.862817495293136,-1.59722900390625,4381.2578125,True
1599570856.3277404,0.0,10,0.5,0.5,-15.675643563842772,-0.15025,-0.0155,-0.2505,-0.15512449944633136,10,1,100,0.20583218113031929,-10,-1,-100,6318.799923940678,-0.0006481549540783828,-0.019965188692707022,0.9998004656608338,259.3443545775829,26.882228000477614,1291.8831622366704,-56.421365051784264,1.477996826171875,4381.2578125,True
1599570856.40753,0.0,10,0.5,0.5,-15.307528353881835,-0.15025,-0.0155,-0.2505,-0.1980805929019589,10,1,100,0.08431156667605604,-10,-1,-100,6317.703234773129,-0.0013956761341908978,-0.01975059572315612,0.9998039638132611,258.84745859945866,26.83531978318317,1294.3817924941934,-56.6075436806216,2.35284423828125,4381.2578125,True
1599570856.4823275,0.0,10,0.5,0.5,-16.00617551574707,-0.15025,-0.0155,-0.2505,-0.13826790896700525,10,1,100,0.2747437983068623,-10,-1,-100,6314.2867104391335,-0.003798390965984619,-0.019015510936013707,0.9998119736079939,257.74587951049267,26.72859466338298,1303.792859664823,-57.16603617397064,4.528961181640625,4381.2578125,True
1599570856.554136,0.0,10,0.5,0.5,-15.934818034362793,-0.15025,-0.0155,-0.2505,-0.15568600734953408,10,1,100,0.22895519120648267,-10,-1,-100,6311.9673700465355,-0.005556536881400005,-0.01850962389076812,0.999813241921364,257.38271033500416,26.691175554858876,1311.938197487897,-57.53830782414518,5.605621337890625,4381.2578125,True
