Timestamp,Input Throttle,horizon,dT,dt,Input Roll,Roll P,Roll I,Roll D,Input Pitch,Pitch P,Pitch I,Pitch D,Input Yaw,Yaw P,Yaw I,Yaw D,Altitude,Direction X,Direction Y,Direction Z,Drag X,Drag Y,Drag Z,Vertical Velocity,Roll,Mass,Has Fuel
1599573252.571015,0.0,10,0.5,0.5,-10.812292518615724,-0.2,-0.0155,-0.37525,-0.06717735444237409,10,1,100,0.6903810237019353,-10,-1,-100,6483.617967236205,-0.06725858553097591,-0.007002262222970912,0.9977110057507299,205.07306655348503,21.49876067175974,-156.76512327656832,9.590824239270308,-35.944549560546875,4381.2578125,True
1599573252.645852,0.0,10,0.5,0.5,-10.896789556884766,-0.2,-0.0155,-0.37525,-0.06733908162158803,10,1,100,0.6999048979019922,-10,-1,-100,6483.997883151518,-0.06744579629496805,-0.006971500706330747,0.9976985831101692,204.61200977195625,21.456726925771545,-150.26661860851448,9.210801771191502,-35.94122314453125,4381.2578125,True
1599573252.7275963,0.0,10,0.5,0.5,-10.956686167907716,-0.2,-0.0155,-0.37525,-0.05200168363790923,10,1,100,0.7005499018465287,-10,-1,-100,6484.316760221496,-0.06756053721055218,-0.006797767072527761,0.9976920186984806,204.14943068993648,21.41435162408391,-143.789326742044,8.830798035354263,-35.9805908203125,4381.2578125,True
1599573252.8013992,0.0,10,0.5,0.5,-10.8964545211792,-0.2,-0.0155,-0.37525,-0.03402547207660879,10,1,100,0.6995617511793881,-10,-1,-100,6484.6971406490775,-0.06759444527573596,-0.006470227512083654,0.9976918998988652,203.7565198921269,21.37896050291764,-137.38146060339642,8.450805726249044,-36.25653076171875,4381.2578125,True
1599573252.899139,0.0,10,0.5,0.5,-10.760392335510254,-0.2,-0.0155,-0.37525,-0.01525860500057944,10,1,100,0.6973997000146301,-10,-1,-100,6485.016949351411,-0.06754416628324549,-0.0059959743677959415,0.9976982679610515,203.4468549923766,21.351699159511362,-131.04552872492238,8.070816437271457,-36.81787109375,4381.2578125,True
1599573252.9659584,0.0,10,0.5,0.5,-10.562342289733888,-0.2,-0.0155,-0.37525,0.012329084811439399,10,1,100,0.6892429097718159,-10,-1,-100,6485.335754908039,-0.06736290168215288,-0.005308587079818035,0.9977144172458252,203.1996260558854,21.330107934394086,-124.76130449071067,7.690822428579383,-37.671630859375,4381.2578125,True
1599573253.0437508,0.0,10,0.5,0.5,-10.303800375366212,-0.2,-0.0155,-0.37525,0.04244950996863734,10,1,100,0.6788571308652995,-10,-1,-100,6485.590080759139,-0.06704246050775295,-0.004405041510154668,0.9977403991511822,202.97324862487636,21.30958882502557,-118.49893599499822,7.31081576743121,-38.819000244140625,4381.2578125,True
1599573253.1255345,0.0,10,0.5,0.5,-9.984565007019043,-0.2,-0.0155,-0.37525,0.07318279803061267,10,1,100,0.6651243395768478,-10,-1,-100,6485.9093212455045,-0.06656535910066913,-0.003300238335797145,0.9977766089635123,202.71035588959924,21.28393997497876,-112.22484624853168,6.9307882098028815,-40.26031494140625,4381.2578125,True
1599573253.2064984,0.0,10,0.5,0.5,-9.604288983154298,-0.2,-0.0155,-0.37525,0.10511467744138614,10,1,100,0.6489634699425139,-10,-1,-100,6486.165059353691,-0.0659241995892802,-0.0020025817841598224,0.9978226243048963,202.3391936363867,21.24547480126866,-105.90485079932351,6.5507308411364935,-41.99560546875,4381.2578125,True
1599573253.2842894,0.0,10,0.5,0.5,-9.162422761535646,-0.2,-0.0155,-0.37525,0.13716084614981056,10,1,100,0.6296136459264992,-10,-1,-100,6486.420283552259,-0.06510548872460896,-0.0005297446746091619,0.9978782464351598,201.7704358494943,21.184704999302717,-99.50476151367016,6.170633254572079,-44.025054931640625,4381.2578125,True
1599573253.3641267,0.0,10,0.5,0.5,-8.658491329956055,-0.2,-0.0155,-0.37525,0.1690414619129772,10,1,100,0.6070894825930058,-10,-1,-100,6486.675482902094,-0.06409725419121734,0.0010995035179880528,0.9979430510290456,200.89759182131377,21.090429990320843,-92.99321572683431,5.790481425433786,-46.34881591796875,4381.2578125,True
1599573253.439915,0.0,10,0.5,0.5,-8.782478204345704,-0.2,-0.0155,-0.37525,0.10244391805097394,10,1,100,0.6439395807260879,-10,-1,-100,6486.772068019374,-0.06351855217238003,0.001967840780020983,0.9979787177753789,200.30985687822778,21.02683665914724,-89.68757297372429,5.600379763920847,-47.62109375,4381.2578125,True
1599573253.5306785,0.0,10,0.5,0.5,-6.79182292175293,-0.2,-0.0155,-0.37525,0.3208259113497591,10,1,100,0.475702611191951,-10,-1,-100,6487.0617904657265,-0.061466602654147225,0.004734402465052283,0.9980979121265889,197.7426887037438,20.749554041739884,-79.54619298961894,5.0299423246712145,-51.88006591796875,4381.2578125,True
1599573253.6074705,0.0,10,0.5,0.5,-7.463914186096192,-0.2,-0.0155,-0.37525,0.15213345914122747,10,1,100,0.593195792484841,-10,-1,-100,6487.157866319758,-0.060674853771649495,0.005705407004514468,0.998141277801245,196.55951784940876,20.622128247101774,-76.08820904357206,4.8397435743801545,-53.447113037109375,4381.2578125,True
1599573253.6942394,0.0,10,0.5,0.5,-5.066403160095216,-0.2,-0.0155,-0.37525,0.3882655308651241,10,1,100,0.37412722843429813,-10,-1,-100,6487.448511402705,-0.05796984019755943,0.008723724842864062,0.9982802183016227,191.7542156025023,20.106929060694,-65.49252908758471,4.268938421779828,-58.590789794921875,4381.2578125,True
1599573253.772031,0.0,10,0.5,0.5,-4.777842399597168,-0.2,-0.0155,-0.37525,0.3142323105365806,10,1,100,0.4145867900292183,-10,-1,-100,6487.578619288164,-0.05588725507750927,0.010781239330003606,0.9983788757773325,187.29643942626743,19.631729580692344,-58.27468101465981,3.8881859434600266,-62.38909912109375,4381.2578125,True
1599573253.8533359,0.0,10,0.5,0.5,-5.008763333129883,-0.2,-0.0155,-0.37525,0.22608951033547176,10,1,100,0.49728098484285865,-10,-1,-100,6487.675164194778,-0.05475619369086462,0.011835781747020546,0.9984296036891763,184.63416489465894,19.34890184612867,-54.637003085832426,3.697732956745661,-64.3988037109375,4381.2578125,True
1599573253.940645,0.0,10,0.5,0.5,-1.998333471679688,-0.2,-0.0155,-0.37525,0.44632212498375484,10,1,100,0.20668509091048326,-10,-1,-100,6487.839788781479,-0.05109734454618142,0.014781806965422906,0.9985842776466921,174.75979290411126,18.304721199504375,-43.728914028860714,3.1260032302947147,-70.87411499023438,4381.2578125,True
1599573254.0185888,0.0,10,0.5,0.5,-3.054005616760254,-0.2,-0.0155,-0.37525,0.2603164366839008,10,1,100,0.4250579540403272,-10,-1,-100,6487.934864496812,-0.049770387729063,0.015752612683697997,0.9986364522181913,170.76203022950088,17.883740883673426,-40.1242714669622,2.9352723977850985,-73.18048095703125,4381.2578125,True
1599573254.1034334,0.0,10,0.5,0.5,-1.0899093856811526,-0.2,-0.0155,-0.37525,0.3750681910432575,10,1,100,0.24540137793145106,-10,-1,-100,6488.003921344061,-0.04694550703238393,0.017662220017698724,0.9987412905019591,161.69129830588685,16.9306373285915,-33.05657135029679,2.553576206828555,-78.01528930664062,4381.2578125,True
1599573254.1821935,0.0,10,0.5,0.5,0.10142736358642557,-0.2,-0.0155,-0.37525,0.3713265834685592,10,1,100,0.20700294616564918,-10,-1,-100,6488.133530683932,-0.04404486609361588,0.019347673920936392,0.998842188378447,151.16499254335733,15.826665856402395,-26.28510541806315,2.171633968075535,-83.1485595703125,4381.2578125,True
1599573254.2629764,0.0,10,0.5,0.5,1.3552839294433592,-0.2,-0.0155,-0.37525,0.3878755105789423,10,1,100,0.1473565554934052,-10,-1,-100,6488.2006475451635,-0.0408839093141678,0.021013760288153258,0.9989429051941572,148.013055845692,15.496296677203683,-21.211168538999225,1.789559878531409,-88.57763671875,4381.2578125,True
1599573254.3517363,0.0,10,0.5,0.5,4.359766761779785,-0.2,-0.0155,-0.37525,0.45541914826744295,10,1,100,-0.0723763502812454,-10,-1,-100,6488.3013440150535,-0.03603331731931655,0.023125102855965748,0.9990829943807804,160.3032692738063,16.78205472654782,-15.617963429564812,1.2164379802627145,-97.23171997070312,4381.2578125,True
1599573254.4315646,0.0,10,0.5,0.5,2.8694515140533445,-0.2,-0.0155,-0.37525,0.31512937563744703,10,1,100,0.22643583975276926,-10,-1,-100,6488.273394258693,-0.034363283856429026,0.023752424802439946,0.9991271125530561,164.65443358530015,17.236591682994348,-13.523887212832122,1.0254399337494502,-100.16407012939453,4381.2578125,True
1599573254.5143025,0.0,10,0.5,0.5,6.720348873901367,-0.2,-0.0155,-0.37525,0.43127747394245775,10,1,100,-0.16007260686068148,-10,-1,-100,6488.311642777058,-0.029355278075422837,0.02536220290400938,0.9992472298250171,175.33403946512433,18.35178770955519,-6.356864180640155,0.452561572909421,-108.64533996582031,4381.2578125,True
1599573254.592096,0.0,10,0.5,0.5,6.667582558441161,-0.2,-0.0155,-0.37525,0.3662754061677445,10,1,100,-0.033288810276912884,-10,-1,-100,6488.318290198571,-0.025981138754471594,0.026219583763792253,0.9993185247238612,181.37832409351174,18.983737373199382,-1.0264137603574448,0.07062870020359213,-113.95128631591797,4381.2578125,True
1599573254.6788976,0.0,10,0.5,0.5,6.219470295333863,-0.2,-0.0155,-0.37525,0.32149041102887443,10,1,100,0.1133142177479795,-10,-1,-100,6488.350429543294,-0.02427368155049043,0.026577849731028964,0.9993519931874155,183.70621823003378,19.22702557951233,1.7719334378292073,-0.12037564840362647,-116.49456787109375,4381.2578125,True
1599573254.7646637,0.0,10,0.5,0.5,9.480435368347168,-0.2,-0.0155,-0.37525,0.3841479369188462,10,1,100,-0.249315834727417,-10,-1,-100,6488.327744964859,-0.019452522262677015,0.027459758056622072,0.9994336201394726,188.77940077697505,19.757040443257168,10.493775521586457,-0.693589956628077,-123.68202209472656,4381.2578125,True
1599573254.8523636,0.0,10,0.5,0.5,8.158586277008057,-0.2,-0.0155,-0.37525,0.3212423159278125,10,1,100,0.05369840966515649,-10,-1,-100,6488.2988735311665,-0.017853093152127766,0.027678098206250775,0.9994574477908434,190.02869883420655,19.88751636200207,13.475080542078276,-0.8847226474737275,-125.930419921875,4381.2578125,True
1599573254.934178,0.0,10,0.5,0.5,9.856284072875976,-0.2,-0.0155,-0.37525,0.3351979512957003,10,1,100,-0.1389761973801089,-10,-1,-100,6488.241633061436,-0.014676495073559613,0.027992617313328073,0.9995003821251421,191.59252229174706,20.050572894239103,19.460295414624145,-1.2670778575250692,-130.20620727539062,4381.2578125,True
1599573255.0199437,0.0,10,0.5,0.5,10.621753230285645,-0.2,-0.0155,-0.37525,0.335642559979264,10,1,100,-0.1483324086712306,-10,-1,-100,6488.18197440065,-0.011732957637631844,0.028273194401161987,0.9995313722857466,192.1103961311585,20.10404334789467,25.40660927042717,-1.6495448355905518,-134.18545532226562,4381.2578125,True
1599573255.1006987,0.0,10,0.5,0.5,12.32329835357666,-0.2,-0.0155,-0.37525,0.3244673069406746,10,1,100,-0.33809650342032405,-10,-1,-100,6488.0334393068915,-0.007361260842211189,0.0284185571620418,0.9995690058458399,191.38135618829295,20.026050047115543,34.12335900605593,-2.2234192247859483,-139.60162353515625,4381.2578125,True
1599573255.1810308,0.0,10,0.5,0.5,11.323270436096193,-0.2,-0.0155,-0.37525,0.3138563540244954,10,1,100,-0.05537582613255637,-10,-1,-100,6488.003142994596,-0.005987654138510262,0.028447510284627376,0.9995773542635525,190.82069649773612,19.966609285431066,36.954010051994636,-2.414746544140509,-141.25881958007812,4381.2578125,True
1599573255.262853,0.0,10,0.5,0.5,13.37400411682129,-0.2,-0.0155,-0.37525,0.31362946588830076,10,1,100,-0.3528298447632331,-10,-1,-100,6487.853685873677,-0.0020621075686676348,0.028466930133531892,0.9995926078163783,188.52692372618773,19.7233925348062,45.19995481096436,-2.9887997890143487,-145.78616333007812,4381.2578125,True
1599573255.344666,0.0,10,0.5,0.5,13.269135628128051,-0.2,-0.0155,-0.37525,0.30756320187732267,10,1,100,-0.2336478293660323,-10,-1,-100,6487.732585317572,0.0003937335582258713,0.028425150773044295,0.9995958462185679,186.64440825662922,19.52336853083571,50.48726616950176,-3.3715427842153707,-148.43423461914062,4381.2578125,True
1599573255.4224298,0.0,10,0.5,0.5,13.034984215164185,-0.2,-0.0155,-0.37525,0.3067804206969903,10,1,100,-0.12140203305336007,-10,-1,-100,6487.640789675876,0.0015788555147105395,0.028377268845626153,0.9995960373211403,185.68332700628264,19.420975626342315,53.082729325305294,-3.562923263337762,-149.6473846435547,4381.2578125,True
1599573255.512296,0.0,10,0.5,0.5,14.471277393341065,-0.2,-0.0155,-0.37525,0.31241994396884976,10,1,100,-0.36321242362700884,-10,-1,-100,6487.426947358879,0.004829460849212334,0.028383046682188533,0.9995854535600959,182.8377469938674,19.11647038523052,60.70785409069222,-4.137100318398742,-152.83938598632812,4381.2578125,True
1599573255.592081,0.0,10,0.5,0.5,14.782561869812014,-0.2,-0.0155,-0.37525,0.3059916020002592,10,1,100,-0.367381245155892,-10,-1,-100,6487.151117525995,0.007795997583204082,0.028328218700302457,0.9995682740298186,180.28302370662075,18.8405831170193,68.18605593885377,-4.71134487374399,-155.36480712890625,4381.2578125,True
1599573255.673894,0.0,10,0.5,0.5,13.884005902862551,-0.2,-0.0155,-0.37525,0.3115612462532349,10,1,100,-0.07345242374130528,-10,-1,-100,6487.151117525995,0.007795997583204082,0.028328218700302457,0.9995682740298186,180.28302370662075,18.8405831170193,68.18605593885377,-4.71134487374399,-155.36480712890625,4381.2578125,True
1599573255.7596672,0.0,10,0.5,0.5,14.683775843811034,-0.2,-0.0155,-0.37525,0.3199389221348247,10,1,100,-0.2689835527348947,-10,-1,-100,6486.905066490406,0.009550235946113685,0.028403788371504136,0.9995509080579741,178.82526555173362,18.68142250547385,73.14434481784649,-5.0942251047209,-156.67579650878906,4381.2578125,True
1599573255.8374565,0.0,10,0.5,0.5,14.816180351257325,-0.2,-0.0155,-0.37525,0.32310633455209636,10,1,100,-0.27382599157690435,-10,-1,-100,6486.721036085975,0.011166995964577344,0.028500908939064335,0.9995313883969699,177.6568133763048,18.551829083357696,78.14319965640784,-5.477155641908457,-157.68983459472656,4381.2578125,True
1599573256.6124,0.0,10,0.5,0.5,15.027436708831788,-0.2,-0.0155,-0.37525,0.3267419099307449,10,1,100,-0.3539551806439325,-10,-1,-100,6486.381275458727,0.013344406833242554,0.028622044036163228,0.999501228314133,176.56293308969163,18.425072078590624,85.83312247350499,-6.051660410243583,-158.6552276611328,4381.2578125,True
1599573256.688197,0.0,10,0.5,0.5,14.79409502029419,-0.2,-0.0155,-0.37525,0.3240926729042557,10,1,100,-0.20872277601729017,-10,-1,-100,6486.227008580579,0.013984753337536494,0.02870789789067221,0.9994900115923057,176.38781040117988,18.40229649489373,88.47083570242494,-6.243192932791691,-158.8280029296875,4381.2578125,True
1599573256.7730093,0.0,10,0.5,0.5,14.798380130004883,-0.2,-0.0155,-0.37525,0.34896292756734065,10,1,100,-0.3337172518696775,-10,-1,-100,6485.825242349529,0.01568504320602901,0.029011803357521106,0.9994559993744444,176.50473153481275,18.40003273038071,96.70942299630283,-6.817884447066934,-158.90081787109375,4381.2578125,True
1599573256.8478088,0.0,10,0.5,0.5,14.605667187500002,-0.2,-0.0155,-0.37525,0.3461724615169848,10,1,100,-0.26927409519831125,-10,-1,-100,6485.5782325930195,0.016628780616032787,0.029262217842176877,0.9994334426374679,177.11783616433752,18.453480779123026,102.5228252463336,-7.201085546946116,-158.57797241210938,4381.2578125,True
1599573256.927596,0.0,10,0.5,0.5,14.385762661743163,-0.2,-0.0155,-0.37525,0.3550548169388015,10,1,100,-0.2621045037473881,-10,-1,-100,6485.2677457835525,0.017406786478248004,0.029569855089272155,0.9994111403494059,178.16135549064992,18.55103720557443,108.64097533714335,-7.584337120370464,-157.957763671875,4381.2578125,True
1599573257.0033932,0.0,10,0.5,0.5,14.388763706207275,-0.2,-0.0155,-0.37525,0.3444924313342946,10,1,100,-0.22130052149076662,-10,-1,-100,6485.1115248824935,0.01772873021341661,0.02975241945727812,0.9994000628684481,178.8324494374333,18.615072596637578,111.81932076299968,-7.77597863650573,-157.5360107421875,4381.2578125,True
1599573257.0841844,0.0,10,0.5,0.5,13.570598566436768,-0.2,-0.0155,-0.37525,0.3889559942859427,10,1,100,-0.2717349563261471,-10,-1,-100,6484.58475183777,0.01846817458992407,0.030321356388866627,0.9993695722174333,181.42217737731357,18.86594976116341,121.87311781346894,-8.350946519744904,-155.82595825195312,4381.2578125,True
1599573257.1625183,0.0,10,0.5,0.5,13.343710330963136,-0.2,-0.0155,-0.37525,0.37883877239589026,10,1,100,-0.23035130592661182,-10,-1,-100,6484.274742421345,0.018754479767656238,0.030744785093411553,0.9993513034354858,183.55984799641962,19.074975016379764,129.00414804277517,-8.73427568614932,-154.31478881835938,4381.2578125,True
1599573257.239823,0.0,10,0.5,0.5,12.869212014007571,-0.2,-0.0155,-0.37525,0.3862619935891588,10,1,100,-0.21490030388688003,-10,-1,-100,6483.902715728967,0.018864331290520238,0.03119500722985201,0.9993352833403267,185.95531466354828,19.310108607357062,136.46159298169036,-9.117599162748835,-152.50698852539062,4381.2578125,True
1599573257.316133,0.0,10,0.5,0.5,12.957187579345703,-0.2,-0.0155,-0.37525,0.36726348913911006,10,1,100,-0.20332885385773566,-10,-1,-100,6483.7459966694005,0.018850533951636737,0.03142904893265348,0.9993282104758812,187.22311663352613,19.4347537468366,140.30031017084303,-9.309253266325115,-151.49188232421875,4381.2578125,True
1599573257.3929307,0.0,10,0.5,0.5,11.321321353912355,-0.2,-0.0155,-0.37525,0.4198482713249459,10,1,100,-0.17471177812969418,-10,-1,-100,6483.1552216323325,0.018570850647863124,0.03211719564598643,0.9993115676554796,191.17187208345854,19.823432005918256,152.1753093162999,-9.884161467758364,-148.00265502929688,4381.2578125,True
1599573257.4816911,0.0,10,0.5,0.5,11.859951879882813,-0.2,-0.0155,-0.37525,0.3764193825454535,10,1,100,-0.183253138075529,-10,-1,-100,6482.937459461275,0.018389490513199592,0.03234479807683025,0.999307580615715,192.4912030798379,19.953395702276644,156.22024422280296,-10.075773390054396,-146.69158935546875,4381.2578125,True
1599573257.5624764,0.0,10,0.5,0.5,9.81561787490845,-0.2,-0.0155,-0.37525,0.4250440848444357,10,1,100,-0.11454032256324292,-10,-1,-100,6482.282204967341,0.01759595139777954,0.03299044585287342,0.9993007620215425,196.24844369730482,20.323953177922522,168.43570631366748,-10.650509802904411,-142.3152313232422,4381.2578125,True
1599573257.6442568,0.0,10,0.5,0.5,10.508092344665528,-0.2,-0.0155,-0.37525,0.3821429855043744,10,1,100,-0.15538514624759864,-10,-1,-100,6482.063945134752,0.01724413159162659,0.03318377143482542,0.9993004939651596,197.37635610419863,20.43542474506957,172.4789104391208,-10.842050444416776,-140.70889282226562,4381.2578125,True
1599573257.7240436,0.0,10,0.5,0.5,8.05654563522339,-0.2,-0.0155,-0.37525,0.41955125971122426,10,1,100,-0.0498627111836869,-10,-1,-100,6481.409637899022,0.015964441130019626,0.033696032135214375,0.9993046152388912,200.11616404178602,20.70738741003559,184.23326813455725,-11.416547984225414,-135.44747924804688,4381.2578125,True
1599573257.8048275,0.0,10,0.5,0.5,6.58827412109375,-0.2,-0.0155,-0.37525,0.4078091741771237,10,1,100,0.001156800307391348,-10,-1,-100,6480.69280791434,0.014338583647138246,0.034051226378852564,0.999317226410658,201.4557434939897,20.843363011608712,194.89985665142862,-11.99086426880178,-129.52357482910156,4381.2578125,True
1599573257.8866086,0.0,10,0.5,0.5,8.767799978637695,-0.2,-0.0155,-0.37525,0.3727196305054622,10,1,100,-0.16108993332411886,-10,-1,-100,6480.69280791434,0.014338583647138246,0.034051226378852564,0.999317226410658,201.4557434939897,20.843363011608712,194.89985665142862,-11.99086426880178,-129.52357482910156,4381.2578125,True
1599573257.9703844,0.0,10,0.5,0.5,6.244150253295898,-0.2,-0.0155,-0.37525,0.38285936175782587,10,1,100,-0.02475949753581523,-10,-1,-100,6480.19326081092,0.01310297022264711,0.034140014962974065,0.9993311621027697,201.26714325589688,20.828451620386378,201.0068557951754,-12.373659445767974,-125.2073974609375,4381.2578125,True
1599573258.0451849,0.0,10,0.5,0.5,5.166899389648437,-0.2,-0.0155,-0.37525,0.3719708280132389,10,1,100,-0.0007333257581585706,-10,-1,-100,6479.695167820202,0.011766403283808296,0.034118658614615945,0.9993485222324102,200.37673898035658,20.74642324565188,206.38526515442504,-12.756416967784688,-120.59761047363281,4381.2578125,True
1599573258.1359425,0.0,10,0.5,0.5,4.02634652709961,-0.2,-0.0155,-0.37525,0.36302982086125735,10,1,100,0.03054055695353694,-10,-1,-100,6479.194136732724,0.010273487067490972,0.03401530400437713,0.9993685078873379,198.5580106556088,20.57350795562625,210.7297993772617,-13.13916937149031,-115.69380187988281,4381.2578125,True
1599573258.2207177,0.0,10,0.5,0.5,1.2638299041748051,-0.2,-0.0155,-0.37525,0.3235122232680674,10,1,100,0.13690380173662314,-10,-1,-100,6478.351754457224,0.007957149233614572,0.03355974323961127,0.9994050367142269,193.11353622781778,20.039625308171743,214.0382887436649,-13.713395775741922,-107.78909301757812,4381.2578125,True
1599573258.3099937,0.0,10,0.5,0.5,0.925385197448731,-0.2,-0.0155,-0.37525,0.3176324830173296,10,1,100,0.08448198787659236,-10,-1,-100,6477.789181420696,0.006337598330103805,0.03309083349882322,0.9994322546254746,187.94804304660008,19.525852752269994,214.2209989908353,-14.096350825394172,-102.15266418457031,4381.2578125,True
1599573258.3927708,0.0,10,0.5,0.5,-0.43961100730895986,-0.2,-0.0155,-0.37525,0.29736875646350236,10,1,100,0.10201561192008708,-10,-1,-100,6477.225626515225,0.004716839010319607,0.03247965800632475,0.9994612665058826,181.5173256748061,18.878497856769982,212.6075607661812,-14.479457870581214,-96.22301483154297,4381.2578125,True
1599573258.4925108,0.0,10,0.5,0.5,-1.8637541744232178,-0.2,-0.0155,-0.37525,0.27610762408893574,10,1,100,0.11883524609124953,-10,-1,-100,6476.663044416811,0.0031022239656756405,0.03173122525323603,0.9994916235518911,173.01416214600857,18.00972483656819,208.1064995206019,-14.862744494281689,-90.00345611572266,4381.2578125,True
1599573258.585264,0.0,10,0.5,0.5,-3.3097033809661864,-0.2,-0.0155,-0.37525,0.2534521312452357,10,1,100,0.13331029778218692,-10,-1,-100,6476.039424943505,0.001515657007559832,0.030846193312014096,0.9995229938035409,163.55691560186614,17.032009289001422,201.89944334543713,-15.246193358179823,-83.56930541992188,4381.2578125,True
1599573258.6840103,0.0,10,0.5,0.5,-4.631823342132568,-0.2,-0.0155,-0.37525,0.2310168932624871,10,1,100,0.14442868144377577,-10,-1,-100,6475.412875187118,-1.461754753947471e-05,0.029840252873626624,0.9995546803926062,172.77031170253977,17.987440472255194,218.73782101474146,-15.62957540751717,-77.21359252929688,4381.2578125,True
1599573258.8012443,0.0,10,0.5,0.5,-5.837846380615234,-0.2,-0.0155,-0.37525,0.2086874782692134,10,1,100,0.15378188230639797,-10,-1,-100,6474.787790430011,-0.0014777569680220664,0.028726595041976638,0.9995862138763407,184.02395595013323,19.14631340739384,238.8093304860531,-16.012694735491664,-71.11203002929688,4381.2578125,True
1599573258.9094727,0.0,10,0.5,0.5,-6.980675603485108,-0.2,-0.0155,-0.37525,0.18702729485208996,10,1,100,0.16133276796099338,-10,-1,-100,6474.162707758602,-0.0028621496374887805,0.02752210864699087,0.9996170975103796,193.2646506383417,20.08996989513271,256.9181294850056,-16.395514132773158,-65.30255126953125,4381.2578125,True
1599573259.011717,0.0,10,0.5,0.5,-8.064049645233155,-0.2,-0.0155,-0.37525,0.16638868108554133,10,1,100,0.167136350664991,-10,-1,-100,6473.4751282468205,-0.0041589345253492845,0.026245513532140625,0.9996468757931714,201.15570567947944,20.89125698462287,273.775492238537,-16.778029518123823,-59.790985107421875,4381.2578125,True
1599573259.1254086,0.0,10,0.5,0.5,-9.088817599487305,-0.2,-0.0155,-0.37525,0.14703800012628931,10,1,100,0.17155831899400317,-10,-1,-100,6472.78657556884,-0.005363552010205165,0.024916214641813088,0.9996751545165843,207.18901572739486,21.50095761222452,288.54619660640157,-17.16026618518185,-54.57806396484375,4381.2578125,True
1599573259.235116,0.0,10,0.5,0.5,-8.662363391876221,-0.2,-0.0155,-0.37525,0.20428823876713842,10,1,100,0.11496695046349192,-10,-1,-100,6472.442790138419,-0.005929976337907957,0.024236489719489013,0.9996886655087718,209.57111312862966,21.74133363502698,295.18175684148923,-17.351292588814353,-52.08355712890625,4381.2578125,True
1599573259.347863,0.0,10,0.5,0.5,-11.860090906524658,-0.2,-0.0155,-0.37525,0.044227140856179126,10,1,100,0.2316096509123136,-10,-1,-100,6471.349428148824,-0.007492671071198399,0.022171932766840336,0.9997260951268611,214.47917312902243,22.238830957858177,312.28783629902756,-17.924081080786916,-45.047576904296875,4381.2578125,True
1599573259.47951,0.0,10,0.5,0.5,-10.571732385253908,-0.2,-0.0155,-0.37525,0.17342919754361796,10,1,100,0.1290277979744644,-10,-1,-100,6471.005647816928,-0.007968167375298988,0.021479553234983694,0.9997375341065797,215.70178717978857,22.365165559193947,317.48791045846644,-18.114935950050224,-42.851348876953125,4381.2578125,True
1599573259.5828917,0.0,10,0.5,0.5,-13.363262643814089,-0.2,-0.0155,-0.37525,0.012209661489324647,10,1,100,0.22571601432768712,-10,-1,-100,6469.910836703726,-0.009267888703705532,0.019394485246230754,0.999768953399239,217.9676752300096,22.609642593089887,331.20305343493624,-18.687358590497844,-36.70977783203125,4381.2578125,True
1599573259.676641,0.0,10,0.5,0.5,-12.233424813842774,-0.2,-0.0155,-0.37525,0.14620676073318156,10,1,100,0.14095712149792278,-10,-1,-100,6469.504074073397,-0.009667672601377821,0.018728339558678603,0.9997778680306179,218.26752915960157,22.647371596944925,335.1284589346577,-18.878137141106826,-34.8111572265625,4381.2578125,True
1599573259.7743795,0.0,10,0.5,0.5,-14.61579752044678,-0.2,-0.0155,-0.37525,-0.01165732414430909,10,1,100,0.22011043200700547,-10,-1,-100,6468.347269363701,-0.010740521395154348,0.016698640756338857,0.9998028788701556,218.13194203593858,22.66201441627258,345.34113793529554,-19.450447396222117,-29.56256103515625,4381.2578125,True
1599573259.866133,0.0,10,0.5,0.5,-14.519357119750978,-0.2,-0.0155,-0.37525,0.04783200144803049,10,1,100,0.1842438668201943,-10,-1,-100,6467.595280195354,-0.01138002797520962,0.015406218997885163,0.9998165548636774,217.39920600319223,22.610924449582182,351.1215109519438,-19.831996452442446,-26.434814453125,4381.2578125,True
1599573259.9539068,0.0,10,0.5,0.5,-14.250338508605958,-0.2,-0.0155,-0.37525,0.10502603037279407,10,1,100,0.15306703692478285,-10,-1,-100,6467.189502910827,-0.011668969802567776,0.01476334527682883,0.999822923711986,216.89875072442302,22.572761139212663,353.7806983527192,-20.022778915826052,-24.9825439453125,4381.2578125,True
1599573260.0479443,0.0,10,0.5,0.5,-15.311203546142577,-0.2,-0.0155,-0.37525,0.03816916900293264,10,1,100,0.19026982993411662,-10,-1,-100,6466.375998365227,-0.012261845200100879,0.013582723848297206,0.999832564365229,215.73062738795352,22.480987807227383,358.7836715218064,-20.40436249427049,-22.299652099609375,4381.2578125,True
1599573260.1396997,0.0,10,0.5,0.5,-16.357063067626953,-0.2,-0.0155,-0.37525,-0.034626911077787176,10,1,100,0.21625283045396032,-10,-1,-100,6465.093740094919,-0.013029665647425233,0.011859160721338136,0.9998447820137393,213.78552256751001,22.326288294551585,365.8445637566105,-20.97678422461733,-18.83245849609375,4381.2578125,True
1599573260.2214806,0.0,10,0.5,0.5,-16.22793497314453,-0.2,-0.0155,-0.37525,0.019265853006671732,10,1,100,0.19244604142927574,-10,-1,-100,6464.280248150113,-0.013504289686916403,0.010794089419343584,0.9998505497291378,212.53123358301207,22.228452519798694,370.53946291419834,-21.358421819911147,-16.891510009765625,4381.2578125,True
1599573260.310241,0.0,10,0.5,0.5,-16.500316325378417,-0.2,-0.0155,-0.37525,0.015617008140566047,10,1,100,0.19676726692190472,-10,-1,-100,6463.4052372596925,-0.01396816421516045,0.009804891828111345,0.9998543666378106,211.4220045324862,22.145797705447176,375.4250048616296,-21.740066416883455,-15.2467041015625,4381.2578125,True
1599573260.3950155,0.0,10,0.5,0.5,-16.338471720886233,-0.2,-0.0155,-0.37525,0.06185593487007591,10,1,100,0.17609437968280592,-10,-1,-100,6462.93599537597,-0.01419604618125963,0.009337217934476425,0.9998556338962459,210.94679144541618,22.112676209555627,377.98827501430384,-21.930887426983606,-14.535400390625,4381.2578125,True
1599573260.485358,0.0,10,0.5,0.5,-16.805962408447265,-0.2,-0.0155,-0.37525,0.008716831533802136,10,1,100,0.20062979725318641,-10,-1,-100,6462.059038230102,-0.01462059914762056,0.008440015578388107,0.999857491954529,210.19653443965467,22.067092291850827,383.4437251345617,-22.312517952034238,-13.33502197265625,4381.2578125,True
1599573260.5786211,0.0,10,0.5,0.5,-17.108356045532226,-0.2,-0.0155,-0.37525,-0.03504017023641583,10,1,100,0.22715728213034647,-10,-1,-100,6460.713823297992,-0.015242849242792029,0.00723654475645842,0.9998576338494143,209.680641354825,22.06188799320316,392.7009043577062,-22.884905674695936,-12.08929443359375,4381.2578125,True
1599573260.660981,0.0,10,0.5,0.5,-16.829846882629397,-0.2,-0.0155,-0.37525,0.04356433553044521,10,1,100,0.18713105604687097,-10,-1,-100,6460.244098541909,-0.015439588022515029,0.006867513875132188,0.9998572179940843,209.69003607171553,22.079065741702927,396.1241152516207,-23.075677777344378,-11.822052001953125,4381.2578125,True
1599573261.4688191,0.0,10,0.5,0.5,-16.937020681762696,-0.2,-0.0155,-0.37525,0.005742238815252029,10,1,100,0.21249381741954732,-10,-1,-100,6459.306603273028,-0.015844740137808122,0.006197131400953135,0.9998552594112634,210.00502376097407,22.144548523370446,403.5492785906185,-23.45717345711608,-11.50921630859375,4381.2578125,True
1599573261.536639,0.0,10,0.5,0.5,-16.692385606384278,-0.2,-0.0155,-0.37525,-0.051342960975089474,10,1,100,0.2583673803256068,-10,-1,-100,6457.366679377854,-0.016626033803436385,0.005077108324148103,0.9998488875680325,211.85308398954012,22.40485627014915,420.9138602948702,-24.21990955421814,-11.7706298828125,4381.2578125,True
1599573261.6179383,0.0,10,0.5,0.5,-16.667111906433107,-0.2,-0.0155,-0.37525,0.03382959747766347,10,1,100,0.2014616761755712,-10,-1,-100,6456.897446467308,-0.01681446976718824,0.004842007182943719,0.9998469025670323,212.5709906978673,22.497396235656634,425.8116399221506,-24.410527492563034,-12.02069091796875,4381.2578125,True
1599573261.7206635,0.0,10,0.5,0.5,-16.361891456604006,-0.2,-0.0155,-0.37525,0.013840283714747686,10,1,100,0.22647615440464608,-10,-1,-100,6455.894528745557,-0.017209040786711434,0.004454503944609002,0.9998419906714304,214.30091495911,22.714388563221952,436.28336595692355,-24.791668128805064,-12.742095947265625,4381.2578125,True
1599573261.813096,0.0,10,0.5,0.5,-16.37086301269531,-0.2,-0.0155,-0.37525,0.03423695238713467,10,1,100,0.20909564340899167,-10,-1,-100,6455.426762920688,-0.017405937636190857,0.00429438404021435,0.9998392828853646,215.3063528643059,22.8382215443743,441.85326256970234,-24.982186201881564,-13.2135009765625,4381.2578125,True
1599573261.8968697,0.0,10,0.5,0.5,-15.883515716552736,-0.2,-0.0155,-0.37525,0.01761477238791595,10,1,100,0.22949665483719134,-10,-1,-100,6454.424336289987,-0.017766851559656443,0.004003618586570977,0.9998341412573739,217.57298261258893,23.114035678442217,453.63114584066795,-25.363107047652143,-14.37811279296875,4381.2578125,True
1599573261.9812293,0.0,10,0.5,0.5,-14.998884860229493,-0.2,-0.0155,-0.37525,0.018215767570749018,10,1,100,0.25348401284226757,-10,-1,-100,6452.891645440017,-0.018309568665267218,0.003750023833322339,0.9998253332540348,221.53294342665575,23.58981537761588,472.7851479644439,-25.93416814842259,-16.677978515625,4381.2578125,True
1599573262.0650117,0.0,10,0.5,0.5,-15.332703802490235,-0.2,-0.0155,-0.37525,0.03777872216052406,10,1,100,0.21847589546241386,-10,-1,-100,6452.35893919121,-0.018480952673747428,0.003702407457640763,0.9998223575052162,222.9698338929316,23.761448062241595,479.5108842146994,-26.124428500342624,-17.5921630859375,4381.2578125,True
1599573262.1607628,0.0,10,0.5,0.5,-13.83722892150879,-0.2,-0.0155,-0.37525,0.0419215737518549,10,1,100,0.25561227595306346,-10,-1,-100,6450.762283788528,-0.018970850364529772,0.003701089047052108,0.9998131869385963,227.50153129007498,24.300919371720813,500.4645481996012,-26.694906437830397,-20.7767333984375,4381.2578125,True
1599573262.2415478,0.0,10,0.5,0.5,-13.585528756713867,-0.2,-0.0155,-0.37525,0.052382144219862176,10,1,100,0.23921630598210836,-10,-1,-100,6449.698823555023,-0.01926376853721255,0.00379820063778013,0.9998072218651254,230.58840360781537,24.667457583538138,514.8331163279895,-27.074960178405732,-23.26824951171875,4381.2578125,True
1599573262.3208525,0.0,10,0.5,0.5,-13.722538737487794,-0.2,-0.0155,-0.37525,0.05078840899981029,10,1,100,0.22524217314748332,-10,-1,-100,6449.104105428443,-0.019399543686141486,0.0038747856848390895,0.9998043027216207,232.111536189421,24.848127735948736,522.0488170647295,-27.264905619749428,-24.62451171875,4381.2578125,True
1599573262.4056258,0.0,10,0.5,0.5,-11.616571197509767,-0.2,-0.0155,-0.37525,0.08318201046704815,10,1,100,0.24944662351889596,-10,-1,-100,6447.445436399081,-0.019739784458045785,0.004241006964336773,0.9997961566086752,236.41628929987309,25.35803451338763,543.3911446441068,-27.834419510880977,-29.134857177734375,4381.2578125,True
1599573262.487404,0.0,10,0.5,0.5,-12.332618574523925,-0.2,-0.0155,-0.37525,0.06377826691662838,10,1,100,0.22592211597040068,-10,-1,-100,6446.913217069232,-0.019832404408741,0.0043982978237488615,0.9997936440644248,237.70521956979994,25.51045137768086,550.2626455635071,-28.024153893210336,-30.7855224609375,4381.2578125,True
1599573262.5711832,0.0,10,0.5,0.5,-10.896842686462403,-0.2,-0.0155,-0.37525,0.08818187910512876,10,1,100,0.2334737926576151,-10,-1,-100,6445.784323686734,-0.019982512393219007,0.004763543906163668,0.9997889816595844,239.95123456036887,25.775584696188545,563.3556340189426,-28.40348074845781,-34.307647705078125,4381.2578125,True
1599573262.6499727,0.0,10,0.5,0.5,-9.989740994262696,-0.2,-0.0155,-0.37525,0.0991300662977044,10,1,100,0.2272221423227223,-10,-1,-100,6444.595857508713,-0.020059619674603162,0.0051948338283264025,0.9997852896297317,241.6390232247444,25.97401843406508,575.2713944935872,-28.782642362523625,-38.123992919921875,4381.2578125,True
1599573262.737738,0.0,10,0.5,0.5,-7.772926156616212,-0.2,-0.0155,-0.37525,0.1378912681226776,10,1,100,0.2210775600651095,-10,-1,-100,6442.880049142521,-0.020071444926211903,0.005938471547075816,0.9997809118273157,243.26422805878204,26.158673675224588,591.1635205334736,-29.35114527328104,-44.4000244140625,4381.2578125,True
1599573262.8165247,0.0,10,0.5,0.5,-7.463162106323243,-0.2,-0.0155,-0.37525,0.12377388670497555,10,1,100,0.21046324119658907,-10,-1,-100,6441.685717965942,-0.019983606262172795,0.006484407048541169,0.9997792796142493,243.1745290348214,26.143965192462055,598.9716094043455,-29.730052479851665,-48.951629638671875,4381.2578125,True
1599573262.9152632,0.0,10,0.5,0.5,-7.748571617126464,-0.2,-0.0155,-0.37525,0.10074199159165056,10,1,100,0.2114763056833749,-10,-1,-100,6441.091969798901,-0.019911440756019926,0.0067688453822837905,0.9997788341724435,242.70753222829904,26.087680481384414,601.8325409048895,-29.91949886999202,-51.337646484375,4381.2578125,True
1599573262.9920557,0.0,10,0.5,0.5,-5.719617306518555,-0.2,-0.0155,-0.37525,0.13522861540703462,10,1,100,0.19553067618813463,-10,-1,-100,6439.898122025654,-0.019699575038576705,0.007338152776803626,0.9997790147113131,240.81144651298658,25.86524755452445,605.1060735214545,-30.298419041024662,-56.33026123046875,4381.2578125,True
1599573263.074834,0.0,10,0.5,0.5,-2.9131486587524416,-0.2,-0.0155,-0.37525,0.174632495400317,10,1,100,0.16617339464500408,-10,-1,-100,6438.050459302263,-0.01923942298625982,0.008210615622915361,0.9997811912584915,235.2192356708715,25.2250062708743,602.7887326635565,-30.8669987168991,-64.36996459960938,4381.2578125,True
1599573263.155621,0.0,10,0.5,0.5,-4.240268324279786,-0.2,-0.0155,-0.37525,0.11958402904336522,10,1,100,0.19077449787486284,-10,-1,-100,6437.400065560243,-0.01904477146401678,0.00849931177523998,0.9997825055376948,232.53852762874345,24.92284541223077,599.8020070700305,-31.056611952208716,-67.19668579101562,4381.2578125,True
1599573263.2393966,0.0,10,0.5,0.5,-1.8560643753051762,-0.2,-0.0155,-0.37525,0.1511588732829232,10,1,100,0.16105118247886074,-10,-1,-100,6436.154449995374,-0.01859792609676138,0.009044602746721616,0.9997861332835405,225.84046118105476,24.177502873188672,590.0941427529527,-31.436009768778018,-73.070556640625,4381.2578125,True
1599573263.3191917,0.0,10,0.5,0.5,1.3930401473999021,-0.2,-0.0155,-0.37525,0.17906392208973343,10,1,100,0.11820751802781405,-10,-1,-100,6434.237925471738,-0.017803253230029945,0.0097896371683283,0.9997935822851335,212.2257183132836,22.694370370522527,565.2520902121792,-32.00559220923527,-82.4320068359375,4381.2578125,True
1599573263.4029696,0.0,10,0.5,0.5,-0.1603458892822267,-0.2,-0.0155,-0.37525,0.13054603723025662,10,1,100,0.16447324119500462,-10,-1,-100,6433.6431911478285,-0.017503265517411017,0.01002096828984406,0.9997965872570085,206.6918048219788,22.100785505281095,554.0109531103243,-32.1955834722777,-85.69918823242188,4381.2578125,True
1599573263.4857874,0.0,10,0.5,0.5,2.5790694614410397,-0.2,-0.0155,-0.37525,0.1520897676422754,10,1,100,0.12505830452695726,-10,-1,-100,6432.32676704647,-0.016874485669753206,0.010422341927346122,0.9998032939144232,207.2508775974389,22.170691885402377,562.5380674859451,-32.57556336039986,-92.45410919189453,4381.2578125,True
1599573263.5785449,0.0,10,0.5,0.5,4.009358644866943,-0.2,-0.0155,-0.37525,0.1490492662534117,10,1,100,0.1154132452517974,-10,-1,-100,6431.00692339486,-0.01621808084574906,0.010754833850541035,0.9998106357718587,218.62616852616122,23.414937633118832,600.833365066833,-32.95509057155824,-99.20050048828125,4381.2578125,True
1599573263.6575923,0.0,10,0.5,0.5,7.292416184997559,-0.2,-0.0155,-0.37525,0.15880536864969036,10,1,100,0.06348578778994093,-10,-1,-100,6428.973199084401,-0.015152784450710654,0.011141412564044885,0.9998231153806497,232.75210160355897,24.98804187401134,651.4846790923682,-33.52344770831802,-109.1608657836914,4381.2578125,True
1599573263.7433627,0.0,10,0.5,0.5,7.322446433639527,-0.2,-0.0155,-0.37525,0.13837469013179143,10,1,100,0.09060381093450419,-10,-1,-100,6427.656769490801,-0.014435252321818552,0.011302880675689755,0.999831920063986,240.25888705746047,25.835521253692352,680.6169527210437,-33.90177234298621,-115.54823303222656,4381.2578125,True
1599573263.8216698,0.0,10,0.5,0.5,6.800377828216552,-0.2,-0.0155,-0.37525,0.12855648046697685,10,1,100,0.12209373244175091,-10,-1,-100,6426.9399609050015,-0.01407420075328634,0.011356291566329136,0.9998364623852326,243.4577196397788,26.1981009988151,693.7873647572786,-34.090781798757924,-118.63430786132812,4381.2578125,True
1599573263.9070244,0.0,10,0.5,0.5,10.808737804412841,-0.2,-0.0155,-0.37525,0.13017402086910212,10,1,100,0.04250617963381742,-10,-1,-100,6424.906233067624,-0.013027562823898834,0.011415898980757415,0.999849968673966,249.97001594687003,26.939420179967556,724.9883278781552,-34.65735120624858,-127.44758605957031,4381.2578125,True
1599573263.987808,0.0,10,0.5,0.5,10.764894554138184,-0.2,-0.0155,-0.37525,0.11847193183202981,10,1,100,0.07138668259402185,-10,-1,-100,6423.461872736807,-0.012344270969696015,0.011360791017757155,0.9998592657977811,252.02410389813244,27.171367669376984,739.4446284368747,-35.0348107705778,-132.95053100585938,4381.2578125,True
1599573264.0715847,0.0,10,0.5,0.5,11.795650344085693,-0.2,-0.0155,-0.37525,0.11154548953368564,10,1,100,0.0683650763136734,-10,-1,-100,6422.086360228248,-0.01170171877286694,0.011245123867551502,0.9998682998110122,252.52769512725172,27.222823706979483,749.4506417399904,-35.41217788704422,-138.1549072265625,4381.2578125,True
1599573264.1663313,0.0,10,0.5,0.5,11.376078679656983,-0.2,-0.0155,-0.37525,0.1148176191859407,10,1,100,0.09848512317703961,-10,-1,-100,6421.366133840173,-0.011397668299347378,0.0111677180722752,0.9998726795099445,252.27620207193075,27.189732936290163,752.9719201687396,-35.600851541463676,-140.64511108398438,4381.2578125,True
1599573264.2441235,0.0,10,0.5,0.5,14.571951973724365,-0.2,-0.0155,-0.37525,0.08562391604335409,10,1,100,0.032739465792628306,-10,-1,-100,6419.204965588287,-0.010529394242590112,0.01083069906536055,0.999885907398759,249.87645593781193,26.898975038892065,758.5323557201494,-36.16692525003304,-147.66830444335938,4381.2578125,True
1599573264.3259044,0.0,10,0.5,0.5,13.29340301437378,-0.2,-0.0155,-0.37525,0.10407659187924859,10,1,100,0.08979786129430492,-10,-1,-100,6418.483763075434,-0.010265106760348586,0.010691333629604893,0.999890155451297,248.624010414632,26.74996717185578,758.9663619277513,-36.355652713739396,-149.86013793945312,4381.2578125,True
1599573264.4076862,0.0,10,0.5,0.5,14.953044277572634,-0.2,-0.0155,-0.37525,0.08152782042982232,10,1,100,0.06104625688961039,-10,-1,-100,6417.039404464536,-0.009769475717276706,0.010359404409648368,0.9998986149027745,245.6036962764064,26.394061751534114,758.1421623228205,-36.733184004425944,-154.02032470703125,4381.2578125,True
1599573264.4924603,0.0,10,0.5,0.5,15.698256811141968,-0.2,-0.0155,-0.37525,0.07579867888407943,10,1,100,0.06138742011876312,-10,-1,-100,6415.53938307683,-0.009327865893956816,0.010005926949672858,0.9999064317943664,242.06251483759257,25.981612373839425,755.5223312897803,-37.11082865505587,-157.88186645507812,4381.2578125,True
1599573264.5712495,0.0,10,0.5,0.5,17.335541711425783,-0.2,-0.0155,-0.37525,0.039038673484494385,10,1,100,0.042878980326594714,-10,-1,-100,6413.260543792276,-0.008763439255152434,0.00935143419662105,0.9999178730330243,236.1800807052099,25.306534123455997,749.3924661627759,-37.67751270608131,-163.11578369140625,4381.2578125,True
1599573264.6540272,0.0,10,0.5,0.5,16.363110751342774,-0.2,-0.0155,-0.37525,0.0785407281213984,10,1,100,0.08104140120213157,-10,-1,-100,6412.532507192227,-0.008602411421532117,0.009117324414617687,0.9999214333702691,234.14738529942065,25.076111072506432,747.0012352194383,-37.86646120106112,-164.7113800048828,4381.2578125,True
1599573264.740794,0.0,10,0.5,0.5,17.543055809783937,-0.2,-0.0155,-0.37525,0.04656853152744391,10,1,100,0.06567224522947696,-10,-1,-100,6411.0290710721165,-0.008321277236063837,0.008615876432080236,0.9999282589358437,230.08377739259802,24.61992389703824,742.0360253017964,-38.244428046331144,-167.67926025390625,4381.2578125,True
1599573264.8370533,0.0,10,0.5,0.5,18.731537841033937,-0.2,-0.0155,-0.37525,0.006926182537076525,10,1,100,0.05704970605030664,-10,-1,-100,6408.676994780311,-0.007991592425452793,0.007802175113996192,0.9999376283118842,224.22054711803347,23.972835015536468,734.8697928880484,-38.81151767250854,-171.57290649414062,4381.2578125,True
1599573264.9218316,0.0,10,0.5,0.5,17.991415657043458,-0.2,-0.0155,-0.37525,0.05573340618117543,10,1,100,0.08097848747653397,-10,-1,-100,6407.893784291577,-0.007913370318357768,0.007509383781505926,0.9999404920921178,222.38243024496512,23.77295341696588,732.7396359128185,-39.00057457199797,-172.72215270996094,4381.2578125,True
1599573265.0056133,0.0,10,0.5,0.5,19.340394339752198,-0.2,-0.0155,-0.37525,-0.015395033707086017,10,1,100,0.06824349234206935,-10,-1,-100,6405.548548221705,-0.007729930582007621,0.006599983789426984,0.9999483428593582,217.36795871937784,23.23638549930745,727.6666052095693,-39.567789921466655,-175.72372436523438,4381.2578125,True
1599573265.08939,0.0,10,0.5,0.5,19.206025292205812,-0.2,-0.0155,-0.37525,0.003586253445700238,10,1,100,0.08004577383988482,-10,-1,-100,6403.924512963742,-0.0076737949605033915,0.005949966165546774,0.9999528542754069,219.53738189742606,23.475274769157522,742.6610042963682,-39.945839711681316,-177.35362243652344,4381.2578125,True
1599573265.1756887,0.0,10,0.5,0.5,19.045206934356692,-0.2,-0.0155,-0.37525,0.030922895397288375,10,1,100,0.08472153816552307,-10,-1,-100,6403.134957259172,-0.007667865525079973,0.005611993009669943,0.9999548536672787,221.16535848783616,23.6547053197913,752.0691100363987,-40.134792119877105,-178.0572967529297,4381.2578125,True
1599573265.2554758,0.0,10,0.5,0.5,19.78327811965943,-0.2,-0.0155,-0.37525,-0.05140701633125317,10,1,100,0.08570933068079178,-10,-1,-100,6400.723810455762,-0.007673816189593188,0.004560908525540568,0.9999601545354245,225.29106654472895,24.11804968024427,778.0436769375169,-40.70137680692504,-179.723388671875,4381.2578125,True
1599573265.3372571,0.0,10,0.5,0.5,-187.65782604370116,-0.2,-0.0155,-0.37525,0.012698899458081357,10,1,100,0.08778730735054571,-10,-1,-100,6399.882010157569,-0.007700021726628132,0.004193429588857003,0.9999615616680936,226.43125935687533,24.248989899364165,785.9911124872018,-40.89015276952721,179.869384765625,4381.2578125,True
1599573266.0648916,0.0,10,0.5,0.5,-52.9033612159729,-0.2,-0.0155,-0.37525,-0.034681199432860695,10,1,100,0.09499152287164961,-10,-1,-100,6398.253098430694,-0.007790817668822052,0.0034339137450095764,0.9999637550413729,228.38870679516702,24.478052028892947,800.8866987607594,-41.26758704204113,179.27696228027344,4381.2578125,True
1599573266.1386962,0.0,10,0.5,0.5,-53.54980744476318,-0.2,-0.0155,-0.37525,-0.0024683364076869066,10,1,100,0.09024072071473983,-10,-1,-100,6397.40104520286,-0.007831054525377645,0.0030416685694240513,0.9999647107960034,229.21442334782336,24.576848984724748,807.8534271543252,-41.456248931929785,179.09170532226562,4381.2578125,True
1599573266.2085102,0.0,10,0.5,0.5,-54.015499716186525,-0.2,-0.0155,-0.37525,-0.05291889880541907,10,1,100,0.10025613933905728,-10,-1,-100,6395.779948131298,-0.007959383979645756,0.002231963893317094,0.999965832688219,230.57064532272176,24.74356886564681,820.8366692794873,-41.83347172594103,178.85403442382812,4381.2578125,True
1599573266.285999,0.0,10,0.5,0.5,-54.53999195404053,-0.2,-0.0155,-0.37525,-0.018733546494947476,10,1,100,0.09533986356276278,-10,-1,-100,6394.931315116934,-0.008031682697610832,0.0018124482201684773,0.999966102977743,231.22549219730757,24.824745000593825,827.2877093087088,-42.02203376677483,178.67703247070312,4381.2578125,True
1599573266.3732533,0.0,10,0.5,0.5,-54.60900181884766,-0.2,-0.0155,-0.37525,-0.12154852521972866,10,1,100,0.11794187015314672,-10,-1,-100,6392.329754120437,-0.008302845146335157,0.000501833916984295,0.9999654048641861,233.68171154046502,25.123174443238465,848.59196640125,-42.58750458545548,177.73779296875,4381.2578125,True
1599573266.452042,0.0,10,0.5,0.5,-54.9343649345398,-0.2,-0.0155,-0.37525,-0.09249366660502821,10,1,100,0.11457744440636838,-10,-1,-100,6390.646165233804,-0.008518416706724761,-0.00041912805317266544,0.9999636297928468,235.7866074567048,25.375038767305572,864.6756447836049,-42.964283861540814,176.74639892578125,4381.2578125,True
1599573266.5308316,0.0,10,0.5,0.5,-55.50368979949951,-0.2,-0.0155,-0.37525,-0.05317679776548943,10,1,100,0.10657084156760145,-10,-1,-100,6389.790700487094,-0.008640886748431323,-0.000892559116735368,0.9999622684953787,236.97252814491216,25.516395939243257,873.2715959492012,-43.152605991969104,176.13966369628906,4381.2578125,True
1599573266.607627,0.0,10,0.5,0.5,-54.97627066802979,-0.2,-0.0155,-0.37525,-0.171385367398806,10,1,100,0.13245725002579944,-10,-1,-100,6387.192570554907,-0.008986674961613698,-0.002391353875474992,0.9999567596150228,240.99427453865474,25.995540836932435,901.0699521628347,-43.717274500035735,173.87454223632812,4381.2578125,True
1599573266.6890423,0.0,10,0.5,0.5,-55.29003326416016,-0.2,-0.0155,-0.37525,-0.13754867626669684,10,1,100,0.12759291701588446,-10,-1,-100,6385.443073751987,-0.009255607755837964,-0.003439012512323526,0.9999512522708345,244.0768031751126,26.36295661392673,921.3721864856492,-44.09344724696751,171.99411010742188,4381.2578125,True
1599573266.766834,0.0,10,0.5,0.5,-55.936111078643805,-0.2,-0.0155,-0.37525,-0.09293179104380037,10,1,100,0.11650114941846706,-10,-1,-100,6384.52511390287,-0.009397819871005098,-0.003978548751943258,0.9999479247098324,245.88238935397806,26.57667539352434,932.6121234934681,-44.28144060606979,170.94288635253906,4381.2578125,True
1599573266.843634,0.0,10,0.5,0.5,-54.24704574279785,-0.2,-0.0155,-0.37525,-0.22845111302431137,10,1,100,0.14493624034356553,-10,-1,-100,6381.867918980657,-0.009784060985799408,-0.005693601007474205,0.9999359254763246,251.53684056092257,27.24895875758098,967.6432712516862,-44.84501675430187,167.344970703125,4381.2578125,True
1599573266.92294,0.0,10,0.5,0.5,-53.98635635833741,-0.2,-0.0155,-0.37525,-0.18965702725224384,10,1,100,0.1382817366970044,-10,-1,-100,6380.046169521171,-0.010072881744900973,-0.0068917681738903756,0.9999255175185753,255.83830839790562,27.758272625541007,993.4023701989548,-45.220367265198895,164.57693481445312,4381.2578125,True
1599573267.0112202,0.0,10,0.5,0.5,-54.142690876770025,-0.2,-0.0155,-0.37525,-0.13872634575773884,10,1,100,0.1260593931212421,-10,-1,-100,6379.145306974184,-0.010222295832286808,-0.007508974460006563,0.9999195567496797,257.98793343835666,28.01337233749252,1006.3922917256492,-45.40792564136732,163.0821533203125,4381.2578125,True
1599573267.0920048,0.0,10,0.5,0.5,-52.83181486892701,-0.2,-0.0155,-0.37525,-0.22174465655301873,10,1,100,0.13921982730160146,-10,-1,-100,6377.330401393701,-0.010475709938956615,-0.008815927601566256,0.9999062650677807,262.20106902245357,28.514089010378125,1032.259794620512,-45.78280543908767,159.8707733154297,4381.2578125,True
1599573267.1747828,0.0,10,0.5,0.5,-51.99079680099488,-0.2,-0.0155,-0.37525,-0.241368514599823,10,1,100,0.1452193933590731,-10,-1,-100,6375.449095450225,-0.010758406066232231,-0.01017280337084444,0.9998903793769057,266.1689152455764,28.98578832557954,1057.445871381192,-46.15737153620362,156.3645782470703,4381.2578125,True
1599573267.2525754,0.0,10,0.5,0.5,-49.930166273498536,-0.2,-0.0155,-0.37525,-0.344201110732128,10,1,100,0.16467050075092537,-10,-1,-100,6372.660598238697,-0.011189998466481542,-0.012331464364765716,0.999861349848538,271.30304642520485,29.593040227727048,1092.4451362283871,-46.71866422208627,150.55284118652344,4381.2578125,True
1599573267.3333585,0.0,10,0.5,0.5,-50.871310140228275,-0.2,-0.0155,-0.37525,-0.2133783562184195,10,1,100,0.13715717130135013,-10,-1,-100,6371.74949528533,-0.011329805306475907,-0.013093756285195352,0.9998500832915209,272.7054810221813,29.757071181621626,1102.9796242840735,-46.90562773763277,148.4683380126953,4381.2578125,True
1599573267.4111502,0.0,10,0.5,0.5,-47.75939665908814,-0.2,-0.0155,-0.37525,-0.40563468361119015,10,1,100,0.16945283984523282,-10,-1,-100,6368.870693017612,-0.011748054949089677,-0.015523441737185244,0.9998104850228093,275.62377725012857,30.08871195030009,1129.5956834531628,-47.466197265703215,141.77345275878906,4381.2578125,True
1599573267.490967,0.0,10,0.5,0.5,-47.443173780059816,-0.2,-0.0155,-0.37525,-0.3549367892472708,10,1,100,0.15995274579130192,-10,-1,-100,6366.898608812713,-0.012039407060077846,-0.017259418483084325,0.9997785580573668,276.216950725876,30.142719435799457,1141.9306392998649,-47.83972462362533,136.9429931640625,4381.2578125,True
1599573267.5717216,0.0,10,0.5,0.5,-46.25375714263916,-0.2,-0.0155,-0.37525,-0.3877390239224673,10,1,100,0.16256119344495235,-10,-1,-100,6364.989038974862,-0.012325455049369148,-0.01912321728915731,0.9997411593599304,275.4651927583546,30.03336487829756,1148.7222893079445,-48.21319864276213,131.81875610351562,4381.2578125,True
1599573267.658489,0.0,10,0.5,0.5,-46.57871649780274,-0.2,-0.0155,-0.37525,-0.31213799973765943,10,1,100,0.149762556510956,-10,-1,-100,6364.0056959321955,-0.012466485944617307,-0.02011652992160067,0.9997199167527403,274.5131676360351,29.910044806127583,1149.6988836408138,-48.399945485542176,129.1464080810547,4381.2578125,True
1599573267.7429929,0.0,10,0.5,0.5,-44.32155754623413,-0.2,-0.0155,-0.37525,-0.44062471760311117,10,1,100,0.1706459810679181,-10,-1,-100,6362.064902720158,-0.012782106595398182,-0.022174490723585894,0.9996724011955785,271.30078558241763,29.511518597323917,1146.0619778513726,-48.77352415959472,123.58230590820312,4381.2578125,True
1599573267.8218076,0.0,10,0.5,0.5,-41.228857008361814,-0.2,-0.0155,-0.37525,-0.6073299108041523,10,1,100,0.1969299226848637,-10,-1,-100,6359.088080801419,-0.013305516451852576,-0.025546972552173114,0.999585071629908,262.8177291356541,28.504022828473595,1124.6197035912544,-49.33430438271321,114.6868896484375,4381.2578125,True
1599573267.909131,0.0,10,0.5,0.5,-42.70211924057007,-0.2,-0.0155,-0.37525,-0.40271189254396733,10,1,100,0.1669880443427294,-10,-1,-100,6358.116490932647,-0.013506341772228472,-0.026736303141166935,0.9995512737355076,258.91407968575106,28.052787273057607,1112.6820442768826,-49.52139176397808,111.57566833496094,4381.2578125,True
1599573267.9869223,0.0,10,0.5,0.5,-40.088758135223394,-0.2,-0.0155,-0.37525,-0.565995780562023,10,1,100,0.1958488780443904,-10,-1,-100,6356.112786358106,-0.013948526340918685,-0.029285620499016733,0.9994737570566343,249.37436240150018,26.97245338891839,1080.9272974717264,-49.89587162931337,105.13327026367188,4381.2578125,True
1599573268.0667112,0.0,10,0.5,0.5,-36.55260513916016,-0.2,-0.0155,-0.37525,-0.7723353171493346,10,1,100,0.24400923245448877,-10,-1,-100,6353.073610673775,-0.014785433606842785,-0.03346162041410286,0.9993306314290181,245.77698132908074,26.55028135040532,1079.123066454726,-50.45811341064076,94.92161560058594,4381.2578125,True
1599573268.168233,0.0,10,0.5,0.5,-36.17236306381226,-0.2,-0.0155,-0.37525,-0.6870552574399511,10,1,100,0.23796085398931655,-10,-1,-100,6351.068056868622,-0.01548800455787189,-0.03646350147041464,0.9992149592431713,258.62278543314716,27.943083069013465,1145.235099905619,-50.832315648060515,87.74919128417969,4381.2578125,True
1599573268.255996,0.0,10,0.5,0.5,-34.475505355834954,-0.2,-0.0155,-0.37525,-0.7469167028455075,10,1,100,0.2648016795178113,-10,-1,-100,6349.001033882843,-0.01636693274611067,-0.03971543398421657,0.9990769779230876,270.31769285560944,29.224855342288876,1207.151713303707,-51.20582187537927,80.28427124023438,4381.2578125,True
1599573268.3466892,0.0,10,0.5,0.5,-32.719788822174074,-0.2,-0.0155,-0.37525,-0.8028616402775829,10,1,100,0.2965132449458469,-10,-1,-100,6346.934075991041,-0.0174500463504035,-0.04315833388955807,0.9989158393469622,280.3668819383018,30.329671636570957,1262.481865719801,-51.57865610253431,72.52830505371094,4381.2578125,True
1599573268.4164753,0.0,10,0.5,0.5,-28.524770785522463,-0.2,-0.0155,-0.37525,-1.0703092493017743,10,1,100,0.41884214411517495,-10,-1,-100,6343.831826009904,-0.019541857220126944,-0.04869604032608257,0.9986224569240113,291.52905914057567,31.53105154744151,1328.9396998925952,-52.136813265825666,60.349945068359375,4381.2578125,True
1599573268.495779,0.0,10,0.5,0.5,-32.98392371292114,-0.2,-0.0155,-0.37525,-0.5194958879530175,10,1,100,0.21038269735990653,-10,-1,-100,6343.831826009904,-0.019541857220126944,-0.04869604032608257,0.9986224569240113,291.52905914057567,31.53105154744151,1328.9396998925952,-52.136813265825666,60.349945068359375,4381.2578125,True
1599573268.578558,0.0,10,0.5,0.5,-25.49735729904175,-0.2,-0.0155,-0.37525,-1.178495764239547,10,1,100,0.5254326498461837,-10,-1,-100,6340.667760070297,-0.02239951554156991,-0.05466096691922876,0.9982536954096178,294.6485258743392,31.786520459668523,1359.496409608183,-52.694284201836695,47.52085876464844,4381.2578125,True
1599573268.6578565,0.0,10,0.5,0.5,-25.067307099151616,-0.2,-0.0155,-0.37525,-1.0366708712910153,10,1,100,0.4949689199560579,-10,-1,-100,6338.599197247997,-0.024711700644838578,-0.0587647770896517,0.9979659477280993,291.4309536633572,31.342439154317187,1355.5123414985121,-53.06602090782987,38.60948181152344,4381.2578125,True
1599573268.7412522,0.0,10,0.5,0.5,-23.00276837692261,-0.2,-0.0155,-0.37525,-1.0894999728837462,10,1,100,0.5688995530579735,-10,-1,-100,6336.40670851816,-0.02747541450856116,-0.06294558016402695,0.9976386898749451,283.4517830258698,30.37166944821484,1329.115379324872,-53.43818438048561,29.41241455078125,4381.2578125,True
1599573268.817049,0.0,10,0.5,0.5,-20.87279962234497,-0.2,-0.0155,-0.37525,-1.1324387619167193,10,1,100,0.6539017798694726,-10,-1,-100,6334.275848781224,-0.030747930016835012,-0.06710374533464705,0.9972721053763325,270.45642501199706,28.87861811495815,1278.5907141106538,-53.81103564642271,19.931640625,4381.2578125,True
1599573268.9058127,0.0,10,0.5,0.5,-18.682213925933837,-0.2,-0.0155,-0.37525,-1.1670929303263784,10,1,100,0.7380644326062331,-10,-1,-100,6332.145583238103,-0.034472786954985506,-0.07116455327090257,0.9968687141832214,270.1730189326735,28.783946994121962,1287.8257646565567,-54.18435416080143,10.168609619140625,4381.2578125,True
1599573268.985599,0.0,10,0.5,0.5,-19.34570534820557,-0.2,-0.0155,-0.37525,-0.9810336503324552,10,1,100,0.5930647866039405,-10,-1,-100,6331.0489950968185,-0.03652294434114862,-0.07313047345586574,0.9966534043431418,280.7096541251696,29.88983055388992,1343.5815111559004,-54.3706847250698,5.18170166015625,4381.2578125,True
1599573269.066905,0.0,10,0.5,0.5,-15.231161309051515,-0.2,-0.0155,-0.37525,-1.1977215478022996,10,1,100,0.8809326030028981,-10,-1,-100,6328.856861093198,-0.04098458125966627,-0.07685422999011679,0.9961996242880219,299.05611986731765,31.830255411758706,1443.1719651713674,-54.74257329818883,-5.00152587890625,4381.2578125,True
1599573269.1536717,0.0,10,0.5,0.5,-12.90246482925415,-0.2,-0.0155,-0.37525,-1.200434576183048,10,1,100,0.9762406533694019,-10,-1,-100,6326.662358462461,-0.04588467196300184,-0.08023036455561919,0.9957196821807432,313.68109138993833,33.377645359373886,1526.007086521013,-55.11346830405631,-15.462646484375,4381.2578125,True
1599573269.2314632,0.0,10,0.5,0.5,-4.179768864440918,-0.2,-0.0155,-0.37525,-1.470034774048158,10,1,100,1.682883832482301,-10,-1,-100,6322.212957914802,-0.05673747911650363,-0.08571678684060777,0.9947027148435988,327.5546936105574,34.71183197246674,1618.7893022616581,-55.853129839970535,-37.212921142578125,4381.2578125,True
1599573269.3102555,0.0,10,0.5,0.5,-8.96393023376465,-0.2,-0.0155,-0.37525,-1.0384831676226711,10,1,100,0.9143466553931456,-10,-1,-100,6321.054961563554,-0.059583151626243495,-0.08674759181717066,0.9944469334037919,326.60587388331817,34.53680781507715,1620.4153412598807,-56.0379360572674,-42.821624755859375,4381.2578125,True
1599573269.3880453,0.0,10,0.5,0.5,-4.338018519592286,-0.2,-0.0155,-0.37525,-1.1206375757836622,10,1,100,1.2690273799888065,-10,-1,-100,6318.798032433144,-0.065358095681962,-0.08839695318688132,0.9939387798029131,318.79601532888836,33.530200187964184,1594.155192992771,-56.40791233747687,-54.243896484375,4381.2578125,True
1599573269.4652336,0.0,10,0.5,0.5,-1.7388674308776864,-0.2,-0.0155,-0.37525,-1.077634018521705,10,1,100,1.3335775095694635,-10,-1,-100,6316.54154656583,-0.07115581092867536,-0.0894747621058117,0.9934440686406009,302.83248545334794,31.671782990606648,1526.5071417623535,-56.778812627582106,-65.93902587890625,4381.2578125,True
1599573269.5510528,0.0,10,0.5,0.5,4.420561990356445,-0.2,-0.0155,-0.37525,-1.034641223890971,10,1,100,1.6885914816398286,-10,-1,-100,6313.125927374815,-0.0796116389806146,-0.09003582663999979,0.9927514980397019,306.1354637709109,31.85943519635073,1562.235743128172,-57.33633525204408,-83.99374389648438,4381.2578125,True
1599573269.6273625,0.0,10,0.5,0.5,-2.1786914001464845,-0.2,-0.0155,-0.37525,-0.9812437951197601,10,1,100,0.8482222988931097,-10,-1,-100,6313.125927374815,-0.0796116389806146,-0.09003582663999979,0.9927514980397019,306.1354637709109,31.85943519635073,1562.235743128172,-57.33633525204408,-83.99374389648438,4381.2578125,True
1599573269.7121394,0.0,10,0.5,0.5,8.672083860015869,-0.2,-0.0155,-0.37525,-0.9254148209693103,10,1,100,1.7194441313421382,-10,-1,-100,6309.647591052344,-0.08748741590382052,-0.0895074431647181,0.9921362656795623,340.23933162264797,35.3753423858293,1757.559391799696,-57.891085424405695,-102.57643127441406,4381.2578125,True
1599573269.790925,0.0,10,0.5,0.5,5.410367632675172,-0.2,-0.0155,-0.37525,-0.9391906256719776,10,1,100,1.206224810017601,-10,-1,-100,6308.4879262828035,-0.08993338779564934,-0.08913565378458281,0.9919510174318046,348.93504304181715,36.26433516209845,1809.6502240352538,-58.07533510403894,-108.7245101928711,4381.2578125,True
1599573270.5827172,0.0,10,0.5,0.5,10.403331866073607,-0.2,-0.0155,-0.37525,-0.8691228644756993,10,1,100,1.4772710923022414,-10,-1,-100,6306.169489698368,-0.09457250076948637,-0.08814613362783118,0.9916079372537666,359.30588836685166,37.25756559681866,1878.0616253920236,-58.44316113608181,-121.10778045654297,4381.2578125,True
