Timestamp,Input Throttle,horizon,dT,dt,Input Roll,Roll P,Roll I,Roll D,Input Pitch,Pitch P,Pitch I,Pitch D,Input Yaw,Yaw P,Yaw I,Yaw D,Altitude,Direction X,Direction Y,Direction Z,Drag X,Drag Y,Drag Z,Vertical Velocity,Roll,Mass,Has Fuel
1599570574.7144058,0.0,10,0.5,0.5,-8.122630973815918,-0.15025,-0.00825,-0.5,-0.06859251471178852,10,1,100,0.6815875105084481,-10,-1,-100,6483.617967300932,-0.06725796164845366,-0.00700263438499953,0.9977110451962358,205.0730437854417,21.498758515923658,-156.7650999140546,9.590823851324826,-35.944610595703125,4381.2578125,True
1599570574.7867236,0.0,10,0.5,0.5,-8.167489533233642,-0.15025,-0.00825,-0.5,-0.06904464218254926,10,1,100,0.6894885146802829,-10,-1,-100,6483.776675246772,-0.06735053530328003,-0.006987343793127294,0.9977049074857146,204.8427923138035,21.47779263319173,-153.51327697565736,9.400809969421896,-35.942962646484375,4381.2578125,True
1599570574.8685455,0.0,10,0.5,0.5,-8.186755206298828,-0.15025,-0.00825,-0.5,-0.05060272520714232,10,1,100,0.7101505987479411,-10,-1,-100,6484.316760207177,-0.06756130253982519,-0.006799437333655082,0.9976919554908057,204.14944354551125,21.414353189264467,-143.78933062547193,8.830797692770734,-35.98065185546875,4381.2578125,True
1599570574.9403663,0.0,10,0.5,0.5,-8.070715982055663,-0.15025,-0.00825,-0.5,-0.03441763227224502,10,1,100,0.6999203249569019,-10,-1,-100,6484.697141028824,-0.06759848726354786,-0.0064752947644234095,0.9976915931676451,203.7562176805051,21.378929169588048,-137.38125028194779,8.450805296420342,-36.256622314453125,4381.2578125,True
1599570575.0161505,0.0,10,0.5,0.5,-8.094167992401124,-0.15025,-0.00825,-0.5,-0.04442155841097654,10,1,100,0.7022474084671233,-10,-1,-100,6484.856805277639,-0.06759199369223999,-0.0062656778529608815,0.9976933715675128,203.59121419618668,21.36432523055583,-134.20491718898379,8.26081075293093,-36.500946044921875,4381.2578125,True
1599570575.0859654,0.0,10,0.5,0.5,-7.499129556274413,-0.15025,-0.00825,-0.5,0.03825048750885451,10,1,100,0.6853422819572077,-10,-1,-100,6485.3357568309875,-0.06737096021033157,-0.005317856899766518,0.9977138237582617,203.19821959339717,21.329961681759002,-124.76043313129831,7.690821949984299,-37.671783447265625,4381.2578125,True
1599570575.1682,0.0,10,0.5,0.5,-7.7785231971740725,-0.15025,-0.00825,-0.5,-0.010508423970456739,10,1,100,0.6987138552932843,-10,-1,-100,6485.493929502787,-0.06723033411146066,-0.004894629904038321,0.9977254756561866,203.08536548396953,21.319889973600404,-121.62841376589985,7.500820770986458,-38.20880126953125,4381.2578125,True
1599570575.240005,0.0,10,0.5,0.5,-6.755644017791748,-0.15025,-0.00825,-0.5,0.12073292345208499,10,1,100,0.6481133120008518,-10,-1,-100,6485.909324857406,-0.06658136877881822,-0.003312325267804091,0.9977755007179016,202.7082459324673,21.28372218892027,-112.22367209063057,6.930787845300991,-40.260498046875,4381.2578125,True
1599570575.3143208,0.0,10,0.5,0.5,-7.282213561248779,-0.15025,-0.00825,-0.5,0.030654825321156487,10,1,100,0.6866731511771478,-10,-1,-100,6486.005458990578,-0.06628141577003795,-0.002689747103992501,0.9977973437447285,202.54167272507678,21.266675614190294,-109.07177494165275,6.740763437481435,-41.0914306640625,4381.2578125,True
1599570575.3846376,0.0,10,0.5,0.5,-6.514206868743896,-0.15025,-0.00825,-0.5,0.12342671896499416,10,1,100,0.6450341355433051,-10,-1,-100,6486.261185209267,-0.06556993887832091,-0.0012779408791252652,0.997847157626158,202.08317497154425,21.218271084437657,-102.7155499848064,6.360687380813504,-42.9735107421875,4381.2578125,True
1599570575.4574432,0.0,10,0.5,0.5,-6.078567305755615,-0.15025,-0.00825,-0.5,0.15093537406972876,10,1,100,0.621749356420793,-10,-1,-100,6486.517862469307,-0.06465185285848411,0.00025675977250537755,0.9979078474470396,201.3774345343144,21.142324873947352,-96.26377567084914,5.98056463626119,-45.15032958984375,4381.2578125,True
1599570575.5402236,0.0,10,0.5,0.5,-5.55296605682373,-0.15025,-0.00825,-0.5,0.1900763510011073,10,1,100,0.5934372071536345,-10,-1,-100,6486.7720746586565,-0.0635622152187401,0.002001169796857126,0.9979758715098932,200.3065966716453,21.02649675993184,-89.68610686361197,5.600379295015667,-47.62078857421875,4381.2578125,True
1599570575.6160197,0.0,10,0.5,0.5,-4.009442507171631,-0.15025,-0.00825,-0.5,0.32472008738500785,10,1,100,0.4773189987397901,-10,-1,-100,6487.061799871619,-0.06151945939710563,0.0048028596828578254,0.9980943285353115,197.74013603089043,20.749282156317303,-79.54516376260999,5.029942100130427,-51.87933349609375,4381.2578125,True
1599570575.6898212,0.0,10,0.5,0.5,-5.10678491897583,-0.15025,-0.00825,-0.5,0.15474688160006286,10,1,100,0.5944273059331466,-10,-1,-100,6487.157877093763,-0.060732522209325464,0.005794091983889404,0.9981372597214153,196.55633148969008,20.62178749183232,-76.08697384183634,4.839743380660815,-53.446136474609375,4381.2578125,True
1599570575.7626276,0.0,10,0.5,0.5,-2.531388779449462,-0.15025,-0.00825,-0.5,0.3898223197104094,10,1,100,0.37603414186661177,-10,-1,-100,6487.447548605618,-0.058037974151697015,0.008821107706968251,0.9982754036913807,191.74910197241144,20.106375483221395,-65.4907860808691,4.268938635294625,-58.5897216796875,4381.2578125,True
1599570575.8414166,0.0,10,0.5,0.5,-3.8739349868774413,-0.15025,-0.00825,-0.5,0.19989977046388818,10,1,100,0.533707804685145,-10,-1,-100,6487.54409893183,-0.05703046741542195,0.00983265629338071,0.9983240178702476,189.65852404384432,19.88323493365252,-61.89392145336368,4.078586817982797,-60.452117919921875,4381.2578125,True
1599570575.9152207,0.0,10,0.5,0.5,-2.2208800338745114,-0.15025,-0.00825,-0.5,0.3337166057756617,10,1,100,0.3915818824624301,-10,-1,-100,6487.675179039361,-0.05483189881023349,0.011954989408232572,0.9984240287077997,184.6277745616891,19.34820403494373,-54.63511876899029,3.6977334294802597,-64.3974609375,4381.2578125,True
1599570575.9920154,0.0,10,0.5,0.5,0.038287911987304746,-0.15025,-0.00825,-0.5,0.4519548640126473,10,1,100,0.20651639118595,-10,-1,-100,6487.839804862044,-0.051162057826004366,0.014943958569968432,0.9985785507115941,174.7533569238831,18.304011076424732,-43.72731371967819,3.126003996950686,-70.87225341796875,4381.2578125,True
1599570576.0638218,0.0,10,0.5,0.5,-0.12642192077636727,-0.15025,-0.00825,-0.5,0.3693078326273067,10,1,100,0.2732346290472149,-10,-1,-100,6487.969408486038,-0.048446385739946494,0.016893269991827234,0.9986829152126913,166.39719365932157,17.424788877570137,-36.55938082512759,2.7444620652652048,-75.55880737304688,4381.2578125,True
1599570576.15059,0.0,10,0.5,0.5,0.7695445030212402,-0.15025,-0.00825,-0.5,0.37452079743048183,10,1,100,0.228726829564318,-10,-1,-100,6488.100480003282,-0.04558919023916763,0.018694959130731537,0.9987853243998117,156.61280759860668,16.397763718122793,-29.62584118891841,2.3626299891230746,-80.49661254882812,4381.2578125,True
1599570576.2233949,0.0,10,0.5,0.5,1.5793956085205079,-0.15025,-0.00825,-0.5,0.381986121193472,10,1,100,0.1812649773230528,-10,-1,-100,6488.167106923182,-0.0425784327168473,0.02038256774575367,0.9988851926019661,145.6530494345792,15.249167922767382,-23.10007625509808,1.9806095264165156,-85.49130249023438,4381.2578125,True
1599570576.2942066,0.0,10,0.5,0.5,2.3623650787353516,-0.15025,-0.00825,-0.5,0.38444584844306406,10,1,100,0.1348264650215812,-10,-1,-100,6488.234720344539,-0.03943927887576239,0.021920822363521678,0.9989814917347903,151.1314729702079,15.8226533811633,-19.346886673515595,1.5985052291820043,-90.48481750488281,4381.2578125,True
1599570576.368572,0.0,10,0.5,0.5,1.4847690879821778,-0.15025,-0.00825,-0.5,0.31003134464500787,10,1,100,0.2699658692131133,-10,-1,-100,6488.269264413975,-0.0378359726368291,0.02262463138826784,0.999027810037924,154.54993539192296,16.180309928727016,-17.420834285733406,1.4074523726940034,-92.92049407958984,4381.2578125,True
1599570576.4493587,0.0,10,0.5,0.5,4.793131617927552,-0.15025,-0.00825,-0.5,0.44558152167504794,10,1,100,-0.11079680443641221,-10,-1,-100,6488.307002198882,-0.03293847310167613,0.024480530500396162,0.999157525426371,164.2492334369716,17.193082048894176,-10.977659978242775,0.8343809544294731,-99.82913208007812,4381.2578125,True
1599570576.5201669,0.0,10,0.5,0.5,4.136910406684875,-0.15025,-0.00825,-0.5,0.375356132327087,10,1,100,0.006658154710895203,-10,-1,-100,6488.311674956465,-0.029579240470246813,0.025512311209607258,0.9992368040209225,169.53039911424216,17.743385433187402,-6.144166389393242,0.452398067202743,-104.07339477539062,4381.2578125,True
1599570576.5959637,0.0,10,0.5,0.5,4.620937435340881,-0.15025,-0.00825,-0.5,0.36821974143385877,10,1,100,-0.0263325133981816,-10,-1,-100,6488.318318658858,-0.026251349034938965,0.02637024357031287,0.9993074986849084,174.50178507717857,18.261954998784443,-0.9843992856013994,0.07040805688318352,-108.02362060546875,4381.2578125,True
1599570576.6695523,0.0,10,0.5,0.5,3.8975527032852173,-0.15025,-0.00825,-0.5,0.32462682199500803,10,1,100,0.12380388719287047,-10,-1,-100,6488.350458896253,-0.024618850570378197,0.026738848642167575,0.9993392547928278,176.7004035793201,18.49157318634332,1.7076555897408068,-0.12061068544194065,-109.88825988769531,4381.2578125,True
1599570576.742357,0.0,10,0.5,0.5,6.352558549308776,-0.15025,-0.00825,-0.5,0.3868713972915921,10,1,100,-0.2606986886212215,-10,-1,-100,6488.327770400094,-0.019666749502685623,0.02762636406542813,0.9994248360794936,182.25820378762114,19.072269662244935,10.134466077401058,-0.693826040908339,-115.03981018066406,4381.2578125,True
1599570576.8236585,0.0,10,0.5,0.5,5.8068447183609,-0.15025,-0.00825,-0.5,0.3434623211722342,10,1,100,-0.1252319344085182,-10,-1,-100,6488.268563345191,-0.016424987487010875,0.028027038844129507,0.9994722131603667,185.34825719799557,19.395172937637334,15.986890574377632,-1.076099636486417,-118.10574340820312,4381.2578125,True
1599570577.460113,0.0,10,0.5,0.5,5.23392562160492,-0.15025,-0.00825,-0.5,0.32031927979323915,10,1,100,0.01842188236589451,-10,-1,-100,6488.241652559605,-0.01481298526003116,0.028170775749637802,0.9994933630901955,186.5964100524135,19.525651030844102,18.95521987071507,-1.2672779190016135,-119.52819061279297,4381.2578125,True
1599570577.5219479,0.0,10,0.5,0.5,5.431598545837402,-0.15025,-0.00825,-0.5,0.3226249053170066,10,1,100,0.010374045061575465,-10,-1,-100,6488.210353007773,-0.013302344900900463,0.02831379151702604,0.9995105686435076,187.66321024243766,19.6372198404766,21.9414757929423,-1.458484536062196,-120.87643432617188,4381.2578125,True
1599570577.589764,0.0,10,0.5,0.5,5.615406777191161,-0.15025,-0.00825,-0.5,0.3213270172494674,10,1,100,-0.0067688382655862744,-10,-1,-100,6488.181989466655,-0.011799805714912855,0.028424796665154746,0.9995262855571306,188.55890794036262,19.73094554158246,24.938697368239605,-1.6497195213229443,-122.15092468261719,4381.2578125,True
1599570577.657583,0.0,10,0.5,0.5,7.20304713897705,-0.15025,-0.00825,-0.5,0.3234752447254251,10,1,100,-0.35613223777632586,-10,-1,-100,6488.033449092647,-0.007282956889518169,0.02853932707296079,0.999566138556708,190.50815766436077,19.935070055741175,33.969013321728546,-2.223587170023571,-125.53233337402344,4381.2578125,True
1599570577.725402,0.0,10,0.5,0.5,6.176142511558533,-0.15025,-0.00825,-0.5,0.3113105928595257,10,1,100,-0.06694067201270039,-10,-1,-100,6488.003149781143,-0.0058335203876898785,0.028527480885199297,0.9995759865434097,190.94828522927105,19.981164007845223,36.980184742903084,-2.4149273460773744,-126.51179504394531,4381.2578125,True
1599570577.794218,0.0,10,0.5,0.5,6.83820646686554,-0.15025,-0.00825,-0.5,0.302271024556803,10,1,100,-0.23610349450770235,-10,-1,-100,6487.882991621387,-0.00300264786581322,0.028430854684132457,0.9995912517663026,191.63524042552504,20.053051332562276,43.00236183425097,-2.797677794811175,-128.24925231933594,4381.2578125,True
1599570577.8670225,0.0,10,0.5,0.5,7.3230128736495965,-0.15025,-0.00825,-0.5,0.28812159036772905,10,1,100,-0.3909008659115702,-10,-1,-100,6487.732571393368,0.0009539609008330553,0.028211728241921454,0.999601514778866,192.2793206112387,20.120218021645673,52.01690664953798,-3.371962080629281,-130.30014038085938,4381.2578125,True
1599570577.938831,0.0,10,0.5,0.5,6.664597099113465,-0.15025,-0.00825,-0.5,0.29578578832566266,10,1,100,-0.13989028891599178,-10,-1,-100,6487.640771854669,0.0022442315251555277,0.02808052283528211,0.9996031450841671,192.430003110338,20.13581819214233,55.01842240037995,-3.5634280440530084,-130.83631896972656,4381.2578125,True
1599570578.0106394,0.0,10,0.5,0.5,7.169937753868103,-0.15025,-0.00825,-0.5,0.27041643241020163,10,1,100,-0.40430889126335157,-10,-1,-100,6487.428378563607,0.005796589312156016,0.027729394980748414,0.9995986595661019,192.74491855327045,20.167930020692236,64.01057443702312,-4.137925374624332,-131.99917602539062,4381.2578125,True
1599570578.0836394,0.0,10,0.5,0.5,6.758177315711975,-0.15025,-0.00825,-0.5,0.29188649590096283,10,1,100,-0.17316301593405928,-10,-1,-100,6487.336591670872,0.006901530852967582,0.027605276571165318,0.9995950768072615,192.82881407111992,20.17631359851837,67.00888854591607,-4.3294546117766295,-132.23858642578125,4381.2578125,True
1599570578.1594374,0.0,10,0.5,0.5,6.828807583808899,-0.15025,-0.00825,-0.5,0.25341379113838425,10,1,100,-0.41205973140607627,-10,-1,-100,6487.060262922896,0.010056605559505544,0.027143073212132666,0.9995809713381009,193.22128538341252,20.21591369343381,76.0802110953662,-4.904118540070843,-132.51336669921875,4381.2578125,True
1599570578.236237,0.0,10,0.5,0.5,6.580218264389037,-0.15025,-0.00825,-0.5,0.265521619462297,10,1,100,-0.3077291819342151,-10,-1,-100,6486.813227095874,0.011953787033141738,0.02683389378189992,0.9995684314343205,193.48851229404514,20.242762464434964,82.15487414728362,-5.2872807474099055,-132.3258819580078,4381.2578125,True
1599570578.3080537,0.0,10,0.5,0.5,6.550371883392334,-0.15025,-0.00825,-0.5,0.27695492483780154,10,1,100,-0.22037670631879014,-10,-1,-100,6486.7224253445165,0.012861423929094376,0.026658106073952127,0.9995618685979704,193.63199581454919,20.257225852964652,85.2041239641268,-5.478874708800874,-132.1212921142578,4381.2578125,True
1599570578.383851,0.0,10,0.5,0.5,6.249316732025147,-0.15025,-0.00825,-0.5,0.2652637687092491,10,1,100,-0.31081617574532383,-10,-1,-100,6486.474417743622,0.014486306075070711,0.026393621911550202,0.9995466590703456,193.90855301998386,20.285179683602077,91.31382014717032,-5.862083141400715,-131.48834228515625,4381.2578125,True
1599570578.4566538,0.0,10,0.5,0.5,5.5928002368927,-0.15025,-0.00825,-0.5,0.23869340377408663,10,1,100,-0.39390196805547706,-10,-1,-100,6486.134633822949,0.016699006807900964,0.025913583632830077,0.999524701723241,194.2767062098502,20.322931515192842,100.49335537334875,-6.436930718711888,-129.9844512939453,4381.2578125,True
1599570578.530569,0.0,10,0.5,0.5,5.454697645187378,-0.15025,-0.00825,-0.5,0.2519306307662924,10,1,100,-0.31495837903665314,-10,-1,-100,6485.825589463813,0.017972399821943166,0.02559989989506126,0.9995106992774029,194.42804885490253,20.339110835642412,106.5852234087519,-6.820173335514774,-128.61126708984375,4381.2578125,True
1599570578.6049602,0.0,10,0.5,0.5,5.055850696563721,-0.15025,-0.00825,-0.5,0.25008625810106305,10,1,100,-0.3110777733573842,-10,-1,-100,6485.578064998263,0.019075683376090218,0.025300539431759406,0.999497874439059,194.43592146283706,20.341300094923458,112.60723738690898,-7.203415100996191,-126.94154357910156,4381.2578125,True
1599570578.6737745,0.0,10,0.5,0.5,4.609676873397827,-0.15025,-0.00825,-0.5,0.24550662839756693,10,1,100,-0.30746710137252264,-10,-1,-100,6485.268524286454,0.020029369841384016,0.024989407094007904,0.9994870453772008,194.22945969390668,20.32239066191967,118.50287867808159,-7.586648966406924,-124.97573852539062,4381.2578125,True
1599570578.755555,0.0,10,0.5,0.5,4.116962583923339,-0.15025,-0.00825,-0.5,0.24112426451505412,10,1,100,-0.3019673878059445,-10,-1,-100,6484.958488660515,0.020830191833485643,0.024669529947793943,0.9994786227830664,193.72566796312626,20.274051096031346,124.19904377704809,-7.9698683728920905,-122.7138671875,4381.2578125,True
1599570578.8293579,0.0,10,0.5,0.5,3.5769339733123777,-0.15025,-0.00825,-0.5,0.2369191741952676,10,1,100,-0.29408804496363405,-10,-1,-100,6484.585457302979,0.021472914525446727,0.02434328614381315,0.9994730203269637,192.81940330057486,20.185597401384104,129.59745758924723,-8.353069478951577,-120.15592193603516,4381.2578125,True
1599570578.9001682,0.0,10,0.5,0.5,3.9421508298873906,-0.15025,-0.00825,-0.5,0.2505576812543973,10,1,100,-0.26040818360934664,-10,-1,-100,6484.429212049581,0.02173778061157921,0.024173652741120294,0.999471412000981,192.1791950658717,20.12261750254401,132.14847829145907,-8.544663431280167,-118.7660140991211,4381.2578125,True
1599570578.9779625,0.0,10,0.5,0.5,1.6260216987609861,-0.15025,-0.00825,-0.5,0.20720350117367484,10,1,100,-0.2987494795253724,-10,-1,-100,6483.902355954982,0.022316505948161633,0.023628011120184776,0.999471705778993,189.59066563450125,19.86715965833868,139.19841467383273,-9.119428985522447,-114.15280151367188,4381.2578125,True
1599570579.0537589,0.0,10,0.5,0.5,1.6776779399871824,-0.15025,-0.00825,-0.5,0.21634535008784828,10,1,100,-0.26550820725871,-10,-1,-100,6483.528320125886,0.022531005852707797,0.023217995439155623,0.9994765022065564,187.33996447639146,19.644529691983575,143.3683592206573,-9.502604950160645,-110.70803833007812,4381.2578125,True
1599570579.1245697,0.0,10,0.5,0.5,2.1904455402374268,-0.15025,-0.00825,-0.5,0.23248200600408303,10,1,100,-0.2515213113013175,-10,-1,-100,6483.31151321833,0.022590061637297456,0.022995078156217433,0.9994803227156663,185.90198050918144,19.50108517409495,145.15862602061603,-9.694199292574567,-108.8749771118164,4381.2578125,True
1599570579.1963775,0.0,10,0.5,0.5,0.5602172597885131,-0.15025,-0.00825,-0.5,0.20388308503005642,10,1,100,-0.24745025660005093,-10,-1,-100,6482.9389269350795,0.0225993720754927,0.02253552547537823,0.999490579482039,182.32071543162348,19.140941495938797,148.0363686472801,-10.07741664480859,-104.9870834350586,4381.2578125,True
1599570579.2761636,0.0,10,0.5,0.5,-1.6681079288482668,-0.15025,-0.00825,-0.5,0.1600011374274825,10,1,100,-0.22565744586277525,-10,-1,-100,6482.283593619941,0.022404355680542602,0.02172189447655324,0.9995129834808998,175.77272257802971,18.477052151688856,150.93598250812386,-10.652361951425746,-98.60238647460938,4381.2578125,True
1599570579.3509648,0.0,10,0.5,0.5,-1.495272439956665,-0.15025,-0.00825,-0.5,0.17283584888930412,10,1,100,-0.2160002912567912,-10,-1,-100,6481.847995155258,0.022135246683389388,0.021102434586745725,0.9995322496591982,170.20280363894844,17.90563932498006,151.46480405796612,-11.035774267758711,-93.99684143066406,4381.2578125,True
1599570579.428757,0.0,10,0.5,0.5,-0.7647523162841796,-0.15025,-0.00825,-0.5,0.19754484099861003,10,1,100,-0.22420217208115795,-10,-1,-100,6481.62970451545,0.021962383272283163,0.02076773289231896,0.9995430731046635,166.9248337401764,17.56668110082998,151.15482961785906,-11.227523950302128,-91.62071990966797,4381.2578125,True
1599570579.4985716,0.0,10,0.5,0.5,-4.0730063344955445,-0.15025,-0.00825,-0.5,0.10941689547129814,10,1,100,-0.17080282725019036,-10,-1,-100,6480.9748211535625,0.021318028842422437,0.01966613336913878,0.9995793039296986,157.04605183655536,16.536797022910683,149.5765475834012,-11.802936293759391,-84.748291015625,4381.2578125,True
1599570579.577359,0.0,10,0.5,0.5,-3.431279106712341,-0.15025,-0.00825,-0.5,0.12647328261733137,10,1,100,-0.17680706528354828,-10,-1,-100,6480.476701352862,0.020786392581935088,0.01882428586446497,0.9996067087335513,157.72805629458313,16.607529815512297,155.16526567709676,-12.186611628460124,-80.4989013671875,4381.2578125,True
1599570579.6511607,0.0,10,0.5,0.5,-2.6616893173217773,-0.15025,-0.00825,-0.5,0.16018954090844584,10,1,100,-0.19768584489445173,-10,-1,-100,6480.194436683203,0.02049351808881254,0.0183704986631165,0.9996211985023188,161.9583736133685,17.050151749724755,161.86427744376098,-12.378412705584527,-78.46524047851562,4381.2578125,True
1599570579.723967,0.0,10,0.5,0.5,-5.370232385063171,-0.15025,-0.00825,-0.5,0.04737452019190874,10,1,100,-0.12183779973214458,-10,-1,-100,6479.477519688895,0.01953887201406449,0.016937649340902104,0.9996656183520679,173.01753263225268,18.19850134929906,181.05500419608455,-12.953621205590906,-72.7872314453125,4381.2578125,True
1599570579.795775,0.0,10,0.5,0.5,-3.700136758995056,-0.15025,-0.00825,-0.5,0.13261614812844963,10,1,100,-0.17887783209087657,-10,-1,-100,6479.197205237113,0.019192082816585736,0.01641606508538419,0.9996810375136029,176.2591709738013,18.532392397454252,187.21253770721165,-13.145284452527992,-71.04208374023438,4381.2578125,True
1599570579.8675826,0.0,10,0.5,0.5,-4.984375140953064,-0.15025,-0.00825,-0.5,0.06148758234755139,10,1,100,-0.13276665484745115,-10,-1,-100,6478.635110312491,0.018460662773970384,0.015301457828135894,0.9997124933290968,182.192468193659,19.140102026587208,199.2339772300337,-13.528493421306912,-67.7755126953125,4381.2578125,True
1599570579.951925,0.0,10,0.5,0.5,-6.208091342163086,-0.15025,-0.00825,-0.5,-0.020332026098382472,10,1,100,-0.0774266238990174,-10,-1,-100,6477.791725036572,0.017296398271028236,0.01355135808142721,0.9997585685059163,189.38781739441993,19.86904195847624,216.02713043432294,-14.103014752662254,-63.4339599609375,4381.2578125,True
1599570580.0267262,0.0,10,0.5,0.5,-4.915464748191833,-0.15025,-0.00825,-0.5,0.08410507186133129,10,1,100,-0.14837856484876438,-10,-1,-100,6477.510434648255,0.01688781452590077,0.01291795389986576,0.9997739385418984,191.39663223618797,20.070650455832016,221.3268792859806,-14.294446653796822,-62.136199951171875,4381.2578125,True
1599570580.0955415,0.0,10,0.5,0.5,-6.53833319606781,-0.15025,-0.00825,-0.5,-0.06363187678430243,10,1,100,-0.04904319594276366,-10,-1,-100,6476.668520451756,0.015618340986780012,0.011007072329464759,0.9998174392275594,196.43673671340886,20.571823046674595,236.42411447224615,-14.868531102817181,-58.688812255859375,4381.2578125,True
1599570580.170341,0.0,10,0.5,0.5,-5.494197068977356,-0.15025,-0.00825,-0.5,0.05451304870283556,10,1,100,-0.12703775182424068,-10,-1,-100,6476.324245765922,0.015179240009862396,0.010353129644671723,0.9998311874408017,197.8363328167282,20.709614218030413,241.2224613381227,-15.059825850411158,-57.68853759765625,4381.2578125,True
1599570580.2501287,0.0,10,0.5,0.5,-6.682564639282226,-0.15025,-0.00825,-0.5,-0.1076199066314909,10,1,100,-0.02037970815486914,-10,-1,-100,6475.417403515778,0.013816605218636114,0.008294168158409311,0.9998701456663222,201.36191743254705,21.05337155542708,255.03628847301073,-15.633524839897067,-55.1348876953125,4381.2578125,True
1599570580.3209393,0.0,10,0.5,0.5,-5.8871991806030275,-0.15025,-0.00825,-0.5,0.02270284007954755,10,1,100,-0.10426482876197599,-10,-1,-100,6475.073622535565,0.013347257799062089,0.00761747538209904,0.999881905415859,202.34347423490962,21.148031372543997,259.469116906703,-15.824699645089918,-54.432037353515625,4381.2578125,True
1599570580.3957415,0.0,10,0.5,0.5,-6.637688756561279,-0.15025,-0.00825,-0.5,-0.14438432387700378,10,1,100,0.00899735718506986,-10,-1,-100,6474.105274533504,0.011897684940642443,0.005493513922650478,0.9999141295120472,204.84655878657313,21.386812122785752,272.3741815765719,-16.39806401362575,-52.7705078125,4381.2578125,True
1599570580.4665494,0.0,10,0.5,0.5,-6.091948854064942,-0.15025,-0.00825,-0.5,-0.008982496235044796,10,1,100,-0.08009585832365948,-10,-1,-100,6473.8235117667355,0.011397644149565914,0.004805271924206381,0.9999234986085557,205.55196011070026,21.45319185072918,276.55783580874447,-16.58913552322895,-52.364776611328125,4381.2578125,True
1599570581.117664,0.0,10,0.5,0.5,-6.287890152740478,-0.15025,-0.00825,-0.5,-0.10204860376924914,10,1,100,-0.017465834096108843,-10,-1,-100,6473.1354783521965,0.01038109887184997,0.0033445712911432503,0.9999405215457026,206.8145753235716,21.57071164375182,284.79240546031707,-16.971209237224144,-51.777374267578125,4381.2578125,True
1599570581.188473,0.0,10,0.5,0.5,-6.129245917510986,-0.15025,-0.00825,-0.5,-0.0320296935014429,10,1,100,-0.060659151148390815,-10,-1,-100,6472.792196767521,0.009857643305260528,0.0026650803487879523,0.9999478607483497,207.37383570746948,21.62200009313769,288.84158706746626,-17.16221300408044,-51.5941162109375,4381.2578125,True
1599570581.2602825,0.0,10,0.5,0.5,-6.144015316009521,-0.15025,-0.00825,-0.5,-0.12032126379689365,10,1,100,0.005238555853575674,-10,-1,-100,6472.103686313378,0.00879052547149653,0.0012561982871239,0.9999605735366761,208.3684136483336,21.7115440116929,296.82132013341715,-17.544158733596888,-51.451019287109375,4381.2578125,True
1599570581.3799627,0.0,10,0.5,0.5,-5.98261655883789,-0.15025,-0.00825,-0.5,-0.13424033518438794,10,1,100,0.0202255913779706,-10,-1,-100,6471.354148436221,0.0076919051840343335,-0.00013996318173491087,0.9999704070646028,209.20492987437734,21.784200673987872,304.64061514684977,-17.92602708812017,-51.604400634765625,4381.2578125,True
1599570581.4757056,0.0,10,0.5,0.5,-5.775633502197266,-0.15025,-0.00825,-0.5,-0.14714552690178223,10,1,100,0.035621052018680474,-10,-1,-100,6470.666141869384,0.006561560652645762,-0.0015146499716905046,0.9999773256215687,209.87656264695104,21.838917538475453,312.27473795955433,-18.30782524007637,-52.05401611328125,4381.2578125,True
1599570581.5586333,0.0,10,0.5,0.5,-5.521164368438721,-0.15025,-0.00825,-0.5,-0.15810303841667567,10,1,100,0.05129948225448075,-10,-1,-100,6469.915154664079,0.0053996769677253625,-0.0028525955924208436,0.9999813529196584,210.36549538555596,21.87350062464561,319.6813943499198,-18.689560617557557,-52.79949951171875,4381.2578125,True
1599570581.6389573,0.0,10,0.5,0.5,-5.583371561431885,-0.15025,-0.00825,-0.5,-0.09807865537705739,10,1,100,0.001232949250674159,-10,-1,-100,6469.509391026804,0.004807459884234274,-0.0035112283788727196,0.9999822796453608,210.53295625413028,21.88226244848682,323.28110868118796,-18.88040757737563,-53.28326416015625,4381.2578125,True
1599570581.7132385,0.0,10,0.5,0.5,-5.053577709197998,-0.15025,-0.00825,-0.5,-0.1739707292814166,10,1,100,0.07558528410058046,-10,-1,-100,6468.757438746747,0.0036013405327290477,-0.004789181223380162,0.9999820468836311,210.6847616923922,21.879538241459787,330.2158349060903,-19.2620665324645,-54.47235107421875,4381.2578125,True
1599570581.8005261,0.0,10,0.5,0.5,-3.5253494812011716,-0.15025,-0.00825,-0.5,-0.31385956473134485,10,1,100,0.23058271245023787,-10,-1,-100,6467.194473728188,0.0011046607893331682,-0.00721139444374493,0.9999733874032434,210.05339446140886,21.771592393166735,342.617129215182,-20.0252903799774,-57.736846923828125,4381.2578125,True
1599570581.8803103,0.0,10,0.5,0.5,-3.8045806816101067,-0.15025,-0.00825,-0.5,-0.1937771395580062,10,1,100,0.12271909458712846,-10,-1,-100,6466.380530236056,-0.0001746578839518101,-0.008310198134894918,0.9999654544540939,209.30189969260041,21.669719911956996,348.0785388475889,-20.40688682491099,-59.811309814453125,4381.2578125,True
1599570581.9571059,0.0,10,0.5,0.5,-3.2958494316101072,-0.15025,-0.00825,-0.5,-0.19061877189923537,10,1,100,0.1355743277489375,-10,-1,-100,6465.505068709375,-0.0014440203411059474,-0.00926847499353417,0.9999560041204557,208.20071305278688,21.530153202699534,352.91110246268346,-20.788494793567615,-62.179351806640625,4381.2578125,True
1599570582.033899,0.0,10,0.5,0.5,-4.471288796234131,-0.15025,-0.00825,-0.5,-0.09605239066377784,10,1,100,0.009820593954819348,-10,-1,-100,6465.505068709375,-0.0014440203411059474,-0.00926847499353417,0.9999560041204557,208.20071305278688,21.530153202699534,352.91110246268346,-20.788494793567615,-62.179351806640625,4381.2578125,True
1599570582.108701,0.0,10,0.5,0.5,-2.730666061401367,-0.15025,-0.00825,-0.5,-0.20078488659240437,10,1,100,0.15335822305995733,-10,-1,-100,6464.691623046761,-0.0027386336387468686,-0.010209739906210482,0.9999441289876351,206.52234759604818,21.330022926270473,356.68941029797907,-21.170134845451628,-64.8427734375,4381.2578125,True
1599570582.192475,0.0,10,0.5,0.5,-1.0951399360656735,-0.15025,-0.00825,-0.5,-0.24231041253589253,10,1,100,0.23833413718648264,-10,-1,-100,6463.407496480155,-0.004677582074924988,-0.011432516482499445,0.9999237059860165,202.66333465152445,20.891940244472504,359.8005751322288,-21.74270441669311,-69.38900756835938,4381.2578125,True
1599570582.2658749,0.0,10,0.5,0.5,-1.1438300926208496,-0.15025,-0.00825,-0.5,-0.199218648315986,10,1,100,0.18727612931258952,-10,-1,-100,6462.531072508311,-0.005964853775088832,-0.012142122283216839,0.9999084905059569,199.03977867007444,20.494113546644183,359.7878102312318,-22.124521415345896,-72.78732299804688,4381.2578125,True
1599570582.3396778,0.0,10,0.5,0.5,-0.42526809844970703,-0.15025,-0.00825,-0.5,-0.19586429492198804,10,1,100,0.19706560791835415,-10,-1,-100,6461.593615823775,-0.007212708385810428,-0.012747063005458555,0.9998927388587617,194.4421523722108,20.000279587442844,357.7653674820019,-22.50644181525977,-76.47915649414062,4381.2578125,True
1599570582.4154751,0.0,10,0.5,0.5,-0.9797047248840332,-0.15025,-0.00825,-0.5,-0.1660675546351524,10,1,100,0.1407599761276615,-10,-1,-100,6461.18641162198,-0.007823786483502368,-0.013017134689058848,0.9998846646336504,191.74521071745448,19.71469870114462,355.90975462217864,-22.697443700245017,-78.43524169921875,4381.2578125,True
1599570582.4962602,0.0,10,0.5,0.5,2.148834482574463,-0.15025,-0.00825,-0.5,-0.2172758982723258,10,1,100,0.27854137493048553,-10,-1,-100,6459.7782743771095,-0.009620387246550044,-0.013719543065115067,0.9998596012877563,181.8877461280475,18.688893394011295,346.4756222181122,-23.270612055464866,-84.71871948242188,4381.2578125,True
1599570582.5680664,0.0,10,0.5,0.5,0.4550461975097656,-0.15025,-0.00825,-0.5,-0.1684030884451838,10,1,100,0.16290401930592116,-10,-1,-100,6459.308081728057,-0.01019039222747982,-0.013905679352336034,0.9998513829504864,184.4761133330986,18.955396420648498,354.4091333974425,-23.461658375208337,-86.9071044921875,4381.2578125,True
1599570582.6438634,0.0,10,0.5,0.5,3.8420477390289305,-0.15025,-0.00825,-0.5,-0.1993080327380407,10,1,100,0.28649239725671977,-10,-1,-100,6457.899943984579,-0.011821841052407954,-0.014349762484373257,0.999827149256697,196.95550268249508,20.25375397452694,388.0168196735135,-24.034424756039346,-93.76158905029297,4381.2578125,True
1599570582.7142231,0.0,10,0.5,0.5,1.9010399518966676,-0.15025,-0.00825,-0.5,-0.1671720767198395,10,1,100,0.17891397515953117,-10,-1,-100,6457.367738459492,-0.012316402344033221,-0.014455838854833014,0.9998196512153095,201.02064081475595,20.681283216896198,399.3056976999117,-24.22520175458935,-96.004150390625,4381.2578125,True
1599570582.7940133,0.0,10,0.5,0.5,5.014490334510803,-0.15025,-0.00825,-0.5,-0.18318196208812512,10,1,100,0.28747498629510815,-10,-1,-100,6455.897582155885,-0.013743037817649684,-0.014693100545997845,0.999797600371139,211.93562032261912,21.84169397113045,431.36560365096886,-24.797051386586197,-102.47370147705078,4381.2578125,True
1599570582.8643367,0.0,10,0.5,0.5,3.136665252304077,-0.15025,-0.00825,-0.5,-0.16518881065700633,10,1,100,0.19168667776153175,-10,-1,-100,6455.427873775829,-0.014157995427471643,-0.014740287410817099,0.999791115729942,214.9797170048529,22.169369724375745,441.0708145368097,-24.98750903125065,-104.50939178466797,4381.2578125,True
1599570582.9367244,0.0,10,0.5,0.5,6.970133107566833,-0.15025,-0.00825,-0.5,-0.16951986189960438,10,1,100,0.3152946807362678,-10,-1,-100,6453.361530157505,-0.015648557498181274,-0.01481843907421767,0.9997677412837592,225.9909932115559,23.36161560507571,478.41743541685486,-25.748581102654477,-111.91975402832031,4381.2578125,True
1599570583.0095303,0.0,10,0.5,0.5,3.3000398515701295,-0.15025,-0.00825,-0.5,-0.16204328781871913,10,1,100,0.1673355712076303,-10,-1,-100,6453.361530157505,-0.015648557498181274,-0.01481843907421767,0.9997677412837592,225.9909932115559,23.36161560507571,478.41743541685486,-25.748581102654477,-111.91975402832031,4381.2578125,True
1599570583.0823355,0.0,10,0.5,0.5,5.4516096677780155,-0.15025,-0.00825,-0.5,-0.1598802350257006,10,1,100,0.23711978514417975,-10,-1,-100,6452.360090599512,-0.016274156076038004,-0.014796341942652955,0.9997580807921129,230.02553977989083,23.80304682592924,494.46783762140865,-26.128718182247077,-115.17893981933594,4381.2578125,True
1599570583.1581354,0.0,10,0.5,0.5,6.670063573646545,-0.15025,-0.00825,-0.5,-0.15595639862647065,10,1,100,0.25278641620221465,-10,-1,-100,6450.763439868111,-0.016977068294898777,-0.014738719420385493,0.9997472427078543,234.56830761495846,24.3016455230219,515.7238489186641,-26.698523875046277,-119.509765625,4381.2578125,True
1599570583.2309406,0.0,10,0.5,0.5,5.380431115913391,-0.15025,-0.00825,-0.5,-0.15797974209353707,10,1,100,0.20577548504893478,-10,-1,-100,6450.231709557818,-0.017180386136277485,-0.014703164263723562,0.9997442929533743,235.74835022167355,24.430915937732202,522.169863145613,-26.888368615828746,-120.80448913574219,4381.2578125,True
1599570583.3017495,0.0,10,0.5,0.5,6.998838491630554,-0.15025,-0.00825,-0.5,-0.15187716376695692,10,1,100,0.2323451685056755,-10,-1,-100,6448.57205733622,-0.017599890388146928,-0.01461446920815416,0.9997382963296388,238.50474938221168,24.73030076643837,539.9743104875567,-27.457680285464587,-124.2431640625,4381.2578125,True
1599570583.3795407,0.0,10,0.5,0.5,6.559431979560852,-0.15025,-0.00825,-0.5,-0.1533222413384241,10,1,100,0.2102417064507175,-10,-1,-100,6447.446086372132,-0.01777358141829165,-0.014546330053871844,0.9997362172520966,239.83129324066252,24.87120586092626,550.8303487079722,-27.83706305630701,-126.1641616821289,4381.2578125,True
1599570583.4653113,0.0,10,0.5,0.5,6.681790713691711,-0.15025,-0.00825,-0.5,-0.15327547335705693,10,1,100,0.20234467218929825,-10,-1,-100,6446.323040901218,-0.017854280461168603,-0.01448378150690322,0.9997356874406726,240.95836809688194,24.98737325892488,561.3181203956894,-28.21633682678533,-127.78834533691406,4381.2578125,True
1599570583.5431044,0.0,10,0.5,0.5,6.351639574241638,-0.15025,-0.00825,-0.5,-0.1566451289404059,10,1,100,0.19528183730556253,-10,-1,-100,6445.78446610528,-0.017858401202916294,-0.014457527021642125,0.999735993859826,241.50689194132127,25.04254119361207,566.5583534721086,-28.40593459978248,-128.4891815185547,4381.2578125,True
1599570583.626881,0.0,10,0.5,0.5,7.100524033355713,-0.15025,-0.00825,-0.5,-0.15081955853018628,10,1,100,0.18343354783147806,-10,-1,-100,6444.067660813802,-0.017750694369845003,-0.01438091373451582,0.9997390170287187,242.90824465656743,25.178139434575442,581.8185057264081,-28.974579440797484,-130.14675903320312,4381.2578125,True
1599570583.7116542,0.0,10,0.5,0.5,6.555809913063049,-0.15025,-0.00825,-0.5,-0.15621222050833583,10,1,100,0.18589887258659038,-10,-1,-100,6443.468535776017,-0.0176719250203336,-0.014360616194817176,0.9997407042671519,243.31885385699405,25.216208628786372,586.8052907443323,-29.1640796371256,-130.5511016845703,4381.2578125,True
1599570583.7944324,0.0,10,0.5,0.5,6.868752212715149,-0.15025,-0.00825,-0.5,-0.15261812327130153,10,1,100,0.1548590938493512,-10,-1,-100,6441.691172974766,-0.01731629728905547,-0.014309906477372097,0.9997476543732453,244.4570050025949,25.3180091630397,601.6335762358215,-29.732436871612748,-131.31964111328125,4381.2578125,True
1599570583.8682353,0.0,10,0.5,0.5,6.570784970664978,-0.15025,-0.00825,-0.5,-0.1562463724193303,10,1,100,0.1733264590887634,-10,-1,-100,6441.092044523684,-0.01715936836298739,-0.014297253119764874,0.9997505412004599,244.81873657001844,25.349485435657044,606.5634473688762,-29.92184113329094,-131.42774963378906,4381.2578125,True
1599570583.9460268,0.0,10,0.5,0.5,6.452317516136169,-0.15025,-0.00825,-0.5,-0.1538451781865692,10,1,100,0.12474515301930456,-10,-1,-100,6439.246801997884,-0.01657425272748774,-0.014264374746026742,0.9997608822911758,245.8791755207286,25.44062358998776,621.3796516806242,-30.48990526590694,-131.30807495117188,4381.2578125,True
1599570584.0328329,0.0,10,0.5,0.5,6.399738381004333,-0.15025,-0.00825,-0.5,-0.15595422863933206,10,1,100,0.15806498405981112,-10,-1,-100,6438.657436750946,-0.01634560317337213,-0.014254089723721155,0.9997647934304583,246.2265467958642,25.470409646079915,626.3320217953443,-30.679209365478698,-131.12022399902344,4381.2578125,True
1599570584.1046026,0.0,10,0.5,0.5,5.847320517539978,-0.15025,-0.00825,-0.5,-0.1537238511336771,10,1,100,0.09331909276312904,-10,-1,-100,6436.80144448299,-0.015549899824172559,-0.014224871793882852,0.9997779021552264,247.2332416984963,25.557447583907603,641.1836303102218,-31.246965769726728,-130.11314392089844,4381.2578125,True
1599570584.1813972,0.0,10,0.5,0.5,5.678872178077698,-0.15025,-0.00825,-0.5,-0.15375518828771534,10,1,100,0.10548953047389284,-10,-1,-100,6435.552395653212,-0.014939037113692597,-0.014198949102170443,0.9997875849471776,247.8452241761754,25.611387792182562,650.9995039631519,-31.62533919665815,-129.072265625,4381.2578125,True
1599570584.2631817,0.0,10,0.5,0.5,5.791265996551513,-0.15025,-0.00825,-0.5,-0.1547943438303132,10,1,100,0.1297324481402008,-10,-1,-100,6434.8927144169575,-0.014606674395954158,-0.01418514568822978,0.9997926918641155,248.1203507926002,25.636060948984078,655.845535884728,-31.81448684835568,-128.44105529785156,4381.2578125,True
1599570584.9939148,0.0,10,0.5,0.5,5.142333710479736,-0.15025,-0.00825,-0.5,-0.1502640434899477,10,1,100,0.08722063847911725,-10,-1,-100,6433.57725646405,-0.013921007842968649,-0.014131684068661013,0.9998032311640224,248.57717896788708,25.67801711028828,665.3241513636583,-32.19270635830397,-126.95689392089844,4381.2578125,True
1599570585.0631027,0.0,10,0.5,0.5,4.726162468719482,-0.15025,-0.00825,-0.5,-0.14848139259635476,10,1,100,0.07296613915446834,-10,-1,-100,6432.326738859876,-0.013171667703994057,-0.014067172899977635,0.9998142936648274,248.86300949195876,25.705959603576076,674.3826724790092,-32.57083026553121,-125.17759704589844,4381.2578125,True
1599570585.1340623,0.0,10,0.5,0.5,4.262871229171752,-0.15025,-0.00825,-0.5,-0.14578857753749305,10,1,100,0.05868559168673601,-10,-1,-100,6431.006884396542,-0.012364788988552181,-0.013984331465034493,0.9998257600535929,248.906470310993,25.713231347248236,682.809402637716,-32.948868569022565,-123.10325622558594,4381.2578125,True
1599570585.2038753,0.0,10,0.5,0.5,2.910889073944092,-0.15025,-0.00825,-0.5,-0.13324963586747207,10,1,100,-0.0011887713623488783,-10,-1,-100,6428.973145570024,-0.011091775161369504,-0.013795372767840338,0.999843317832332,248.33195922127774,25.66747373181139,693.6980093622004,-33.51579975359782,-119.4384994506836,4381.2578125,True
1599570585.2771876,0.0,10,0.5,0.5,2.9051781450271603,-0.15025,-0.00825,-0.5,-0.13361630918223238,10,1,100,0.026927018519672066,-10,-1,-100,6427.656708191498,-0.010195746610246977,-0.013627393285715775,0.9998551599623298,247.38600138378175,25.585513942022732,699.3569309841296,-33.89370115714727,-116.6268310546875,4381.2578125,True
1599570585.352986,0.0,10,0.5,0.5,3.312810015678406,-0.15025,-0.00825,-0.5,-0.13947924650364724,10,1,100,0.06537451104305962,-10,-1,-100,6426.939895718824,-0.009737028424668875,-0.013528593059282716,0.9998610740734402,246.70526099488885,25.525050985024425,701.5797997990771,-34.08264618286203,-115.11050415039062,4381.2578125,True
1599570585.426788,0.0,10,0.5,0.5,0.8122343122482301,-0.15025,-0.00825,-0.5,-0.10880393679149045,10,1,100,-0.040922824516910095,-10,-1,-100,6424.899321460514,-0.008359888136600711,-0.013160577112130095,0.9998784483528083,243.66449795757202,25.247412477626863,705.2577206098806,-34.6495075993359,-110.11953735351562,4381.2578125,True
1599570585.4936109,0.0,10,0.5,0.5,0.8874854249954223,-0.15025,-0.00825,-0.5,-0.11220333876503114,10,1,100,-0.00794160223915033,-10,-1,-100,6423.461791163427,-0.007415031454551807,-0.012857914916852255,0.9998898395986024,240.65851201617164,24.965273149754445,704.7070672162575,-35.02748315775935,-106.42417907714844,4381.2578125,True
1599570585.5654168,0.0,10,0.5,0.5,0.12678557300567617,-0.15025,-0.00825,-0.5,-0.10354008146376803,10,1,100,-0.01628980712090583,-10,-1,-100,6422.086273618275,-0.006487573397736499,-0.012505253270112765,0.9999007600917499,236.72264206822337,24.587849228911058,701.228846063218,-35.40555835269967,-102.44288635253906,4381.2578125,True
1599570585.6501904,0.0,10,0.5,0.5,0.7396275495529174,-0.15025,-0.00825,-0.5,-0.11734483055367739,10,1,100,0.025741903562363347,-10,-1,-100,6421.366045002826,-0.006034219319312263,-0.012311689215559729,0.9999060008350116,234.3803134911045,24.359858348278582,698.2858738959922,-35.59464499223274,-100.3577880859375,4381.2578125,True
1599570585.7259884,0.0,10,0.5,0.5,-1.077704660987854,-0.15025,-0.00825,-0.5,-0.08996032180292596,10,1,100,-0.030561093031507426,-10,-1,-100,6419.921681624139,-0.0051180269654156245,-0.011888474955934383,0.9999162314730188,229.76144224751684,23.908101346143557,692.3821514301574,-35.972919506986045,-95.99529266357422,4381.2578125,True
1599570585.8027828,0.0,10,0.5,0.5,-1.852654676437378,-0.15025,-0.00825,-0.5,-0.08069868801415661,10,1,100,-0.037009767675474044,-10,-1,-100,6418.483667487628,-0.004234503220453123,-0.011421577330115918,0.999925805524474,224.09978663675477,23.341752791428746,683.0137089864847,-36.35134716357051,-91.48832702636719,4381.2578125,True
1599570585.8750975,0.0,10,0.5,0.5,-4.163505037307739,-0.15025,-0.00825,-0.5,-0.04071508689890893,10,1,100,-0.09089394393371,-10,-1,-100,6416.267322938307,-0.0029495683631246506,-0.010636042747024026,0.999939085465287,214.6674333954163,22.37651343470996,665.3617712741079,-36.91927273260879,-84.51171875,4381.2578125,True
1599570585.9550185,0.0,10,0.5,0.5,-2.182702392578125,-0.15025,-0.00825,-0.5,-0.08835489182715156,10,1,100,-0.007959607491324336,-10,-1,-100,6415.539285037783,-0.00254395357014357,-0.010358053433304521,0.9999431178968662,211.23788833177355,22.019159111230056,658.379060819659,-37.10864685129373,-82.24234008789062,4381.2578125,True
1599570586.0278568,0.0,10,0.5,0.5,-5.233727541923523,-0.15025,-0.00825,-0.5,-0.020247836174817582,10,1,100,-0.0950601873847744,-10,-1,-100,6413.260447152075,-0.0013911601425759747,-0.009489305659751514,0.9999540078181363,217.11998330077836,22.614284319602888,687.9663278422869,-37.6765382821266,-75.85244750976562,4381.2578125,True
1599570586.0986335,0.0,10,0.5,0.5,-4.602318869590759,-0.15025,-0.00825,-0.5,-0.03943976242580269,10,1,100,-0.059230664284436796,-10,-1,-100,6411.749688377138,-0.0006768932243063851,-0.00887776891119043,0.9999603627318046,224.4585677352286,23.35411678325484,718.9750918559475,-38.05467428402304,-71.9617919921875,4381.2578125,True
1599570586.1744306,0.0,10,0.5,0.5,-5.02793643169403,-0.15025,-0.00825,-0.5,-0.03218397528219901,10,1,100,-0.06095786371780905,-10,-1,-100,6410.246744718985,-2.00943357582491e-05,-0.008260092733145858,0.9999658846502003,230.69041978487905,23.971238151388356,746.90339778771,-38.432457608145526,-68.37033081054688,4381.2578125,True
1599570586.27217,0.0,10,0.5,0.5,-6.404589381217956,-0.15025,-0.00825,-0.5,0.009072514902148443,10,1,100,-0.09347390042837976,-10,-1,-100,6407.901023954037,0.0008650142659262969,-0.007327964919046711,0.9999727759696586,238.22420014483566,24.70000578745368,783.6257356119323,-38.99852025039421,-63.544586181640625,4381.2578125,True
1599570586.349963,0.0,10,0.5,0.5,-4.027092730903625,-0.15025,-0.00825,-0.5,-0.0835872715079857,10,1,100,-0.005791044831972967,-10,-1,-100,6407.901023954037,0.0008650142659262969,-0.007327964919046711,0.9999727759696586,238.22420014483566,24.70000578745368,783.6257356119323,-38.99852025039421,-63.544586181640625,4381.2578125,True
1599570586.4393995,0.0,10,0.5,0.5,-6.759046911430358,-0.15025,-0.00825,-0.5,0.01784049488669573,10,1,100,-0.09068116637242786,-10,-1,-100,6405.54847063357,0.0016300584729634661,-0.006410600941232395,0.9999781233131788,243.9363848709664,25.236363534403647,815.032294742037,-39.56393072299266,-59.392547607421875,4381.2578125,True
1599570586.5236013,0.0,10,0.5,0.5,-6.2736892965316775,-0.15025,-0.00825,-0.5,-0.005177090213643161,10,1,100,-0.06431005326168597,-10,-1,-100,6403.931275830488,0.0020788482894520794,-0.0057912490880173036,0.9999810697327174,246.9217999630822,25.509588408853965,833.5191047036554,-39.94055601903594,-56.998291015625,4381.2578125,True
1599570586.6233444,0.0,10,0.5,0.5,-5.814348440933228,-0.15025,-0.00825,-0.5,-0.031496664475150274,10,1,100,-0.04288598482678978,-10,-1,-100,6403.14172216272,0.0022855321593473372,-0.005473013738260846,0.9999824110769996,248.2070879919365,25.62541777981968,842.1362352101928,-40.12878426217635,-55.91314697265625,4381.2578125,True
1599570586.7121375,0.0,10,0.5,0.5,-6.565966175842285,-0.15025,-0.00825,-0.5,-7.309954288287068e-05,10,1,100,-0.06361344629266188,-10,-1,-100,6401.505974597298,0.0026559307495056814,-0.004903447887817868,0.9999844509944468,250.42559366028485,25.822475597677037,858.2988136960157,-40.50508709926591,-53.967987060546875,4381.2578125,True
1599570586.8048553,0.0,10,0.5,0.5,-6.68942954788208,-0.15025,-0.00825,-0.5,0.008258256308628635,10,1,100,-0.06314462134618276,-10,-1,-100,6399.881946392823,0.00298329878730652,-0.004315132602273425,0.999986239684812,252.24316205558375,25.98080214281247,873.2310762712771,-40.88120278726112,-52.3211669921875,4381.2578125,True
1599570586.9175541,0.0,10,0.5,0.5,-6.767454527282715,-0.15025,-0.00825,-0.5,0.014176035175579492,10,1,100,-0.06173494207079159,-10,-1,-100,6398.246201148722,0.0032630660533878625,-0.0037319960991980426,0.9999877122270288,253.7394580005372,26.10872224266408,887.1722368547582,-41.25715011235849,-50.97283935546875,4381.2578125,True
1599570587.0068316,0.0,10,0.5,0.5,-7.064882418060303,-0.15025,-0.00825,-0.5,0.04718157183656321,10,1,100,-0.07130405395156247,-10,-1,-100,6395.713970044744,0.003600160743108851,-0.0029070555899938007,0.9999892938778998,255.52441801736853,26.25796923168188,906.6639686613978,-41.82078806407489,-49.510223388671875,4381.2578125,True
1599570587.0991368,0.0,10,0.5,0.5,-6.867030366516112,-0.15025,-0.00825,-0.5,0.052334896253076184,10,1,100,-0.06454594806119993,-10,-1,-100,6393.237405296182,0.003841284903881531,-0.0021156891899500054,0.999990384148537,256.9043532967762,26.36999547203383,924.9068728643128,-42.38412076715441,-48.71832275390625,4381.2578125,True
1599570587.2038548,0.0,10,0.5,0.5,-6.4872929557800285,-0.15025,-0.00825,-0.5,-0.026187303396983767,10,1,100,-0.0408196699078959,-10,-1,-100,6393.237405296182,0.003841284903881531,-0.0021156891899500054,0.999990384148537,256.9043532967762,26.36999547203383,924.9068728643128,-42.38412076715441,-48.71832275390625,4381.2578125,True
1599570587.2885952,0.0,10,0.5,0.5,-6.508057566833496,-0.15025,-0.00825,-0.5,0.07904860078024217,10,1,100,-0.06276249992960806,-10,-1,-100,6389.797462058254,0.004038059476226228,-0.0011637375844562212,0.9999911698562648,258.29061401911105,26.476506523936493,947.8332155272236,-43.13480615876617,-48.7052001953125,4381.2578125,True
1599570587.3843503,0.0,10,0.5,0.5,-6.513738780975341,-0.15025,-0.00825,-0.5,-0.015530137035677204,10,1,100,-0.04340234721616839,-10,-1,-100,6389.797462058254,0.004038059476226228,-0.0011637375844562212,0.9999911698562648,258.29061401911105,26.476506523936493,947.8332155272236,-43.13480615876617,-48.7052001953125,4381.2578125,True
1599570587.497039,0.0,10,0.5,0.5,-5.757726268005372,-0.15025,-0.00825,-0.5,0.0797521537554972,10,1,100,-0.04840030031207,-10,-1,-100,6386.291601569625,0.004081306321640549,-0.0003023048166789778,0.9999916257401893,259.2253553577792,26.536421761515253,969.3213003951073,-43.885058143242,-49.88140869140625,4381.2578125,True
1599570587.5997682,0.0,10,0.5,0.5,-6.0399319931030275,-0.15025,-0.00825,-0.5,0.017550903770255102,10,1,100,-0.04227186549057027,-10,-1,-100,6385.439550614334,0.004063088175428854,-8.963997699399215e-05,0.999991741605476,259.3786761877919,26.542545299320146,974.4217541672314,-44.07256033937527,-50.360870361328125,4381.2578125,True
1599570587.6875334,0.0,10,0.5,0.5,-5.924232607269287,-0.15025,-0.00825,-0.5,0.019394673229410533,10,1,100,-0.04142973433769576,-10,-1,-100,6384.528417806374,0.004037254526559289,0.00011555925983807431,0.999991843577709,259.49460710619167,26.54444579332891,979.3907698229409,-44.260040475742244,-50.914520263671875,4381.2578125,True
1599570587.7703123,0.0,10,0.5,0.5,-5.33861399154663,-0.15025,-0.00825,-0.5,0.03833272743637352,10,1,100,-0.038563552918971816,-10,-1,-100,6382.7095699066995,0.003986457447619418,0.00046970541597811106,0.9999919437344685,259.5978002502586,26.533658365839234,988.8646936072179,-44.634939825398945,-52.244720458984375,4381.2578125,True
1599570587.8640935,0.0,10,0.5,0.5,-4.946505741882324,-0.15025,-0.00825,-0.5,0.042932946573568054,10,1,100,-0.032440391323890844,-10,-1,-100,6380.9571280584205,0.0038837012171185144,0.0008291267882451388,0.9999921146757236,259.48272113996944,26.498321296952927,997.5269232793897,-45.00976872950188,-53.87066650390625,4381.2578125,True
1599570587.9418874,0.0,10,0.5,0.5,-4.5073491500854495,-0.15025,-0.00825,-0.5,0.04378078379906132,10,1,100,-0.02836886778955046,-10,-1,-100,6379.148534052656,0.003752708398020298,0.0011594346260947,0.9999922864157639,259.10063045577766,26.433218407154797,1005.1678661667282,-45.38454249561406,-55.7926025390625,4381.2578125,True
1599570588.0266268,0.0,10,0.5,0.5,-3.22823717880249,-0.15025,-0.00825,-0.5,0.06055870941282951,10,1,100,-0.013632984891325063,-10,-1,-100,6376.415622864501,0.0034995227655335876,0.0016085442658866586,0.9999925829353727,257.8792366684205,26.264801524353093,1014.0788421745077,-45.94664168577117,-59.229583740234375,4381.2578125,True
1599570588.1014674,0.0,10,0.5,0.5,-4.0971244628906245,-0.15025,-0.00825,-0.5,0.031349960356070024,10,1,100,-0.02784685038095258,-10,-1,-100,6375.448826008476,0.0033988816605771445,0.0017479060074944105,0.9999926961873504,257.2602973178938,26.186010958938937,1016.19863716922,-46.134003193925345,-60.5228271484375,4381.2578125,True
1599570588.1832812,0.0,10,0.5,0.5,-2.9084139068603507,-0.15025,-0.00825,-0.5,0.04655689519233201,10,1,100,-0.013163867819230492,-10,-1,-100,6373.619723742944,0.0031743102720949994,0.0020093310027425263,0.9999929431467094,255.63840389416487,25.988290620309314,1018.8671219412315,-46.50873856413365,-63.330352783203125,4381.2578125,True
1599570588.2590027,0.0,10,0.5,0.5,-1.2026325569152831,-0.15025,-0.00825,-0.5,0.05883969014355616,10,1,100,0.007201256076343976,-10,-1,-100,6370.754487886792,0.0027858022009734007,0.002355767253809034,0.9999933448112257,252.06687616613962,25.575712179245315,1018.1244518103906,-47.07092884165343,-68.0938720703125,4381.2578125,True
1599570588.333803,0.0,10,0.5,0.5,-1.2644223640441892,-0.15025,-0.00825,-0.5,0.047044059881910356,10,1,100,0.001397491701309237,-10,-1,-100,6368.844819257851,0.002486512955431584,0.0025602767480015654,0.9999936310978665,248.78104053429226,25.211273482354375,1013.7809210744971,-47.44582689557373,-71.6370849609375,4381.2578125,True
1599570589.0572586,0.0,10,0.5,0.5,-1.7944562461853026,-0.15025,-0.00825,-0.5,0.0370779338867425,10,1,100,-0.010810638778716197,-10,-1,-100,6367.858490670449,0.002326864639635808,0.0026529909777071765,0.9999937736505268,246.8290181628902,24.99932019535466,1010.2717089103797,-47.63331962759948,-73.51885986328125,4381.2578125,True
1599570589.1330552,0.0,10,0.5,0.5,-0.12589461364746102,-0.15025,-0.00825,-0.5,0.04647323071262527,10,1,100,0.010300283956934057,-10,-1,-100,6365.94491571968,0.0019913907127117303,0.0028201951295342108,0.9999940404134721,242.23793111705035,24.510747439606615,1000.2377045247086,-48.00841245378613,-77.50247192382812,4381.2578125,True
1599570589.203866,0.0,10,0.5,0.5,0.6851207763671876,-0.15025,-0.00825,-0.5,0.04650672470610716,10,1,100,0.01776254080695006,-10,-1,-100,6364.002532051178,0.0016204355930659212,0.002970044634890717,0.9999942764952985,236.644929791612,23.929797785293015,985.7389705939418,-48.38367259201228,-81.77911376953125,4381.2578125,True
1599570589.2736802,0.0,10,0.5,0.5,3.07411919631958,-0.15025,-0.00825,-0.5,0.05257637293317681,10,1,100,0.04854982933529284,-10,-1,-100,6361.088468529051,0.001005470153907118,0.0031591770425346173,0.9999945042999905,230.9821434785104,23.35714559240828,974.7978447158442,-48.94683589374655,-88.70407104492188,4381.2578125,True
1599570589.3434966,0.0,10,0.5,0.5,2.7127240379333495,-0.15025,-0.00825,-0.5,0.045208621000029044,10,1,100,0.03633046364054897,-10,-1,-100,6359.082609330653,0.0005601123801360697,0.0032620178044056474,0.9999945227419824,238.56727945208573,24.14146556295963,1015.5435805413634,-49.32195635594771,-93.42893981933594,4381.2578125,True
1599570589.417297,0.0,10,0.5,0.5,1.8835147617340087,-0.15025,-0.00825,-0.5,0.04013869715220311,10,1,100,0.01795464244460506,-10,-1,-100,6358.111418911838,0.0003251969566872289,0.0033075077500551563,0.9999944773044611,242.0630753105405,24.508425858482397,1034.858884509675,-49.5093638612008,-95.73908996582031,4381.2578125,True
1599570589.4856982,0.0,10,0.5,0.5,5.008035460662842,-0.15025,-0.00825,-0.5,0.0475204512344482,10,1,100,0.07556344314292418,-10,-1,-100,6355.134369380539,-0.00040919313842475817,0.0034144245891349666,0.9999940871153692,252.12943240973024,25.58170958005173,1091.7460937961014,-50.07095332667542,-102.27423095703125,4381.2578125,True
1599570589.5585508,0.0,10,0.5,0.5,3.096613246154785,-0.15025,-0.00825,-0.5,0.04011458998678899,10,1,100,0.031098279885011838,-10,-1,-100,6354.099702643347,-0.0006691298545464506,0.003442780687336401,0.9999938497442755,254.97669226819218,25.891564705561194,1108.7403694382024,-50.25794960640049,-104.30683898925781,4381.2578125,True
1599570589.6499584,0.0,10,0.5,0.5,5.787973752212524,-0.15025,-0.00825,-0.5,0.043971349927479524,10,1,100,0.09536176711643207,-10,-1,-100,6351.062108067446,-0.001486155443918499,0.0035023172763579877,0.9999927625316556,262.7001049521459,26.743242205974834,1156.727753739785,-50.818383451609265,-109.95675659179688,4381.2578125,True
1599570589.720394,0.0,10,0.5,0.5,6.233824530029297,-0.15025,-0.00825,-0.5,0.04051825373690315,10,1,100,0.11058227704765809,-10,-1,-100,6348.02158605773,-0.0023633906539543325,0.0035240073464427825,0.9999909978379001,269.1069753357877,27.46157147409124,1199.669884487921,-51.37804578990557,-114.93372344970703,4381.2578125,True
1599570589.8081603,0.0,10,0.5,0.5,3.7810608278274533,-0.15025,-0.00825,-0.5,0.03844561978826779,10,1,100,0.02334374640501334,-10,-1,-100,6348.02158605773,-0.0023633906539543325,0.0035240073464427825,0.9999909978379001,269.1069753357877,27.46157147409124,1199.669884487921,-51.37804578990557,-114.93372344970703,4381.2578125,True
1599570589.8809648,0.0,10,0.5,0.5,6.614579343795776,-0.15025,-0.00825,-0.5,0.03403502192779767,10,1,100,0.12264852064469393,-10,-1,-100,6344.918565807748,-0.0032618974604118013,0.0034831191691942036,0.9999886138880838,273.9983689021515,28.019001057698382,1236.4631260539286,-51.93706126801889,-119.23876190185547,4381.2578125,True
1599570589.9593134,0.0,10,0.5,0.5,5.3326168607711795,-0.15025,-0.00825,-0.5,0.035294583634525936,10,1,100,0.06731462351771536,-10,-1,-100,6343.883412554627,-0.003570910684970492,0.003456796001720607,0.9999876495028739,275.3536266959749,28.17454425593977,1247.5996742351062,-52.123275828019025,-120.52461242675781,4381.2578125,True
1599570590.033115,0.0,10,0.5,0.5,6.939284371757507,-0.15025,-0.00825,-0.5,0.02678341292953794,10,1,100,0.14432646870467714,-10,-1,-100,6340.719359239563,-0.004547220076016194,0.0033550490690930556,0.9999840330901909,278.7726497673866,28.56754484224209,1278.3489020427658,-52.68159648390299,-123.9350357055664,4381.2578125,True
1599570590.102966,0.0,10,0.5,0.5,5.905649096679687,-0.15025,-0.00825,-0.5,0.03096366266437794,10,1,100,0.08283692242883167,-10,-1,-100,6339.62219540833,-0.004870730292431943,0.0033003760624515013,0.9999826916023421,279.7367292044969,28.67803454525737,1287.8782327957854,-52.86760532774112,-124.92313385009766,4381.2578125,True
1599570590.1839077,0.0,10,0.5,0.5,6.57747983493805,-0.15025,-0.00825,-0.5,0.02381320113194117,10,1,100,0.1266025353441596,-10,-1,-100,6337.491833244916,-0.005557762567792361,0.003185634262247894,0.9999794812942849,281.45685373444945,28.874027846194586,1306.0873898143861,-53.23948976871726,-126.6761474609375,4381.2578125,True
1599570590.2559943,0.0,10,0.5,0.5,7.074601990318298,-0.15025,-0.00825,-0.5,0.007628269639128594,10,1,100,0.17131551024243688,-10,-1,-100,6334.326320156804,-0.006583470808536644,0.0029342985880261435,0.9999740235645672,283.6590363490929,29.120934421479426,1331.8939018692404,-53.797008106847855,-128.74935913085938,4381.2578125,True
1599570590.3297963,0.0,10,0.5,0.5,6.9743911069869995,-0.15025,-0.00825,-0.5,-0.003122419738000988,10,1,100,0.18599587951432406,-10,-1,-100,6331.035811008653,-0.007643777768348501,0.002608514549851655,0.9999673836247218,285.5786137440452,29.330685320834927,1356.645509252468,-54.35418260498898,-130.15582275390625,4381.2578125,True
1599570590.4021163,0.0,10,0.5,0.5,6.501204479408264,-0.15025,-0.00825,-0.5,0.014863504932977473,10,1,100,0.1189416703966192,-10,-1,-100,6329.94011401094,-0.007991768878094871,0.0024766140722814554,0.9999649983939118,286.182087358446,29.395472858917437,1364.780679966921,-54.53983394364156,-130.476806640625,4381.2578125,True
1599570590.4759202,0.0,10,0.5,0.5,6.631023203468323,-0.15025,-0.00825,-0.5,-0.004329068374876066,10,1,100,0.1616818455173608,-10,-1,-100,6327.745792135829,-0.00869075728493088,0.002183159065513584,0.9999598514712023,287.35429518835826,29.519966066635043,1380.9682798685928,-54.91102762631161,-130.89723205566406,4381.2578125,True
1599570590.5557399,0.0,10,0.5,0.5,6.515479925155639,-0.15025,-0.00825,-0.5,-0.011605474463102457,10,1,100,0.1701132116074189,-10,-1,-100,6325.5509834475815,-0.009397097922299619,0.0018514515933597607,0.9999541322868946,288.4936588141766,29.63972411356499,1397.107295373571,-55.28207666204554,-131.02256774902344,4381.2578125,True
1599570590.6305425,0.0,10,0.5,0.5,6.434979818534851,-0.15025,-0.00825,-0.5,0.0015616438445583795,10,1,100,0.1393944501213649,-10,-1,-100,6324.454800459207,-0.009753570027063122,0.0016711209267014587,0.9999510364145714,289.0571380421897,29.698707846163156,1405.1873781501959,-55.46754676786331,-130.9747314453125,4381.2578125,True
1599570590.7003207,0.0,10,0.5,0.5,6.088358126068115,-0.15025,-0.00825,-0.5,-0.04819300297546645,10,1,100,0.21777209611065143,-10,-1,-100,6321.100822945824,-0.010784258110781047,0.0010565162570504974,0.9999412900517703,290.7316025903595,29.874266145930306,1429.5117945404052,-56.023738606390104,-130.38999938964844,4381.2578125,True
1599570590.776417,0.0,10,0.5,0.5,6.166560070037842,-0.15025,-0.00825,-0.5,-0.011759206827551204,10,1,100,0.15302272355620655,-10,-1,-100,6320.005617759889,-0.011126059029642562,0.000831183140298553,0.999937758035497,291.2788660802234,29.932112933360585,1437.6203483941658,-56.20906292690215,-130.04812622070312,4381.2578125,True
1599570590.8601937,0.0,10,0.5,0.5,5.754798727989197,-0.15025,-0.00825,-0.5,-0.041933263271073586,10,1,100,0.19553219894072643,-10,-1,-100,6317.748313611257,-0.011817256151236277,0.0003543196718818497,0.9999301110150781,292.3436626725018,30.046092746246376,1453.7703975265176,-56.57960227021361,-129.14425659179688,4381.2578125,True
1599570590.9310064,0.0,10,0.5,0.5,4.971411136245727,-0.15025,-0.00825,-0.5,-0.08199672576678821,10,1,100,0.23413404180788372,-10,-1,-100,6314.270806912216,-0.012790227991605807,-0.00044072763446658655,0.999918104560106,293.80807942758327,30.20850379727476,1477.5286119491495,-57.135144007649224,-127.2391357421875,4381.2578125,True
1599570591.0058045,0.0,10,0.5,0.5,4.860789707946777,-0.15025,-0.00825,-0.5,-0.06611331197302107,10,1,100,0.20737139282562414,-10,-1,-100,6312.01497089956,-0.013424876068990463,-0.0010158065494793598,0.9999093663125606,294.62862938807126,30.305495163332747,1492.7073560378556,-57.505335534811145,-125.60338592529297,4381.2578125,True
1599570591.075617,0.0,10,0.5,0.5,4.42253510608673,-0.15025,-0.00825,-0.5,-0.07579397390042962,10,1,100,0.20951575715413456,-10,-1,-100,6309.694682603353,-0.014015103628453469,-0.0016230205759787716,0.9999004663837763,295.26211224581465,30.38804393979354,1507.0267072442898,-57.87540320949708,-123.67561340332031,4381.2578125,True
