Timestamp,Input Throttle,horizon,dT,dt,Input Roll,Roll P,Roll I,Roll D,Input Pitch,Pitch P,Pitch I,Pitch D,Input Yaw,Yaw P,Yaw I,Yaw D,Altitude,Direction X,Direction Y,Direction Z,Drag X,Drag Y,Drag Z,Vertical Velocity,Roll,Mass,Has Fuel
1599568904.215888,0.0,10,0.5,0.5,-5.433369323730469,-0.1005,-0.0155,-0.2505,-0.0671859409050225,10,1,100,0.6903744841410013,-10,-1,-100,6483.617967314902,-0.06725790222601848,-0.007002679052655601,0.997711048888525,205.07319358807092,21.498774530856824,-156.76521506519984,9.590823851299163,-35.944610595703125,4381.2578125,True
1599568904.2737348,0.0,10,0.5,0.5,-5.51752006072998,-0.1005,-0.0155,-0.2505,-0.0673449824169937,10,1,100,0.6998878723656525,-10,-1,-100,6483.997882723692,-0.06744502095222635,-0.0069719329070662564,0.9976986325039707,204.61209503702045,21.456736380750577,-150.2666764768271,9.210801439331675,-35.9412841796875,4381.2578125,True
1599568904.3345711,0.0,10,0.5,0.5,-5.586659748840333,-0.1005,-0.0155,-0.2505,-0.051993084393409876,10,1,100,0.7005315665476173,-10,-1,-100,6484.316759973182,-0.06755966699502207,-0.006798081035491485,0.9976920754870997,204.1496270572654,21.414372767497756,-143.78946079101658,8.830797741705421,-35.98065185546875,4381.2578125,True
1599568904.3924172,0.0,10,0.5,0.5,-5.583407133483886,-0.1005,-0.0155,-0.2505,-0.03405488061574655,10,1,100,0.6995269908538748,-10,-1,-100,6484.697140510427,-0.06759334028489777,-0.006470779226048852,0.9976919711841615,203.75666742933174,21.378976661795253,-137.38155562204028,8.450805431181044,-36.256561279296875,4381.2578125,True
1599568904.4502642,0.0,10,0.5,0.5,-5.6500778564453125,-0.1005,-0.0155,-0.2505,-0.04412347017555965,10,1,100,0.7019330432484314,-10,-1,-100,6484.856803951669,-0.06758437707902175,-0.006258882232348351,0.9976939302050715,203.59221441219327,21.364430430281196,-134.20557791952697,8.260810829174924,-36.5008544921875,4381.2578125,True
1599568904.511099,0.0,10,0.5,0.5,-5.545943319702149,-0.1005,-0.0155,-0.2505,-0.002127595689239238,10,1,100,0.697074077900073,-10,-1,-100,6485.175623211777,-0.06747061595498663,-0.005678778031624666,0.9977051004493874,203.3179957464375,21.34047969819565,-127.89890534474334,7.880820099568746,-37.2081298828125,4381.2578125,True
1599568904.5739317,0.0,10,0.5,0.5,-5.239516995239258,-0.1005,-0.0155,-0.2505,0.07954938925108503,10,1,100,0.6681332059266158,-10,-1,-100,6485.590080661816,-0.06704276099160056,-0.0044037300060259825,0.9977403847497891,202.97336249599235,21.309601806459934,-118.49899919214258,7.31081555822036,-38.81903076171875,4381.2578125,True
1599568904.633782,0.0,10,0.5,0.5,-5.216519555664063,-0.1005,-0.0155,-0.2505,0.0741011879124363,10,1,100,0.6658004205499284,-10,-1,-100,6485.909322140971,-0.06657164682965097,-0.003290121149463962,0.9977762228782615,202.71018419462018,21.28392228949215,-112.22474705056091,6.93078794288887,-40.260223388671875,4381.2578125,True
1599568904.6966112,0.0,10,0.5,0.5,-5.363009748840333,-0.1005,-0.0155,-0.2505,0.03191603368683329,10,1,100,0.686977493509215,-10,-1,-100,6486.005457030027,-0.066275360394027,-0.002658259844504458,0.9977978303540457,202.54349681809333,21.266862731459813,-109.07275963253008,6.740763584747242,-41.091064453125,4381.2578125,True
1599568904.756452,0.0,10,0.5,0.5,-4.617135050964355,-0.1005,-0.0155,-0.2505,0.203710384042082,10,1,100,0.5952726488214991,-10,-1,-100,6486.420284945518,-0.0651120783550314,-0.0005196570550894623,0.9978778217842269,201.7698538266424,21.184642173206363,-99.5044700982785,6.1706329114410625,-44.024993896484375,4381.2578125,True
1599568904.8172913,0.0,10,0.5,0.5,-5.028459924316406,-0.1005,-0.0155,-0.2505,0.07792025156127291,10,1,100,0.6655585037615557,-10,-1,-100,6486.517858636216,-0.06463431874780406,0.0002814530555123509,0.9979089766227102,201.37849574919906,21.142429750246958,-96.26428674109172,5.980564865361044,-45.1500244140625,4381.2578125,True
1599568904.8759162,0.0,10,0.5,0.5,-4.428848439025878,-0.1005,-0.0155,-0.2505,0.18950983776258876,10,1,100,0.592336828178778,-10,-1,-100,6486.772070499719,-0.06353672531182507,0.002017563819609445,0.9979774616557648,200.30903552561088,21.026744404982185,-89.68720195240323,5.600379493553929,-47.620574951171875,4381.2578125,True
1599568904.9357562,0.0,10,0.5,0.5,-4.05878766784668,-0.1005,-0.0155,-0.2505,0.21421596471396717,10,1,100,0.5564064255516529,-10,-1,-100,6486.965224451851,-0.06221582606945248,0.003812275216776902,0.9980554381116147,198.74978240263582,20.858197830211495,-82.96522032698326,5.220112467955875,-50.386474609375,4381.2578125,True
1599568904.9955962,0.0,10,0.5,0.5,-3.655396615600586,-0.1005,-0.0155,-0.2505,0.25412578670104047,10,1,100,0.5207406320384569,-10,-1,-100,6487.157870525727,-0.060695632127107955,0.005797001817491376,0.9981394867505338,196.55732824629632,20.621885868716262,-76.0873606842637,4.8397434588897,-53.446075439453125,4381.2578125,True
1599568905.0584288,0.0,10,0.5,0.5,-2.589816604614258,-0.1005,-0.0155,-0.2505,0.39058725828854945,10,1,100,0.374386525652445,-10,-1,-100,6487.448517190409,-0.057989416401610816,0.008830705031624125,0.9982781407173278,191.75250381048815,20.10672961634814,-65.49194447428435,4.268938414384241,-58.589569091796875,4381.2578125,True
1599568905.121261,0.0,10,0.5,0.5,-3.1904517166137696,-0.1005,-0.0155,-0.2505,0.20318632302954945,10,1,100,0.5325065130026723,-10,-1,-100,6487.544091101852,-0.05697539740950404,0.009871254371877558,0.9983267813833077,189.66162390805997,19.883559014179156,-61.89492955797034,4.078586576210991,-60.45159912109375,4381.2578125,True
1599568905.18908,0.0,10,0.5,0.5,-2.2358439407348634,-0.1005,-0.0155,-0.2505,0.32916966828811334,10,1,100,0.3914467162199795,-10,-1,-100,6487.67517124454,-0.05478074128096929,0.011948375063182621,0.9984269160624913,184.63201156110716,19.348647598920582,-54.6363642457389,3.6977328348475984,-64.39752197265625,4381.2578125,True
1599568905.2539532,0.0,10,0.5,0.5,-0.9121487564086914,-0.1005,-0.0155,-0.2505,0.4554737823776986,10,1,100,0.20520352349329918,-10,-1,-100,6487.8397979410365,-0.05110362670270482,0.014970020269665991,0.9985811523511527,174.7544407307695,18.304128364012563,-43.727569131281854,3.1260028317008555,-70.87188720703125,4381.2578125,True
1599568905.3167849,0.0,10,0.5,0.5,-0.841570153808594,-0.1005,-0.0155,-0.2505,0.3698541244855796,10,1,100,0.2724515596440706,-10,-1,-100,6487.969401966431,-0.048386202887586806,0.01692200980252331,0.9986853463200333,166.39804819606653,17.424883489057418,-36.55954890199533,2.744460569660554,-75.55838012695312,4381.2578125,True
1599568905.3786201,0.0,10,0.5,0.5,-0.21410701141357436,-0.1005,-0.0155,-0.2505,0.3749203194176346,10,1,100,0.22800683004709588,-10,-1,-100,6488.100474352948,-0.04552803747524015,0.018724801813914983,0.9987875547886461,156.61343903147355,16.397835086917954,-29.625937452930128,2.362628133430365,-80.5384521484375,4381.2578125,True
1599568905.4421089,0.0,10,0.5,0.5,0.4388019744873046,-0.1005,-0.0155,-0.2505,0.38194596488058047,10,1,100,0.18060683757769547,-10,-1,-100,6488.167101318599,-0.04251659993327573,0.02041007818405328,0.9988872646293148,145.37286382511436,15.219865304604063,-23.05560450965872,1.9806067369579905,-85.79150390625,4381.2578125,True
1599568905.5048916,0.0,10,0.5,0.5,1.1096263153076174,-0.1005,-0.0155,-0.2505,0.38418067831264086,10,1,100,0.134191157302551,-10,-1,-100,6488.234715514816,-0.039377075727910875,0.021944164437989973,0.9989834330729598,151.95270352120724,15.908687510317382,-19.45202095289807,1.598505022369531,-91.27218627929688,4381.2578125,True
1599568905.5670762,0.0,10,0.5,0.5,1.7538216445922852,-0.1005,-0.0155,-0.2505,0.38180670706930775,10,1,100,0.09170911091698236,-10,-1,-100,6488.301366016152,-0.036158725710059396,0.023299091656976318,0.999074421093336,159.80344361335924,16.72969961727064,-15.569192592295387,1.2164326158633458,-96.82616424560547,4381.2578125,True
1599568905.62891,0.0,10,0.5,0.5,2.3455444774627687,-0.1005,-0.0155,-0.2505,0.37820425735815644,10,1,100,0.050516890519378854,-10,-1,-100,6488.306997595471,-0.03288216650872474,0.024480378843735075,0.9991593837708576,167.53167592072546,17.53662316825739,-11.197990107356754,0.8344480143719117,-102.27064514160156,4381.2578125,True
1599568905.6902573,0.0,10,0.5,0.5,2.8788620754241943,-0.1005,-0.0155,-0.2505,0.37267693548130315,10,1,100,0.011856355123537332,-10,-1,-100,6488.311671007075,-0.02957730188174775,0.025487043017338694,0.9992375062274376,173.84756021336565,18.19588153546807,-6.302441278263374,0.4525245938642142,-107.46005249023438,4381.2578125,True
1599568905.7516031,0.0,10,0.5,0.5,3.3749268383026125,-0.1005,-0.0155,-0.2505,0.3655949415175997,10,1,100,-0.023885536469361646,-10,-1,-100,6488.318317058147,-0.026273782401396738,0.026322668377321303,0.9993081634249876,179.70021426369144,18.80765631739657,-1.016214446324522,0.07058012996411911,-112.361083984375,4381.2578125,True
1599568905.8144367,0.0,10,0.5,0.5,3.844832348251343,-0.1005,-0.0155,-0.2505,0.3576909856601433,10,1,100,-0.05680686246469485,-10,-1,-100,6488.322055046796,-0.02299920865112743,0.026995517820414577,0.9993709413521236,183.90916473234657,19.247491738315915,4.590142645616981,-0.31146594364553737,-116.9683609008789,4381.2578125,True
1599568905.8762698,0.0,10,0.5,0.5,4.285879103088379,-0.1005,-0.0155,-0.2505,0.3494738557854348,10,1,100,-0.08684252652154315,-10,-1,-100,6488.327767891809,-0.01977816423457475,0.027518818730949992,0.9994256044524591,187.3236903759224,19.604219561824596,10.413539066875797,-0.6936395522494454,-121.28085327148438,4381.2578125,True
1599568905.937108,0.0,10,0.5,0.5,4.001752964019776,-0.1005,-0.0155,-0.2505,0.3213396858838952,10,1,100,0.0577780438096768,-10,-1,-100,6488.29840609082,-0.018193152188418067,0.02772737365191248,0.9994499497042443,188.73968031170378,19.752174685300353,13.384298759870832,-0.8847695212389408,-123.32649230957031,4381.2578125,True
1599568905.999939,0.0,10,0.5,0.5,5.56193362121582,-0.1005,-0.0155,-0.2505,0.3511027064317519,10,1,100,-0.2944327162380045,-10,-1,-100,6488.210352387978,-0.013577764373932315,0.028177718890632173,0.9995107105342727,191.37641438286568,20.02741989891744,22.373947639779807,-1.45833706338797,-129.0204315185547,4381.2578125,True
1599568906.0647666,0.0,10,0.5,0.5,4.825106034088135,-0.1005,-0.0155,-0.2505,0.31747551231239624,10,1,100,0.00016438092146695005,-10,-1,-100,6488.181988329161,-0.012089158401396197,0.028272828327404374,0.9995271379144814,191.81672935981288,20.073225562227684,25.368167446677887,-1.6495826525993162,-130.77073669433594,4381.2578125,True
1599568906.1295931,0.0,10,0.5,0.5,6.143883522033692,-0.1005,-0.0155,-0.2505,0.32345946264765013,10,1,100,-0.3299609094024779,-10,-1,-100,6488.033445050009,-0.0077624025520837536,0.028406543045569273,0.9995663126670584,192.12734272662033,20.10456805256914,34.25689246339404,-2.2234675581870125,-135.57846069335938,4381.2578125,True
1599568906.1984098,0.0,10,0.5,0.5,6.003466061401367,-0.1005,-0.0155,-0.2505,0.31018626644368147,10,1,100,-0.20122379454420247,-10,-1,-100,6487.974805460544,-0.005028066163398425,0.028401561570585303,0.9995839483760275,191.67594569941164,20.056060990881278,40.065045088155074,-2.6061622916808944,-138.41390991210938,4381.2578125,True
1599568906.2632396,0.0,10,0.5,0.5,6.2489329570770265,-0.1005,-0.0155,-0.2505,0.3059266938132766,10,1,100,-0.21617143925402832,-10,-1,-100,6487.853680936038,-0.0024347187304557655,0.028353670960402005,0.9995949887268206,190.9013604864642,19.973218164816743,45.77102360177779,-2.9889223923467823,-140.95318603515625,4381.2578125,True
1599568906.949688,0.0,10,0.5,0.5,6.079320811843872,-0.1005,-0.0155,-0.2505,0.30944315162320174,10,1,100,-0.09469369630902247,-10,-1,-100,6487.761387455626,-0.0012091527707154633,0.028338580665674084,0.9995976504551379,190.4160253237059,19.92129596649369,48.58223719806815,-3.1803225633915364,-142.11135864257812,4381.2578125,True
1599568907.033466,0.0,10,0.5,0.5,6.906839357376099,-0.1005,-0.0155,-0.2505,0.2941702055693277,10,1,100,-0.3631483826204698,-10,-1,-100,6487.549468167359,0.0023197060235970305,0.02818342494484227,0.9996000767918851,188.81676612340374,19.74938868588827,56.88743580725052,-3.754589960136041,-145.1425018310547,4381.2578125,True
1599568907.1102602,0.0,10,0.5,0.5,6.777582737350465,-0.1005,-0.0155,-0.2505,0.29581369677746344,10,1,100,-0.2521318129690983,-10,-1,-100,6487.426921162871,0.0044925238503004715,0.028055623521825925,0.9995962681094083,187.88735889571853,19.64802078806861,62.39120544015353,-4.1374845127121676,-146.79273986816406,4381.2578125,True
1599568907.180585,0.0,10,0.5,0.5,6.661073616790771,-0.1005,-0.0155,-0.2505,0.30017082582663085,10,1,100,-0.15186625728764666,-10,-1,-100,6487.3365984165575,0.0055313152479254685,0.027978086941620395,0.9995932328716092,187.44937228143618,19.59979178262936,65.13201311605962,-4.328946131683606,-147.5068359375,4381.2578125,True
1599568907.2653573,0.0,10,0.5,0.5,6.945487828826904,-0.1005,-0.0155,-0.2505,0.3017095193992929,10,1,100,-0.2612453765546548,-10,-1,-100,6487.151077123359,0.007447018075936903,0.027921169748266233,0.9995823879009,186.6592169411123,19.511622319144273,70.60789245445517,-4.711898150293025,-148.71095275878906,4381.2578125,True
1599568907.332178,0.0,10,0.5,0.5,7.00201926651001,-0.1005,-0.0155,-0.2505,0.29562308464005044,10,1,100,-0.2706908240903385,-10,-1,-100,6486.905016905861,0.009251124560576827,0.02781391944186356,0.9995703089726337,186.05179468690002,19.44165724391806,76.11299637492002,-5.094890296434359,-149.6192626953125,4381.2578125,True
1599568907.4020333,0.0,10,0.5,0.5,7.089321730041505,-0.1005,-0.0155,-0.2505,0.29109390217114844,10,1,100,-0.35990887895485335,-10,-1,-100,6486.628707732889,0.011681541055440977,0.027675575504006355,0.9995487002238019,185.57582664742878,19.380577253618558,84.5049327172725,-5.669458981042684,-150.42526245117188,4381.2578125,True
1599568907.4688544,0.0,10,0.5,0.5,6.976149434661865,-0.1005,-0.0155,-0.2505,0.2993774178984607,10,1,100,-0.27620829648520756,-10,-1,-100,6486.380704153678,0.013108486483359934,0.027625655933314824,0.9995323860267707,185.59743055124818,19.37424863474946,90.24440763568796,-6.0525602781712315,-150.5912628173828,4381.2578125,True
1599568907.5366728,0.0,10,0.5,0.5,6.947911824035645,-0.1005,-0.0155,-0.2505,0.30218985987321356,10,1,100,-0.2081800727502102,-10,-1,-100,6486.226918185246,0.013768297666572244,0.027606552057104144,0.9995240428638438,185.71910444453778,19.38237617866707,93.17170179051907,-6.244127341072459,-150.56298828125,4381.2578125,True
1599568907.6035507,0.0,10,0.5,0.5,6.875588941955567,-0.1005,-0.0155,-0.2505,0.3061151119835425,10,1,100,-0.27470017516066203,-10,-1,-100,6485.9798936970765,0.01495576661519666,0.027625591742927863,0.9995064540691094,186.1858568184474,19.42141686617491,99.15951959305785,-6.627291898665195,-150.28311157226562,4381.2578125,True
1599568907.66941,0.0,10,0.5,0.5,6.757869555664063,-0.1005,-0.0155,-0.2505,0.3064260815130539,10,1,100,-0.2728251905395677,-10,-1,-100,6485.732869436732,0.016002428994349224,0.027646389434142687,0.9994896694901537,186.9505799669922,19.49090115813841,105.34819481506209,-7.010492864953243,-149.706787109375,4381.2578125,True
1599568907.7332444,0.0,10,0.5,0.5,6.6075776504516615,-0.1005,-0.0155,-0.2505,0.3087483095299238,10,1,100,-0.2688607366921454,-10,-1,-100,6485.42334299942,0.016902252866088565,0.02768703685470183,0.9994737324403564,187.9925125362679,19.588755229011902,111.7531765969324,-7.393722020663183,-148.83375549316406,4381.2578125,True
1599568907.7998803,0.0,10,0.5,0.5,6.421249174499512,-0.1005,-0.0155,-0.2505,0.31456369330765144,10,1,100,-0.2605772758415674,-10,-1,-100,6485.111371219158,0.017631713517353174,0.027777307442362335,0.9994586253916139,189.27535118668874,19.711332275088903,118.37762365386203,-7.776968966705605,-147.66354370117188,4381.2578125,True
1599568907.8659878,0.0,10,0.5,0.5,5.904510076141358,-0.1005,-0.0155,-0.2505,0.3227563140572496,10,1,100,-0.2782678886674453,-10,-1,-100,6484.5845669439295,0.018443738599040752,0.027934102998031382,0.9994396001741106,191.5424268610426,19.93066648460489,128.7018549083393,-8.351847269848477,-145.35235595703125,4381.2578125,True
1599568907.9345078,0.0,10,0.5,0.5,6.157680474090576,-0.1005,-0.0155,-0.2505,0.3136685546545943,10,1,100,-0.21948682184341206,-10,-1,-100,6484.429307730286,0.01863583131730996,0.02799406840310964,0.9994343589878002,192.35518551435365,20.00979852019496,132.23156337534002,-8.543469721635722,-144.4337158203125,4381.2578125,True
1599568907.9988816,0.0,10,0.5,0.5,5.257864065551758,-0.1005,-0.0155,-0.2505,0.3287588151970015,10,1,100,-0.23817736216988927,-10,-1,-100,6483.9010192194255,0.018970203415757787,0.02818570032297099,0.9994226821919084,194.8207758390463,20.250942498922665,142.99879048622634,-9.118307307195826,-141.23341369628906,4381.2578125,True
1599568908.0627108,0.0,10,0.5,0.5,5.6201261695861815,-0.1005,-0.0155,-0.2505,0.31703146291904,10,1,100,-0.20897092944101733,-10,-1,-100,6483.745753095369,0.018999829499670447,0.02825296088315338,0.9994202202678905,195.61260889024229,20.3287224302738,146.61862838832795,-9.309904215339458,-140.0185546875,4381.2578125,True
1599568908.1245492,0.0,10,0.5,0.5,4.473430854034424,-0.1005,-0.0155,-0.2505,0.32886420868507243,10,1,100,-0.1927828851705347,-10,-1,-100,6483.154939538217,0.018872945274910086,0.02842115236721117,0.9994178555713171,197.7035001236913,20.535147815206443,157.4058740481639,-9.884628094381615,-135.93055725097656,4381.2578125,True
1599568908.1863813,0.0,10,0.5,0.5,4.388474315643311,-0.1005,-0.0155,-0.2505,0.3217957497276012,10,1,100,-0.17541778394128468,-10,-1,-100,6482.718897603336,0.018594491005960622,0.02850907181998315,0.9994205709951103,198.6954296117296,20.634070211730204,164.37880852372646,-10.267712901942078,-132.83575439453125,4381.2578125,True
1599568908.2482176,0.0,10,0.5,0.5,3.9463768562316894,-0.1005,-0.0155,-0.2505,0.318370763702825,10,1,100,-0.15739420158034967,-10,-1,-100,6482.2818698094925,0.018173112564234983,0.028557041886129824,0.9994269524774892,199.20505754201167,20.68616317716719,171.0041071667681,-10.650743193658453,-129.44581604003906,4381.2578125,True
1599568908.311048,0.0,10,0.5,0.5,3.469875343322754,-0.1005,-0.0155,-0.2505,0.3134454750473539,10,1,100,-0.13834533457031545,-10,-1,-100,6481.846296305419,0.017613944875348602,0.028555028912901424,0.9994370211622698,199.0767365441423,20.675916621899358,177.09845994587883,-11.033721413940704,-125.7609634399414,4381.2578125,True
1599568908.3718846,0.0,10,0.5,0.5,2.9590104572296143,-0.1005,-0.0155,-0.2505,0.3067742635204489,10,1,100,-0.11894179339818353,-10,-1,-100,6481.40924838942,0.016927749769449784,0.028491725523832143,0.9994506855590312,198.1399445816159,20.58602751855177,182.44558418649422,-11.416659827235513,-121.78146362304688,4381.2578125,True
1599568908.4337194,0.0,10,0.5,0.5,2.413820261001587,-0.1005,-0.0155,-0.2505,0.2981539477752482,10,1,100,-0.09930891825627476,-10,-1,-100,6480.973655899288,0.016125432174703178,0.02835507894638631,0.9994678383695611,196.75071157177882,20.45348635362202,187.30930170497595,-11.79957715708023,-117.50760650634766,4381.2578125,True
1599568908.4955537,0.0,10,0.5,0.5,2.6488884605407716,-0.1005,-0.0155,-0.2505,0.30097073075028313,10,1,100,-0.1307638742022392,-10,-1,-100,6480.692868454382,0.015683376034753803,0.028255936656204936,0.9994776804710713,195.72516268342187,20.35434511340748,189.3908034508422,-11.991036048246732,-115.26033782958984,4381.2578125,True
1599568908.5583892,0.0,10,0.5,0.5,0.6439755306243897,-0.1005,-0.0155,-0.2505,0.26319486579888085,10,1,100,-0.014406244712505456,-10,-1,-100,6479.97451543354,0.014226219605406144,0.027822097771338056,0.9995116535345352,190.77922297407608,19.866992399914167,193.55755123719692,-12.5654746620764,-108.07740020751953,4381.2578125,True
1599568908.6202214,0.0,10,0.5,0.5,0.5771535682678224,-0.1005,-0.0155,-0.2505,0.2612842742008665,10,1,100,-0.04110157393941204,-10,-1,-100,6479.47591049294,0.013148225491436426,0.02741048610750601,0.9995377878888704,185.93949357622705,19.383075780997206,194.47455455415383,-12.948539177753604,-102.9212875366211,4381.2578125,True
1599568908.6820583,0.0,10,0.5,0.5,0.8657957050323487,-0.1005,-0.0155,-0.2505,0.27530629393125283,10,1,100,-0.08580852580235677,-10,-1,-100,6479.194623100222,0.012579950384694654,0.027164471332676264,0.9995518177390978,183.36162916171347,19.12434499275025,194.65492936184768,-13.140115319095104,-100.23302459716797,4381.2578125,True
1599568908.742894,0.0,10,0.5,0.5,-1.4660342506408695,-0.1005,-0.0155,-0.2505,0.20197470403549106,10,1,100,0.04666759006707352,-10,-1,-100,6478.352219011867,0.0108648445789482,0.026275160256097278,0.9995957038251974,173.02244339097362,18.070911530910273,191.8354040945037,-13.715063015557945,-91.8467788696289,4381.2578125,True
1599568908.8037302,0.0,10,0.5,0.5,-1.4794340686798098,-0.1005,-0.0155,-0.2505,0.2097914931151008,10,1,100,0.008053019647864673,-10,-1,-100,6477.790611954057,0.00966397912362238,0.02553970826185021,0.999627095875956,164.83338629029177,17.224887569503963,187.9463010319605,-14.098547834112761,-86.01821899414062,4381.2578125,True
1599568908.8655646,0.0,10,0.5,0.5,-1.1457289516448974,-0.1005,-0.0155,-0.2505,0.23768454297146321,10,1,100,-0.044340097407692444,-10,-1,-100,6477.508831011364,0.00905670296645155,0.02512738814173629,0.9996432316064325,160.2553747826601,16.747836395503658,185.2518815164307,-14.290335276945795,-83.0159912109375,4381.2578125,True
1599568908.9289918,0.0,10,0.5,0.5,-2.54014481086731,-0.1005,-0.0155,-0.2505,0.1833237442613685,10,1,100,0.024056119768879433,-10,-1,-100,6476.9467336849775,0.007891137585234492,0.024261480456763133,0.9996745022824464,169.5590997589902,17.715544684901086,201.35451478650168,-14.67381042788077,-77.105712890625,4381.2578125,True
1599568908.9903352,0.0,10,0.5,0.5,-4.073064691162109,-0.1005,-0.0155,-0.2505,0.10326916150806725,10,1,100,0.10248577558826885,-10,-1,-100,6476.039868606953,0.006127374737851912,0.022750425943990377,0.9997223981677059,184.57316043758857,19.263308321794074,227.92100224153825,-15.248578276915307,-68.73526000976562,4381.2578125,True
1599568909.0521703,0.0,10,0.5,0.5,-3.887880407714844,-0.1005,-0.0155,-0.2505,0.1315941744180299,10,1,100,0.05164276413185443,-10,-1,-100,6475.414785928209,0.004995981685318423,0.02163945950390557,0.999753356563197,192.75947535158616,20.09922311171769,244.11482872044064,-15.631421828377373,-63.5233154296875,4381.2578125,True
1599568909.1110158,0.0,10,0.5,0.5,-4.390714185714722,-0.1005,-0.0155,-0.2505,0.11475366085509452,10,1,100,0.0588801168773449,-10,-1,-100,6474.789706593845,0.003911766113046596,0.020482499543658588,0.9997825590088681,199.45199284137996,20.778332203966258,258.88802647972665,-16.014002161984425,-58.6094970703125,4381.2578125,True
1599568909.1708584,0.0,10,0.5,0.5,-4.86753733215332,-0.1005,-0.0155,-0.2505,0.09616099677242838,10,1,100,0.06653773492829551,-10,-1,-100,6474.1026211716235,0.002867202346810573,0.019268760303693955,0.9998102290070157,204.63033948870128,21.301223686146834,272.0726644245158,-16.39634354536581,-53.99432373046875,4381.2578125,True
1599568909.2306988,0.0,10,0.5,0.5,-5.310420177841188,-0.1005,-0.0155,-0.2505,0.07860618526299826,10,1,100,0.0727762232006747,-10,-1,-100,6473.47755304852,0.001871211772536737,0.018013547560429145,0.9998359918860645,208.47528204966977,21.688794695335048,283.7723713105312,-16.778478307420393,-49.677642822265625,4381.2578125,True
1599568909.2915359,0.0,10,0.5,0.5,-5.029954556274414,-0.1005,-0.0155,-0.2505,0.13334814810969137,10,1,100,0.02693565624525192,-10,-1,-100,6473.133283054689,0.001392750053445184,0.01737864194565569,0.9998480099752228,209.9537371803799,21.838152934511488,289.1034741901819,-16.969480756736953,-47.631103515625,4381.2578125,True
1599568909.3503785,0.0,10,0.5,0.5,-6.59692007484436,-0.1005,-0.0155,-0.2505,-0.01565781645820813,10,1,100,0.1307857239981133,-10,-1,-100,6472.10096921504,2.386351136434975e-05,0.015455751553778025,0.9998805524533623,213.14644766843355,22.16528367707249,303.6157855149374,-17.542290077716093,-41.93853759765625,4381.2578125,True
1599568909.4116545,0.0,10,0.5,0.5,-5.862025926208497,-0.1005,-0.0155,-0.2505,0.1045684440999749,10,1,100,0.042778353528945844,-10,-1,-100,6471.756705729873,-0.00041065635801890084,0.014810471210511194,0.9998902346277205,213.98124881802045,22.25335040787841,308.1936381464309,-17.733173983492488,-40.19000244140625,4381.2578125,True
1599568909.4730356,0.0,10,0.5,0.5,-7.179429565429688,-0.1005,-0.0155,-0.2505,-0.04652649315754276,10,1,100,0.13695343870837778,-10,-1,-100,6470.663375162636,-0.0016526527995606541,0.012860016229792404,0.9999159408276745,215.50206623143637,22.423621726458556,320.63543889759234,-18.305719651961248,-35.391204833984375,4381.2578125,True
1599568909.5358672,0.0,10,0.5,0.5,-7.04351042022705,-0.1005,-0.0155,-0.2505,0.005391804989575644,10,1,100,0.100159674300724,-10,-1,-100,6469.912849416491,-0.0024375159283781117,0.01157001202312362,0.9999300942255331,215.89579851300493,22.4788847090875,328.0802240519793,-18.68735790342388,-32.56396484375,4381.2578125,True
1599568909.5999603,0.0,10,0.5,0.5,-6.861275639343262,-0.1005,-0.0155,-0.2505,0.06110871101385677,10,1,100,0.06380231844257128,-10,-1,-100,6469.5070713202,-0.002811116761762037,0.0109153359522215,0.9999364745140573,215.9600140660764,22.494316201024784,331.6123202471364,-18.878165831217274,-31.262115478515625,4381.2578125,True
1599568909.6617963,0.0,10,0.5,0.5,-7.808152638244629,-0.1005,-0.0155,-0.2505,-0.07659506450202175,10,1,100,0.15183476226780096,-10,-1,-100,6468.349316594773,-0.00394292292552259,0.009079082555795011,0.9999510106093941,215.82222942131918,22.51136875061248,341.7146762662893,-19.450560463439786,-27.80084228515625,4381.2578125,True
1599568909.7251387,0.0,10,0.5,0.5,-7.675946894836426,-0.1005,-0.0155,-0.2505,-0.02823040333822925,10,1,100,0.11818290878881577,-10,-1,-100,6467.598321626894,-0.004657785402213371,0.007860858548667327,0.999958255097694,215.59390101457228,22.511905805733782,348.23637794895564,-19.832136201669172,-25.865020751953125,4381.2578125,True
1599568910.291588,0.0,10,0.5,0.5,-7.817197735595704,-0.1005,-0.0155,-0.2505,-0.035099081760326514,10,1,100,0.12639042769304842,-10,-1,-100,6466.784831856377,-0.005374483687865961,0.006702413866527631,0.9999630956057582,215.37393721491665,22.515329083918434,354.76899686242024,-20.213692143248686,-24.22564697265625,4381.2578125,True
1599568910.3474393,0.0,10,0.5,0.5,-7.701390316772461,-0.1005,-0.0155,-0.2505,0.018480410407394968,10,1,100,0.09541949731657934,-10,-1,-100,6466.378089541686,-0.005736981229550708,0.006147792581050072,0.9999646452213959,215.2938830250004,22.520759960308574,358.08417582892423,-20.404460807118756,-23.517059326171875,4381.2578125,True
1599568910.4028852,0.0,10,0.5,0.5,-7.983639218139649,-0.1005,-0.0155,-0.2505,-0.04881028910967421,10,1,100,0.13740933370846686,-10,-1,-100,6465.502596337348,-0.006441333695552103,0.005042644830442007,0.9999665399168797,215.231142185572,22.542735184528244,364.88052885950225,-20.785974019913745,-22.32275390625,4381.2578125,True
1599568910.4627247,0.0,10,0.5,0.5,-8.038948809814453,-0.1005,-0.0155,-0.2505,-0.05429824810276507,10,1,100,0.1460886889128599,-10,-1,-100,6464.689608545508,-0.007153435454003311,0.003999289063693134,0.9999664164601683,215.35423142903753,22.585136367542823,372.00512469181444,-21.167446201281734,-21.424591064453125,4381.2578125,True
1599568910.5220735,0.0,10,0.5,0.5,-8.05689336090088,-0.1005,-0.0155,-0.2505,-0.06272080378415465,10,1,100,0.1524167836646102,-10,-1,-100,6463.814613771858,-0.007851804005824532,0.002984630099081603,0.9999647199561722,215.7053059529945,22.652165947857096,379.5496887386934,-21.54886515954729,-20.82305908203125,4381.2578125,True
1599568910.5799198,0.0,10,0.5,0.5,-8.058223570251466,-0.1005,-0.0155,-0.2505,-0.11518498693686857,10,1,100,0.20240009530673322,-10,-1,-100,6462.529960949207,-0.008934313570001483,0.0015960165036022936,0.9999588145380555,216.72667798787907,22.80566499247233,391.8228417466157,-22.12086401496634,-20.475494384765625,4381.2578125,True
1599568910.638272,0.0,10,0.5,0.5,-7.982977153015137,-0.1005,-0.0155,-0.2505,-0.02560679063108889,10,1,100,0.1346643567937713,-10,-1,-100,6462.0612182386685,-0.009296014041162292,0.0011582277466065459,0.9999561203530051,217.2064954452541,22.8716935176821,396.19496905965616,-22.311488421638632,-20.5076904296875,4381.2578125,True
1599568910.6981125,0.0,10,0.5,0.5,-7.9092754470825195,-0.1005,-0.0155,-0.2505,-0.07375730038120146,10,1,100,0.1799106480569796,-10,-1,-100,6461.184282957576,-0.010029927573598755,0.0003319713191334946,0.9999496439060878,218.3782144473097,23.026316271346698,405.3863482830768,-22.692663423048263,-20.79388427734375,4381.2578125,True
1599568910.7589502,0.0,10,0.5,0.5,-7.793103317260742,-0.1005,-0.0155,-0.2505,-0.0727158924077071,10,1,100,0.19087612175757018,-10,-1,-100,6460.2463154635625,-0.010790245263262874,-0.0004000823018710685,0.9999417035714185,219.82462170461002,23.210099955390465,415.1809905588212,-23.07372739525186,-21.375335693359375,4381.2578125,True
1599568910.8173041,0.0,10,0.5,0.5,-7.640670228576661,-0.1005,-0.0155,-0.2505,-0.07773906746601972,10,1,100,0.1979499969194768,-10,-1,-100,6459.307863273774,-0.011539526280486006,-0.0011026333988983625,0.9999328095091237,221.5216985612288,23.420370280069406,425.55883670821237,-23.45466626364049,-22.252960205078125,4381.2578125,True
1599568910.876147,0.0,10,0.5,0.5,-7.454560792541504,-0.1005,-0.0155,-0.2505,-0.07391185776814918,10,1,100,0.20941571026392147,-10,-1,-100,6458.36941380112,-0.012318668471203557,-0.0016983747698992924,0.9999226799759257,223.43741334739642,23.653497299484457,436.4810393927878,-23.83546627768741,-23.42547607421875,4381.2578125,True
1599568910.9359868,0.0,10,0.5,0.5,-7.234306382751465,-0.1005,-0.0155,-0.2505,-0.07289734874201684,10,1,100,0.21827353386816872,-10,-1,-100,6457.367490277393,-0.013101192327545998,-0.0022230979445385466,0.9999117043995064,225.51831403619045,23.903439229271317,447.8620738578111,-24.216115770313518,-24.893310546875,4381.2578125,True
1599568910.996824,0.0,10,0.5,0.5,-6.632891149902345,-0.1005,-0.0155,-0.2505,-0.09060963625978849,10,1,100,0.2712874535480747,-10,-1,-100,6455.897323015844,-0.01428782763849464,-0.002853529907530712,0.9998938520405252,228.80922151179306,24.293779570869205,465.54262608532804,-24.786788190547515,-27.648223876953125,4381.2578125,True
1599568911.0566642,0.0,10,0.5,0.5,-6.940669523620605,-0.1005,-0.0155,-0.2505,-0.0467534030569855,10,1,100,0.19700910431368296,-10,-1,-100,6455.427613410284,-0.014684196115459897,-0.003020778504099951,0.9998876183260156,229.91158083724363,24.42340537537789,471.52103052953004,-24.97692930949714,-28.713958740234375,4381.2578125,True
1599568911.115911,0.0,10,0.5,0.5,-5.919045930480957,-0.1005,-0.0155,-0.2505,-0.06957246460961719,10,1,100,0.2879745832452968,-10,-1,-100,6453.892508967547,-0.01586464384784166,-0.003373886817307008,0.9998684563297939,233.06490602960463,24.791120636183074,489.355582799971,-25.54710399862986,-32.35296630859375,4381.2578125,True
1599568911.1737564,0.0,10,0.5,0.5,-5.831985472106934,-0.1005,-0.0155,-0.2505,-0.04886253190830166,10,1,100,0.2558491445073603,-10,-1,-100,6452.892055636039,-0.01663844430707837,-0.0035008417893774746,0.9998554426904951,234.8978502215664,25.002274998910753,500.8482560290657,-25.92702302824474,-35.14715576171875,4381.2578125,True
1599568911.2345943,0.0,10,0.5,0.5,-5.980032360839844,-0.1005,-0.0155,-0.2505,-0.040589203268071625,10,1,100,0.2212432901257771,-10,-1,-100,6452.35984715831,-0.017020296838609096,-0.0035364098142640077,0.9998488902334948,235.68587283259174,25.092174489167288,506.3654570326696,-26.11692867872368,-36.65472412109375,4381.2578125,True
1599568911.295433,0.0,10,0.5,0.5,-5.197095492553711,-0.1005,-0.0155,-0.2505,-0.03322654587287648,10,1,100,0.26413329998771895,-10,-1,-100,6451.295916419243,-0.017750322608929732,-0.0034975432809673814,0.9998363332257317,236.91866434740868,25.230792311481302,516.7332136362369,-26.49664616451926,-39.889923095703125,4381.2578125,True
1599568911.3593814,0.0,10,0.5,0.5,-4.0808558090209965,-0.1005,-0.0155,-0.2505,-0.016953898951927428,10,1,100,0.3065081099227572,-10,-1,-100,6449.698797259363,-0.018792189404053083,-0.003310795538143547,0.9998179295503289,237.82299891397028,25.324971087105027,530.3449214563205,-27.06604424578452,-45.294647216796875,4381.2578125,True
1599568911.4205947,0.0,10,0.5,0.5,-4.004043876647949,-0.1005,-0.0155,-0.2505,-0.010283117837898106,10,1,100,0.27316104150603737,-10,-1,-100,6448.5723634466995,-0.019428911373885232,-0.0030777352952340927,0.9998065037537405,237.72565684062113,25.303547458199148,537.899030886695,-27.445571931780876,-49.26507568359375,4381.2578125,True
1599568911.483428,0.0,10,0.5,0.5,-3.460047213745117,-0.1005,-0.0155,-0.2505,0.0006736286488863083,10,1,100,0.27298784128679376,-10,-1,-100,6447.4454384300625,-0.0199990028125637,-0.002764460013712607,0.9997961780519746,236.68840763497127,25.17439891671986,543.3053373032917,-27.82509564836932,-53.52923583984375,4381.2578125,True
1599568911.5422971,0.0,10,0.5,0.5,-2.881770602416992,-0.1005,-0.0155,-0.2505,0.01072929362442316,10,1,100,0.2723192111940509,-10,-1,-100,6446.322904480272,-0.02050420717929977,-0.002387279998693818,0.9997869164887867,234.5371404739522,24.920129880005177,546.0703190025376,-28.20466919557105,-58.0870361328125,4381.2578125,True
1599568911.6051013,0.0,10,0.5,0.5,-3.1335076446533203,-0.1005,-0.0155,-0.2505,-0.003777253958304083,10,1,100,0.2474767880915439,-10,-1,-100,6445.7897127412725,-0.020730913652808176,-0.0021761175248341167,0.9997827232612283,232.9904069134147,24.74108470712975,546.3042870129892,-28.394492491116406,-60.476043701171875,4381.2578125,True
1599568911.6669362,0.0,10,0.5,0.5,-1.010962246704102,-0.1005,-0.0155,-0.2505,0.05277162921023805,10,1,100,0.28599915189599284,-10,-1,-100,6444.067571963533,-0.021281356403297796,-0.0014706867128682747,0.9997724445843806,226.22196434539003,23.97556856544402,541.6473016179065,-28.96419083023675,-68.08319091796875,4381.2578125,True
1599568911.7287705,0.0,10,0.5,0.5,-0.9467428695678712,-0.1005,-0.0155,-0.2505,0.03939086262082108,10,1,100,0.2609322566554648,-10,-1,-100,6442.874713859055,-0.021547880619476434,-0.0009524384817042378,0.9997673637910708,219.7518933740568,23.261082720806883,533.4557023971751,-29.344238207857657,-73.52133178710938,4381.2578125,True
1599568911.7906046,0.0,10,0.5,0.5,-0.2334167510986329,-0.1005,-0.0155,-0.2505,0.046556881760719815,10,1,100,0.2537668070364974,-10,-1,-100,6441.685758008505,-0.021719868331492188,-0.0004183594142247637,0.9997640083014906,211.62044051489966,22.37933157776236,520.7764985078737,-29.72451795476977,-79.25286865234375,4381.2578125,True
1599568911.8514419,0.0,10,0.5,0.5,-0.5562758117675782,-0.1005,-0.0155,-0.2505,0.022866245627343768,10,1,100,0.24249839620743924,-10,-1,-100,6441.0861518817255,-0.02176916122212924,-0.0001510046653424356,0.9997630123270594,206.9658108060923,21.880967876503156,512.784833877783,-29.914744951336765,-82.22872924804688,4381.2578125,True
1599568911.913312,0.0,10,0.5,0.5,0.9323360794067382,-0.1005,-0.0155,-0.2505,0.05597840682726818,10,1,100,0.24301376758135568,-10,-1,-100,6439.903048636508,-0.021814340985758966,0.00038998711259633775,0.9997619628878711,199.84429149770898,21.1276679018032,501.844064205435,-30.295315886687458,-88.392333984375,4381.2578125,True
1599568911.976142,0.0,10,0.5,0.5,2.8153070755004883,-0.1005,-0.0155,-0.2505,0.08843446745651716,10,1,100,0.22828248614508853,-10,-1,-100,6438.050505799823,-0.02171779819565917,0.0011733187979033372,0.9997634523048595,216.4622260877623,22.91481763845246,554.4875184401201,-30.865585160928912,-97.9415512084961,4381.2578125,True
1599568912.0360208,0.0,10,0.5,0.5,2.7787818126678463,-0.1005,-0.0155,-0.2505,0.06424266699345448,10,1,100,0.22012758051824038,-10,-1,-100,6436.801475063432,-0.021553236872786548,0.0016614365854854514,0.9997663215015689,226.47018595199455,24.008906025903613,587.7318858154338,-31.24518384261358,-104.4200439453125,4381.2578125,True
1599568912.0958602,0.0,10,0.5,0.5,3.4461792133331297,-0.1005,-0.0155,-0.2505,0.06427042276732986,10,1,100,0.21145073768622963,-10,-1,-100,6435.547557905898,-0.021322824075794156,0.0021011240158855865,0.9997704348755783,234.4485727668363,24.893486006358916,616.301041620042,-31.624318502952526,-110.7014389038086,4381.2578125,True
1599568912.155701,0.0,10,0.5,0.5,4.067392384338379,-0.1005,-0.0155,-0.2505,0.06394492986987055,10,1,100,0.20265843691063906,-10,-1,-100,6434.233091219212,-0.021032224415783677,0.0024934575771546263,0.9997756889449928,241.5389187627948,25.682568658941282,643.0277404352443,-32.00302851706657,-116.7016830444336,4381.2578125,True
1599568912.217542,0.0,10,0.5,0.5,4.65749764289856,-0.1005,-0.0155,-0.2505,0.06185287404965323,10,1,100,0.19402851699889373,-10,-1,-100,6432.974285362521,-0.020689109073634207,0.0028266687276010064,0.9997819615844464,246.73324027370347,26.263093605679938,665.1089973053649,-32.38139365468422,-122.40628051757812,4381.2578125,True
1599568912.2783804,0.0,10,0.5,0.5,5.222274402999878,-0.1005,-0.0155,-0.2505,0.05821016766466191,10,1,100,0.18623946288787513,-10,-1,-100,6431.668602355756,-0.02030641445665195,0.00309192445518649,0.9997890225117887,250.100014114186,26.638267096785523,682.5480994381045,-32.75951010391274,-127.81307983398438,4381.2578125,True
1599568912.338795,0.0,10,0.5,0.5,4.870119646835328,-0.1005,-0.0155,-0.2505,0.04380533915413934,10,1,100,0.20196158206267661,-10,-1,-100,6431.01087779121,-0.0201023249263905,0.0031979652109248562,0.9997928133123701,251.16821340368688,26.755640901367606,689.6646084202933,-32.94850360308479,-130.40472412109375,4381.2578125,True
1599568912.400662,0.0,10,0.5,0.5,6.04994796257019,-0.1005,-0.0155,-0.2505,0.051160865384928006,10,1,100,0.17531527995984897,-10,-1,-100,6429.697379613994,-0.019675864021302645,0.0033574612239736052,0.9998007740690866,252.22082951115848,26.865389112196546,701.001248939842,-33.326412481114815,-135.3644561767578,4381.2578125,True
1599568912.4638345,0.0,10,0.5,0.5,6.530801317214966,-0.1005,-0.0155,-0.2505,0.04504109590700878,10,1,100,0.1689082800832004,-10,-1,-100,6428.318939341698,-0.019231785021717053,0.00344339076727484,0.9998091225353478,252.0234093349364,26.83023008631336,708.9100641785119,-33.704276479192615,-140.02626037597656,4381.2578125,True
1599568912.5259664,0.0,10,0.5,0.5,6.984385049057007,-0.1005,-0.0155,-0.2505,0.03743480653882396,10,1,100,0.1620206967206673,-10,-1,-100,6426.936591770267,-0.018767769151707497,0.0034490928165355397,0.9998179207234741,250.80469945026567,26.676741623992324,713.9228347082895,-34.08215243238189,-144.3903045654297,4381.2578125,True
1599568912.5868034,0.0,10,0.5,0.5,8.079682742691041,-0.1005,-0.0155,-0.2505,0.023328023094491092,10,1,100,0.13227886280532947,-10,-1,-100,6424.902864521719,-0.018078325845044877,0.0033232520066386593,0.9998310507934532,247.53094477151535,26.28090238437476,717.1550896525081,-34.64907383304927,-150.37803649902344,4381.2578125,True
1599568912.6459768,0.0,10,0.5,0.5,7.931602529144287,-0.1005,-0.0155,-0.2505,0.016606103075248922,10,1,100,0.1505177602741661,-10,-1,-100,6423.524422946153,-0.01762067597265975,0.0031457884218222616,0.9998397950639251,244.6750985430471,25.941827936949398,717.1923307088296,-35.027125924339465,-153.99789428710938,4381.2578125,True
1599568912.7059624,0.0,10,0.5,0.5,7.697805031585695,-0.1005,-0.0155,-0.2505,0.021766993775832293,10,1,100,0.17117919146053232,-10,-1,-100,6422.807126756175,-0.017396036882094897,0.0030300256675978065,0.9998440862680793,243.11302875722345,25.75796235530652,716.7552601027045,-35.216187010749756,-155.69627380371094,4381.2578125,True
1599568912.7648067,0.0,10,0.5,0.5,8.456014867782592,-0.1005,-0.0155,-0.2505,0.003575419403856455,10,1,100,0.14492480544457462,-10,-1,-100,6421.362768386374,-0.01695671309706696,0.002758564395237874,0.999852419211666,239.82257118044552,25.37379934904165,715.250189458319,-35.59437893983375,-158.86981201171875,4381.2578125,True
1599568912.8239794,0.0,10,0.5,0.5,8.736011171722414,-0.1005,-0.0155,-0.2505,-0.0073772719672861205,10,1,100,0.14144787989933527,-10,-1,-100,6419.925246643135,-0.016529424434192766,0.002411970492611109,0.999860470528872,236.4338317772702,24.982265439486724,713.255476406473,-35.972657185104005,-161.74618530273438,4381.2578125,True
1599568912.8848166,0.0,10,0.5,0.5,8.981806856536867,-0.1005,-0.0155,-0.2505,-0.01876243756858013,10,1,100,0.13887663484618484,-10,-1,-100,6418.487238385016,-0.016121386771677987,0.001993760619515913,0.9998680541987277,233.0754218908052,24.598199095768187,711.1504911829854,-36.35100880958902,-164.32553100585938,4381.2578125,True
1599568913.4529622,0.0,10,0.5,0.5,9.890248537445068,-0.1005,-0.0155,-0.2505,-0.08781927317029464,10,1,100,0.09494965516695048,-10,-1,-100,6415.539447938674,-0.01535491183383967,0.0009867787419916675,0.9998816194681694,226.88225943644392,23.90039006219704,707.9593524198544,-37.10786407691482,-168.59326171875,4381.2578125,True
1599568913.5078404,0.0,10,0.5,0.5,8.880374227142335,-0.1005,-0.0155,-0.2505,0.012657795935236603,10,1,100,0.17112240764152709,-10,-1,-100,6415.539447938674,-0.01535491183383967,0.0009867787419916675,0.9998816194681694,226.88225943644392,23.90039006219704,707.9593524198544,-37.10786407691482,-168.59326171875,4381.2578125,True
1599568913.5630214,0.0,10,0.5,0.5,9.78199984741211,-0.1005,-0.0155,-0.2505,-0.08683954007177204,10,1,100,0.11072845893784043,-10,-1,-100,6413.315792065463,-0.014809804074885666,8.441267145702707e-05,0.9998903252746095,223.03891833009226,23.474655176039906,707.6060713832273,-37.67556342998694,-171.0152587890625,4381.2578125,True
1599568913.6208663,0.0,10,0.5,0.5,9.454635684967041,-0.1005,-0.0155,-0.2505,-0.03230949932815584,10,1,100,0.14480467779144843,-10,-1,-100,6412.53600048041,-0.014628055357184673,-0.00023713886036357348,0.9998929761537622,221.95588154002925,23.35584144175081,708.0412393927244,-37.864794844202926,-171.6742706298828,4381.2578125,True
1599568913.6852038,0.0,10,0.5,0.5,9.716702954864502,-0.1005,-0.0155,-0.2505,-0.07990605051453584,10,1,100,0.1279073447884837,-10,-1,-100,6411.029152764939,-0.01431298050815184,-0.0009588032349158475,0.9998971043489074,220.1271822359159,23.156588847149695,709.9003525410532,-38.24324101290056,-172.77073669433594,4381.2578125,True
1599568913.7480342,0.0,10,0.5,0.5,9.757494403839113,-0.1005,-0.0155,-0.2505,-0.08912119800825138,10,1,100,0.12056992174555056,-10,-1,-100,6409.466643040534,-0.01396326802258341,-0.001694743047868461,0.9999010726027506,218.7782373974712,23.01098302176164,713.2134721924774,-38.6216500532598,-173.57058715820312,4381.2578125,True
1599568913.806425,0.0,10,0.5,0.5,9.764517372894288,-0.1005,-0.0155,-0.2505,-0.1055539903133414,10,1,100,0.12119204817059463,-10,-1,-100,6407.893881588709,-0.013654328192248944,-0.0025087677792628455,0.9999036280591486,218.0598538533645,22.934009642556536,718.5268399744305,-39.00000287832411,-174.0749969482422,4381.2578125,True
1599568913.8652678,0.0,10,0.5,0.5,9.739885428619386,-0.1005,-0.0155,-0.2505,-0.11853295835846295,10,1,100,0.11597259669727451,-10,-1,-100,6406.332353887381,-0.013329425795541834,-0.0033617456141707904,0.9999055080728313,219.1919472016755,23.053032387182274,729.9688114597969,-39.37825014836349,-174.2836456298828,4381.2578125,True
1599568913.9251082,0.0,10,0.5,0.5,9.681073165893556,-0.1005,-0.0155,-0.2505,-0.13323491989346542,10,1,100,0.11291328604931339,-10,-1,-100,6404.76936348679,-0.013009545599282565,-0.0042652702871240275,0.9999062752041703,220.20320714686957,23.159753678476456,741.1000922698878,-39.75637774917641,-174.19692993164062,4381.2578125,True
1599568913.9849477,0.0,10,0.5,0.5,9.588069688415528,-0.1005,-0.0155,-0.2505,-0.1483208610909046,10,1,100,0.10845549495994516,-10,-1,-100,6403.138505405048,-0.012681419937175255,-0.005217731054531204,0.999905974015067,220.75341075860703,23.217420991280225,750.7507626153823,-40.13439843907099,-173.81509399414062,4381.2578125,True
1599568914.0467472,0.0,10,0.5,0.5,9.460864997863771,-0.1005,-0.0155,-0.2505,-0.16329424686305805,10,1,100,0.1034590305091878,-10,-1,-100,6401.5061853758525,-0.01234082871919309,-0.006213170266762717,0.9999045456751157,220.88177308882447,23.229182231900374,759.0064645444601,-40.51232540495839,-173.13827514648438,4381.2578125,True
1599568914.1066258,0.0,10,0.5,0.5,9.296446878051759,-0.1005,-0.0155,-0.2505,-0.17867311196630142,10,1,100,0.09771953801216846,-10,-1,-100,6399.878750791075,-0.011981763210249716,-0.0072513774615401635,0.9999019226280564,221.85063170342147,23.326792743379613,770.2043237954898,-40.89014519464439,-172.166748046875,4381.2578125,True
1599568914.16846,0.0,10,0.5,0.5,9.100985049438476,-0.1005,-0.0155,-0.2505,-0.19414432080456756,10,1,100,0.09107739359947176,-10,-1,-100,6398.249854891561,-0.011598023388025397,-0.00832836030422796,0.9998980569378729,224.1995075070942,23.565947775096472,786.3252972473354,-41.26780666659787,-170.90074157714844,4381.2578125,True
1599568914.2296624,0.0,10,0.5,0.5,8.557746871185303,-0.1005,-0.0155,-0.2505,-0.2720840933209575,10,1,100,0.059189301355009646,-10,-1,-100,6395.776732232305,-0.010962197057132597,-0.010008331026842517,0.9998898257036809,228.57954746096618,24.00592519141,813.8944864786611,-41.83394912138738,-168.45004272460938,4381.2578125,True
1599568914.2914972,0.0,10,0.5,0.5,8.828321286010743,-0.1005,-0.0155,-0.2505,-0.16836032585517152,10,1,100,0.09709048997076423,-10,-1,-100,6394.928109287517,-0.01073206197855514,-0.010583750895742714,0.9998863970785208,230.24529979532574,24.171413366398532,823.9299318030138,-42.02255903034161,-167.48614501953125,4381.2578125,True
1599568914.3503425,0.0,10,0.5,0.5,7.89189896774292,-0.1005,-0.0155,-0.2505,-0.30428568425083824,10,1,100,0.03458689005480087,-10,-1,-100,6392.392497688881,-0.009957889106548328,-0.012333794991375475,0.9998743510790006,235.758910569271,24.712502733027573,856.280069787901,-42.58803608232397,-164.15370178222656,4381.2578125,True
1599568914.4131732,0.0,10,0.5,0.5,8.270630485534667,-0.1005,-0.0155,-0.2505,-0.19484467296351335,10,1,100,0.07966980402721387,-10,-1,-100,6391.484795631142,-0.00966758151257865,-0.012920154019390026,0.9998697952672702,237.73940389495445,24.904443558986998,867.7178335444722,-42.77640145536421,-162.89601135253906,4381.2578125,True
1599568914.472017,0.0,10,0.5,0.5,7.089710238647461,-0.1005,-0.0155,-0.2505,-0.33456775102061315,10,1,100,0.006484257628990325,-10,-1,-100,6388.95261250867,-0.008741966684149336,-0.01471395258515859,0.999853528081896,243.9662171349549,25.499846808633947,903.513287470003,-43.341078225832035,-158.683349609375,4381.2578125,True
1599568914.5376873,0.0,10,0.5,0.5,7.006423677825929,-0.1005,-0.0155,-0.2505,-0.2870275212369743,10,1,100,0.021576761125148808,-10,-1,-100,6387.192879770882,-0.008041873652916304,-0.01590217445875967,0.9998412119509945,248.23549368830945,25.901079247572167,928.1846484084201,-43.71715650087839,-155.50848388671875,4381.2578125,True
1599568914.5995219,0.0,10,0.5,0.5,6.555534482574464,-0.1005,-0.0155,-0.2505,-0.29757533775926326,10,1,100,0.006291941618034855,-10,-1,-100,6385.436568953679,-0.007270988603500117,-0.017067686399352702,0.9998278985934036,252.4724113128,26.29368238318022,953.0301176373258,-44.09291924724702,-152.0406036376953,4381.2578125,True
1599568914.662354,0.0,10,0.5,0.5,6.743283572387695,-0.1005,-0.0155,-0.2505,-0.24400467462030512,10,1,100,0.03687489140156998,-10,-1,-100,6384.528873071191,-0.0068531294032754255,-0.017629463993769637,0.9998211023061445,254.53928202976806,26.483151166000244,965.3662016674591,-44.28067980366099,-150.19671630859375,4381.2578125,True
1599568914.725185,0.0,10,0.5,0.5,5.074158215332031,-0.1005,-0.0155,-0.2505,-0.3710965470761512,10,1,100,-0.0681013993159062,-10,-1,-100,6381.868288452155,-0.005523916305017666,-0.01928517310763181,0.9997987639754631,260.32296534273377,27.00589141213086,1001.1914488108487,-44.843478735442474,-144.22674560546875,4381.2578125,True
1599568914.789572,0.0,10,0.5,0.5,5.776495910644531,-0.1005,-0.0155,-0.2505,-0.2641643802106747,10,1,100,0.011536573617912452,-10,-1,-100,6380.964501128648,-0.005045393103186447,-0.019807312789051186,0.9997910853615923,262.04908121756256,27.159610088566993,1012.4833238565949,-45.03092154240479,-142.09046936035156,4381.2578125,True
1599568914.8534021,0.0,10,0.5,0.5,3.863733703613282,-0.1005,-0.0155,-0.2505,-0.3753833307576738,10,1,100,-0.10835497520503878,-10,-1,-100,6378.23458521429,-0.0035264057761174535,-0.02128263118396441,0.9997672799567855,266.3343831371196,27.53522824882401,1043.209785210715,-45.592820989624116,-135.24362182617188,4381.2578125,True
1599568914.9175282,0.0,10,0.5,0.5,3.7971269485473638,-0.1005,-0.0155,-0.2505,-0.32611470778662044,10,1,100,-0.07567350413087555,-10,-1,-100,6376.416268412839,-0.002449372298802594,-0.02216568378855129,0.9997513105955539,268.22721561055295,27.695909029900356,1060.1285102654927,-45.96711332720067,-130.31407165527344,4381.2578125,True
1599568914.9754074,0.0,10,0.5,0.5,4.070897464752198,-0.1005,-0.0155,-0.2505,-0.28527694445586266,10,1,100,-0.02990635456283447,-10,-1,-100,6375.446075381944,-0.0018938456697528698,-0.022586677459811737,0.9997430946747798,268.81381198587104,27.74321133168157,1067.2103779276408,-46.15418759029822,-127.74009704589844,4381.2578125,True
1599568915.036245,0.0,10,0.5,0.5,0.7888723396301267,-0.1005,-0.0155,-0.2505,-0.3871560730898965,10,1,100,-0.2247999916167041,-10,-1,-100,6371.749864559621,0.0003756079267486077,-0.02388625207356842,0.9997146122171884,268.20327782263774,27.659750319871673,1083.839119965654,-46.90222032163784,-116.71341705322266,4381.2578125,True
1599568915.1001139,0.0,10,0.5,0.5,2.4480379261016845,-0.1005,-0.0155,-0.2505,-0.28767739440189655,10,1,100,-0.06280170325435888,-10,-1,-100,6370.782596660312,0.0009569056753292419,-0.02415336273613433,0.9997078070116614,267.19047981744137,27.558287074638663,1084.5111988598549,-47.08921613119378,-113.77485656738281,4381.2578125,True
1599568915.169928,0.0,10,0.5,0.5,0.9780724964141849,-0.1005,-0.0155,-0.2505,-0.3056580283342635,10,1,100,-0.1291749305834733,-10,-1,-100,6368.873937068391,0.002079933993067696,-0.024551069637714883,0.9996964133446857,263.9684304144279,27.239787371961746,1080.8841878325889,-47.463275337585664,-107.68805694580078,4381.2578125,True
1599568915.2327604,0.0,10,0.5,0.5,0.20448550643920882,-0.1005,-0.0155,-0.2505,-0.2974935618705634,10,1,100,-0.13858060780072443,-10,-1,-100,6366.900329954573,0.003177173340581316,-0.024830536312046333,0.9996866259163518,259.0481903652491,26.752463134039914,1070.0685073299808,-47.83750257146955,-101.35128021240234,4381.2578125,True
1599568915.296064,0.0,10,0.5,0.5,-0.6090345134735107,-0.1005,-0.0155,-0.2505,-0.28751764437712113,10,1,100,-0.14614939304270558,-10,-1,-100,6364.989705507876,0.004233972466026179,-0.024986849629759365,0.9996788138310909,253.03261951774047,26.15213374070645,1054.3947515084467,-48.21196684208871,-94.73500061035156,4381.2578125,True
1599568915.3598952,0.0,10,0.5,0.5,-1.447442582321167,-0.1005,-0.0155,-0.2505,-0.2757198807177994,10,1,100,-0.14852948681736441,-10,-1,-100,6363.039035928086,0.005206256976319043,-0.02501501171656284,0.9996735187435529,245.5554858640612,25.39385003483126,1032.1959905341741,-48.586707503634486,-87.86941528320312,4381.2578125,True
1599568915.4228935,0.0,10,0.5,0.5,-2.2468591655731203,-0.1005,-0.0155,-0.2505,-0.26501018473802196,10,1,100,-0.15008783447457175,-10,-1,-100,6361.09666056477,0.006094564079576862,-0.02493804379692354,0.999670420818913,236.18215043131588,24.425881688646864,1001.449161869471,-48.9617673755403,-80.94094848632812,4381.2578125,True
1599568915.4842396,0.0,10,0.5,0.5,-1.8061419300079347,-0.1005,-0.0155,-0.2505,-0.264913482046643,10,1,100,-0.10705148689699254,-10,-1,-100,6360.063947440125,0.006500749234394374,-0.024862529544595394,0.999669742907144,231.4748849379299,23.933171991931804,985.7363170296434,-49.14940852793876,-77.52191162109375,4381.2578125,True
1599568915.546071,0.0,10,0.5,0.5,-3.372979065322876,-0.1005,-0.0155,-0.2505,-0.24932507533810117,10,1,100,-0.14762663402021625,-10,-1,-100,6358.121075493167,0.007229757844430044,-0.02464891298298249,0.999670026403847,234.78206472064397,24.24837098716115,1008.4277685460088,-49.52457487285042,-70.872802734375,4381.2578125,True
1599568915.6084166,0.0,10,0.5,0.5,-5.107596277999878,-0.1005,-0.0155,-0.2505,-0.22057543322705342,10,1,100,-0.17198145350185798,-10,-1,-100,6355.145477421698,0.008105101185074457,-0.024191098244875385,0.9996744960738402,249.43277487490965,25.69286750339056,1085.0193310767793,-50.08620942127999,-61.44805908203125,4381.2578125,True
1599568915.670251,0.0,10,0.5,0.5,-4.92229803352356,-0.1005,-0.0155,-0.2505,-0.22503761361116797,10,1,100,-0.13221339671240692,-10,-1,-100,6353.077591700712,0.008530250117706344,-0.023814009740283547,0.9996800126905706,256.89081891591036,26.407927449340367,1126.798277956086,-50.45996354838233,-55.542510986328125,4381.2578125,True
1599568915.751035,0.0,10,0.5,0.5,-4.5342583694458005,-0.1005,-0.0155,-0.2505,-0.24044261932569977,10,1,100,-0.10835615916866156,-10,-1,-100,6352.1068796837935,0.008692451858618595,-0.023611313190180606,0.9996834234747122,259.97946842936494,26.69932212740646,1145.0583451693292,-50.64666701387073,-52.703521728515625,4381.2578125,True
1599568915.811872,0.0,10,0.5,0.5,-6.747411125946046,-0.1005,-0.0155,-0.2505,-0.18990551069986764,10,1,100,-0.12525247537250797,-10,-1,-100,6349.004795040353,0.008986478546588982,-0.022968108111257598,0.9996958083402777,266.9394113298898,27.344549490958748,1190.1955808700886,-51.20620847131249,-44.641815185546875,4381.2578125,True
1599568915.872575,0.0,10,0.5,0.5,-6.5790792728424075,-0.1005,-0.0155,-0.2505,-0.20293609556121261,10,1,100,-0.09998278799562792,-10,-1,-100,6346.938361666864,0.009017772428087222,-0.022503275139636597,0.9997060980050212,269.88425851871574,27.612543691594286,1213.0783571964978,-51.57886764669955,-39.6463623046875,4381.2578125,True
1599568915.93441,0.0,10,0.5,0.5,-7.070290911102296,-0.1005,-0.0155,-0.2505,-0.19777933493190342,10,1,100,-0.0867322876061109,-10,-1,-100,6344.869483594899,0.00892045268128319,-0.02203593576078052,0.9997173815929719,271.68810100097164,27.775569455587462,1231.0150289982469,-51.951324377139926,-34.954254150390625,4381.2578125,True
1599568915.9972796,0.0,10,0.5,0.5,-7.528141055297851,-0.1005,-0.0155,-0.2505,-0.1922141115879798,10,1,100,-0.07244459104529272,-10,-1,-100,6342.801579523133,0.008697831597076398,-0.021563171489483855,0.9997296521364283,272.53335823024025,27.85265936186205,1244.7293232691668,-52.32364709418894,-30.565185546875,4381.2578125,True
1599568916.0590777,0.0,10,0.5,0.5,-7.247929698181152,-0.1005,-0.0155,-0.2505,-0.2128858083006081,10,1,100,-0.07753351648806377,-10,-1,-100,6341.766894553439,0.008538537593076545,-0.021324448340444488,0.9997361458298621,272.6524952135072,27.86443891577025,1250.2310175014786,-52.5097764288308,-28.48419189453125,4381.2578125,True
1599568916.119914,0.0,10,0.5,0.5,-8.189154327392577,-0.1005,-0.0155,-0.2505,-0.18408295560703455,10,1,100,-0.04887946523319471,-10,-1,-100,6339.635999418446,0.008131011693020142,-0.02084886826724574,0.9997495743138993,272.3905744450149,27.844350961101203,1258.9678154419646,-52.88199999490686,-24.54913330078125,4381.2578125,True
1599568916.693267,0.0,10,0.5,0.5,-9.158390460205078,-0.1005,-0.0155,-0.2505,-0.15351975113647365,10,1,100,0.0026596144387347614,-10,-1,-100,6336.47188059974,0.007290514457352575,-0.02014232421576664,0.9997705412614106,271.0497469483006,27.73200717566006,1267.6959779410968,-53.440311643880065,-19.213348388671875,4381.2578125,True
1599568916.7501163,0.0,10,0.5,0.5,-9.017929518127442,-0.1005,-0.0155,-0.2505,-0.17270602963375786,10,1,100,-0.003429258051790715,-10,-1,-100,6334.277994802687,0.0065817242142841795,-0.019678529054185694,0.9997846950221987,269.74410232669356,27.621521123869204,1271.5580823543944,-53.8125365200604,-16.03363037109375,4381.2578125,True
1599568916.806008,0.0,10,0.5,0.5,-8.81016165008545,-0.1005,-0.0155,-0.2505,-0.19333046397810952,10,1,100,-0.03048275531441464,-10,-1,-100,6333.243796536117,0.006184695220219302,-0.01944849428241593,0.9997917311196266,269.0191103320487,27.560056775837026,1273.1317392319277,-53.99865862256269,-14.55682373046875,4381.2578125,True
1599568916.8658054,0.0,10,0.5,0.5,-9.900315502929688,-0.1005,-0.0155,-0.2505,-0.13853639326660414,10,1,100,0.07832200195378997,-10,-1,-100,6329.954189749318,0.004836757936719813,-0.01874521249748234,0.9998125938300066,266.72147102057784,27.365090934996466,1277.18373943347,-54.55706777233347,-10.5780029296875,4381.2578125,True
1599568916.9246185,0.0,10,0.5,0.5,-9.767941752624514,-0.1005,-0.0155,-0.2505,-0.15797378665201145,10,1,100,0.058959277491100914,-10,-1,-100,6327.760795517126,0.0037908903504009963,-0.018286992724403414,0.9998255923147041,265.2170881969058,27.23783050349205,1279.9384290783444,-54.92937199305099,-8.30157470703125,4381.2578125,True
1599568916.983463,0.0,10,0.5,0.5,-9.947700888061522,-0.1005,-0.0155,-0.2505,-0.1510118676305392,10,1,100,0.08061616004671915,-10,-1,-100,6325.56740387727,0.0026479441470566223,-0.017811394680851782,0.9998378581606705,263.85186212229564,27.123620491364843,1283.3055198673394,-55.30169061258188,-6.325286865234375,4381.2578125,True
1599568917.0428886,0.0,10,0.5,0.5,-10.347543241882326,-0.1005,-0.0155,-0.2505,-0.11721854822432101,10,1,100,0.1774771327910085,-10,-1,-100,6322.213845479302,0.0007341385993236795,-0.01707608617434721,0.9998539234915684,262.5419833083311,27.024784721433583,1291.8799236267246,-55.860151584765454,-3.9228515625,4381.2578125,True
1599568917.1030014,0.0,10,0.5,0.5,-10.022397485351563,-0.1005,-0.0155,-0.2505,-0.16212404005424402,10,1,100,0.0627045335020239,-10,-1,-100,6321.117153436993,4.5144744086281956e-05,-0.016820364593784567,0.9998585266410864,262.2436549996219,27.005099928478533,1295.409949343125,-56.046291075960376,-3.27166748046875,4381.2578125,True
1599568917.163868,0.0,10,0.5,0.5,-10.280131240844726,-0.1005,-0.0155,-0.2505,-0.12701988305571094,10,1,100,0.15377927383691894,-10,-1,-100,6318.859808053472,-0.0014012994120349523,-0.0162730733722825,0.9998666028240858,261.9363591111569,26.994169391586066,1303.9079171028213,-56.418534557252144,-2.19317626953125,4381.2578125,True
1599568917.2238991,0.0,10,0.5,0.5,-10.324467703247072,-0.1005,-0.0155,-0.2505,-0.11901283928666775,10,1,100,0.18082046813617889,-10,-1,-100,6316.540944720735,-0.002953041468497427,-0.015707336750260373,0.9998722714018522,262.14074061565003,27.0344772835907,1314.99038795946,-56.79070709821441,-1.41326904296875,4381.2578125,True
1599568917.282742,0.0,10,0.5,0.5,-10.3341095123291,-0.1005,-0.0155,-0.2505,-0.10852787521084836,10,1,100,0.20819910492892268,-10,-1,-100,6314.284588914015,-0.004602536351432332,-0.015102386994566433,0.9998753595154748,262.6609421893715,27.106414918473234,1327.7256279252292,-57.16278943213591,-0.931365966796875,4381.2578125,True
1599568917.3439262,0.0,10,0.5,0.5,-10.306546179199218,-0.1005,-0.0155,-0.2505,-0.0954315243227182,10,1,100,0.23596853268310305,-10,-1,-100,6311.966228897683,-0.006343714632948626,-0.01443795669697185,0.9998756436132805,263.5252024372474,27.21359061344773,1342.294047704065,-57.53476300337562,-0.7467041015625,4381.2578125,True
1599568917.4057605,0.0,10,0.5,0.5,-10.277277612304687,-0.1005,-0.0155,-0.2505,-0.12291863709845409,10,1,100,0.16293262618948098,-10,-1,-100,6310.8060759723885,-0.007250890794523936,-0.014088576153808204,0.9998744604222294,264.0897143858522,27.28099065948776,1350.2954772478995,-57.720703118029796,-0.76580810546875,4381.2578125,True
1599568917.4676278,0.0,10,0.5,0.5,-10.016677124023438,-0.1005,-0.0155,-0.2505,0.016693754988736098,10,1,100,0.4964567422503682,-10,-1,-100,6306.1669542177115,-0.011095419645587062,-0.012506626566620077,0.9998602282093291,267.2604461925757,27.64846751847527,1387.3611080076107,-58.46409395505559,-1.582794189453125,4381.2578125,True
1599568917.5284336,0.0,10,0.5,0.5,-9.936001365661621,-0.1005,-0.0155,-0.2505,-0.04490710809559234,10,1,100,0.3407221709313336,-10,-1,-100,6303.848143765586,-0.013160193245851128,-0.011634169866243731,0.9998457158008207,269.39623943465074,27.892976164179366,1409.0206946608341,-58.83553131243946,-2.4354248046875,4381.2578125,True
