Timestamp,Input Throttle,horizon,dT,dt,Input Roll,Roll P,Roll I,Roll D,Input Pitch,Pitch P,Pitch I,Pitch D,Input Yaw,Yaw P,Yaw I,Yaw D,Altitude,Direction X,Direction Y,Direction Z,Drag X,Drag Y,Drag Z,Vertical Velocity,Roll,Mass,Has Fuel
1599571477.7204232,0.0,10,0.5,0.5,-8.123413757324219,-0.15025,-0.02275,-0.5,-0.06717900311354659,10,1,100,0.6903893098692347,-10,-1,-100,6483.6179674468,-0.06725852317664753,-0.007002277609870739,0.9977110098462233,205.07316199757378,21.49877069854229,-156.76520439063373,9.590824765698297,-35.944580078125,4381.2578125,True
1599571477.7922304,0.0,10,0.5,0.5,-8.24698576965332,-0.15025,-0.02275,-0.5,-0.06733754447936695,10,1,100,0.6999111270046625,-10,-1,-100,6483.997883009026,-0.06744579629410682,-0.006971500706413216,0.9976985831102269,204.61202445728154,21.456728449554582,-150.26664018982186,9.210802474316168,-35.94122314453125,4381.2578125,True
1599571477.8660393,0.0,10,0.5,0.5,-8.342692189025879,-0.15025,-0.02275,-0.5,-0.05199516372643351,10,1,100,0.7005103755621905,-10,-1,-100,6484.316760285525,-0.06756017793659816,-0.006797707786692061,0.9976920434312494,204.14943692641407,21.414352314490547,-143.78934279294828,8.830798778379998,-35.9805908203125,4381.2578125,True
1599571477.9393513,0.0,10,0.5,0.5,-8.418058367919922,-0.15025,-0.02275,-0.5,-0.05282709628331575,10,1,100,0.6980697943236355,-10,-1,-100,6484.538936193683,-0.06758055580220651,-0.006641097512202039,0.9976917180679101,203.94234106732614,21.395597644635266,-140.57579042606412,8.640801765149352,-36.083953857421875,4381.2578125,True
1599571478.0165887,0.0,10,0.5,0.5,-8.115169208526611,-0.15025,-0.02275,-0.5,0.0017900194278149123,10,1,100,0.698757803890357,-10,-1,-100,6485.016949209967,-0.06754389889809138,-0.005996167940280647,0.9976982848996365,203.44699220665032,21.35171331826151,-131.04562959470613,8.07081724156914,-36.81787109375,4381.2578125,True
1599571478.0893953,0.0,10,0.5,0.5,-8.047959882354736,-0.15025,-0.02275,-0.5,0.012583675939939816,10,1,100,0.6896381059869717,-10,-1,-100,6485.335754671134,-0.06736626455077586,-0.0053062931175689,0.9977142023915594,203.19968431285093,21.330113620270257,-124.76135208106002,7.69082320391773,-37.671630859375,4381.2578125,True
1599571478.1657002,0.0,10,0.5,0.5,-8.244750498199462,-0.15025,-0.02275,-0.5,-0.009943420395128341,10,1,100,0.6988533633948242,-10,-1,-100,6485.493927680072,-0.06722731178915062,-0.004879102069861051,0.9977257553619612,203.08696940451682,21.320056262484396,-121.62939279853099,7.500821928549776,-38.20855712890625,4381.2578125,True
1599571478.2494767,0.0,10,0.5,0.5,-7.296883647918701,-0.15025,-0.02275,-0.5,0.12047864806335529,10,1,100,0.6467447644716153,-10,-1,-100,6485.909322055173,-0.06656616082310836,-0.00330065585680419,0.9977765540962501,202.71014639025935,21.28391803719087,-112.22474205030929,6.93078893646125,-40.26031494140625,4381.2578125,True
1599571478.324276,0.0,10,0.5,0.5,-7.895646091461181,-0.15025,-0.02275,-0.5,0.03130547204185925,10,1,100,0.6867507221424036,-10,-1,-100,6486.005456228158,-0.06626829032296519,-0.0026733693943508225,0.9977982595664078,202.5432038130768,21.26683209328184,-109.07261719361502,6.740764535968694,-41.0911865234375,4381.2578125,True
1599571478.4030652,0.0,10,0.5,0.5,-6.514661032867432,-0.15025,-0.02275,-0.5,0.20522602138756244,10,1,100,0.5959414060439643,-10,-1,-100,6486.420284593478,-0.06511171582164653,-0.0005195827349828675,0.9978778454783644,201.77004567882335,21.184661960569812,-99.50457948387827,6.170633882997212,-44.02496337890625,4381.2578125,True
1599571478.4804597,0.0,10,0.5,0.5,-6.575255995941161,-0.15025,-0.02275,-0.5,0.1708640191755959,10,1,100,0.6077671829263822,-10,-1,-100,6486.674996128655,-0.06410859905045005,0.0011264956468201072,0.9979422921869511,200.8974749183881,21.09041419818416,-92.99317124303751,5.7904819862455685,-46.3485107421875,4381.2578125,True
1599571479.205041,0.0,10,0.5,0.5,-6.010879709625243,-0.15025,-0.02275,-0.5,0.2018285657620759,10,1,100,0.5749338419820782,-10,-1,-100,6486.868649950018,-0.06290105336271067,0.002897036623557456,0.9980155633378986,199.59828534498953,20.949877150422097,-86.34486214969,5.410258122113259,-48.966705322265625,4381.2578125,True
1599571479.2708654,0.0,10,0.5,0.5,-5.396169429016114,-0.15025,-0.02275,-0.5,0.23168887289559661,10,1,100,0.5390622749622006,-10,-1,-100,6487.0617933012545,-0.06148131098543179,0.004769105269687079,0.9980968410101493,197.74212886523526,20.749486517012674,-79.54597701320355,5.029942886925745,-51.87969970703125,4381.2578125,True
1599571479.3406582,0.0,10,0.5,0.5,-4.730627976989746,-0.15025,-0.02275,-0.5,0.2615761192449279,10,1,100,0.5005042461483333,-10,-1,-100,6487.254429405206,-0.059845634805007805,0.006732172812020313,0.9981849417036979,195.17834449361143,20.473674222756898,-72.59113104039281,4.649513329519268,-55.087493896484375,4381.2578125,True
1599571479.4135008,0.0,10,0.5,0.5,-5.176353778076172,-0.15025,-0.02275,-0.5,0.1767182507802113,10,1,100,0.5640325501624976,-10,-1,-100,6487.351962161367,-0.05894321824202131,0.007733186982349263,0.9982313834188793,193.58355397101778,20.302645694869483,-69.05837894692736,4.459246434158246,-56.8021240234375,4381.2578125,True
1599571479.478293,0.0,10,0.5,0.5,-3.614200813293457,-0.15025,-0.02275,-0.5,0.30000704833510683,10,1,100,0.4367922417390015,-10,-1,-100,6487.544087335002,-0.056973928272416416,0.009751525883217696,0.9983280418981322,189.66196541964072,19.883603904110373,-61.895052648973994,4.078587380775959,-60.453033447265625,4381.2578125,True
1599571479.5623634,0.0,10,0.5,0.5,-2.821535086822509,-0.15025,-0.02275,-0.5,0.32194915100292626,10,1,100,0.3919595312276378,-10,-1,-100,6487.675166240195,-0.054785542146561714,0.011772164163713914,0.9984287458414898,184.63396854262194,19.34886904910379,-54.636958649422446,3.6977338844813836,-64.399658203125,4381.2578125,True
1599571479.636967,0.0,10,0.5,0.5,-1.9770382606506347,-0.15025,-0.02275,-0.5,0.3478006123308963,10,1,100,0.34285645038824897,-10,-1,-100,6487.805260334397,-0.05236101926964717,0.013828983825116044,0.9985324646036344,178.38435086814914,18.687168676640468,-47.35472390700379,3.316653282131458,-68.64144897460938,4381.2578125,True
1599571479.7097723,0.0,10,0.5,0.5,0.4658363754272461,-0.15025,-0.02275,-0.5,0.46354363244278585,10,1,100,0.14485940687577892,-10,-1,-100,6487.969390960177,-0.04836984820556918,0.016735456754969777,0.998689282145239,166.40417823173658,17.42554845493654,-36.56091992520689,2.74446236942685,-75.56063842773438,4381.2578125,True
1599571479.7835753,0.0,10,0.5,0.5,0.3251740180969236,-0.15025,-0.02275,-0.5,0.37719409259354136,10,1,100,0.22353411431538694,-10,-1,-100,6488.100461072056,-0.04547300679869235,0.018575064668798838,0.9987928577163715,156.61983660750278,16.39852853547276,-29.627171910221318,2.3626300244001603,-80.54412841796875,4381.2578125,True
1599571479.8583744,0.0,10,0.5,0.5,1.3081171257019042,-0.15025,-0.02275,-0.5,0.3806566938479249,10,1,100,0.17907306518039212,-10,-1,-100,6488.167085917317,-0.04245317662668888,0.020261554922407124,0.9988929858530541,145.3650890975892,15.219075640128766,-23.054391424660842,1.9806084352500157,-85.75997924804688,4381.2578125,True
1599571479.9301813,0.0,10,0.5,0.5,2.151773097229004,-0.15025,-0.02275,-0.5,0.38334402212958196,10,1,100,0.13370708547735705,-10,-1,-100,6488.234699328314,-0.03931514522067973,0.02180176262890646,0.9989889901808476,151.6788345994553,15.88003534357367,-19.4169703898921,1.5985059283213947,-90.93017578125,4381.2578125,True
1599571480.0049822,0.0,10,0.5,0.5,2.94632293548584,-0.15025,-0.02275,-0.5,0.3824720624774609,10,1,100,0.08921616452231707,-10,-1,-100,6488.301350140013,-0.03607936821393653,0.023176838432518075,0.9990801335976789,158.7427055745512,16.618713168931205,-15.4657163313565,1.2164232167423257,-95.98081970214844,4381.2578125,True
1599571480.080782,0.0,10,0.5,0.5,3.63996816329956,-0.15025,-0.02275,-0.5,0.3781784651679092,10,1,100,0.04924699363919388,-10,-1,-100,6488.30698266183,-0.032797489329570224,0.024371140339202863,0.9991648373578023,165.57363559997057,17.331704834537778,-11.06660258200246,0.8344114194034495,-100.7768783569336,4381.2578125,True
1599571480.1665883,0.0,10,0.5,0.5,4.277052536582946,-0.15025,-0.02275,-0.5,0.37296653225739207,10,1,100,0.010537143242877578,-10,-1,-100,6488.311656906153,-0.029486644563339288,0.025393452711977803,0.9992425683245084,171.12710535427192,17.910720818416117,-6.202776811312962,0.4524507205982826,-105.28463745117188,4381.2578125,True
1599571480.2413504,0.0,10,0.5,0.5,3.5275155836105343,-0.15025,-0.02275,-0.5,0.32168875727861557,10,1,100,0.15605532485640072,-10,-1,-100,6488.3452520065475,-0.02782645694841472,0.025840611218575574,0.9992787154270567,173.82789494626203,18.192589304667145,-3.6413735221840176,0.2614703074710354,-107.42849731445312,4381.2578125,True
1599571480.3261235,0.0,10,0.5,0.5,5.20692323513031,-0.15025,-0.02275,-0.5,0.3635589552340789,10,1,100,-0.04436201890825647,-10,-1,-100,6488.350445625489,-0.024521717329099142,0.026613130673863797,0.999344998814207,178.6095619214721,18.69216675027664,1.7250568444024275,-0.12053669636804631,-111.49534606933594,4381.2578125,True
1599571480.393942,0.0,10,0.5,0.5,7.994691113853454,-0.15025,-0.02275,-0.5,0.40547592084446415,10,1,100,-0.43905441119303545,-10,-1,-100,6488.298882795731,-0.01795680849514832,0.027682992623756456,0.9994554542089715,185.6928590016165,19.43224802701203,13.16967040825765,-0.8848775967323106,-118.74494171142578,4381.2578125,True
1599571480.466748,0.0,10,0.5,0.5,4.48387873878479,-0.15025,-0.02275,-0.5,0.2998751267350623,10,1,100,0.21399605112459702,-10,-1,-100,6488.298882795731,-0.01795680849514832,0.027682992623756456,0.9994554542089715,185.6928590016165,19.43224802701203,13.16967040825765,-0.8848775967323106,-118.74494171142578,4381.2578125,True
1599571480.5435429,0.0,10,0.5,0.5,7.613882895469666,-0.15025,-0.02275,-0.5,0.3530729212548348,10,1,100,-0.3052424549219484,-10,-1,-100,6488.210336245946,-0.013264106658098289,0.02815665663223731,0.9995155157184189,189.16860549516988,19.79557716773457,22.11684608689241,-1.4584273366442568,-123.40739440917969,4381.2578125,True
1599571480.6193826,0.0,10,0.5,0.5,6.294534929084778,-0.15025,-0.02275,-0.5,0.3202944927326245,10,1,100,-0.002324440288438673,-10,-1,-100,6488.181974008912,-0.011781095030303435,0.028280564024323957,0.9995305975798605,189.95163638704287,19.877456180023184,25.122385568972394,-1.6496679244253034,-124.81356811523438,4381.2578125,True
1599571480.6907284,0.0,10,0.5,0.5,8.858766918373108,-0.15025,-0.02275,-0.5,0.32198689946085896,10,1,100,-0.5091883784099551,-10,-1,-100,6488.003135846811,-0.005852932369018315,0.028401302615475844,0.9995794661718638,191.8221020506555,20.07276463791541,37.14936212781562,-2.4148940912460324,-129.70164489746094,4381.2578125,True
1599571480.7630434,0.0,10,0.5,0.5,7.177601729393006,-0.15025,-0.02275,-0.5,0.30620772321430245,10,1,100,-0.07711147146799732,-10,-1,-100,6487.974795167916,-0.0044220856608238775,0.028361618332475618,0.9995879469881432,192.04174640665687,20.095561629604372,40.14235956383094,-2.606260702323742,-130.73919677734375,4381.2578125,True
1599571480.8428342,0.0,10,0.5,0.5,7.364506905555725,-0.15025,-0.02275,-0.5,0.3044129005513485,10,1,100,-0.0906367098924544,-10,-1,-100,6487.882981683477,-0.0030271385609276086,0.028304511705630416,0.999594763416275,192.20015942520334,20.111896768719916,43.129229401868834,-2.7976487668538432,-131.7028350830078,4381.2578125,True
1599571480.9186318,0.0,10,0.5,0.5,8.060352505111695,-0.15025,-0.02275,-0.5,0.3104633188177377,10,1,100,-0.23063127684625737,-10,-1,-100,6487.762846766971,-0.0005133909075951944,0.028304024600587018,0.9995992290018961,192.36386015256818,20.1283115140008,49.08108645751442,-3.180484591172044,-133.40573120117188,4381.2578125,True
1599571481.0020542,0.0,10,0.5,0.5,8.574798784255982,-0.15025,-0.02275,-0.5,0.2808774482882052,10,1,100,-0.3915241368000717,-10,-1,-100,6487.5499541746685,0.003208157273509182,0.028031973344016716,0.9996018788484486,192.419564217491,20.132314335174556,57.97695849935293,-3.754870338901233,-135.4079132080078,4381.2578125,True
1599571481.0765266,0.0,10,0.5,0.5,7.9749380966186525,-0.15025,-0.02275,-0.5,0.2976206355241868,10,1,100,-0.14967744386625542,-10,-1,-100,6487.518709335709,0.004364563307640354,0.02793487266552951,0.9996002168248536,192.40625905417747,20.130086789052424,60.93501191318503,-3.9463636271032074,-135.92706298828125,4381.2578125,True
1599571481.154322,0.0,10,0.5,0.5,8.301396801376342,-0.15025,-0.02275,-0.5,0.28632977652505853,10,1,100,-0.2768406847059833,-10,-1,-100,6487.336596491397,0.00654561072754191,0.027742753565102096,0.9995936647482464,192.42665791762136,20.13019698521058,66.86883546165697,-4.329392875698127,-136.74282836914062,4381.2578125,True
1599571481.2325675,0.0,10,0.5,0.5,8.271828085136413,-0.15025,-0.02275,-0.5,0.2864638979028532,10,1,100,-0.28318295534691235,-10,-1,-100,6487.152052322868,0.008563763188531142,0.027569264794564993,0.9995832119432269,192.53909871582562,20.139464242318006,72.84225461907026,-4.712473120594899,-137.26165771484375,4381.2578125,True
1599571481.3063707,0.0,10,0.5,0.5,8.200214150238036,-0.15025,-0.02275,-0.5,0.262666914036414,10,1,100,-0.39405385300911694,-10,-1,-100,6486.813234634465,0.01138225488482896,0.027195314902408355,0.9995653350937574,192.84867697841193,20.16730808866662,81.88193615575784,-5.287174143395786,-137.48568725585938,4381.2578125,True
1599571481.384415,0.0,10,0.5,0.5,7.976040591049195,-0.15025,-0.02275,-0.5,0.27541324146845303,10,1,100,-0.2979102213966963,-10,-1,-100,6486.628702753107,0.013048081265402309,0.026972110105947973,0.9995510256368728,193.16128515409198,20.196578312201858,87.97728219652527,-5.670352639328946,-137.26394653320312,4381.2578125,True
1599571481.4602885,0.0,10,0.5,0.5,7.970889905929566,-0.15025,-0.02275,-0.5,0.2848801442681829,10,1,100,-0.21945378916713815,-10,-1,-100,6486.474426118541,0.013826656612658729,0.02685644891090733,0.9995436732423508,193.3516291215956,20.21470156351178,91.04963586614011,-5.861952992112087,-137.04196166992188,4381.2578125,True
1599571481.5360868,0.0,10,0.5,0.5,7.664820278167724,-0.15025,-0.02275,-0.5,0.27593547655910045,10,1,100,-0.29917208452958366,-10,-1,-100,6486.22690837644,0.015241273623476182,0.02667139162142833,0.9995280588594352,193.78736809289921,20.256664315681537,97.2424884808598,-6.245171698723638,-136.37489318847656,4381.2578125,True
1599571482.2072575,0.0,10,0.5,0.5,7.384927112960815,-0.15025,-0.02275,-0.5,0.27120620236485826,10,1,100,-0.3003293256150027,-10,-1,-100,6485.979878581944,0.01651993368019195,0.026461700889873447,0.9995133166582708,194.27908593436788,20.304598748969756,103.4960115310235,-6.628408576648352,-135.41180419921875,4381.2578125,True
1599571482.2760756,0.0,10,0.5,0.5,7.056004887390136,-0.15025,-0.02275,-0.5,0.26844511660431714,10,1,100,-0.2989868888958948,-10,-1,-100,6485.732845969731,0.017652377877722464,0.026247647455014775,0.9994996020801307,194.78720353232535,20.354639631018532,109.79317627675229,-7.011655529833541,-134.15243530273438,4381.2578125,True
1599571482.3578832,0.0,10,0.5,0.5,7.205504973602295,-0.15025,-0.02275,-0.5,0.27967607086429475,10,1,100,-0.24207484527018774,-10,-1,-100,6485.577589164255,0.01814797605271167,0.02615702244127539,0.999493102098357,195.03135558310836,20.378872208234856,112.9493220695431,-7.203279964334853,-133.41136169433594,4381.2578125,True
1599571482.43556,0.0,10,0.5,0.5,7.041474831390381,-0.15025,-0.02275,-0.5,0.2782721930147247,10,1,100,-0.2446213717490624,-10,-1,-100,6485.423308844096,0.01860808843543781,0.026063578040064168,0.9994870829303041,195.25643635782444,20.40133559601431,116.10269676375299,-7.394903452405263,-132.59625244140625,4381.2578125,True
1599571482.5412784,0.0,10,0.5,0.5,6.237026856994628,-0.15025,-0.02275,-0.5,0.26587895849921683,10,1,100,-0.28931308387276633,-10,-1,-100,6485.11278981925,0.01941971205256088,0.025867663993027045,0.9994767324672141,195.6190918343586,20.437981064698977,122.37866782688015,-7.778143370666293,-130.74400329589844,4381.2578125,True
1599571482.6330676,0.0,10,0.5,0.5,4.163559198379517,-0.15025,-0.02275,-0.5,0.23537140953956065,10,1,100,-0.341333353695406,-10,-1,-100,6484.42923051957,0.020618759519855836,0.0254139235866074,0.999464356164739,195.68022377123347,20.446684395242123,134.55372614392874,-8.544570358671105,-126.15200805664062,4381.2578125,True
1599571482.7193012,0.0,10,0.5,0.5,5.567558528137207,-0.15025,-0.02275,-0.5,0.26692963643191775,10,1,100,-0.2458346803203586,-10,-1,-100,6484.274448197451,0.02082967382641325,0.02529028468089093,0.9994631189739043,195.4861448935345,20.428282965516654,137.45407755945973,-8.73616203931165,-124.81909942626953,4381.2578125,True
1599571482.8065271,0.0,10,0.5,0.5,4.327393102836608,-0.15025,-0.02275,-0.5,0.251887485769969,10,1,100,-0.2581016016871122,-10,-1,-100,6483.90237819613,0.02112434300939813,0.02504287069715053,0.9994631642835403,194.74281863627957,20.35626251454187,142.97915535856782,-9.11932548822016,-121.93128204345703,4381.2578125,True
1599571482.9012375,0.0,10,0.5,0.5,3.6665709243774414,-0.15025,-0.02275,-0.5,0.24490403343902686,10,1,100,-0.24736632581761797,-10,-1,-100,6483.528833369026,0.02128728861171262,0.024756216817476872,0.9994668484109154,193.41411048498023,20.22579367199032,148.01450764663986,-9.502465599068005,-118.74812316894531,4381.2578125,True
1599571482.9929929,0.0,10,0.5,0.5,2.954622132873535,-0.15025,-0.02275,-0.5,0.23794617593138295,10,1,100,-0.23498104388047017,-10,-1,-100,6483.156255240319,0.021316045112570764,0.02443427843324354,0.9994741578741322,191.67773046613436,20.055486438315675,152.64732292321764,-9.885592274351723,-115.26959991455078,4381.2578125,True
1599571483.0798073,0.0,10,0.5,0.5,2.1919483938217166,-0.15025,-0.02275,-0.5,0.23053461281180576,10,1,100,-0.22101427484967456,-10,-1,-100,6482.720190983266,0.02120969423898994,0.024076263067569974,0.9994851086569472,189.38843402724456,19.829905679065156,156.71970639964348,-10.268720154667614,-111.49578857421875,4381.2578125,True
1599571483.1815324,0.0,10,0.5,0.5,1.378691823005676,-0.15025,-0.02275,-0.5,0.22093870303623198,10,1,100,-0.20719907847901603,-10,-1,-100,6482.283140567131,0.020983155513675206,0.02366572758974543,0.9994996951086762,186.13839151133612,19.505635322557985,159.8302620942892,-10.65187451422864,-107.42696380615234,4381.2578125,True
1599571483.278304,0.0,10,0.5,0.5,-0.9758434268951417,-0.15025,-0.02275,-0.5,0.18160225401012955,10,1,100,-0.17009617982540806,-10,-1,-100,6481.630721332622,0.020436884159596328,0.022937256636817886,0.9995279966183158,179.62367432801543,18.848354404032737,162.6434829019201,-11.226722305576729,-100.77083587646484,4381.2578125,True
1599571483.4009461,0.0,10,0.5,0.5,0.7393991727828979,-0.15025,-0.02275,-0.5,0.22378704815075662,10,1,100,-0.19956706687061487,-10,-1,-100,6481.410476542893,0.02020611016711115,0.022661435504348054,0.9995389799566584,177.13777926672392,18.595829587367216,163.15959198445344,-11.418382129499015,-98.40472412109375,4381.2578125,True
1599571483.5046713,0.0,10,0.5,0.5,-2.8642009443283083,-0.15025,-0.02275,-0.5,0.14921476382535176,10,1,100,-0.1333195252056315,-10,-1,-100,6480.693580720108,0.019392612502686892,0.02173585201963154,0.9995756496220289,167.66117713388087,17.62137286120355,162.29816848110508,-11.99353936310182,-91.16309356689453,4381.2578125,True
1599571483.5974562,0.0,10,0.5,0.5,-0.8867901489257812,-0.15025,-0.02275,-0.5,0.20219136850617941,10,1,100,-0.1798449213860888,-10,-1,-100,6480.4757710593985,0.01907605195444161,0.021379774177872592,0.9995894204611886,164.4887045316487,17.292646172559838,161.80338425005206,-12.185318227176543,-88.77423095703125,4381.2578125,True
1599571483.6901731,0.0,10,0.5,0.5,-1.3552536460876465,-0.15025,-0.02275,-0.5,0.19601648400842467,10,1,100,-0.1748159389220436,-10,-1,-100,6480.195459923474,0.01874395407687768,0.021003599143938265,0.9996036779687062,161.08288634093768,16.93780105091976,160.97757341648045,-12.377123432807696,-86.34768676757812,4381.2578125,True
1599571483.7759786,0.0,10,0.5,0.5,-4.791176042747498,-0.15025,-0.02275,-0.5,0.09938880524544035,10,1,100,-0.09135066405855488,-10,-1,-100,6479.476590645034,0.017685167798287427,0.019787085383913522,0.9996477910203955,161.48345443359247,16.978985003008887,168.97772894090903,-12.95258566131071,-79.33242797851562,4381.2578125,True
1599571483.8672578,0.0,10,0.5,0.5,-2.819411014175415,-0.15025,-0.02275,-0.5,0.1701667110943193,10,1,100,-0.15461101514735787,-10,-1,-100,6479.19676445378,0.017300855441477324,0.019329377278256506,0.9996634711616844,165.97355901486844,17.447424120270973,176.2820870313721,-13.144352153445583,-77.1195068359375,4381.2578125,True
1599571483.9539204,0.0,10,0.5,0.5,-4.546135159301758,-0.15025,-0.02275,-0.5,0.1080484825161345,10,1,100,-0.10508085271226969,-10,-1,-100,6478.635156386765,0.01650483039784937,0.018353501321984104,0.9996953233674558,174.01796776989895,18.28168008684103,190.29315492300105,-13.527763718681861,-72.9080810546875,4381.2578125,True
1599571484.0437133,0.0,10,0.5,0.5,-6.283927818870545,-0.15025,-0.02275,-0.5,0.03117275431444655,10,1,100,-0.04749014614562744,-10,-1,-100,6477.79176665633,0.015261993220958774,0.016772999084549538,0.9997428359656462,184.2133018391573,19.328675852032163,210.1290797319503,-14.102543565047306,-67.14547729492188,4381.2578125,True
1599571484.132441,0.0,10,0.5,0.5,-5.759077584648132,-0.15025,-0.02275,-0.5,0.06099804412472998,10,1,100,-0.07619409666723631,-10,-1,-100,6477.229670758941,0.014398493247634704,0.015613957197868891,0.9997744184228865,189.82473394073193,19.89925698103599,222.5016506488466,-14.48549795970102,-63.676727294921875,4381.2578125,True
1599571484.2097802,0.0,10,0.5,0.5,-6.1860515495300294,-0.15025,-0.02275,-0.5,0.04449033780160941,10,1,100,-0.0654955828607277,-10,-1,-100,6476.667089267401,0.013522220112068236,0.014417532489214367,0.99980462307401,194.4807369495917,20.368812301308914,234.08066230281545,-14.86827493158092,-60.50592041015625,4381.2578125,True
1599571484.2845466,0.0,10,0.5,0.5,-5.65050037021637,-0.15025,-0.02275,-0.5,0.09574667897540332,10,1,100,-0.10363982502069735,-10,-1,-100,6476.322812354309,0.013078660066687106,0.01380358560487893,0.9998191884912536,196.49501802650258,20.570734023049905,239.59888813277357,-15.059600416619034,-59.032257080078125,4381.2578125,True
1599571484.3753011,0.0,10,0.5,0.5,-8.351647561836241,-0.15025,-0.02275,-0.5,-0.12695193433061033,10,1,100,0.05108534613922475,-10,-1,-100,6475.073156661238,0.011275310696796263,0.011228971816246108,0.999873380764105,202.8399244565134,21.201475396428382,260.12049510627975,-15.824516035004766,-53.882843017578125,4381.2578125,True
1599571484.4591668,0.0,10,0.5,0.5,-5.861753100585937,-0.15025,-0.02275,-0.5,0.12945875651233338,10,1,100,-0.1284378606692705,-10,-1,-100,6475.073156661238,0.011275310696796263,0.011228971816246108,0.999873380764105,202.8399244565134,21.201475396428382,260.12049510627975,-15.824516035004766,-53.882843017578125,4381.2578125,True
1599571484.5399878,0.0,10,0.5,0.5,-8.515718570709229,-0.15025,-0.02275,-0.5,-0.16180174809828773,10,1,100,0.07544011566280451,-10,-1,-100,6473.823523843777,0.00942896613128435,0.008590377049205577,0.9999186467007442,207.12009851435337,21.622362887705233,278.6826693900005,-16.588889619610725,-49.9234619140625,4381.2578125,True
1599571484.623728,0.0,10,0.5,0.5,-7.141069598388672,-0.15025,-0.02275,-0.5,0.021137566077441314,10,1,100,-0.05717568311631244,-10,-1,-100,6473.478282608325,0.00896453741330694,0.007866023955397842,0.9999288788389395,207.9662988045625,21.70527920148787,283.1062525294035,-16.77991002962118,-49.12042236328125,4381.2578125,True
1599571484.705542,0.0,10,0.5,0.5,-8.086913986968995,-0.15025,-0.02275,-0.5,-0.12688653356185875,10,1,100,0.05434631850727539,-10,-1,-100,6472.446963952738,0.007536420955281207,0.005872684838332188,0.9999543559242963,210.12248009401006,21.916476738648154,296.0075624290846,-17.352816603377214,-47.154052734375,4381.2578125,True
1599571484.7942724,0.0,10,0.5,0.5,-7.501113455963134,-0.15025,-0.02275,-0.5,-0.006273895819341999,10,1,100,-0.03477120994489891,-10,-1,-100,6472.10368298681,0.007057169374355939,0.00516927024996804,0.9999617367707148,210.7468528359709,21.977703617953207,300.2221429923542,-17.54373706859926,-46.64776611328125,4381.2578125,True
1599571484.8722901,0.0,10,0.5,0.5,-7.821990895843506,-0.15025,-0.02275,-0.5,-0.08446830402574043,10,1,100,0.025703288197696378,-10,-1,-100,6471.353650252218,0.0060803067367852775,0.0038309298505533893,0.9999741765898091,211.89047170253767,22.0899626566862,308.562388908019,-17.925509616067774,-45.85687255859375,4381.2578125,True
1599571484.9500818,0.0,10,0.5,0.5,-7.65998182067871,-0.15025,-0.02275,-0.5,-0.022670970575864,10,1,100,-0.016264233701490417,-10,-1,-100,6471.009398515103,0.00558211970760835,0.003187816218115307,0.9999793386702194,212.496608596291,22.14994862287092,312.8127181120158,-18.116362298909078,-45.572357177734375,4381.2578125,True
1599571485.6278946,0.0,10,0.5,0.5,-7.78344705657959,-0.15025,-0.02275,-0.5,-0.10787766539626366,10,1,100,0.044743088108391046,-10,-1,-100,6470.258887609583,0.004582625276939518,0.0018398576366041024,0.9999878071603914,213.642421994612,22.263295593965285,321.27622774930336,-18.498001897807235,-45.22705078125,4381.2578125,True
1599571485.6927285,0.0,10,0.5,0.5,-7.6778594085693355,-0.15025,-0.02275,-0.5,-0.1146149698035552,10,1,100,0.05850258426712401,-10,-1,-100,6469.507407810772,0.003557034552011306,0.0005646267723027297,0.9999935143298699,214.6827597204615,22.365675435033587,329.6575113097431,-18.87955614597963,-45.1773681640625,4381.2578125,True
1599571485.7615428,0.0,10,0.5,0.5,-7.628161011505127,-0.15025,-0.02275,-0.5,-0.06020467091804948,10,1,100,0.013703702798862752,-10,-1,-100,6469.164140951005,0.0030405979295286484,-8.799951552794226e-05,0.9999953734994559,215.16669501871135,22.41295153541283,333.8194133556733,-19.07030220641784,-45.264068603515625,4381.2578125,True
1599571485.8363428,0.0,10,0.5,0.5,-7.434376557159424,-0.15025,-0.02275,-0.5,-0.13203075263618744,10,1,100,0.07886850729668182,-10,-1,-100,6468.351636651787,0.0019861888798072113,-0.0013239723643281944,0.9999971510713979,216.05854595989578,22.499010630623786,342.0745241521249,-19.45173395431336,-45.658905029296875,4381.2578125,True
1599571485.9107776,0.0,10,0.5,0.5,-7.449920519256592,-0.15025,-0.02275,-0.5,-0.07663849008788956,10,1,100,0.033054503089033994,-10,-1,-100,6467.9439224094385,0.0014525708017817842,-0.0019326062544524664,0.9999970775312951,216.46259747025857,22.53726909626584,346.1592142035896,-19.642420674497615,-45.967376708984375,4381.2578125,True
1599571485.9845796,0.0,10,0.5,0.5,-6.722456036376953,-0.15025,-0.02275,-0.5,-0.21400900541240067,10,1,100,0.15976902460312117,-10,-1,-100,6466.787194512552,-0.00017723546897893975,-0.0037251663090576708,0.9999930458375988,217.46503759845388,22.627875163272957,358.1568562854415,-20.214371809093226,-47.337158203125,4381.2578125,True
1599571486.0703495,0.0,10,0.5,0.5,-6.577278694152832,-0.15025,-0.02275,-0.5,-0.16095902412792928,10,1,100,0.11990478280974246,-10,-1,-100,6465.973244772991,-0.001288164632564986,-0.004861956355872248,0.999987350926137,217.90466719797044,22.661979898485548,365.83500585467675,-20.59559121573066,-48.61993408203125,4381.2578125,True
1599571486.1441543,0.0,10,0.5,0.5,-6.726096417236328,-0.15025,-0.02275,-0.5,-0.1099889522385293,10,1,100,0.07154254519938331,-10,-1,-100,6465.5049934019335,-0.0018504211797419029,-0.005422278798350769,0.9999835872823567,218.03665158460467,22.668994792453464,369.539055409225,-20.786179979868635,-49.372314453125,4381.2578125,True
1599571486.2189524,0.0,10,0.5,0.5,-5.341437208557129,-0.15025,-0.02275,-0.5,-0.2194200323868336,10,1,100,0.20379754762214924,-10,-1,-100,6464.284327439847,-0.0035557838896059742,-0.0069168621573628105,0.9999697562520711,217.97205692788697,22.63803295526393,379.8881702351408,-21.357881739890452,-52.07073974609375,4381.2578125,True
1599571486.2947497,0.0,10,0.5,0.5,-5.99560424194336,-0.15025,-0.02275,-0.5,-0.12332206219197628,10,1,100,0.09747277551464886,-10,-1,-100,6463.8151046971325,-0.004130764706117498,-0.007392185671049676,0.9999641455442027,217.76616971186664,22.607097535559703,383.01738340776956,-21.548433823341284,-53.117889404296875,4381.2578125,True
1599571486.374538,0.0,10,0.5,0.5,-4.171904182434082,-0.15025,-0.02275,-0.5,-0.22055398530533152,10,1,100,0.23182328385893927,-10,-1,-100,6462.530975966132,-0.005866012902063591,-0.008698606346441724,0.999944960555461,216.80357894248846,22.474063771970204,391.7595955535757,-22.120075453408504,-56.7012939453125,4381.2578125,True
1599571486.4503345,0.0,10,0.5,0.5,-5.065237260437011,-0.15025,-0.02275,-0.5,-0.13233091972536798,10,1,100,0.12249460478558069,-10,-1,-100,6462.062733436585,-0.006440115417548594,-0.009074653215177511,0.999938085874537,216.3527558062802,22.414845553494082,394.42254093756003,-22.310624915491285,-58.042724609375,4381.2578125,True
1599571486.526132,0.0,10,0.5,0.5,-3.817986267089844,-0.15025,-0.02275,-0.5,-0.1791123546728441,10,1,100,0.19440713329881165,-10,-1,-100,6461.185820432729,-0.007606688736319279,-0.009833036795380301,0.9999227218509685,214.99487423240095,22.24744196146436,398.8692579643521,-22.69174473069687,-60.947296142578125,4381.2578125,True
1599571486.60495,0.0,10,0.5,0.5,-3.155372277832031,-0.15025,-0.02275,-0.5,-0.16992528624213982,10,1,100,0.20256114851409213,-10,-1,-100,6460.247874301625,-0.008731657994735317,-0.010430098485031115,0.9999074813172745,212.91438548414297,22.003800132776252,401.88029172410114,-23.07291532893585,-64.14486694335938,4381.2578125,True
1599571486.6917582,0.0,10,0.5,0.5,-1.2342131607055662,-0.15025,-0.02275,-0.5,-0.2001914322949268,10,1,100,0.27673469857453903,-10,-1,-100,6458.838271850254,-0.010418918823958921,-0.011239750325083824,0.9998825501743539,208.18275030021934,21.47242062539281,403.0590563317818,-23.644826763151876,-69.493408203125,4381.2578125,True
1599571486.7695143,0.0,10,0.5,0.5,-1.2977975868225093,-0.15025,-0.02275,-0.5,-0.16557630280063507,10,1,100,0.22757237569463362,-10,-1,-100,6457.900816194015,-0.01149506983377602,-0.011652653416937607,0.9998660305450232,203.7611391347506,20.99081726737116,401.11865294186913,-24.026241421399195,-73.42599487304688,4381.2578125,True
1599571486.8453116,0.0,10,0.5,0.5,-1.8545493041992187,-0.15025,-0.02275,-0.5,-0.14465710785796926,10,1,100,0.17886736578072004,-10,-1,-100,6457.368123542983,-0.012020327175878899,-0.01183063855813692,0.9998577637473701,201.12549765805733,20.70820508087597,399.20479435576567,-24.216997951396145,-75.50241088867188,4381.2578125,True
1599571486.9181538,0.0,10,0.5,0.5,1.50504076461792,-0.15025,-0.02275,-0.5,-0.1702480440687949,10,1,100,0.289078122907662,-10,-1,-100,6455.896994725335,-0.013489993312996157,-0.012218752940959924,0.9998343473580926,191.33199215710997,19.678226406378908,389.13899680688604,-24.789474094292977,-82.17160034179688,4381.2578125,True
1599571487.0009696,0.0,10,0.5,0.5,1.3748092636108398,-0.15025,-0.02275,-0.5,-0.15082039976585299,10,1,100,0.24467209827723196,-10,-1,-100,6454.895569246146,-0.014411780875432252,-0.012388790637006266,0.9998193929098149,188.53884065479602,19.388924032697126,389.6356931686593,-25.171232065969548,-86.9847412109375,4381.2578125,True
1599571487.0737853,0.0,10,0.5,0.5,2.3103682022094727,-0.15025,-0.02275,-0.5,-0.14452845570554584,10,1,100,0.24531576264666444,-10,-1,-100,6453.893164971261,-0.015245751974654609,-0.012481196388791381,0.9998058745493705,197.79409943095257,20.350195601245154,415.25515337621243,-25.552760495193027,-92.00234985351562,4381.2578125,True
1599571487.151573,0.0,10,0.5,0.5,3.0337907035827634,-0.15025,-0.02275,-0.5,-0.1395108839481018,10,1,100,0.24582213960775623,-10,-1,-100,6452.82972174068,-0.015998406412440734,-0.012514960955603139,0.9997936920907943,206.46429587127247,21.26167975651361,440.24091739098634,-25.933970629709968,-96.83705139160156,4381.2578125,True
1599571487.2283673,0.0,10,0.5,0.5,3.6692706161499022,-0.15025,-0.02275,-0.5,-0.1346649452684024,10,1,100,0.24593577262642935,-10,-1,-100,6451.828285413329,-0.016674459480133897,-0.012498132615062777,0.9997828559653251,214.15311004640475,22.07978675752657,463.67326037373545,-26.31483344947212,-101.39148712158203,4381.2578125,True
1599571487.3034718,0.0,10,0.5,0.5,2.8994998830795287,-0.15025,-0.02275,-0.5,-0.13387541770878783,10,1,100,0.21262161695071774,-10,-1,-100,6451.296072234516,-0.01697689326820068,-0.01247254434639333,0.999778085743275,217.4614796625253,22.43546429212933,474.4092663566422,-26.50513715896271,-103.5580825805664,4381.2578125,True
1599571487.3825912,0.0,10,0.5,0.5,5.849244763946533,-0.15025,-0.02275,-0.5,-0.12295542317895838,10,1,100,0.2680660854973468,-10,-1,-100,6449.636924154474,-0.017747355330929037,-0.012347610054103552,0.9997662566343744,226.46721475442646,23.410524329835933,505.21575826979364,-27.075558531567125,-109.61129760742188,4381.2578125,True
1599571487.4604142,0.0,10,0.5,0.5,4.14120425491333,-0.15025,-0.02275,-0.5,-0.1296840554580015,10,1,100,0.21512270514498052,-10,-1,-100,6449.104217938846,-0.017958275841718583,-0.012293459616768625,0.999763157542547,229.00646723961563,23.687549498109764,514.6412212412815,-27.265546010738873,-111.48001098632812,4381.2578125,True
1599571487.537178,0.0,10,0.5,0.5,5.58728105392456,-0.15025,-0.02275,-0.5,-0.12119159190061168,10,1,100,0.23496586464267466,-10,-1,-100,6448.039778187056,-0.01832356015876288,-0.012166069814768163,0.9997580876834008,233.29915881400444,24.158279932654885,531.9501201960443,-27.645320830770828,-114.99391174316406,4381.2578125,True
1599571487.6130135,0.0,10,0.5,0.5,6.0163321155548095,-0.15025,-0.02275,-0.5,-0.12043668713400542,10,1,100,0.22699391976892874,-10,-1,-100,6446.9133222603705,-0.01857695686601911,-0.012042931391073293,0.9997549022020888,236.6695595207352,24.52946863343649,547.4087012382588,-28.02486212651433,-118.21026611328125,4381.2578125,True
1599571487.6897702,0.0,10,0.5,0.5,7.27956382484436,-0.15025,-0.02275,-0.5,-0.11028200119710907,10,1,100,0.2286358658724547,-10,-1,-100,6445.190182504011,-0.018816283719293062,-0.011838479049348958,0.9997528684033836,240.3128343249323,24.930267717403726,567.6821728272349,-28.593818855545386,-122.47669982910156,4381.2578125,True
1599571487.7775354,0.0,10,0.5,0.5,6.845965171051025,-0.15025,-0.02275,-0.5,-0.11713557886348872,10,1,100,0.21025005969594313,-10,-1,-100,6444.067622386501,-0.018861867811204462,-0.011715264239195387,0.9997534608724684,242.02367576380846,25.11621468984298,579.6855150978837,-28.97293313260139,-124.94947814941406,4381.2578125,True
1599571487.8533578,0.0,10,0.5,0.5,7.745767232894897,-0.15025,-0.02275,-0.5,-0.11211133825241373,10,1,100,0.19674899002137936,-10,-1,-100,6442.28050425672,-0.018776525364140817,-0.01155818815749856,0.9997568956410182,244.15109823227263,25.33994496216866,596.8454949545926,-29.541369836212372,-128.10183715820312,4381.2578125,True
1599571487.9291613,0.0,10,0.5,0.5,7.376991054916382,-0.15025,-0.02275,-0.5,-0.11824434596784837,10,1,100,0.18866715605442994,-10,-1,-100,6441.092017428717,-0.018622260309483885,-0.011471985433579298,0.9997607738710184,245.17838859264737,25.442709213318548,607.4466165024173,-29.920191728528607,-129.83236694335938,4381.2578125,True
1599571488.0039308,0.0,10,0.5,0.5,7.077097420501708,-0.15025,-0.02275,-0.5,-0.12291488967975989,10,1,100,0.19293532807302172,-10,-1,-100,6440.49826066324,-0.01851843559278565,-0.011437026968781005,0.999763102918542,245.60859367097765,25.483901005024396,612.5687716521212,-30.10956575380861,-130.58639526367188,4381.2578125,True
1599571488.7234514,0.0,10,0.5,0.5,7.602531720924377,-0.15025,-0.02275,-0.5,-0.12025106155109755,10,1,100,0.17461756021877625,-10,-1,-100,6439.246781332884,-0.01825584798246443,-0.011381994568382245,0.9997685603248818,246.35089653722258,25.551373182493787,622.5662426227193,-30.488243598496183,-131.87210083007812,4381.2578125,True
1599571488.7942605,0.0,10,0.5,0.5,7.6673979099273675,-0.15025,-0.02275,-0.5,-0.12181887770438911,10,1,100,0.16423147230046464,-10,-1,-100,6438.059752712841,-0.01792155030590207,-0.011347209396484216,0.9997750041252008,246.98939549481122,25.605097435432626,632.359439559511,-30.86683034615454,-132.86141967773438,4381.2578125,True
1599571488.8640714,0.0,10,0.5,0.5,7.475052443313599,-0.15025,-0.02275,-0.5,-0.12417277045924138,10,1,100,0.17646565268256426,-10,-1,-100,6437.395680887741,-0.017728704789796306,-0.011337894993127954,0.9997785480613198,247.28655836149156,25.628764431125024,637.2197062591306,-31.056089608162925,-133.2449951171875,4381.2578125,True
1599571488.9339218,0.0,10,0.5,0.5,7.792169939804078,-0.15025,-0.02275,-0.5,-0.12439287747316738,10,1,100,0.1221703720952334,-10,-1,-100,6435.54750533984,-0.01706000592531708,-0.011332297021679445,0.999790245622571,248.14908969709958,25.69415287924268,651.8025337914122,-31.623728809976612,-133.95147705078125,4381.2578125,True
1599571489.015018,0.0,10,0.5,0.5,7.54777102279663,-0.15025,-0.02275,-0.5,-0.12702221288796492,10,1,100,0.13096341202295736,-10,-1,-100,6434.233029088355,-0.016533183278982042,-0.01135186898121813,0.9997988742348617,248.73539896759502,25.73756727889714,661.6178024873915,-32.00203484336749,-134.0525360107422,4381.2578125,True
1599571489.0878227,0.0,10,0.5,0.5,7.406608180618286,-0.15025,-0.02275,-0.5,-0.12804214144187967,10,1,100,0.11957821745113374,-10,-1,-100,6432.981540027307,-0.0159526098076491,-0.01137956198802512,0.9998079914710052,249.34542757017147,25.7831304379907,671.5481535098289,-32.380239740314565,-133.85772705078125,4381.2578125,True
1599571489.1676097,0.0,10,0.5,0.5,7.2109509986877445,-0.15025,-0.02275,-0.5,-0.12910088105170844,10,1,100,0.10755313943804654,-10,-1,-100,6431.668526563793,-0.015318100191692581,-0.011414779551631121,0.9998175126563372,249.97972303663187,25.831567537724734,681.5971808688478,-32.758338880445535,-133.36721801757812,4381.2578125,True
1599571489.2334335,0.0,10,0.5,0.5,6.964232544326782,-0.15025,-0.02275,-0.5,-0.12999341911173093,10,1,100,0.09502491886250167,-10,-1,-100,6430.352094202768,-0.01463060196069944,-0.011455182668807294,0.9998273472336568,250.62476068735492,25.88218371871864,691.7297726665782,-33.13632822088102,-132.5811767578125,4381.2578125,True
1599571489.3032465,0.0,10,0.5,0.5,7.039848086929321,-0.15025,-0.02275,-0.5,-0.1281517595950202,10,1,100,0.123583932257193,-10,-1,-100,6429.690459847101,-0.014268999984660543,-0.011475264057441618,0.999832342922677,250.94322204155048,25.907702233046045,696.8052460818745,-33.32528076203934,-132.07737731933594,4381.2578125,True
1599571489.3850284,0.0,10,0.5,0.5,6.026022067260742,-0.15025,-0.02275,-0.5,-0.1317957987438306,10,1,100,0.03266285456466356,-10,-1,-100,6427.664052512962,-0.013117673173170209,-0.011526644513349405,0.999847519933307,251.82365011154286,25.980199216447524,711.9008686156374,-33.89196960275104,-130.1230010986328,4381.2578125,True
1599571489.4578347,0.0,10,0.5,0.5,6.482588981246948,-0.15025,-0.02275,-0.5,-0.12806591212090213,10,1,100,0.10270130260992288,-10,-1,-100,6426.93991806102,-0.012712635383517367,-0.011539364488016618,0.9998526051217842,252.07193881286275,26.00126265250849,716.8297431636345,-34.080810293448046,-129.323974609375,4381.2578125,True
1599571489.5316362,0.0,10,0.5,0.5,5.029890319824219,-0.15025,-0.02275,-0.5,-0.12897503137960029,10,1,100,0.002225789426814201,-10,-1,-100,6424.909604244283,-0.011436044739076475,-0.011559049758320764,0.9998677938854768,252.57044261221787,26.04514233184564,730.9720800939868,-34.64717542781926,-126.48442840576172,4381.2578125,True
1599571489.6104262,0.0,10,0.5,0.5,5.723756310462951,-0.15025,-0.02275,-0.5,-0.1260732475468826,10,1,100,0.0813318211359982,-10,-1,-100,6424.185958206537,-0.011000549446547178,-0.01155037302342543,0.9998727803050215,252.62442411031464,26.050553487111394,735.377521625041,-34.83591562156206,-125.39038848876953,4381.2578125,True
1599571489.7061713,0.0,10,0.5,0.5,3.831485816192626,-0.15025,-0.02275,-0.5,-0.12205144503499368,10,1,100,-0.027002314584489706,-10,-1,-100,6422.082891966449,-0.009625905360737244,-0.011505730079748592,0.9998874737295782,252.30112858354656,26.024984564251472,747.1911074189486,-35.402018428087544,-121.66655731201172,4381.2578125,True
1599571489.7739892,0.0,10,0.5,0.5,2.8131133703231805,-0.15025,-0.02275,-0.5,-0.11368747921795339,10,1,100,-0.04712662866641874,-10,-1,-100,6419.928558057058,-0.008200038882496659,-0.01138895186619831,0.9999015207197732,250.9927927171189,25.911150674366073,756.0467468162137,-35.968003350653575,-117.280029296875,4381.2578125,True
1599571489.8517804,0.0,10,0.5,0.5,4.968219925117492,-0.15025,-0.02275,-0.5,-0.12536900886147953,10,1,100,0.09462670471799127,-10,-1,-100,6419.928558057058,-0.008200038882496659,-0.01138895186619831,0.9999015207197732,250.9927927171189,25.911150674366073,756.0467468162137,-35.968003350653575,-117.280029296875,4381.2578125,True
1599571489.9275868,0.0,10,0.5,0.5,2.7896595361709595,-0.15025,-0.02275,-0.5,-0.11093817285766203,10,1,100,-0.011344991702539733,-10,-1,-100,6418.4768740898,-0.007243707615878334,-0.011257753911728903,0.9999103918236065,249.38854317624123,25.76702815188452,759.6755569370702,-36.34530931003645,-113.98768615722656,4381.2578125,True
1599571490.0093665,0.0,10,0.5,0.5,2.0596048135757448,-0.15025,-0.02275,-0.5,-0.10485140611346269,10,1,100,-0.02019608944699619,-10,-1,-100,6417.042769926367,-0.00630119138725372,-0.011083291551482086,0.9999187245148908,247.06524897068678,25.55360815183273,761.0078764952996,-36.722643152156216,-110.40116119384766,4381.2578125,True
1599571490.0811741,0.0,10,0.5,0.5,1.2792411052703856,-0.15025,-0.02275,-0.5,-0.09968116087859041,10,1,100,-0.03688354937220732,-10,-1,-100,6415.539330324042,-0.0053002264624325566,-0.010878025259229164,0.9999267854027647,243.90193107036083,25.256773367386575,759.5966370434849,-37.10004520672835,-106.52085876464844,4381.2578125,True
1599571490.1609623,0.0,10,0.5,0.5,0.44689703598022446,-0.15025,-0.02275,-0.5,-0.09131496718753027,10,1,100,-0.041093790921201606,-10,-1,-100,6414.039310705615,-0.004360136856260849,-0.01061590617707888,0.999934143702791,239.76584196069498,24.860334975716405,754.9397364412658,-37.477557247365596,-102.3465347290039,4381.2578125,True
1599571490.2323532,0.0,10,0.5,0.5,-1.958568612098694,-0.15025,-0.02275,-0.5,-0.06577486494753657,10,1,100,-0.1014178304195126,-10,-1,-100,6411.753150619799,-0.002965070979135478,-0.010146261298702563,0.9999441293071063,232.49082927134558,24.150107702295866,744.0591044914569,-38.04409475900908,-95.53463745117188,4381.2578125,True
1599571490.3146482,0.0,10,0.5,0.5,-0.20137801380157483,-0.15025,-0.02275,-0.5,-0.09294171162531266,10,1,100,-0.012384300803973958,-10,-1,-100,6411.032439238043,-0.002515086418621294,-0.009967549200148706,0.9999471597555791,229.60039235916344,23.862138839965347,738.7837518705027,-38.23302181706394,-93.11727905273438,4381.2578125,True
1599571490.3904462,0.0,10,0.5,0.5,-3.9104990100860597,-0.15025,-0.02275,-0.5,-0.046392526498415625,10,1,100,-0.10881967230380302,-10,-1,-100,6408.676948397071,-0.0012374343120830943,-0.009383356064453565,0.9999552096895594,219.63737530845808,22.849018516785794,718.1726940247596,-38.80007093422832,-85.67108154296875,4381.2578125,True
1599571490.46824,0.0,10,0.5,0.5,-1.850403051185608,-0.15025,-0.02275,-0.5,-0.08171290662656823,10,1,100,-0.025542232649825844,-10,-1,-100,6407.90448169189,-0.0008418755894794909,-0.009175335775858435,0.9999575513285014,216.11636563710255,22.48440912469929,710.4233364277771,-38.98916682062965,-83.2525634765625,4381.2578125,True
1599571490.5410452,0.0,10,0.5,0.5,-3.8175011707305906,-0.15025,-0.02275,-0.5,-0.05222825697794478,10,1,100,-0.07354031331119368,-10,-1,-100,6406.335134141729,-5.391604452855994e-05,-0.008720302693333458,0.9999619759840855,214.76325721531856,22.33703413668787,713.4614606742912,-39.3673647931039,-78.50213623046875,4381.2578125,True
1599571490.6198318,0.0,10,0.5,0.5,-5.903263876724243,-0.15025,-0.02275,-0.5,-0.02131287304612585,10,1,100,-0.10903943149804554,-10,-1,-100,6403.92105755629,0.0009777245045455142,-0.008028013354542275,0.999967296993443,227.3945945417232,23.6180352980774,767.311593115815,-39.9339624700432,-71.77740478515625,4381.2578125,True
1599571490.6926372,0.0,10,0.5,0.5,-4.008655730056763,-0.15025,-0.02275,-0.5,-0.06287557629314738,10,1,100,-0.04261782652938223,-10,-1,-100,6403.141757432255,0.0013034033554549676,-0.007779557565624718,0.9999688893279511,230.9829667409792,23.975572294280283,783.4417744562527,-40.122629187107094,-69.67938232421875,4381.2578125,True
1599571490.7646055,0.0,10,0.5,0.5,-6.861435751342773,-0.15025,-0.02275,-0.5,-0.008217009063450437,10,1,100,-0.10546177128880561,-10,-1,-100,6400.723778168438,0.0021630135259389257,-0.007059954597562517,0.999972738835198,240.0203288420827,24.860201764646217,826.6170993660421,-40.68807128663589,-63.833953857421875,4381.2578125,True
1599571490.840404,0.0,10,0.5,0.5,-5.214151462364196,-0.15025,-0.02275,-0.5,-0.05354327999966696,10,1,100,-0.04856817400965925,-10,-1,-100,6399.8819790752605,0.0024195680648292,-0.006821484668702411,0.999973806175589,242.50975557692811,25.09928004753363,839.4032843273111,-40.87637887394919,-62.035430908203125,4381.2578125,True
1599571490.9162,0.0,10,0.5,0.5,-7.632260046577453,-0.15025,-0.02275,-0.5,0.003893653175338324,10,1,100,-0.10010260642883378,-10,-1,-100,6397.401014813688,0.003114276308969889,-0.006086227650502746,0.9999766292849337,248.63740802974252,25.6776878834434,873.5593847780481,-41.440843299979285,-57.089385986328125,4381.2578125,True
1599571490.996085,0.0,10,0.5,0.5,-7.162464322662353,-0.15025,-0.02275,-0.5,-0.016694888019384985,10,1,100,-0.07396836783731495,-10,-1,-100,6395.779917338514,0.003501450349933771,-0.005609098625297422,0.9999781386900709,251.76845909496026,25.967110836666684,893.2939916861171,-41.816815076003536,-54.167022705078125,4381.2578125,True
1599571491.076867,0.0,10,0.5,0.5,-6.672521088409424,-0.15025,-0.02275,-0.5,-0.03724564918377524,10,1,100,-0.05500244025731062,-10,-1,-100,6394.931283349753,0.003675130571601743,-0.005366294760853771,0.9999788479242055,253.09406117410768,26.08832078426231,902.3869568112796,-42.004712152125876,-52.818115234375,4381.2578125,True
1599571491.736182,0.0,10,0.5,0.5,-7.697473612976074,-0.15025,-0.02275,-0.5,-0.012627087270151764,10,1,100,-0.07136851464612004,-10,-1,-100,6393.237432981026,0.0039761767066616,-0.004925941825271416,0.9999799623572122,255.33875018015664,26.29188849934205,919.2487548321228,-42.380347706340146,-50.34564208984375,4381.2578125,True
1599571491.8000124,0.0,10,0.5,0.5,-7.954776960754394,-0.15025,-0.02275,-0.5,-0.007132896458363569,10,1,100,-0.06929523962648354,-10,-1,-100,6391.4879186314065,0.004226267410156826,-0.0044797259803068205,0.9999810351796276,257.12990599146775,26.453168497053934,934.6224379680617,-42.755793409372714,-48.17236328125,4381.2578125,True
1599571491.8703365,0.0,10,0.5,0.5,-8.166489064025878,-0.15025,-0.02275,-0.5,-0.003842044263943953,10,1,100,-0.06642047037056945,-10,-1,-100,6389.79406856664,0.0044228809264626875,-0.004048427110203875,0.9999820240195539,258.5668408461876,26.58249345983384,948.8282018847827,-43.13107149964623,-46.29840087890625,4381.2578125,True
1599571491.941542,0.0,10,0.5,0.5,-7.839056951904297,-0.15025,-0.02275,-0.5,-0.023888461001997062,10,1,100,-0.05608127470102307,-10,-1,-100,6388.9454341812525,0.004503557983407603,-0.0038428245400772523,0.9999824751789625,259.1799884572452,26.637951446057357,955.5838153166764,-43.31865328159561,-45.473663330078125,4381.2578125,True
1599571492.0215693,0.0,10,0.5,0.5,-7.974236533355713,-0.15025,-0.02275,-0.5,-0.02169174895249083,10,1,100,-0.05578162710483034,-10,-1,-100,6388.0377184432,0.004570971390229535,-0.003639747720252507,0.9999829290828333,259.7363656035398,26.688595599249123,962.1531877267336,-43.506199240534656,-44.7236328125,4381.2578125,True
1599571492.0993607,0.0,10,0.5,0.5,-8.827707686614989,-0.15025,-0.02275,-0.5,0.023349754415597328,10,1,100,-0.06359458323321782,-10,-1,-100,6385.43615236925,0.004700312663021383,-0.0030494276805613663,0.9999843039026618,261.1470639143817,26.819456239741918,981.0250934642004,-44.06863656033284,-42.92169189453125,4381.2578125,True
1599571492.1783054,0.0,10,0.5,0.5,-8.51286043701172,-0.15025,-0.02275,-0.5,0.0062992947256374845,10,1,100,-0.05362333115521567,-10,-1,-100,6383.620720088133,0.004724941256543878,-0.002671423211584511,0.9999852691055738,261.94620729537195,26.89598370371026,993.1692705781887,-44.44343725192658,-42.093475341796875,4381.2578125,True
1599571492.2525728,0.0,10,0.5,0.5,-8.488672439575195,-0.15025,-0.02275,-0.5,0.008140600550223875,10,1,100,-0.04955072524189043,-10,-1,-100,6381.867788222502,0.004708211403087085,-0.002314816424524873,0.9999862370904435,262.68578856521293,26.96865009922241,1005.1556308783697,-44.818117637748536,-41.5635986328125,4381.2578125,True
1599571492.3353512,0.0,10,0.5,0.5,-8.409870070648193,-0.15025,-0.02275,-0.5,0.010428304495880246,10,1,100,-0.04475919778822514,-10,-1,-100,6380.052844025195,0.004647994073007482,-0.0019732596833519425,0.9999872511173927,263.39466545940644,27.039701139415783,1017.0898262159803,-45.192680330813864,-41.3316650390625,4381.2578125,True
1599571492.4133816,0.0,10,0.5,0.5,-8.32592156829834,-0.15025,-0.02275,-0.5,-0.005092855955198327,10,1,100,-0.04575825783794842,-10,-1,-100,6379.1417101323605,0.00460129109727526,-0.001807160321788125,0.9999877810712535,263.7436776105752,27.075011737195933,1023.0600420160839,-45.37991779718109,-41.32733154296875,4381.2578125,True
1599571492.4891796,0.0,10,0.5,0.5,-8.0682099899292,-0.15025,-0.02275,-0.5,0.030482630804258583,10,1,100,-0.028866453698181565,-10,-1,-100,6376.415631852113,0.004404430026679293,-0.0013359829629523785,0.9999894080167363,264.77969688702825,27.18004695517071,1041.023144265048,-45.941455779223716,-41.760528564453125,4381.2578125,True
1599571492.5679686,0.0,10,0.5,0.5,-8.1137970161438,-0.15025,-0.02275,-0.5,9.83685062612722e-05,10,1,100,-0.03924533719363549,-10,-1,-100,6375.511333786068,0.004319429582168888,-0.001187124074776511,0.999989966581923,265.1204960131012,27.214352162259807,1047.0246540150858,-46.12857726567434,-42.053558349609375,4381.2578125,True
1599571492.644799,0.0,10,0.5,0.5,-7.413178791809081,-0.15025,-0.02275,-0.5,0.032618625053996486,10,1,100,-0.013271492371619155,-10,-1,-100,6372.712500806665,0.004005945895893815,-0.0007591523913695208,0.9999916880080182,266.10275011720904,27.311079111521963,1064.9633493201425,-46.68977037695955,-43.37774658203125,4381.2578125,True
1599571492.7235534,0.0,10,0.5,0.5,-7.266862518310547,-0.15025,-0.02275,-0.5,0.019629187359683033,10,1,100,-0.016626185419694323,-10,-1,-100,6370.81747830892,0.0037518369679267675,-0.0004911632716013195,0.9999928412133792,266.68741423064955,27.365686221963575,1076.7166853691715,-47.06376068106911,-44.631195068359375,4381.2578125,True
1599571492.8043382,0.0,10,0.5,0.5,-6.887921475219727,-0.15025,-0.02275,-0.5,0.021343640724850683,10,1,100,-0.010491771691067752,-10,-1,-100,6368.847749094712,0.003465744836801465,-0.0002349978241909542,0.9999939666761739,267.168010495489,27.406612973915685,1088.1045355870726,-47.43764702685036,-46.18072509765625,4381.2578125,True
1599571492.8811312,0.0,10,0.5,0.5,-6.459480964660645,-0.15025,-0.02275,-0.5,0.022899960266178153,10,1,100,-0.004316647321133835,-10,-1,-100,6366.9322187396465,0.003150528338373089,8.932987561389843e-06,0.99999503703338,267.489337064179,27.42753615683863,1098.8908996421783,-47.81143875737228,-48.0260009765625,4381.2578125,True
1599571492.958438,0.0,10,0.5,0.5,-5.978525506591796,-0.15025,-0.02275,-0.5,0.024584583499958033,10,1,100,0.0025258261523199016,-10,-1,-100,6364.973231927608,0.0028031724757928483,0.00024322269976322628,0.9999960415255598,267.583469682495,27.420956676043225,1108.7799169751245,-48.185149433659376,-50.16668701171875,4381.2578125,True
1599571493.0422487,0.0,10,0.5,0.5,-6.26255687637329,-0.15025,-0.02275,-0.5,0.013864616521026477,10,1,100,-0.011794712820760354,-10,-1,-100,6364.002527760225,0.002619328199366769,0.0003561094238552019,0.9999965061468276,267.5225263423197,27.404904171071067,1113.286452644708,-48.37197990668656,-51.347686767578125,4381.2578125,True
1599571493.1200058,0.0,10,0.5,0.5,-4.239541384887694,-0.15025,-0.02275,-0.5,0.03857653540446493,10,1,100,0.034833248438462215,-10,-1,-100,6361.088461795589,0.0020302054668080555,0.000680959412107911,0.9999977072773925,266.77528495462275,27.292055181585027,1124.4562346954906,-48.932404982980685,-55.33270263671875,4381.2578125,True
1599571493.1987956,0.0,10,0.5,0.5,-5.240736891174316,-0.15025,-0.02275,-0.5,0.017759021716360502,10,1,100,-0.0007404838037893095,-10,-1,-100,6360.1158047384815,0.0018204167199626022,0.0007846145323590065,0.9999980352295704,266.2990154995598,27.22900476387774,1127.2161192276917,-49.11920253114661,-56.8082275390625,4381.2578125,True
1599571493.27064,0.0,10,0.5,0.5,-3.880967025756836,-0.15025,-0.02275,-0.5,0.02970850369293311,10,1,100,0.027744307941034142,-10,-1,-100,6358.111409001984,0.0013732750927658974,0.000985121955234165,0.9999985718241068,264.9284133129101,27.05742042329678,1130.92825179919,-49.49280480451278,-59.97979736328125,4381.2578125,True
1599571493.34893,0.0,10,0.5,0.5,-3.172030480194092,-0.15025,-0.02275,-0.5,0.030922809641026457,10,1,100,0.03287045479364522,-10,-1,-100,6356.168048988446,0.0009229369647759864,0.0011763304801777155,0.9999988822163555,262.9108774945209,26.817201629823476,1131.799211717587,-49.86644617383765,-63.445037841796875,4381.2578125,True
1599571493.4227042,0.0,10,0.5,0.5,-2.4120111122131345,-0.15025,-0.02275,-0.5,0.03208791221500699,10,1,100,0.042820968660274586,-10,-1,-100,6354.162189011578,0.00042616717019524844,0.0013585996584762623,0.9999989862937416,260.1262265628499,26.498096446796023,1129.242037852655,-50.24016541111897,-67.20355224609375,4381.2578125,True
1599571493.5208488,0.0,10,0.5,0.5,-0.21405945663452108,-0.15025,-0.02275,-0.5,0.04207452454730256,10,1,100,0.07762955930170215,-10,-1,-100,6351.122150361654,-0.00033862912277685613,0.0016131610671777684,0.9999986415199216,254.2617085320111,25.85231783171587,1117.7069278749266,-50.8009796913113,-73.39041137695312,4381.2578125,True
1599571493.5946536,0.0,10,0.5,0.5,-0.32240596694946255,-0.15025,-0.02275,-0.5,0.0340996622079104,10,1,100,0.060658781890483786,-10,-1,-100,6349.054768595728,-0.000875900079839781,0.0017701687589675916,0.9999980496489055,249.05390979130945,25.29790764503914,1103.9723690768076,-51.17507135398577,-77.88046264648438,4381.2578125,True
1599571493.6830018,0.0,10,0.5,0.5,0.5914677719116213,-0.15025,-0.02275,-0.5,0.03457176663276813,10,1,100,0.06760602216545211,-10,-1,-100,6346.985923157772,-0.0014235380024724782,0.0019153720039269025,0.9999971524407667,242.67630454623324,24.63557498407653,1084.6754153690647,-51.549377877734024,-82.62753295898438,4381.2578125,True
1599571493.759797,0.0,10,0.5,0.5,-0.13197754592895494,-0.15025,-0.02275,-0.5,0.027649289878565603,10,1,100,0.04380995524938783,-10,-1,-100,6345.951745455735,-0.0017009045362281225,0.0019827102206550116,0.9999965878861486,239.07633833705427,24.26785155261923,1073.0204506611324,-51.73661974173681,-85.04409790039062,4381.2578125,True
1599571493.8346,0.0,10,0.5,0.5,1.926894648742676,-0.15025,-0.02275,-0.5,0.03529304641528081,10,1,100,0.07971999582853602,-10,-1,-100,6343.883389857947,-0.0022754162294418546,0.0021118341248135292,0.9999951813071962,240.3459872237003,24.403849694606922,1087.660383800959,-52.111075942302364,-89.946533203125,4381.2578125,True
1599571493.910394,0.0,10,0.5,0.5,4.282827379989624,-0.15025,-0.02275,-0.5,0.04135765912955003,10,1,100,0.12001704854242981,-10,-1,-100,6340.7193351446185,-0.0031595866620999103,0.0022827562217228488,0.9999924029892212,251.74984874892584,25.599797841294865,1153.3442669948643,-52.67193523683321,-97.20426177978516,4381.2578125,True
1599571493.9872227,0.0,10,0.5,0.5,2.3124016080856324,-0.15025,-0.02275,-0.5,0.0302140436381554,10,1,100,0.06573247166107964,-10,-1,-100,6339.685158940032,-0.003465163818205043,0.00233537817189172,0.9999912692861409,255.45272594242456,25.99460931215504,1175.0695689758916,-52.858659512542815,-99.60823059082031,4381.2578125,True
1599571494.0623987,0.0,10,0.5,0.5,5.6833955698013305,-0.15025,-0.02275,-0.5,0.038857075861107676,10,1,100,0.1361871656033377,-10,-1,-100,6336.45714258973,-0.004378653377286448,0.0024603795434906847,0.9999873868840063,265.10606319467286,27.043186188978645,1234.2785048837582,-53.41816018965788,-106.49113464355469,4381.2578125,True
1599571494.1436875,0.0,10,0.5,0.5,5.099849471855164,-0.15025,-0.02275,-0.5,0.03372166676515792,10,1,100,0.11487124021582171,-10,-1,-100,6334.3262918769615,-0.005010088265228442,0.00252599047353724,0.9999842590699627,270.74588905604065,27.666212797779572,1270.593589179335,-53.790636446543324,-110.72349548339844,4381.2578125,True
1599571494.8119013,0.0,10,0.5,0.5,4.394495788764954,-0.15025,-0.02275,-0.5,0.030404788989532354,10,1,100,0.08794069459814939,-10,-1,-100,6333.229617347592,-0.005333903180260502,0.002554256375625367,0.9999825124727088,273.3185112941232,27.952542912351156,1287.7364941590854,-53.976726218927574,-112.72775268554688,4381.2578125,True
1599571494.8757305,0.0,10,0.5,0.5,4.750594976234436,-0.15025,-0.02275,-0.5,0.029237546589344073,10,1,100,0.09034629291689993,-10,-1,-100,6332.194465706823,-0.005644913023777874,0.0025682543950518175,0.9999807693282488,275.65286254850963,28.213986787294488,1303.8439577287854,-54.16272543307225,-114.65725708007812,4381.2578125,True
1599571494.947539,0.0,10,0.5,0.5,5.0856728910446165,-0.15025,-0.02275,-0.5,0.02889604831810261,10,1,100,0.0945012203678835,-10,-1,-100,6331.097791593755,-0.005960597418438063,0.002577007070857419,0.999978914934196,277.7645095117923,28.451753909140987,1318.977236053143,-54.348640323259275,-116.51184844970703,4381.2578125,True
1599571495.0196252,0.0,10,0.5,0.5,6.511963569641113,-0.15025,-0.02275,-0.5,0.029111500631168425,10,1,100,0.1353577278949221,-10,-1,-100,6328.903467076481,-0.006614383575339859,0.0025861892168795734,0.9999747804596139,281.37920358224534,28.861115694244702,1346.5594032419938,-54.720240851839236,-119.99620056152344,4381.2578125,True
1599571495.0914495,0.0,10,0.5,0.5,6.9259054271698,-0.15025,-0.02275,-0.5,0.026282204439575782,10,1,100,0.1433937341610791,-10,-1,-100,6326.710119790165,-0.007277070278967585,0.002568205914055278,0.9999702238399591,284.29418549875425,29.192227658517186,1371.031942453826,-55.09157240158344,-123.18128967285156,4381.2578125,True
1599571495.1672437,0.0,10,0.5,0.5,8.162467226791382,-0.15025,-0.02275,-0.5,0.018637689652440816,10,1,100,0.18890009989429224,-10,-1,-100,6323.357601546915,-0.008288137729164965,0.002481829599156146,0.9999625729470194,287.6211285165861,29.56748110043832,1403.056008577957,-55.64814830196139,-127.3986587524414,4381.2578125,True
1599571495.2380939,0.0,10,0.5,0.5,6.95608012752533,-0.15025,-0.02275,-0.5,0.022131472990127965,10,1,100,0.12591678889584315,-10,-1,-100,6322.261417841422,-0.00862924829163148,0.002434730983704689,0.9999598032715906,288.5076980292859,29.66585551227067,1412.7301612742508,-55.833576969817464,-128.65524291992188,4381.2578125,True
1599571495.3218675,0.0,10,0.5,0.5,8.56008873977661,-0.15025,-0.02275,-0.5,0.004406570736482519,10,1,100,0.2054982607887231,-10,-1,-100,6318.845914399601,-0.009657844309600374,0.002230640426659331,0.9999508739366042,290.6719084784891,29.89899189580963,1439.5255736364197,-56.38961479695843,-131.9781951904297,4381.2578125,True
1599571495.397667,0.0,10,0.5,0.5,8.17095427093506,-0.15025,-0.02275,-0.5,0.0040183771645013085,10,1,100,0.17977290174463595,-10,-1,-100,6316.588607976795,-0.01035343498872458,0.0020416697402775696,0.9999443174340288,291.81141061127994,30.014804746665206,1456.0402201785505,-56.76012104386176,-133.82164001464844,4381.2578125,True
1599571495.473455,0.0,10,0.5,0.5,7.838308111572266,-0.15025,-0.02275,-0.5,0.010888546932729604,10,1,100,0.1496901200474701,-10,-1,-100,6315.491449182387,-0.010706878698307406,0.0019327149412809647,0.9999408119291339,292.3209591971014,30.064277728053177,1464.0382686688622,-56.945322644432004,-134.63194274902344,4381.2578125,True
