Timestamp,Input Throttle,horizon,dT,dt,Input Roll,Roll P,Roll I,Roll D,Input Pitch,Pitch P,Pitch I,Pitch D,Input Yaw,Yaw P,Yaw I,Yaw D,Altitude,Direction X,Direction Y,Direction Z,Drag X,Drag Y,Drag Z,Vertical Velocity,Roll,Mass,Has Fuel
1599568500.0992513,0.0,10,0.5,0.5,-5.432991050720215,-0.1005,-0.00825,-0.12575,-0.06717794299282931,10,1,100,0.6903676590277483,-10,-1,-100,6483.617967479746,-0.06725873416245844,-0.007002023900748944,0.9977109974036354,205.07316241502366,21.498772131423575,-156.76519887419335,9.590824366071724,-35.94439697265625,4381.2578125,True
1599568500.1571324,0.0,10,0.5,0.5,-5.4775568252563485,-0.1005,-0.00825,-0.12575,-0.06905474697104473,10,1,100,0.6894871542674179,-10,-1,-100,6483.776675296947,-0.06735122451906378,-0.00698688122414422,0.9977048641990989,204.84253884189638,21.4777673031368,-153.51309606034184,9.400810537695978,-35.9427490234375,4381.2578125,True
1599568500.2189674,0.0,10,0.5,0.5,-5.51342654876709,-0.1005,-0.00825,-0.12575,-0.05043074223605378,10,1,100,0.7100270580872701,-10,-1,-100,6484.316760269576,-0.06756080467386814,-0.0067974543103453315,0.9976920027176313,204.1493295288874,21.414342658165207,-143.78926161758267,8.830798418803045,-35.98040771484375,4381.2578125,True
1599568500.7212222,0.0,10,0.5,0.5,-5.539349310302734,-0.1005,-0.00825,-0.12575,-0.05281129450134245,10,1,100,0.6980601625930196,-10,-1,-100,6484.538936386001,-0.06758112321494814,-0.006640709905385016,0.9976916822129762,203.94224388942195,21.395589114258048,-140.5757182538654,8.640801432546857,-36.083740234375,4381.2578125,True
1599568500.7701528,0.0,10,0.5,0.5,-5.502500520324707,-0.1005,-0.00825,-0.12575,-0.027407789302653425,10,1,100,0.7036681810667809,-10,-1,-100,6484.856804549228,-0.06758913921731419,-0.006261237026428115,0.9976935928283601,203.59170264477055,21.364377965681207,-134.20525426262398,8.260811724487045,-36.500640869140625,4381.2578125,True
1599568500.824008,0.0,10,0.5,0.5,-5.599062746429444,-0.1005,-0.00825,-0.12575,-0.06598120090098632,10,1,100,0.7096254947519072,-10,-1,-100,6484.856804549228,-0.06758913921731419,-0.006261237026428115,0.9976935928283601,203.59170264477055,21.364377965681207,-134.20525426262398,8.260811724487045,-36.500640869140625,4381.2578125,True
1599568500.878372,0.0,10,0.5,0.5,-5.483185565185547,-0.1005,-0.00825,-0.12575,-0.002803977165617852,10,1,100,0.7037991487218016,-10,-1,-100,6485.175624181633,-0.06747472776320658,-0.005681206595173467,0.9977048085505573,203.3172494438216,21.340402855374062,-127.89844914807333,7.880820968956206,-37.2078857421875,4381.2578125,True
1599568500.9384146,0.0,10,0.5,0.5,-5.251208778381348,-0.1005,-0.00825,-0.12575,0.07906850480169729,10,1,100,0.6751917189773854,-10,-1,-100,6485.590081730974,-0.06704930914564751,-0.004404446179243492,0.9977399415664111,202.9725999941792,21.309523800323618,-118.49856303231283,7.310816122303313,-38.81878662109375,4381.2578125,True
1599568500.9982562,0.0,10,0.5,0.5,-5.169954946899415,-0.1005,-0.00825,-0.12575,0.07392766040583137,10,1,100,0.6728396016788774,-10,-1,-100,6485.909323551925,-0.06658022814592951,-0.0032864857991066194,0.9977756622764099,202.7095820882864,21.283860664307667,-112.22442357081596,6.930788560126771,-40.2598876953125,4381.2578125,True
1599568501.059129,0.0,10,0.5,0.5,-5.204238113403321,-0.1005,-0.00825,-0.12575,0.031525679293376366,10,1,100,0.6938270212952029,-10,-1,-100,6486.005458354019,-0.06628405811711072,-0.0026526430220053204,0.9977972675471333,202.54299916381672,21.266812548404086,-109.07250139398317,6.740764189897973,-41.0906982421875,4381.2578125,True
1599568501.1159759,0.0,10,0.5,0.5,-4.92317995452881,-0.1005,-0.00825,-0.12575,0.12040659022377838,10,1,100,0.649509334648692,-10,-1,-100,6486.261183946626,-0.06555166634129161,-0.0012660025407077527,0.9978483733901894,202.08525036141475,21.21848339637064,-102.71661621841473,6.360688086000115,-42.973052978515625,4381.2578125,True
1599568501.1728635,0.0,10,0.5,0.5,-4.661678821563721,-0.1005,-0.00825,-0.12575,0.15511448854717422,10,1,100,0.6226424811514795,-10,-1,-100,6486.51786019688,-0.06464316339313701,0.0003048914985390518,0.9979083968319449,201.37857286861637,21.142436453968298,-96.26433072427199,5.980565310980703,-45.149444580078125,4381.2578125,True
1599568501.2307637,0.0,10,0.5,0.5,-4.064350959777832,-0.1005,-0.00825,-0.12575,0.2908948931591727,10,1,100,0.5226474023767411,-10,-1,-100,6486.869139794842,-0.06291066732515878,0.002960715419124603,0.9980147704823362,199.599124728229,20.949960194013595,-86.34521820382483,5.41025765943013,-48.96563720703125,4381.2578125,True
1599568501.290603,0.0,10,0.5,0.5,-3.8745767669677735,-0.1005,-0.00825,-0.12575,0.23681935372561289,10,1,100,0.539145126767917,-10,-1,-100,6487.06179569778,-0.06148987760996081,0.004874633925052315,0.9980958034655836,197.7432992203299,20.749597664375347,-79.5464389984303,5.029942333270077,-51.87811279296875,4381.2578125,True
1599568501.3486922,0.0,10,0.5,0.5,-3.8733217544555667,-0.1005,-0.00825,-0.12575,0.15637847847534386,10,1,100,0.5935812967469789,-10,-1,-100,6487.15787266125,-0.060698662364685935,0.005872810661047391,0.9981388593187208,196.55933276098028,20.62208318822761,-76.08813762295097,4.839743587241175,-53.44482421875,4381.2578125,True
1599568501.4074986,0.0,10,0.5,0.5,-3.297181960296631,-0.1005,-0.00825,-0.12575,0.276224152624191,10,1,100,0.4795153838006558,-10,-1,-100,6487.351966735441,-0.058948677002971864,0.007858719233589275,0.9982300806986367,193.5842200110139,20.30269042913216,-69.05860587733179,4.459245801159414,-56.80029296875,4381.2578125,True
1599568501.4656134,0.0,10,0.5,0.5,-2.876490968322754,-0.1005,-0.00825,-0.12575,0.3058705326879766,10,1,100,0.43682109568168825,-10,-1,-100,6487.54409264063,-0.056977506293254224,0.009920766885334477,0.9983261702274508,189.6593464947014,19.883299689258816,-61.89418311188809,4.078586471596573,-60.450653076171875,4381.2578125,True
1599568501.5224614,0.0,10,0.5,0.5,-2.4236731834411627,-0.1005,-0.00825,-0.12575,0.3329525435409316,10,1,100,0.3899669556809896,-10,-1,-100,6487.67517217854,-0.05476912912211361,0.012027372146056517,0.9984266046207231,184.63109788807938,19.348532403337654,-54.63609050457623,3.69773272718581,-64.39617919921875,4381.2578125,True
1599568501.5822995,0.0,10,0.5,0.5,-1.9389406318664553,-0.1005,-0.00825,-0.12575,0.34738448059335586,10,1,100,0.344040863850261,-10,-1,-100,6487.805268285214,-0.05235516738627328,0.014058729248711956,0.9985295631977388,178.38144545386757,18.686824498149115,-47.35392822535668,3.316651733055862,-68.6383056640625,4381.2578125,True
1599568501.6421635,0.0,10,0.5,0.5,-1.4222269920349122,-0.1005,-0.00825,-0.12575,0.36584115882091506,10,1,100,0.2953791176273812,-10,-1,-100,6487.934872805257,-0.0497312090796283,0.016057437130423968,0.9986335491842243,170.75928506355714,17.88339845458729,-40.123612070098375,2.9352715100678073,-73.17642211914062,4381.2578125,True
1599568501.702977,0.0,10,0.5,0.5,-0.8725628341674807,-0.1005,-0.00825,-0.12575,0.3782032763006724,10,1,100,0.24656521268201137,-10,-1,-100,6488.003931130865,-0.04691707770957267,0.01796981801802138,0.9987371393212496,161.68521016883352,16.92994445197484,-33.05530538210251,2.5535747440174736,-78.01116943359375,4381.2578125,True
1599568501.7658346,0.0,10,0.5,0.5,-0.2905548866271973,-0.1005,-0.00825,-0.12575,0.3866114850789602,10,1,100,0.19797102114633053,-10,-1,-100,6488.133541637799,-0.0439339516215902,0.019767297249677348,0.9988388568004123,151.1598689171572,15.826076676961728,-26.284188406258075,2.171631983713176,-83.14297485351562,4381.2578125,True
1599568501.8306372,0.0,10,0.5,0.5,0.32382847213745114,-0.1005,-0.00825,-0.12575,0.3906773156760734,10,1,100,0.15036902041191075,-10,-1,-100,6488.200660618488,-0.04080809990926736,0.021420638278655493,0.9989373630200895,148.0161454482456,15.496567294047964,-21.21157824084487,1.7895572531963815,-88.57220458984375,4381.2578125,True
1599568501.8964627,0.0,10,0.5,0.5,2.2961443836212156,-0.1005,-0.00825,-0.12575,0.5363949731220274,10,1,100,-0.26093474227462954,-10,-1,-100,6488.27341427526,-0.03424738466220159,0.024231599806453816,0.9991195855425009,164.63249094794676,17.23422548943839,-13.522028217873036,1.0254357744497118,-100.16277313232422,4381.2578125,True
1599568501.9592915,0.0,10,0.5,0.5,1.546697799110413,-0.1005,-0.00825,-0.12575,0.3223526081106369,10,1,100,0.20780084690960532,-10,-1,-100,6488.307481586933,-0.03256909660558735,0.024823582453547467,0.9991611700323767,168.55675422128834,17.643910226320315,-11.26671141003666,0.8344623310483019,-103.11628723144531,4381.2578125,True
1599568502.0221531,0.0,10,0.5,0.5,2.534549040031433,-0.1005,-0.00825,-0.12575,0.3796317597194355,10,1,100,0.010960555549981155,-10,-1,-100,6488.312645616243,-0.029279495328813365,0.025865240082083046,0.9992365588331855,175.62435879372944,18.382125175900303,-6.367353080230372,0.45255892926684904,-108.94292449951172,4381.2578125,True
1599568502.0833986,0.0,10,0.5,0.5,2.4837654376983647,-0.1005,-0.00825,-0.12575,0.32758480696567865,10,1,100,0.1605502349000721,-10,-1,-100,6488.345267836354,-0.02767582687281435,0.02632267788221897,0.9992703163989286,178.9996331764587,18.73506724149424,-3.751664100196027,0.2616040652355549,-111.76678466796875,4381.2578125,True
1599568502.1452374,0.0,10,0.5,0.5,3.9910349430084233,-0.1005,-0.00825,-0.12575,0.40543979081681897,10,1,100,-0.23322842488822976,-10,-1,-100,6488.322067360394,-0.022664778350576537,0.02743139218008301,0.999366712746318,186.18994127219543,19.486589518536388,4.646293579018073,-0.3114122914928008,-119.8111343383789,4381.2578125,True
1599568502.2070758,0.0,10,0.5,0.5,4.155714135932922,-0.1005,-0.00825,-0.12575,0.35441088946761534,10,1,100,-0.09060009810454944,-10,-1,-100,6488.327785160742,-0.019435086620004288,0.027961411511299352,0.9994200502663375,189.3508628751468,19.81679208319321,10.525532459384541,-0.6935884794020817,-124.80799102783203,4381.2578125,True
1599568502.26688,0.0,10,0.5,0.5,4.637462091064453,-0.1005,-0.00825,-0.12575,0.3475114171037288,10,1,100,-0.11493730531344074,-10,-1,-100,6488.270045594429,-0.016307683236463477,0.02836788598885834,0.9994645178854437,191.34919578583572,20.025301397472433,16.501729546202114,-1.0758854880057847,-129.50970458984375,4381.2578125,True
1599568502.3284938,0.0,10,0.5,0.5,5.089607178878785,-0.1005,-0.00825,-0.12575,0.3411201365701502,10,1,100,-0.13858256959479018,-10,-1,-100,6488.210376922507,-0.013280017326907895,0.028668114373735405,0.9995007655615135,192.07617860671826,20.10065372996017,22.455370297738593,-1.4582988985014997,-133.9159393310547,4381.2578125,True
1599568502.389332,0.0,10,0.5,0.5,5.511718657684326,-0.1005,-0.00825,-0.12575,0.33306786068262745,10,1,100,-0.16179996769554492,-10,-1,-100,6488.153659474687,-0.010347105663107472,0.02885812103705006,0.9995299626597531,191.7720335890862,20.06781327225673,28.304789133487528,-1.8408129978718815,-138.02676391601562,4381.2578125,True
1599568502.44916,0.0,10,0.5,0.5,5.903171371459961,-0.1005,-0.00825,-0.12575,0.3284829617475499,10,1,100,-0.17882122435455522,-10,-1,-100,6488.03348463017,-0.007556617131805615,0.02898090908266507,0.9995514016028718,190.63210436446894,19.94717034157739,33.98957387638497,-2.223405024678118,-141.84161376953125,4381.2578125,True
1599568502.5100107,0.0,10,0.5,0.5,5.873844116973878,-0.1005,-0.00825,-0.12575,0.3211480866505263,10,1,100,-0.05107040077854273,-10,-1,-100,6488.003189744544,-0.0062114091202017324,0.029018980922520306,0.9995595615784783,189.81970957686787,19.861315260137076,36.75979375891299,-2.414722155801595,-143.63804626464844,4381.2578125,True
1599568502.5704172,0.0,10,0.5,0.5,6.446416222953796,-0.1005,-0.00825,-0.12575,0.32287980077128364,10,1,100,-0.20389481988447236,-10,-1,-100,6487.883041998022,-0.003624667095546115,0.029064982377017348,0.9995709522529505,187.811336717359,19.649022653710013,42.141130231527434,-2.7973835772657933,-147.00868225097656,4381.2578125,True
1599568502.633248,0.0,10,0.5,0.5,6.754322322654725,-0.1005,-0.00825,-0.12575,0.32030437249462407,10,1,100,-0.2171713469638324,-10,-1,-100,6487.761445059441,-0.0011787008537832275,0.029079533078660052,0.9995764059941714,185.43087804172606,19.397097999972782,47.30634173556724,-3.180067255864956,-150.08294677734375,4381.2578125,True
1599568502.6931267,0.0,10,0.5,0.5,7.319399258422852,-0.1005,-0.00825,-0.12575,0.3121237582538225,10,1,100,-0.35271166671408527,-10,-1,-100,6487.5495320686605,0.002251543368753487,0.029015469684331063,0.9995764268286124,181.62726716493145,18.993417669844426,54.713496708189446,-3.754117181495341,-154.13919067382812,4381.2578125,True
1599568502.7529342,0.0,10,0.5,0.5,7.372137197875976,-0.1005,-0.00825,-0.12575,0.3154438200508899,10,1,100,-0.2436606571470765,-10,-1,-100,6487.426988343708,0.004351367692958086,0.02898496462236704,0.9995703764243119,179.05919636685303,18.720087329664707,59.44853222552049,-4.136832607468378,-156.4722442626953,4381.2578125,True
1599568502.812799,0.0,10,0.5,0.5,7.34775881137848,-0.1005,-0.00825,-0.12575,0.31674574436469616,10,1,100,-0.1462656927403339,-10,-1,-100,6487.336668279371,0.005350329996679576,0.02896765608485045,0.9995660302700748,177.7960350793977,18.58538445090279,61.76489248785427,-4.328198100238276,-157.52752685546875,4381.2578125,True
1599568502.8736393,0.0,10,0.5,0.5,7.668962187194825,-0.1005,-0.00825,-0.12575,0.3227050126462234,10,1,100,-0.25451045429897073,-10,-1,-100,6487.151153361076,0.007219988635489734,0.029005181449146027,0.9995531857851315,175.42820562799128,18.33210053330308,66.34280456010943,-4.710954548139311,-159.4144287109375,4381.2578125,True
1599568502.9334881,0.0,10,0.5,0.5,7.970928048706055,-0.1005,-0.00825,-0.12575,0.32391372259273543,10,1,100,-0.3507318570318966,-10,-1,-100,6486.812838098616,0.009773029539369246,0.029049704329419127,0.9995301909257148,172.332918873018,17.998916459933856,73.13532964932506,-5.285185195276117,-161.68878173828125,4381.2578125,True
1599568502.9926283,0.0,10,0.5,0.5,7.966770232009888,-0.1005,-0.00825,-0.12575,0.32983220349449716,10,1,100,-0.264125076677888,-10,-1,-100,6486.628317219904,0.011285684133435746,0.02914363714699643,0.9995115215681529,170.68723003778572,17.819993585141695,77.6989552936947,-5.668087905011321,-162.83322143554688,4381.2578125,True
1599568503.0536652,0.0,10,0.5,0.5,8.034883546829224,-0.1005,-0.00825,-0.12575,0.33870302233475647,10,1,100,-0.2644898243510253,-10,-1,-100,6486.38130146265,0.0126444743888915,0.02930941486506002,0.99949040789179,169.44899432442506,17.683382708442945,82.36263245681137,-6.051062710138101,-163.67990112304688,4381.2578125,True
1599568503.1145108,0.0,10,0.5,0.5,8.01696757774353,-0.1005,-0.00825,-0.12575,0.33399521290615636,10,1,100,-0.19915464016408488,-10,-1,-100,6486.227034335374,0.013267417408951184,0.029417024972328377,0.9994791715073779,168.9973224346735,17.63247497428746,84.75118304258997,-6.24257864361767,-163.99166870117188,4381.2578125,True
1599568503.1743536,0.0,10,0.5,0.5,8.085260300445558,-0.1005,-0.00825,-0.12575,0.3479776557809519,10,1,100,-0.26426274735842137,-10,-1,-100,6485.980025152094,0.014407913104836544,0.029641603601388837,0.9994567461255647,168.45805908524082,17.568462680631296,89.68320513616924,-6.625668392696602,-164.392578125,4381.2578125,True
1599568503.2341933,0.0,10,0.5,0.5,8.072528661727905,-0.1005,-0.00825,-0.12575,0.3586041287256995,10,1,100,-0.2599988139787941,-10,-1,-100,6485.733017691411,0.01538957108837173,0.02994184608982844,0.999433162825033,168.41884683259255,17.556281323837943,94.86765667126507,-7.008834217359479,-164.49574279785156,4381.2578125,True
1599568503.2935443,0.0,10,0.5,0.5,8.027591680908204,-0.1005,-0.00825,-0.12575,0.3652536746491539,10,1,100,-0.25570280205151635,-10,-1,-100,6485.4235106444685,0.01622787071775378,0.03027446030315842,0.9994098825133362,168.89672222264994,17.59754370737136,100.36119813592225,-7.392071147831633,-164.30191040039062,4381.2578125,True
1599568503.3548875,0.0,10,0.5,0.5,7.868309199523926,-0.1005,-0.00825,-0.12575,0.4014665813877637,10,1,100,-0.27768427896379394,-10,-1,-100,6484.9572948790155,0.017177087146077255,0.030904900566883196,0.9993747219127205,170.57099583785921,17.757942334554002,109.27865842287612,-7.967041274827939,-163.45310974121094,4381.2578125,True
1599568503.4147277,0.0,10,0.5,0.5,7.883184380340577,-0.1005,-0.00825,-0.12575,0.36405988356002067,10,1,100,-0.2102552683737035,-10,-1,-100,6484.802540098666,0.01741536042150403,0.03113622179370395,0.9993634178384769,171.3768262296711,17.83678005943,112.4505388913373,-8.158722836546389,-163.02163696289062,4381.2578125,True
1599568503.472815,0.0,10,0.5,0.5,7.54826050491333,-0.1005,-0.00825,-0.12575,0.42546286512691744,10,1,100,-0.2380734382266539,-10,-1,-100,6484.273818024434,0.017873896733805354,0.03190275131805019,0.9993311454537419,174.48169462062378,18.143258927156847,122.60601194898022,-8.733817050675848,-161.28146362304688,4381.2578125,True
1599568503.5306604,0.0,10,0.5,0.5,7.422175389099122,-0.1005,-0.00825,-0.12575,0.41041214037047513,10,1,100,-0.20403147030185959,-10,-1,-100,6483.901312149013,0.01797159012012814,0.03246013741524375,0.9993114436588515,177.0640247806884,18.399410005933486,129.91869366760847,-9.117233716093418,-159.75018310546875,4381.2578125,True
1599568503.5900111,0.0,10,0.5,0.5,7.19955926437378,-0.1005,-0.00825,-0.12575,0.41950726574058683,10,1,100,-0.1860733902734132,-10,-1,-100,6483.527336891042,0.017889693779635014,0.033046434613251796,0.9992936965756478,179.98855281330967,18.689898627249654,137.65815126817327,-9.500645265528371,-157.92222595214844,4381.2578125,True
1599568503.6478574,0.0,10,0.5,0.5,6.94472324256897,-0.1005,-0.00825,-0.12575,0.42764242112108464,10,1,100,-0.1659438314183544,-10,-1,-100,6483.15530896117,0.01762624292628055,0.033649840026294314,0.9992782414455489,183.17050271366534,19.005971392152443,145.788911959375,-9.884032219789317,-155.7978057861328,4381.2578125,True
1599568503.7076964,0.0,10,0.5,0.5,6.3588207107543955,-0.1005,-0.00825,-0.12575,0.4669304478730965,10,1,100,-0.1129326568911061,-10,-1,-100,6482.500573342899,0.016900293501585697,0.03455160844029559,0.999260009423848,188.22085955780454,19.50720732943993,158.59857087594014,-10.459025904021313,-152.05616760253906,4381.2578125,True
1599568503.76654,0.0,10,0.5,0.5,6.819484923934937,-0.1005,-0.00825,-0.12575,0.37726706481976574,10,1,100,-0.18589088696985478,-10,-1,-100,6482.500573342899,0.016900293501585697,0.03455160844029559,0.999260009423848,188.22085955780454,19.50720732943993,158.59857087594014,-10.459025904021313,-152.05616760253906,4381.2578125,True
1599568503.8273773,0.0,10,0.5,0.5,5.812358799743652,-0.1005,-0.00825,-0.12575,0.4699643655709625,10,1,100,-0.06173879908777272,-10,-1,-100,6481.84679573297,0.01576937235684245,0.035389847533634736,0.9992491609138421,193.25487391523075,20.006033031031752,171.87550593259,-11.03386297718205,-147.64976501464844,4381.2578125,True
1599568503.8872175,0.0,10,0.5,0.5,5.986887911987305,-0.1005,-0.00825,-0.12575,0.4144825242487986,10,1,100,-0.12358317229561816,-10,-1,-100,6481.629516484565,0.015303138525994032,0.035642549968792646,0.9992474281092627,194.8509403160792,20.16407845025881,176.33372770039904,-11.22543017815363,-146.03350830078125,4381.2578125,True
1599568503.947057,0.0,10,0.5,0.5,5.3934943328857425,-0.1005,-0.00825,-0.12575,0.4463388026949664,10,1,100,-0.05471637651774258,-10,-1,-100,6481.191045582644,0.01425406847468911,0.03615700190511442,0.9992444609529504,197.80390310526226,20.456572355440173,185.17874114621443,-11.608487618294564,-142.57907104492188,4381.2578125,True
1599568504.0068994,0.0,10,0.5,0.5,4.513718643569947,-0.1005,-0.00825,-0.12575,0.45697651277737417,10,1,100,0.04791181552450205,-10,-1,-100,6480.47423896892,0.012370042153729126,0.03671661730130317,0.9992491541507876,201.32658233663818,20.806654210360147,197.90850246764046,-12.182874498393517,-136.84669494628906,4381.2578125,True
1599568504.0667374,0.0,10,0.5,0.5,4.747331153106689,-0.1005,-0.00825,-0.12575,0.4190939171144845,10,1,100,-0.06233331222610436,-10,-1,-100,6480.19298194861,0.01166410603992354,0.03687589825044158,0.9992517784615209,202.16615547914444,20.89074551470668,201.89313358219331,-12.374284825725887,-134.7886199951172,4381.2578125,True
1599568504.1335588,0.0,10,0.5,0.5,3.487943196487427,-0.1005,-0.00825,-0.12575,0.4313259203460762,10,1,100,0.12059270047804439,-10,-1,-100,6479.475171069615,0.009365027448875185,0.03712737810000698,0.9992666581330035,203.35075967667052,21.013169232732636,212.61702232126393,-12.948380624126907,-128.17498779296875,4381.2578125,True
1599568504.693115,0.0,10,0.5,0.5,3.761623915481567,-0.1005,-0.00825,-0.12575,0.40849141358412255,10,1,100,-0.018200796849762127,-10,-1,-100,6479.194392438163,0.008544539216966969,0.0371441667738807,0.999273386878808,203.21203540904102,21.00184399476806,215.65288636767417,-13.139711301505166,-125.82389831542969,4381.2578125,True
1599568504.7469718,0.0,10,0.5,0.5,2.9170540939331056,-0.1005,-0.00825,-0.12575,0.4037080119514535,10,1,100,0.09350254913701297,-10,-1,-100,6478.63234039105,0.00679165145586397,0.03711221852423198,0.9992880248990835,202.53559351381188,20.942667351008577,221.28067212007363,-13.522345402387902,-120.90129852294922,4381.2578125,True
1599568504.805814,0.0,10,0.5,0.5,2.9256705194473267,-0.1005,-0.00825,-0.12575,0.3961095511803079,10,1,100,0.015541076005852236,-10,-1,-100,6478.351066253497,0.00591670742102672,0.03701095012799733,0.9992973442093785,201.77160054015283,20.87133120202526,223.60965384297847,-13.713659400030057,-118.33064270019531,4381.2578125,True
1599568504.8672278,0.0,10,0.5,0.5,2.6228473295211794,-0.1005,-0.00825,-0.12575,0.3937739545771122,10,1,100,0.030605956630463158,-10,-1,-100,6478.069791559596,0.004994335371024174,0.036895419488038865,0.9993066519517435,200.63601825378893,20.76290643644719,225.49919146818817,-13.904980399570647,-115.6864013671875,4381.2578125,True
1599568504.9280663,0.0,10,0.5,0.5,1.031309351539612,-0.1005,-0.00825,-0.12575,0.33865523062014247,10,1,100,0.24818821003403807,-10,-1,-100,6477.224977609236,0.00218861843838078,0.036287181587515316,0.9993390067448413,194.76353221263466,20.187856800920557,228.081254762987,-14.479059965429567,-107.31492614746094,4381.2578125,True
1599568504.9879055,0.0,10,0.5,0.5,0.7052428644180297,-0.1005,-0.00825,-0.12575,0.33290653015265237,10,1,100,0.18082684721619566,-10,-1,-100,6476.662901461241,0.0002626888469748632,0.0356811613700132,0.9993631900955011,189.3337111180935,19.6487361842403,227.68704641029393,-14.861940860327906,-101.36795043945312,4381.2578125,True
1599568505.0487432,0.0,10,0.5,0.5,0.004459254646301369,-0.1005,-0.00825,-0.12575,0.30926281829252467,10,1,100,0.19701967373970833,-10,-1,-100,6476.038320389809,-0.0016216906138997041,0.03491525596319082,0.9993889608258526,182.2317155197475,18.93307529146223,224.89872483014167,-15.24499654683196,-95.12809753417969,4381.2578125,True
1599568505.110578,0.0,10,0.5,0.5,-0.7251289300918579,-0.1005,-0.00825,-0.12575,0.285400580988875,10,1,100,0.21344087527381866,-10,-1,-100,6475.413248062949,-0.0034696139931061423,0.03400317775053904,0.9994157021388066,173.11398046284856,18.00066592971726,219.1214972423496,-15.628249374930885,-88.60830688476562,4381.2578125,True
1599568505.1714153,0.0,10,0.5,0.5,-1.463487486076355,-0.1005,-0.00825,-0.12575,0.26011892098148504,10,1,100,0.227413290635206,-10,-1,-100,6474.788173691952,-0.005262166608263848,0.032946649229470944,0.9994432589732831,165.65119270473141,17.229179688711895,214.92287439721963,-16.01164875595788,-81.89703369140625,4381.2578125,True
1599568505.2307668,0.0,10,0.5,0.5,-1.4267258584976197,-0.1005,-0.00825,-0.12575,0.3019444840260412,10,1,100,0.1444869429883892,-10,-1,-100,6474.443410044303,-0.006122496486483257,0.03236997319165134,0.9994572026216754,172.55219797266352,17.944804819808923,226.6115746549564,-16.203300165906487,-78.52224731445312,4381.2578125,True
1599568505.293035,0.0,10,0.5,0.5,-2.547063263130188,-0.1005,-0.00825,-0.12575,0.2235216222122975,10,1,100,0.24064851018647931,-10,-1,-100,6473.817358653992,-0.007764731055815032,0.031137112054334348,0.9994849619701872,184.98872949121247,19.226510812390114,248.8104596691503,-16.586386656513817,-71.87582397460938,4381.2578125,True
1599568505.3558726,0.0,10,0.5,0.5,-3.9055650609970094,-0.1005,-0.00825,-0.12575,0.12240434671943703,10,1,100,0.32694701191627673,-10,-1,-100,6472.786487311823,-0.010027376797957729,0.02910254220203794,0.9995261346017573,199.7846605027277,20.736514583395657,278.21429494870046,-17.16039497403235,-62.3740234375,4381.2578125,True
1599568505.4187047,0.0,10,0.5,0.5,-4.109304050064087,-0.1005,-0.00825,-0.12575,0.16602542087952848,10,1,100,0.2516108536459616,-10,-1,-100,6472.098427942023,-0.011384163280853841,0.027656769988971305,0.9995526518899203,207.35971558165082,21.504472043578495,295.33833565830207,-17.54265375749456,-56.40582275390625,4381.2578125,True
1599568505.4790518,0.0,10,0.5,0.5,-4.059765744781495,-0.1005,-0.00825,-0.12575,0.2289462802596074,10,1,100,0.18697995437866471,-10,-1,-100,6471.754155557719,-0.01201432384405499,0.026922943226128742,0.9995653110980856,210.33767938439917,21.80569490010853,302.9148441754986,-17.733673592453968,-53.533447265625,4381.2578125,True
1599568505.538892,0.0,10,0.5,0.5,-4.999083458709717,-0.1005,-0.00825,-0.12575,0.14260453440039028,10,1,100,0.25416377211934793,-10,-1,-100,6471.003602634417,-0.013182496645321264,0.025479968912335265,0.9995884117807802,214.81699878946083,22.259433564570198,316.17951912569055,-18.115531568647445,-48.011932373046875,4381.2578125,True
1599568505.5987322,0.0,10,0.5,0.5,-6.100804624557496,-0.1005,-0.00825,-0.12575,0.040094702065872734,10,1,100,0.30767340062508025,-10,-1,-100,6469.909278277308,-0.014716949346448441,0.023246091253732108,0.9996214436692308,218.89648571470156,22.681248100139364,332.6087280409951,-18.68799582954867,-40.289825439453125,4381.2578125,True
1599568505.6595714,0.0,10,0.5,0.5,-6.260661019515992,-0.1005,-0.00825,-0.12575,0.10267449394533412,10,1,100,0.2521307905151302,-10,-1,-100,6469.158737509395,-0.015593355675388672,0.021795505190375507,0.9996408371071467,220.06469793626098,22.812631631146786,341.381973083857,-19.06951984008436,-35.5140380859375,4381.2578125,True
1599568505.7204068,0.0,10,0.5,0.5,-6.722565328216553,-0.1005,-0.00825,-0.12575,0.09392410613620003,10,1,100,0.2526328074973316,-10,-1,-100,6468.346191007993,-0.016381950978752995,0.02040916865339812,0.9996574901019885,220.03900512292444,22.8283201048667,348.35179543792725,-19.451020517735785,-31.03546142578125,4381.2578125,True
1599568505.7802472,0.0,10,0.5,0.5,-6.68831219329834,-0.1005,-0.00825,-0.12575,0.15754342115382547,10,1,100,0.21512617894522224,-10,-1,-100,6468.001444088761,-0.016746147961350797,0.019739578310030852,0.9996649016428448,219.64972341102933,22.79967149971407,351.23951934279756,-19.641777747208952,-28.9075927734375,4381.2578125,True
1599568505.8410845,0.0,10,0.5,0.5,-7.376774781799316,-0.1005,-0.00825,-0.12575,0.07755219403681243,10,1,100,0.25166940878994004,-10,-1,-100,6467.188419170561,-0.017399007324707064,0.018415673270378165,0.9996790172460926,218.25208431554975,22.68205183034683,355.9798038885273,-20.023328939205783,-24.875213623046875,4381.2578125,True
1599568505.9009268,0.0,10,0.5,0.5,-8.156562423706056,-0.1005,-0.00825,-0.12575,0.006340002405704842,10,1,100,0.2804801127653936,-10,-1,-100,6465.969624167075,-0.018244179954045772,0.016577425401248628,0.9996961232618992,214.996385542225,22.391562491091335,361.00731137221635,-20.595784382761174,-19.383056640625,4381.2578125,True
1599568505.9637563,0.0,10,0.5,0.5,-8.253732741546632,-0.1005,-0.00825,-0.12575,0.06421482413545736,10,1,100,0.250334850460309,-10,-1,-100,6465.092645987519,-0.018728944097127255,0.015445661796540514,0.9997052856640668,212.3220315590234,22.14704033514197,363.34394098214983,-20.977522064501496,-16.092437744140625,4381.2578125,True
1599568506.0235965,0.0,10,0.5,0.5,-8.225227877807619,-0.1005,-0.00825,-0.12575,0.11735981079691063,10,1,100,0.22761943995758413,-10,-1,-100,6464.685408903984,-0.018955224525086405,0.014912337380460437,0.9997091185225104,210.89880900447702,22.01564919194996,364.3054570077209,-21.168421392021486,-14.558258056640625,4381.2578125,True
1599568506.0854309,0.0,10,0.5,0.5,-8.7107936378479,-0.1005,-0.00825,-0.12575,0.06030145953839018,10,1,100,0.25392789580307173,-10,-1,-100,6463.810391633306,-0.01939321900251349,0.013920370565863373,0.9997150225639452,208.1915970846331,21.76626305003767,366.34826047421575,-21.550275281574457,-11.712005615234375,4381.2578125,True
1599568506.1462677,0.0,10,0.5,0.5,-9.227594201660157,-0.1005,-0.00825,-0.12575,0.009330868232370587,10,1,100,0.27160137847422655,-10,-1,-100,6462.527170774643,-0.01994535573795001,0.012567034061320651,0.9997220876020435,204.5234992631803,21.428743691636704,369.8241594022059,-22.12316205872336,-7.99835205078125,4381.2578125,True
1599568506.2170787,0.0,10,0.5,0.5,-9.270051725006105,-0.1005,-0.00825,-0.12575,0.05708634641220536,10,1,100,0.2542894662433554,-10,-1,-100,6461.589175263303,-0.020283769150709268,0.011782607890508506,0.9997248315713376,202.4062001150568,21.234300194912603,372.5657525811601,-22.505133258427982,-5.892547607421875,4381.2578125,True
1599568506.280908,0.0,10,0.5,0.5,-9.246735112762451,-0.1005,-0.00825,-0.12575,0.09507767401487191,10,1,100,0.2390126701588569,-10,-1,-100,6461.181457914878,-0.020447476998082005,0.011425290243761,0.9997256440780434,201.56905486407535,21.159100836702876,374.3015136085435,-22.696124055861866,-4.95062255859375,4381.2578125,True
1599568506.3481596,0.0,10,0.5,0.5,-9.692434664154053,-0.1005,-0.00825,-0.12575,0.027281794108831692,10,1,100,0.2755392258616237,-10,-1,-100,6459.774229906965,-0.020923949073607197,0.01049355730661437,0.9997259992669081,199.39665223353876,20.964437341108546,380.01113692577053,-23.26909071757406,-2.568603515625,4381.2578125,True
1599568506.4139843,0.0,10,0.5,0.5,-9.692005736541748,-0.1005,-0.00825,-0.12575,0.06321449723122907,10,1,100,0.2599454249599979,-10,-1,-100,6458.835268188734,-0.02121121459034727,0.009982202493363576,0.9997251822420918,198.31961513638151,20.87013623192229,384.43468028492094,-23.651043458511673,-1.350372314453125,4381.2578125,True
1599568506.4831266,0.0,10,0.5,0.5,-9.770301608276368,-0.1005,-0.00825,-0.12575,0.06815952543401159,10,1,100,0.2635273161044722,-10,-1,-100,6457.89630882279,-0.021500868555398015,0.009571159624812394,0.9997230144168934,197.6026498625583,20.811386877543505,389.509449134351,-24.032958237370373,-0.427703857421875,4381.2578125,True
1599568506.553453,0.0,10,0.5,0.5,-9.816341722106934,-0.1005,-0.00825,-0.12575,0.07359591838229951,10,1,100,0.2660541770786698,-10,-1,-100,6456.895340204239,-0.021783432840454406,0.009254946510791723,0.9997198747743129,197.28132237708076,20.792526840995535,395.34160985782904,-24.414820408182134,0.199462890625,4381.2578125,True
1599568506.6302476,0.0,10,0.5,0.5,-9.841153817749024,-0.1005,-0.00825,-0.12575,0.07187590945613172,10,1,100,0.2825145087030669,-10,-1,-100,6455.425142704393,-0.022186731339012545,0.008958500397708185,0.9997137061294673,197.600057146257,20.846732167346413,405.7155554383231,-24.98748609539274,0.5863037109375,4381.2578125,True
1599568506.7043855,0.0,10,0.5,0.5,-9.806268546295167,-0.1005,-0.00825,-0.12575,0.10087180462460228,10,1,100,0.2425304375714415,-10,-1,-100,6455.425142704393,-0.022186731339012545,0.008958500397708185,0.9997137061294673,197.600057146257,20.846732167346413,405.7155554383231,-24.98748609539274,0.5863037109375,4381.2578125,True
1599568506.7761939,0.0,10,0.5,0.5,-9.755999977111816,-0.1005,-0.00825,-0.12575,0.09233237081409998,10,1,100,0.28541862862060446,-10,-1,-100,6453.890495748143,-0.02257368625144682,0.008886281760324303,0.9997056880329818,198.91785636185057,21.006200203417833,418.2467878507814,-25.559959806276332,0.30889892578125,4381.2578125,True
1599568506.8509998,0.0,10,0.5,0.5,-9.675496157073978,-0.1005,-0.00825,-0.12575,0.10676620166286044,10,1,100,0.2734695866705408,-10,-1,-100,6452.88953585655,-0.022813944456614735,0.008956421542059995,0.9996996081081014,200.34854663726267,21.171994373146955,427.8665092344587,-25.941480685693527,-0.24493408203125,4381.2578125,True
1599568506.9238055,0.0,10,0.5,0.5,-9.663848781585694,-0.1005,-0.00825,-0.12575,0.10692208316617256,10,1,100,0.26213033639014655,-10,-1,-100,6452.358294877922,-0.022926669105383195,0.009024884459594608,0.9996964135697514,201.22476400278572,21.272530719790232,433.062204213842,-26.132197676201205,-0.63250732421875,4381.2578125,True
1599568506.9946165,0.0,10,0.5,0.5,-9.353867864990235,-0.1005,-0.00825,-0.12575,0.14141305727720715,10,1,100,0.285745042707472,-10,-1,-100,6450.761643906706,-0.02324142257082596,0.00940318480693631,0.9996856587909876,204.46176577914085,21.642154999844482,450.1791070747822,-26.704152676019547,-2.2371826171875,4381.2578125,True
1599568507.0694144,0.0,10,0.5,0.5,-9.232480476379395,-0.1005,-0.00825,-0.12575,0.1438718887624789,10,1,100,0.2740559538726192,-10,-1,-100,6449.635687971488,-0.023418757690390955,0.009771285504782895,0.9996779900387038,207.0783752228149,21.94105609757998,462.807355770281,-27.085273223469283,-3.67547607421875,4381.2578125,True
1599568507.1432188,0.0,10,0.5,0.5,-9.020368690490724,-0.1005,-0.00825,-0.12575,0.158793899731319,10,1,100,0.2720396151799943,-10,-1,-100,6448.571256354218,-0.023559373075865465,0.010242233758725457,0.9996699718346569,210.00845788818117,22.277046926877674,476.3301559637187,-27.466227261225267,-5.408355712890625,4381.2578125,True
1599568507.215027,0.0,10,0.5,0.5,-9.013921061706544,-0.1005,-0.00825,-0.12575,0.14184297769524784,10,1,100,0.26416955861586616,-10,-1,-100,6448.038065020344,-0.023613524586181565,0.010516032851740447,0.999665851427205,211.57213512703942,22.457107163371454,483.3933293487276,-27.656636179195303,-6.38519287109375,4381.2578125,True
1599568507.2863512,0.0,10,0.5,0.5,-8.639828368377685,-0.1005,-0.00825,-0.12575,0.18213355049693514,10,1,100,0.26741948061102755,-10,-1,-100,6446.912599590025,-0.02369037738094241,0.01113036007701766,0.9996573818584569,214.85056752436302,22.836668142192842,498.0318690836198,-28.037305947949207,-8.559844970703125,4381.2578125,True
1599568507.356167,0.0,10,0.5,0.5,-8.04314799041748,-0.1005,-0.00825,-0.12575,0.24165453723256228,10,1,100,0.26115422765716834,-10,-1,-100,6445.190467342851,-0.023701553127016745,0.012228234330715168,0.9996442900674821,220.74178536136432,23.51817585406386,522.7160991331846,-28.607890163629726,-12.37384033203125,4381.2578125,True
1599568507.426979,0.0,10,0.5,0.5,-7.853546272277832,-0.1005,-0.00825,-0.12575,0.22483232602775907,10,1,100,0.25208827380571935,-10,-1,-100,6444.062562079518,-0.02362791802317296,0.013070400155911958,0.9996353765897116,224.78578899311208,23.990228862665937,539.7840955753992,-28.987968912522362,-15.284423828125,4381.2578125,True
1599568507.497789,0.0,10,0.5,0.5,-7.4813374893188485,-0.1005,-0.00825,-0.12575,0.24201809869619686,10,1,100,0.24173947726716177,-10,-1,-100,6442.875086428947,-0.0234655868814334,0.013988501657841925,0.9996267743781568,229.27300056171694,24.51288236834915,558.2021006798863,-29.367774418325496,-18.4893798828125,4381.2578125,True
1599568507.5666058,0.0,10,0.5,0.5,-7.4813244384765625,-0.1005,-0.00825,-0.12575,0.20406595858423715,10,1,100,0.24534881085356505,-10,-1,-100,6442.280860663974,-0.023350014420973838,0.014473481549580882,0.9996225763548832,231.46863539582668,24.76990004128508,567.4055382086169,-29.557570732402585,-20.20220947265625,4381.2578125,True
1599568507.6320128,0.0,10,0.5,0.5,-6.417789854431153,-0.1005,-0.00825,-0.12575,0.32620593833072065,10,1,100,0.20393931903371873,-10,-1,-100,6440.493296397384,-0.02286801128586258,0.016019720303395674,0.9996101353133784,237.60842583619913,25.493368624507912,594.3334117408497,-30.126534179179046,-25.782135009765625,4381.2578125,True
1599568507.6978407,0.0,10,0.5,0.5,-6.644608275604249,-0.1005,-0.00825,-0.12575,0.23162834810587007,10,1,100,0.2284035305340289,-10,-1,-100,6439.903463876573,-0.022652281865600185,0.016559236681325206,0.999606255385996,239.43595034160325,25.71014655355632,602.892717370106,-30.31605116269468,-27.78924560546875,4381.2578125,True
1599568507.7666554,0.0,10,0.5,0.5,-5.4137551185607915,-0.1005,-0.00825,-0.12575,0.3619180928039338,10,1,100,0.16065719684319527,-10,-1,-100,6438.060232953052,-0.021840824032449725,0.01822765283863046,0.9995952836411235,244.1516740561073,26.27092759777731,626.9631041639105,-30.884228706540497,-34.251861572265625,4381.2578125,True
1599568507.8304825,0.0,10,0.5,0.5,-5.1432044815063485,-0.1005,-0.00825,-0.12575,0.3203072568079624,10,1,100,0.16604879971430325,-10,-1,-100,6436.797066459316,-0.021153584149921145,0.019358426865913818,0.9995888040523909,246.46582074610805,26.546442349347405,641.1134613650376,-31.262746154846074,-38.9281005859375,4381.2578125,True
1599568507.8923178,0.0,10,0.5,0.5,-5.149652239227295,-0.1005,-0.00825,-0.12575,0.27134225874840323,10,1,100,0.19229226129850957,-10,-1,-100,6436.154985322733,-0.02076958462468426,0.01993297946007798,0.9995855644637741,247.25157981596507,26.640616379404584,647.2756065726703,-31.451942619938954,-41.376434326171875,4381.2578125,True
1599568507.9561803,0.0,10,0.5,0.5,-3.6667253677368166,-0.1005,-0.00825,-0.12575,0.391562018846517,10,1,100,0.08060627740306736,-10,-1,-100,6434.233129072585,-0.01940775242083898,0.021539646049657035,0.9995796030302074,247.8089527584159,26.71251606456849,661.1300743138495,-32.019378145760896,-49.16400146484375,4381.2578125,True
1599568508.0229685,0.0,10,0.5,0.5,-3.3547297691345213,-0.1005,-0.00825,-0.12575,0.34597521867194847,10,1,100,0.10113907321478613,-10,-1,-100,6432.919660118991,-0.018360278220140806,0.022576363596803154,0.9995765143251535,246.41934063752637,26.556462558081556,665.6593440064267,-32.397634403793354,-54.7232666015625,4381.2578125,True
1599568508.0858,0.0,10,0.5,0.5,-2.69441450881958,-0.1005,-0.00825,-0.12575,0.3464027370839371,10,1,100,0.07849260041751357,-10,-1,-100,6431.665757976705,-0.017207007625809876,0.023513313234984897,0.9995754313653766,243.38782422348174,26.213959228883542,665.6303186510644,-32.775960118768374,-60.57720947265625,4381.2578125,True
1599568508.1496296,0.0,10,0.5,0.5,-2.705931711578369,-0.1005,-0.00825,-0.12575,0.3002630409325381,10,1,100,0.12619510553755509,-10,-1,-100,6431.007554986747,-0.01659807614150701,0.023936140292792788,0.999575692509719,241.19964123223934,25.96780324922778,663.7011857276121,-32.965175664804825,-63.614776611328125,4381.2578125,True
1599568508.2104673,0.0,10,0.5,0.5,-1.6263476837158206,-0.1005,-0.00825,-0.12575,0.3464457785295478,10,1,100,0.045220234711990465,-10,-1,-100,6429.632063191617,-0.015314610067126479,0.024731328288377367,0.9995768225202025,235.366061908723,25.316890290591964,655.5911362001293,-33.343761613785695,-69.91015625,4381.2578125,True
1599568508.276298,0.0,10,0.5,0.5,-0.8860097549438478,-0.1005,-0.00825,-0.12575,0.3405375283007402,10,1,100,0.02492134045515343,-10,-1,-100,6428.319554089569,-0.013970592237494611,0.02539118978524801,0.9995799668029681,227.47965664217486,24.448258487742173,641.33939591902,-33.722605528927275,-76.50009155273438,4381.2578125,True
1599568508.3361394,0.0,10,0.5,0.5,0.6883909088134765,-0.1005,-0.00825,-0.12575,0.3588983040313404,10,1,100,-0.07414890184538614,-10,-1,-100,6426.285840533907,-0.011856207843322888,0.026149460498606912,0.9995877330435822,211.5863420654049,22.72942139694178,607.3602365427648,-34.291420047313586,-86.9365234375,4381.2578125,True
1599568508.3959785,0.0,10,0.5,0.5,1.0810457942962646,-0.1005,-0.00825,-0.12575,0.3198896248347156,10,1,100,-0.01966509696190491,-10,-1,-100,6424.903497497668,-0.010439162142127766,0.026475454769129977,0.9995949550635688,207.99971683811918,22.358507635966166,604.1900341245896,-34.67084017996512,-94.25691986083984,4381.2578125,True
1599568508.9339986,0.0,10,0.5,0.5,1.0609022031784057,-0.1005,-0.00825,-0.12575,0.3005450528325242,10,1,100,0.043043978484395826,-10,-1,-100,6424.186689778697,-0.009731386428635228,0.026588455449648753,0.9995990967157677,213.88787676558107,23.00594834544734,624.959080993811,-34.860390637373754,-98.01776885986328,4381.2578125,True
1599568508.9838643,0.0,10,0.5,0.5,2.329154580307007,-0.1005,-0.00825,-0.12575,0.3034000025538429,10,1,100,-0.03583778597155729,-10,-1,-100,6422.749653664185,-0.008381230828334515,0.02671056467614714,0.9996080735490702,225.50709994749434,24.296322418382683,666.6303849910586,-35.23907223495795,-105.49812316894531,4381.2578125,True
1599568509.0397148,0.0,10,0.5,0.5,1.4414004192352294,-0.1005,-0.00825,-0.12575,0.291866838425611,10,1,100,0.09793893867887897,-10,-1,-100,6422.749653664185,-0.008381230828334515,0.02671056467614714,0.9996080735490702,225.50709994749434,24.296322418382683,666.6303849910586,-35.23907223495795,-105.49812316894531,4381.2578125,True
1599568509.096072,0.0,10,0.5,0.5,3.929112050628662,-0.1005,-0.00825,-0.12575,0.2872473561382062,10,1,100,-0.11993787407254339,-10,-1,-100,6420.646095221513,-0.006410556641132953,0.026663868547510287,0.9996239007134793,238.20808127105144,25.737110224940007,716.3712361600783,-35.80611146253765,-116.28811645507812,4381.2578125,True
1599568509.1519237,0.0,10,0.5,0.5,4.168539186859131,-0.1005,-0.00825,-0.12575,0.2717128596301846,10,1,100,-0.059067305327472105,-10,-1,-100,6419.201728236396,-0.005183266842794914,0.026476478912357763,0.9996359986561307,244.75415229206843,26.48706520303601,744.3839641598892,-36.18358034168139,-123.11895751953125,4381.2578125,True
1599568509.2107673,0.0,10,0.5,0.5,4.108670796966553,-0.1005,-0.00825,-0.12575,0.27508428636694016,10,1,100,-0.002853800248562688,-10,-1,-100,6418.491262052092,-0.004589511382098615,0.026334080245573818,0.9996426624563866,247.11101655640158,26.759269451733037,755.7501282128555,-36.37218742584973,-126.42288208007812,4381.2578125,True
1599568509.2706056,0.0,10,0.5,0.5,5.189164821624757,-0.1005,-0.00825,-0.12575,0.2569550604228432,10,1,100,-0.059699748062989735,-10,-1,-100,6416.984879739815,-0.003543869223843014,0.02603763582177591,0.9996546816334813,250.137853107763,27.110876749159385,773.5034983375247,-36.74922739581811,-132.80584716796875,4381.2578125,True
1599568509.329449,0.0,10,0.5,0.5,6.477929045104981,-0.1005,-0.00825,-0.12575,0.2166358674188612,10,1,100,-0.11422836157426763,-10,-1,-100,6414.767540271394,-0.0021082714488201986,0.025400415220529434,0.9996751342801934,250.98823414686976,27.21105836847222,788.9398939733586,-37.31457783368587,-141.8203582763672,4381.2578125,True
1599568509.3882914,0.0,10,0.5,0.5,6.044258774948121,-0.1005,-0.00825,-0.12575,0.25295204578460084,10,1,100,-0.017982604294514027,-10,-1,-100,6414.043889230001,-0.001688927920241467,0.02515126245414365,0.9996822302709212,250.42611488187097,27.14619420480523,791.4438488357283,-37.503024153419325,-144.67567443847656,4381.2578125,True
1599568509.4471345,0.0,10,0.5,0.5,6.974012284088135,-0.1005,-0.00825,-0.12575,0.22120621034120386,10,1,100,-0.05849496797480871,-10,-1,-100,6412.543362693046,-0.0009486552970972879,0.024637068887984295,0.999696011240285,248.24029658612986,26.89406713212466,793.0278993024043,-37.87997152141206,-150.16152954101562,4381.2578125,True
1599568509.5049796,0.0,10,0.5,0.5,7.50366918964386,-0.1005,-0.00825,-0.12575,0.2136224456309435,10,1,100,-0.05431294070629746,-10,-1,-100,6410.974477757467,-0.0003223263483572551,0.02410234813581992,0.9997094442487102,244.87118468538665,26.50767963249727,790.680223099268,-38.25703811773692,-155.34774780273438,4381.2578125,True
1599568509.5648196,0.0,10,0.5,0.5,8.004602565002441,-0.1005,-0.00825,-0.12575,0.19996472332258397,10,1,100,-0.047934308719811344,-10,-1,-100,6409.467116069747,0.0001805223505471937,0.023494337346788883,0.9997239536613675,240.58191651462775,26.020228816401282,785.139634596492,-38.63425841133971,-160.2352752685547,4381.2578125,True
1599568509.624028,0.0,10,0.5,0.5,8.473112606048584,-0.1005,-0.00825,-0.12575,0.19490735235173615,10,1,100,-0.04073762933983627,-10,-1,-100,6407.908973178593,0.000564449761388845,0.022898548009143285,0.9997376345299499,235.6090379322529,25.461551432039744,777.0890427500619,-39.01164611284865,-164.82293701171875,4381.2578125,True
1599568509.6838686,0.0,10,0.5,0.5,8.915426316452026,-0.1005,-0.00825,-0.12575,0.1865060770875571,10,1,100,-0.032353582323247226,-10,-1,-100,6406.33911189076,0.0008291236341943335,0.0222840115785793,0.9997513367742825,230.17733013571953,24.859293394520158,767.2014686704575,-39.38919828380834,-169.11141967773438,4381.2578125,True
1599568509.744707,0.0,10,0.5,0.5,9.322308783340453,-0.1005,-0.00825,-0.12575,0.17942786996113172,10,1,100,-0.023198953202942872,-10,-1,-100,6404.711146003334,0.000979930817218986,0.021664976446889018,0.9997648066076086,224.484471977364,24.237083052079782,756.0877169807607,-39.7668996975587,-173.10072326660156,4381.2578125,True
1599568509.8045459,0.0,10,0.5,0.5,9.696800198364258,-0.1005,-0.00825,-0.12575,0.17297888452227816,10,1,100,-0.01278592183312385,-10,-1,-100,6403.145193050033,0.0010167614278248482,0.0210479641890587,0.9997779500467566,218.70490027529027,23.614970786168428,744.3061470365368,-40.14472822319322,-176.7909393310547,4381.2578125,True
1599568509.864386,0.0,10,0.5,0.5,-71.05010950279237,-0.1005,-0.00825,-0.12575,0.13371355053954415,10,1,100,0.006478637452430535,-10,-1,-100,6400.6685799264815,0.0008700148323161162,0.020134891933057664,0.999796893974489,219.1229945843077,23.68175856897959,757.3139610821029,-40.71145968866233,178.23411560058594,4381.2578125,True
1599568509.9252226,0.0,10,0.5,0.5,-25.996388660430913,-0.1005,-0.00825,-0.12575,0.15880764611465586,10,1,100,0.016556212913478953,-10,-1,-100,6399.036712084431,0.0006409818921566841,0.019538320518183844,0.9998089033278024,224.29509451537172,24.266636276517524,783.1116061073252,-41.08895739682446,175.29078674316406,4381.2578125,True
1599568509.9870582,0.0,10,0.5,0.5,-26.32048405761719,-0.1005,-0.00825,-0.12575,0.18561312806167019,10,1,100,0.010180852878110526,-10,-1,-100,6398.194900759263,0.0004882286256596617,0.019244998244818998,0.9998146786656845,226.61433009237194,24.533273418183178,795.2147725245943,-41.2776039571535,173.9310302734375,4381.2578125,True
1599568510.0459008,0.0,10,0.5,0.5,-26.12121683692932,-0.1005,-0.00825,-0.12575,0.15003380819187861,10,1,100,0.03493179882435779,-10,-1,-100,6396.569871033542,0.00012237418701839252,0.018660262601315872,0.9998258746522857,230.88517072142412,25.032010098722765,818.3697848081971,-41.654698277821126,171.1327667236328,4381.2578125,True
1599568510.1032574,0.0,10,0.5,0.5,-26.048938539123533,-0.1005,-0.00825,-0.12575,0.14505679670051078,10,1,100,0.05039305876788756,-10,-1,-100,6394.879413721967,-0.00035175132894586444,0.01808887264483393,0.9998363210833269,235.4167802463321,25.56562878002452,842.7654634442987,-42.03151379884517,168.08645629882812,4381.2578125,True
1599568510.1621034,0.0,10,0.5,0.5,-25.944735014343266,-0.1005,-0.00825,-0.12575,0.1411020406527004,10,1,100,0.06635476210521722,-10,-1,-100,6393.182122925529,-0.0009278541692703781,0.01753894169804388,0.9998457504089086,240.25217816060524,26.138148072267114,868.5811028945063,-42.40802148336902,164.7533721923828,4381.2578125,True
1599568510.2209451,0.0,10,0.5,0.5,-25.81158461151123,-0.1005,-0.00825,-0.12575,0.13540032620048392,10,1,100,0.08149197253727479,-10,-1,-100,6391.491670765332,-0.001588187413020625,0.016992584701986176,0.9998543542566022,245.03292806993548,26.70931951780535,894.536100429693,-42.784209332828496,161.12728881835938,4381.2578125,True
1599568510.2807856,0.0,10,0.5,0.5,-25.181355619812017,-0.1005,-0.00825,-0.12575,0.10240234874042331,10,1,100,0.14517554205483738,-10,-1,-100,6388.88666272175,-0.00276547496006741,0.016201283968030583,0.9998649261505438,252.6590351946376,27.619817275033416,935.7731084211989,-43.347854264617894,155.1378173828125,4381.2578125,True
1599568510.3426213,0.0,10,0.5,0.5,-25.71714778518677,-0.1005,-0.00825,-0.12575,0.15271981943930768,10,1,100,0.07614089806936283,-10,-1,-100,6388.041440645466,-0.0032048808769744807,0.015944880968615856,0.9998677360078487,255.02092493180356,27.903336093428223,949.0228342435215,-43.53556781060857,152.99465942382812,4381.2578125,True
1599568510.4034579,0.0,10,0.5,0.5,-24.701521713638304,-0.1005,-0.00825,-0.12575,0.09338639738776884,10,1,100,0.1933728222089075,-10,-1,-100,6385.380779632251,-0.004666281192072957,0.015177592673659635,0.9998739253028198,261.2477662729731,28.652772384618583,986.0151354774728,-44.0982438258245,146.12545776367188,4381.2578125,True
1599568510.4638531,0.0,10,0.5,0.5,-25.280538920593262,-0.1005,-0.00825,-0.12575,0.1412598526204306,10,1,100,0.10676498894716628,-10,-1,-100,6384.476968430681,-0.0052023165919467445,0.01492060779082854,0.9998751478885899,262.95536627757895,28.8583096614219,997.0930370338822,-44.28566408944605,143.6892547607422,4381.2578125,True
1599568510.5216968,0.0,10,0.5,0.5,-23.80573465805054,-0.1005,-0.00825,-0.12575,0.08641212920061414,10,1,100,0.24673396257304459,-10,-1,-100,6381.812905080034,-0.006956546414408842,0.01419310976093124,0.9998750732453022,266.6021318433742,29.295094437748407,1025.0145370739024,-44.847609127453346,135.9427032470703,4381.2578125,True
1599568510.5795429,0.0,10,0.5,0.5,-23.4964048286438,-0.1005,-0.00825,-0.12575,0.10601833542676903,10,1,100,0.21465857171689318,-10,-1,-100,6379.994065373787,-0.008252799492221586,0.013714845436496242,0.9998718889513768,267.52191109954333,29.402603129983355,1037.9957110751627,-45.22207203003941,130.41343688964844,4381.2578125,True
1599568510.638386,0.0,10,0.5,0.5,-23.505622397232056,-0.1005,-0.00825,-0.12575,0.12861624495349716,10,1,100,0.16085175122359796,-10,-1,-100,6379.082939988468,-0.008934112078368778,0.013490522639805883,0.9998690851507892,267.44165452103033,29.39143222067334,1042.4162293361267,-45.409287125009705,127.53968811035156,4381.2578125,True
1599568510.7037215,0.0,10,0.5,0.5,-22.48107529411316,-0.1005,-0.00825,-0.12575,0.09596285890610817,10,1,100,0.2564160322594755,-10,-1,-100,6377.268018972012,-0.010414020178587486,0.01299444362416703,0.999861336695553,266.05510853376165,29.22429073757313,1046.4594953245196,-45.78374788258833,121.57302856445312,4381.2578125,True
1599568510.7637331,0.0,10,0.5,0.5,-20.296159197616575,-0.1005,-0.00825,-0.12575,0.04847308802340089,10,1,100,0.4687795837521718,-10,-1,-100,6373.564966768376,-0.013680821402492969,0.012116368810125885,0.9998330004218755,257.60902962689147,28.243625798054143,1031.7208709373615,-46.5331564580776,108.76927185058594,4381.2578125,True
1599568510.8236067,0.0,10,0.5,0.5,-21.094797319412233,-0.1005,-0.00825,-0.12575,0.11189730504197241,10,1,100,0.24308096824012532,-10,-1,-100,6372.664113951614,-0.014587241494812782,0.011899632381973602,0.9998227898656571,254.16462463816134,27.852780568443144,1022.5321620116996,-46.720680841082675,105.386962890625,4381.2578125,True
1599568510.8836818,0.0,10,0.5,0.5,-19.894519306564334,-0.1005,-0.00825,-0.12575,0.08742875729694488,10,1,100,0.36773429438312255,-10,-1,-100,6370.7730654585175,-0.016532654494510957,0.01148478787898947,0.9997973649608904,245.5305160267621,26.888640527571038,996.7525169792738,-47.0960021287047,98.40522766113281,4381.2578125,True
1599568510.9455192,0.0,10,0.5,0.5,-19.080736446380612,-0.1005,-0.00825,-0.12575,0.08929664379186605,10,1,100,0.40265964896551787,-10,-1,-100,6368.800005305675,-0.01860619937268158,0.011128925022675033,0.9997649505622528,234.47814109517407,25.678909786253847,960.5000962075572,-47.47172162304294,91.13481140136719,4381.2578125,True
1599568511.0063539,0.0,10,0.5,0.5,-19.09701426277161,-0.1005,-0.00825,-0.12575,0.10720784772286716,10,1,100,0.31512586449203106,-10,-1,-100,6367.87622757908,-0.01968147729535435,0.010972620603530957,0.9997460882887033,236.8227891902829,25.94545330175205,974.4712475905446,-47.65956964717538,87.39141845703125,4381.2578125,True
1599568511.065197,0.0,10,0.5,0.5,-16.88063452796936,-0.1005,-0.00825,-0.12575,0.08131230910962303,10,1,100,0.6010817910816495,-10,-1,-100,6364.916456915671,-0.02324495183395951,0.010598934391525148,0.9996736141381352,256.99571224830424,28.22105074569839,1071.7036012817966,-48.22211507174825,75.72885131835938,4381.2578125,True
1599568511.1250694,0.0,10,0.5,0.5,-16.45074440689087,-0.1005,-0.00825,-0.12575,0.10452724810011459,10,1,100,0.5263679646952628,-10,-1,-100,6362.971795282443,-0.025788855142595216,0.010474193347250976,0.9996125380486975,268.59860077382405,29.55540009029594,1129.968102400814,-48.59627462161947,67.59452819824219,4381.2578125,True
1599568511.1838791,0.0,10,0.5,0.5,-15.51207871246338,-0.1005,-0.00825,-0.12575,0.118288156369286,10,1,100,0.574913415165487,-10,-1,-100,6361.02716665715,-0.028525696510422274,0.010489272397097541,0.999538023190301,278.75828829932817,30.731332786581287,1182.9171723403458,-48.969790768158965,59.17388916015625,4381.2578125,True
1599568511.24176,0.0,10,0.5,0.5,-15.53541774940491,-0.1005,-0.00825,-0.12575,0.1250037291955113,10,1,100,0.46192524399604595,-10,-1,-100,6360.056575862225,-0.029968139018708134,0.010566963625414103,0.9994949974479586,283.057361083249,31.22852248103398,1206.3293114715586,-49.15633776021238,54.85661315917969,4381.2578125,True
1599568511.3015652,0.0,10,0.5,0.5,-12.991318893814089,-0.1005,-0.00825,-0.12575,0.17081604274357126,10,1,100,0.8133353916294683,-10,-1,-100,6357.079435984022,-0.034454966252962446,0.011056725373424605,0.9993450876071408,290.9374954059286,32.12838251843214,1255.850138499668,-49.71545343219565,41.47746276855469,4381.2578125,True
1599568511.3654373,0.0,10,0.5,0.5,-13.566564698028566,-0.1005,-0.00825,-0.12575,0.15171757791629345,10,1,100,0.5397500302955522,-10,-1,-100,6356.106935353717,-0.03602490504827224,0.011330102480686848,0.9992866630722338,291.67578995177973,32.204783338008426,1264.3858563925671,-49.90175832990353,36.87590026855469,4381.2578125,True
1599568511.42324,0.0,10,0.5,0.5,-11.955525615692139,-0.1005,-0.00825,-0.12575,0.19857946327482606,10,1,100,0.7360291699256568,-10,-1,-100,6354.101419103332,-0.0392161651464223,0.012005359050847764,0.9991586279191452,289.97502500599904,31.98772108377633,1267.729771847433,-50.274476776513424,27.459884643554688,4381.2578125,True
1599568511.5000343,0.0,10,0.5,0.5,-10.881469460678101,-0.1005,-0.00825,-0.12575,0.2486788110878848,10,1,100,0.7838282731717598,-10,-1,-100,6352.033940443303,-0.04252945806184001,0.01307458116141379,0.9990096598754288,283.72649310897015,31.257663565997365,1251.0471624170789,-50.64755880416141,17.763397216796875,4381.2578125,True
1599568511.5608711,0.0,10,0.5,0.5,-8.623606969451906,-0.1005,-0.00825,-0.12575,0.35920346994468666,10,1,100,1.002347611798402,-10,-1,-100,6348.993113075732,-0.04750444851467347,0.0150499256212789,0.9987576418281418,265.38434646979624,29.20702100483037,1185.3875495387886,-51.20828502976387,2.688629150390625,4381.2578125,True
1599568511.619749,0.0,10,0.5,0.5,-9.277680151748658,-0.1005,-0.00825,-0.12575,0.2541404593360789,10,1,100,0.689034776592829,-10,-1,-100,6347.958693801193,-0.04915259747070595,0.015887010487806563,0.9986649213122702,256.84942115644685,28.277607769097926,1152.2325330326316,-51.39553285955378,-2.47650146484375,4381.2578125,True
1599568511.6785839,0.0,10,0.5,0.5,-7.468128793716431,-0.1005,-0.00825,-0.12575,0.37962535034065154,10,1,100,0.8808156979767674,-10,-1,-100,6345.891350728576,-0.052367585697702786,0.01778430083934212,0.998469506100136,274.8883253302353,30.32290422823801,1243.8092027831926,-51.76936874406178,-13.017608642578125,4381.2578125,True
1599568511.7364032,0.0,10,0.5,0.5,-5.024037056350709,-0.1005,-0.00825,-0.12575,0.5697829625359335,10,1,100,1.0556232612646355,-10,-1,-100,6342.7891706539085,-0.05685298681225894,0.021231283663924447,0.9981567865242951,298.1285312747274,33.03360299242499,1366.171360626335,-52.32821839798835,-29.355377197265625,4381.2578125,True
1599568511.7952454,0.0,10,0.5,0.5,-4.454851670837403,-0.1005,-0.00825,-0.12575,0.5136410570449507,10,1,100,0.9091017605717735,-10,-1,-100,6340.657923437888,-0.0595703704267661,0.02384474428152065,0.9979392762775532,309.10545651007965,34.33792556959748,1428.2334467402554,-52.69971730201371,-40.59814453125,4381.2578125,True
1599568511.8541052,0.0,10,0.5,0.5,-4.490703683471681,-0.1005,-0.00825,-0.12575,0.4066608855524672,10,1,100,0.7756732891615856,-10,-1,-100,6339.6245277283015,-0.06079951063266513,0.025235929218599695,0.9978309312620561,312.4580016434988,34.74010720388873,1449.6468185248877,-52.88526074320078,-46.324615478515625,4381.2578125,True
1599568511.9139628,0.0,10,0.5,0.5,-2.4883732738494877,-0.1005,-0.00825,-0.12575,0.5817917797263055,10,1,100,0.8912707820881638,-10,-1,-100,6337.494732124382,-0.06293976859952954,0.028079406412439913,0.9976222393592489,314.11234443255296,34.947452818852895,1469.2599461416653,-53.256232786366084,-57.988525390625,4381.2578125,True
1599568511.9748003,0.0,10,0.5,0.5,-1.1705685485839845,-0.1005,-0.00825,-0.12575,0.6194250266275161,10,1,100,0.8815807828212158,-10,-1,-100,6335.363440998015,-0.06477147148302806,0.030991030941361103,0.9974187748799974,308.51930270764876,34.309745900694146,1454.9684103565135,-53.6274682261581,-69.93319702148438,4381.2578125,True
1599568512.034683,0.0,10,0.5,0.5,0.18149698524475122,-0.1005,-0.00825,-0.12575,0.6516712214194207,10,1,100,0.8661939638684009,-10,-1,-100,6333.171078743646,-0.06627064250806043,0.03391323598534252,0.9972251974186029,295.3822396544853,32.82811598630119,1404.6018623760883,-53.99939622427197,-82.1585693359375,4381.2578125,True
1599568512.0954783,0.0,10,0.5,0.5,3.003373942184448,-0.1005,-0.00825,-0.12575,0.8072119102408695,10,1,100,0.8885118302267515,-10,-1,-100,6329.944700692897,-0.06781181997283701,0.03796387603558017,0.9969755770270036,271.90132065407937,30.2708092619599,1309.257960420318,-54.55885399106402,-101.02611541748047,4381.2578125,True
1599568512.1613016,0.0,10,0.5,0.5,3.6427046815872197,-0.1005,-0.00825,-0.12575,0.6712030371196724,10,1,100,0.8152890714832688,-10,-1,-100,6327.750256375875,-0.06852424498686498,0.04038720514844518,0.9968316314750838,295.8169804856494,33.05215699122689,1436.229254569389,-54.930950202900945,-113.90533447265625,4381.2578125,True
1599568512.2231688,0.0,10,0.5,0.5,3.577785091972351,-0.1005,-0.00825,-0.12575,0.5523420169207993,10,1,100,0.7770464367675483,-10,-1,-100,6326.592710132129,-0.06880513486904549,0.041486642995126194,0.9967671302107867,305.122283024914,34.160987243149826,1487.4380880374981,-55.11650214132968,-120.35153198242188,4381.2578125,True
1599568512.286543,0.0,10,0.5,0.5,5.745322981071473,-0.1005,-0.00825,-0.12575,0.6518872454193401,10,1,100,0.8058063277637022,-10,-1,-100,6324.399158351123,-0.0693040769188125,0.04336781617617992,0.9966524857955958,318.8227581421179,35.82084984488998,1566.7040099165001,-55.48684324290091,-133.0847930908203,4381.2578125,True
1599568512.344426,0.0,10,0.5,0.5,8.44174540500641,-0.1005,-0.00825,-0.12575,0.7119979381871804,10,1,100,0.8290435129205644,-10,-1,-100,6321.046494199312,-0.06995351092800753,0.04560117671563019,0.9965074204395042,325.5020989539647,36.66027922632035,1618.5879974797022,-56.04143488478748,-151.64202880859375,4381.2578125,True
1599568512.8480058,0.0,10,0.5,0.5,7.574006114387513,-0.1005,-0.00825,-0.12575,0.5526058409116478,10,1,100,0.7915854909502378,-10,-1,-100,6319.95040970773,-0.07019146844198572,0.04616033096439676,0.9964649424857931,323.5214268043092,36.44025709511644,1615.1326012824688,-56.226366948688366,-157.67494201660156,4381.2578125,True
1599568512.8968759,0.0,10,0.5,0.5,8.259516461753845,-0.1005,-0.00825,-0.12575,0.549085288060033,10,1,100,0.801027790922894,-10,-1,-100,6318.791332219611,-0.07048397700170347,0.04661636108582181,0.9964230646994977,319.56684211841423,35.99133467787099,1601.773565164735,-56.41144304669425,-163.63101196289062,4381.2578125,True
1599568512.9517283,0.0,10,0.5,0.5,10.250027259635925,-0.1005,-0.00825,-0.12575,0.5803775713956965,10,1,100,0.853528779032769,-10,-1,-100,6316.535677082255,-0.07121837152392844,0.0472959724702895,0.9963388151354785,306.20191428131096,34.48403663858548,1547.2317771203702,-56.78219779704296,-175.31149291992188,4381.2578125,True
1599568513.005585,0.0,10,0.5,0.5,-71.27687794742585,-0.1005,-0.00825,-0.12575,0.5407575017827344,10,1,100,0.8277584626180072,-10,-1,-100,6315.377579758759,-0.07164420130134022,0.0475361489450897,0.9962968548396423,297.05951945751997,33.46756026093997,1507.164558380593,-56.96792344583135,178.96420288085938,4381.2578125,True
