Timestamp,Input Throttle,horizon,dT,dt,Input Roll,Roll P,Roll I,Roll D,Input Pitch,Pitch P,Pitch I,Pitch D,Input Yaw,Yaw P,Yaw I,Yaw D,Altitude,Direction X,Direction Y,Direction Z,Drag X,Drag Y,Drag Z,Vertical Velocity,Roll,Mass,Has Fuel
1599567848.230341,0.0,10,0.5,0.5,-2.7437155075073245,-0.05075,-0.03,-0.12575,-0.06718882600263404,10,1,100,0.6903777503671402,-10,-1,-100,6483.61796714284,-0.06725796163136878,-0.007002664185079857,0.9977110449882292,205.07322698600757,21.498778010841697,-156.76524745009485,9.590824341449586,-35.944580078125,4381.2578125,True
1599567848.2841966,0.0,10,0.5,0.5,-2.906065933227539,-0.05075,-0.03,-0.12575,-0.06734320753351278,10,1,100,0.6999146076863365,-10,-1,-100,6483.997883012053,-0.06744531795145525,-0.006971903269299914,0.9976986126337104,204.61204811075714,21.456731481986576,-150.2666501561366,9.210801995615357,-35.941253662109375,4381.2578125,True
1599567848.340014,0.0,10,0.5,0.5,-3.0681255111694337,-0.05075,-0.03,-0.12575,-0.06930664475760866,10,1,100,0.6985884004451073,-10,-1,-100,6484.156591724022,-0.06754227152393046,-0.006955450135837837,0.9976921685924951,204.38126031572332,21.435619958882324,-147.02556338034435,9.020798304505911,-35.939544677734375,4381.2578125,True
1599567848.3968985,0.0,10,0.5,0.5,-3.1741385421752932,-0.05075,-0.03,-0.12575,-0.018333607683092668,10,1,100,0.7012883457645882,-10,-1,-100,6484.697140510776,-0.06759355402769962,-0.006470778359162314,0.9976919567087483,203.75671839677744,21.37898194510464,-137.38160096209882,8.45080615862944,-36.256561279296875,4381.2578125,True
1599567848.453748,0.0,10,0.5,0.5,-3.2761625137329102,-0.05075,-0.03,-0.12575,-0.015044044221913667,10,1,100,0.6977884025646819,-10,-1,-100,6485.016949131968,-0.06754690813473817,-0.0059943800049382465,0.9976980919144798,203.4469654582667,21.351711546310877,-131.04560426290837,8.070816724778322,-36.81787109375,4381.2578125,True
1599567848.5105913,0.0,10,0.5,0.5,-3.4374237060546875,-0.05075,-0.03,-0.12575,-0.028113114205035462,10,1,100,0.7015857272572334,-10,-1,-100,6485.175623862655,-0.06747761763094665,-0.005674650882758439,0.9977046504132425,203.31777795894598,21.34045681616868,-127.89877841013804,7.880820766573677,-37.20806884765625,4381.2578125,True
1599567848.567026,0.0,10,0.5,0.5,-3.468264526367188,-0.05075,-0.03,-0.12575,0.026420933492557343,10,1,100,0.6871325208964798,-10,-1,-100,6485.493927933159,-0.06722189019001028,-0.004883065200905263,0.9977261012690436,203.08672584936457,21.32003088006827,-121.6292404797864,7.500821528968606,-38.208648681640625,4381.2578125,True
1599567848.624872,0.0,10,0.5,0.5,-3.3873531723022463,-0.05075,-0.03,-0.12575,0.12177659007547975,10,1,100,0.6479986159162083,-10,-1,-100,6485.90932231769,-0.06657253711643837,-0.003292133098284076,0.9977761568415751,202.70985096309911,21.283886310991736,-112.22457291858309,6.930788628680096,-40.26025390625,4381.2578125,True
1599567848.6796963,0.0,10,0.5,0.5,-3.647923706054687,-0.05075,-0.03,-0.12575,0.03219647197071167,10,1,100,0.6872839945932443,-10,-1,-100,6486.00545674935,-0.06627883545833112,-0.0026572030485824483,0.9977976023434041,202.54320167037162,21.266831312549424,-109.07261043291595,6.74076422589998,-41.091064453125,4381.2578125,True
1599567848.7351274,0.0,10,0.5,0.5,-3.566910873413086,-0.05075,-0.03,-0.12575,0.1221483508995676,10,1,100,0.6435421940598544,-10,-1,-100,6486.261183180613,-0.06555392773205886,-0.0012598339194562944,0.9978482326373062,202.08558803863534,21.218517134007023,-102.71678742383844,6.360688088540541,-42.973297119140625,4381.2578125,True
1599567848.7919738,0.0,10,0.5,0.5,-3.560494758605957,-0.05075,-0.03,-0.12575,0.1520695705554197,10,1,100,0.6217555040108457,-10,-1,-100,6486.517860044609,-0.06463726540979121,0.0002836580438201883,0.9979087851394327,201.37894306616607,21.14247369773714,-96.26450662743149,5.980565293701284,-45.149993896484375,4381.2578125,True
1599567848.848862,0.0,10,0.5,0.5,-3.370567512512207,-0.05075,-0.03,-0.12575,0.19071440087582425,10,1,100,0.5930591961882641,-10,-1,-100,6486.772072116844,-0.06354544295136223,0.002031525265867123,0.9979768782818615,200.30802040173748,21.026635305577233,-89.68675290219858,5.6003798889946665,-47.62042236328125,4381.2578125,True
1599567848.9067075,0.0,10,0.5,0.5,-2.89455859375,-0.05075,-0.03,-0.12575,0.3253426020982273,10,1,100,0.4768348914907016,-10,-1,-100,6487.0617968963925,-0.061499837832812675,0.004836203271081485,0.998095376747362,197.74153028686612,20.749415368518726,-79.54573066903508,5.029942552828906,-51.878936767578125,4381.2578125,True
1599567848.9645195,0.0,10,0.5,0.5,-3.105713264465332,-0.05075,-0.03,-0.12575,0.15519031102279954,10,1,100,0.594054188637109,-10,-1,-100,6487.15787447535,-0.06071131991154507,0.00582835185385709,0.9981383501044659,196.5575818019326,20.621904782441252,-76.08746382993459,4.839743846093002,-53.445709228515625,4381.2578125,True
1599567849.0243611,0.0,10,0.5,0.5,-2.3433246688842773,-0.05075,-0.03,-0.12575,0.39042374046075734,10,1,100,0.37544522599165997,-10,-1,-100,6487.44754527451,-0.05801338780826694,0.008857609805622692,0.9982765095821593,191.749948668097,20.106447164915636,-65.49107754105434,4.26893888150205,-58.58929443359375,4381.2578125,True
1599567849.0821435,0.0,10,0.5,0.5,-2.5961086883544926,-0.05075,-0.03,-0.12575,0.20026623373596764,10,1,100,0.5333401654851995,-10,-1,-100,6487.544095840771,-0.05700479763734306,0.00986927425535646,0.998325122628895,189.65928754905832,19.883297386579706,-61.89417259499808,4.078587025900612,-60.45166015625,4381.2578125,True
1599567849.1382823,0.0,10,0.5,0.5,-1.6962863922119142,-0.05075,-0.03,-0.12575,0.4419282583801598,10,1,100,0.26304579333542055,-10,-1,-100,6487.770742587978,-0.05364019666240846,0.01297176586539062,0.9984760701150287,181.6590942766005,19.033494156916106,-50.99110578976379,3.5072252385115847,-66.48159790039062,4381.2578125,True
1599567849.1961303,0.0,10,0.5,0.5,-1.988760887145996,-0.05075,-0.03,-0.12575,0.2413080924223091,10,1,100,0.46417968733468573,-10,-1,-100,6487.805272957194,-0.052422305442940874,0.013952161428471853,0.9985275354658584,178.37867271674082,18.68653722127176,-47.35320643583508,3.316652695585829,-68.64007568359375,4381.2578125,True
1599567849.6771207,0.0,10,0.5,0.5,-1.374158630371094,-0.05075,-0.03,-0.12575,0.36913474625629006,10,1,100,0.2945020130744065,-10,-1,-100,6487.9348778285785,-0.04978547114258007,0.01598981398019393,0.9986319305489837,170.75693454761284,17.883156590405175,-40.123076378027726,2.9352726820712123,-73.17770385742188,4381.2578125,True
1599567849.725465,0.0,10,0.5,0.5,-0.9949247817993163,-0.05075,-0.03,-0.12575,0.36600576489954684,10,1,100,0.25414215190840056,-10,-1,-100,6488.003936776076,-0.04703643519012088,0.01779682827212654,0.9987346227442293,161.68334888990807,16.929753465268963,-33.05494773746049,2.553576464769816,-78.01385498046875,4381.2578125,True
1599567849.7773259,0.0,10,0.5,0.5,-1.4979491119384765,-0.05075,-0.03,-0.12575,0.1872100019254442,10,1,100,0.5271939979001259,-10,-1,-100,6488.003936776076,-0.04703643519012088,0.01779682827212654,0.9987346227442293,161.68334888990807,16.929753465268963,-33.05494773746049,2.553576464769816,-78.01385498046875,4381.2578125,True
1599567849.8306928,0.0,10,0.5,0.5,-0.49357232666015616,-0.05075,-0.03,-0.12575,0.3857405894336676,10,1,100,0.1981101358246255,-10,-1,-100,6488.133546731202,-0.04406076447145239,0.019585730731084657,0.9988368476312438,151.16028485163642,15.826123603057244,-26.284288256826127,2.171634204093886,-83.14578247070312,4381.2578125,True
1599567849.8845491,0.0,10,0.5,0.5,0.4245658531188966,-0.05075,-0.03,-0.12575,0.47205453330447905,10,1,100,-0.02629954359607317,-10,-1,-100,6488.23471614474,-0.03933323462200188,0.021980719542176487,0.9989843565454761,152.0492556092259,15.918787413458235,-19.46440307315452,1.5985068050759819,-91.40018463134766,4381.2578125,True
1599567849.9392276,0.0,10,0.5,0.5,0.016947050094604565,-0.05075,-0.03,-0.12575,0.3158348758381681,10,1,100,0.25910221791353594,-10,-1,-100,6488.26925770368,-0.037650193139144056,0.02272221746959251,0.9990326139770661,155.96863436076376,16.32884407977431,-17.58089238205347,1.4074623869001477,-94.2999496459961,4381.2578125,True
1599567849.9961019,0.0,10,0.5,0.5,0.824567476272583,-0.05075,-0.03,-0.12575,0.38543752517619195,10,1,100,0.06172408012171682,-10,-1,-100,6488.27340992901,-0.03434677338095895,0.024013699792483897,0.9991214347518492,164.71854348494205,17.243246951073125,-13.5291628352641,1.0254407123509166,-100.24727630615234,4381.2578125,True
1599567850.0519266,0.0,10,0.5,0.5,1.2550107707977296,-0.05075,-0.03,-0.12575,0.38300547510537386,10,1,100,0.023896625487905165,-10,-1,-100,6488.341548187542,-0.031021293662689936,0.025151886821753303,0.999202212732137,172.39869358370208,18.04515451676341,-8.887182905315221,0.6435150018590403,-106.21524047851562,4381.2578125,True
1599567850.1118062,0.0,10,0.5,0.5,2.2043785705566408,-0.05075,-0.03,-0.12575,0.4242242680481094,10,1,100,-0.21696644063769405,-10,-1,-100,6488.317815796356,-0.025832087412189616,0.02654742531823545,0.9993137332534271,182.37416531084781,19.087991154095153,-1.0322420799678897,0.07064182434410471,-115.06820678710938,4381.2578125,True
1599567850.176625,0.0,10,0.5,0.5,2.2395743408203126,-0.05075,-0.03,-0.12575,0.3641360303832327,10,1,100,-0.07264117375102375,-10,-1,-100,6488.322041444713,-0.022451955164568344,0.02725749846403594,0.9993762747267775,186.81419682687292,19.551989952070176,4.661661173266841,-0.3113978879376256,-120.74920654296875,4381.2578125,True
1599567850.2414176,0.0,10,0.5,0.5,2.635167037963867,-0.05075,-0.03,-0.12575,0.35737884579823337,10,1,100,-0.10008630540653801,-10,-1,-100,6488.327756219776,-0.019156852242842852,0.027829494793958603,0.9994291041547964,189.9623817061908,19.880833248652024,10.55934204073835,-0.693575371648782,-126.15232849121094,4381.2578125,True
1599567850.306276,0.0,10,0.5,0.5,3.016668468475342,-0.05075,-0.03,-0.12575,0.35011376939495165,10,1,100,-0.1267665543314624,-10,-1,-100,6488.270021761418,-0.015946600613683762,0.028272681962209587,0.9994730418493194,191.71823539047708,20.063893251836994,16.533433764241398,-1.0758756065897908,-131.26292419433594,4381.2578125,True
1599567850.3720732,0.0,10,0.5,0.5,3.383727390289307,-0.05075,-0.03,-0.12575,0.34240667440306854,10,1,100,-0.15052739648718455,-10,-1,-100,6488.211333954474,-0.012840445871738422,0.02859599138461147,0.9995085753641868,192.04385110868856,20.09711347174746,22.451505376564146,-1.458290667139666,-136.07861328125,4381.2578125,True
1599567850.4398906,0.0,10,0.5,0.5,3.3577633590698244,-0.05075,-0.03,-0.12575,0.32528875884865105,10,1,100,-0.008333225064327265,-10,-1,-100,6488.182975076372,-0.011340430382285344,0.028724474206198034,0.9995230358627668,191.7328873809258,20.06402846120425,25.356617742156466,-1.6495352022228793,-138.37557983398438,4381.2578125,True
1599567850.5107021,0.0,10,0.5,0.5,4.372481567382812,-0.05075,-0.03,-0.12575,0.3446170448266115,10,1,100,-0.33472491081585504,-10,-1,-100,6488.033476733486,-0.007039328552395173,0.029008680513371722,0.9995543728624294,189.29822457137635,19.807157956021836,33.751280251238434,-2.223374115747273,-144.82244873046875,4381.2578125,True
1599567850.5775223,0.0,10,0.5,0.5,4.075218879699707,-0.05075,-0.03,-0.12575,0.32404840801319923,10,1,100,-0.05812658832218859,-10,-1,-100,6488.003185339272,-0.005673124280682537,0.029073673220706604,0.9995611723083041,188.0774702096246,19.67849055045363,36.421665148790275,-2.4146754922539815,-146.82337951660156,4381.2578125,True
1599567850.6453407,0.0,10,0.5,0.5,4.6484307823181155,-0.05075,-0.03,-0.12575,0.32280809464775895,10,1,100,-0.21821332197095888,-10,-1,-100,6487.883043165086,-0.0030048565176444665,0.029115707873369662,0.9995715314035014,185.17753049245889,19.372733286392904,41.548628300175466,-2.797290697996095,-150.6038818359375,4381.2578125,True
1599567850.7174058,0.0,10,0.5,0.5,5.226596572875977,-0.05075,-0.03,-0.12575,0.33207809122079296,10,1,100,-0.3581876376122224,-10,-1,-100,6487.732647313038,0.000664842575616798,0.029233555700926492,0.9995723871763517,180.10990720917994,18.838029056758884,48.71402029010424,-3.371204933886887,-155.7171630859375,4381.2578125,True
1599567850.7872193,0.0,10,0.5,0.5,5.268418266296387,-0.05075,-0.03,-0.12575,0.3240341744919658,10,1,100,-0.24636049178292557,-10,-1,-100,6487.549556122278,0.002955516665371334,0.029263852965825933,0.9995673523234115,176.53714700940375,18.460839913479173,53.17459454089361,-3.753787536688373,-158.75575256347656,4381.2578125,True
1599567850.856034,0.0,10,0.5,0.5,5.2658453330993655,-0.05075,-0.03,-0.12575,0.3247973307488945,10,1,100,-0.13952705447001007,-10,-1,-100,6487.5188065379625,0.004040564040414807,0.029295864238390604,0.9995626174386282,174.69985087880553,18.266759323963054,55.30695838963946,-3.9450741850944633,-160.1634979248047,4381.2578125,True
1599567850.9248478,0.0,10,0.5,0.5,5.664551387786866,-0.05075,-0.03,-0.12575,0.33517601140904363,10,1,100,-0.2588359422204983,-10,-1,-100,6487.336711558048,0.0060875128889087814,0.0294174639778377,0.999548675653137,171.0243607757343,17.878179275037986,59.40328737310439,-4.327655853970854,-162.7554931640625,4381.2578125,True
1599567850.999682,0.0,10,0.5,0.5,5.853562759399414,-0.05075,-0.03,-0.12575,0.3356349458265121,10,1,100,-0.2677011959949027,-10,-1,-100,6487.151211293298,0.00800601927173266,0.029530737718235795,0.9995318099916768,167.45356708556187,17.500260551423487,63.315398216087054,-4.710276907153548,-165.05093383789062,4381.2578125,True
1599567851.0725203,0.0,10,0.5,0.5,6.175592460632324,-0.05075,-0.03,-0.12575,0.3518907808893932,10,1,100,-0.3641702576304049,-10,-1,-100,6486.813405594323,0.010605332343817647,0.029780350477572957,0.9995002039275981,162.5881713350389,16.984779168180054,68.98516041729836,-5.28435123875847,-167.93658447265625,4381.2578125,True
1599567851.1413486,0.0,10,0.5,0.5,6.051782852172852,-0.05075,-0.03,-0.12575,0.34043168988339295,10,1,100,-0.19359005782295854,-10,-1,-100,6486.721152800601,0.011396300794540343,0.029902020923194956,0.9994878655956304,161.13109350858494,16.830347989930033,70.84930457543904,-5.475759250497331,-168.74954223632812,4381.2578125,True
1599567851.2131274,0.0,10,0.5,0.5,6.392323326110839,-0.05075,-0.03,-0.12575,0.379211904825616,10,1,100,-0.3537421451132139,-10,-1,-100,6486.380926992511,0.01355062133312982,0.030364107330765167,0.9994470479457589,157.4415017943918,16.439213191817824,76.50906381403773,-6.0501503869562505,-170.74188232421875,4381.2578125,True
1599567851.2899222,0.0,10,0.5,0.5,6.388320831298828,-0.05075,-0.03,-0.12575,0.3756057411042283,10,1,100,-0.2783851663496172,-10,-1,-100,6486.13540153217,0.01480531297046435,0.03075017037034602,0.9994174451799616,155.64479912704013,16.24860545402387,80.43991435786933,-6.433208868982268,-171.6981201171875,4381.2578125,True
1599567851.356504,0.0,10,0.5,0.5,6.407404403686523,-0.05075,-0.03,-0.12575,0.36024815310788183,10,1,100,-0.21816341945402432,-10,-1,-100,6485.980169584043,0.015379854544216583,0.030959998245316703,0.9994022906631987,154.96422503452544,16.17629593513631,82.48108769515042,-6.62477457999656,-172.06472778320312,4381.2578125,True
1599567851.4233608,0.0,10,0.5,0.5,6.552755470275879,-0.05075,-0.03,-0.12575,0.46633113342055477,10,1,100,-0.36895505999941913,-10,-1,-100,6485.423705985537,0.017256284787984147,0.03211346496143076,0.9993352520568295,153.74641835427522,16.04529645748564,91.33924393914118,-7.391268333087741,-172.78466796875,4381.2578125,True
1599567851.4891849,0.0,10,0.5,0.5,6.512380554199218,-0.05075,-0.03,-0.12575,0.3867179403895572,10,1,100,-0.22460150579842622,-10,-1,-100,6485.267501812312,0.017634742296661662,0.03243569666737947,0.9993182383234241,153.83403932841952,16.053607396599972,93.77181825078435,-7.582945407509683,-172.77874755859375,4381.2578125,True
1599567851.553015,0.0,10,0.5,0.5,6.5410009918212895,-0.05075,-0.03,-0.12575,0.3927723217770105,10,1,100,-0.22544285578942933,-10,-1,-100,6485.111786631052,0.01797309846298553,0.03278079091839919,0.9993009494033336,154.08059312583563,16.07848422518612,96.30750738689609,-7.774641765969983,-172.69833374023438,4381.2578125,True
1599567851.6158633,0.0,10,0.5,0.5,6.520725608825684,-0.05075,-0.03,-0.12575,0.44781848266913843,10,1,100,-0.2482578325446445,-10,-1,-100,6484.802799330908,0.018475437917034123,0.03359176449409099,0.9992648555572978,155.04304183683772,16.176980250834525,101.71294297833576,-8.15808720330346,-172.3131103515625,4381.2578125,True
1599567851.6796806,0.0,10,0.5,0.5,6.4774822540283195,-0.05075,-0.03,-0.12575,0.45806086482544306,10,1,100,-0.24119566357999916,-10,-1,-100,6484.429847448831,0.01885664686191959,0.03441833094567154,0.9992296059285068,156.63023834622302,16.340041864482423,107.61169396993577,-8.541593132861749,-171.63119506835938,4381.2578125,True
1599567851.7425134,0.0,10,0.5,0.5,6.303863868713379,-0.05075,-0.03,-0.12575,0.5301128956873963,10,1,100,-0.22773100694141785,-10,-1,-100,6483.901669683168,0.019070930271837285,0.03582033018837394,0.999176262510155,160.1235007370539,16.698683433392585,117.46915026730765,-9.116936173049638,-170.04983520507812,4381.2578125,True
1599567851.8033493,0.0,10,0.5,0.5,6.2573823013305665,-0.05075,-0.03,-0.12575,0.5015209818382367,10,1,100,-0.19729484713284698,-10,-1,-100,6483.529204605264,0.018981345011749983,0.036829457574283034,0.9991412810990892,163.13602558356322,17.007199328500928,124.75025599354679,-9.500531500112249,-168.6239013671875,4381.2578125,True
1599567851.863191,0.0,10,0.5,0.5,6.290809631347656,-0.05075,-0.03,-0.12575,0.458924946012289,10,1,100,-0.19449664700894514,-10,-1,-100,6483.310012770118,0.018867570188528592,0.03735331174791806,0.9991239887504673,164.8284324983857,17.180174156560213,128.60805421762942,-9.692332332370919,-167.79949951171875,4381.2578125,True
1599567851.9250357,0.0,10,0.5,0.5,5.870589134216309,-0.05075,-0.03,-0.12575,0.5848364182569845,10,1,100,-0.13233108957513656,-10,-1,-100,6482.718836734653,0.018194163509969614,0.038967838740340634,0.9990748119926152,170.54920163040222,17.763046831955272,141.03664199487164,-10.267716548789304,-164.8813018798828,4381.2578125,True
1599567851.9838355,0.0,10,0.5,0.5,6.019239757537841,-0.05075,-0.03,-0.12575,0.4848937086248121,10,1,100,-0.16443877517406585,-10,-1,-100,6482.501594528207,0.01787078289805217,0.03951954985645959,0.9990589773870978,172.63763263569365,17.97514578545459,145.45352087011767,-10.459496127601605,-163.76026916503906,4381.2578125,True
1599567852.4776855,0.0,10,0.5,0.5,5.700334812164307,-0.05075,-0.03,-0.12575,0.5538388799437719,10,1,100,-0.11004500375639802,-10,-1,-100,6482.064665138489,0.017080047212190388,0.04064009829072997,0.9990278546657991,177.01956042729535,18.41902864868885,154.66515457560263,-10.843016636733706,-161.2958984375,4381.2578125,True
1599567852.5275497,0.0,10,0.5,0.5,5.48869142150879,-0.05075,-0.03,-0.12575,0.5612152526083207,10,1,100,-0.07412733716210647,-10,-1,-100,6481.629194620764,0.016034832562891385,0.04171808513399048,0.999000743501942,181.58233222851493,18.879653634846786,164.31826180918742,-11.226467615850213,-158.53628540039062,4381.2578125,True
1599567852.5792794,0.0,10,0.5,0.5,5.529829734802247,-0.05075,-0.03,-0.12575,0.5149029331639359,10,1,100,-0.11477335264446907,-10,-1,-100,6481.410480468068,0.015455601122217198,0.04226861355249053,0.9989867309941114,183.889670293474,19.11199503399488,169.27715660184555,-11.418160845626835,-157.04531860351562,4381.2578125,True
1599567852.633644,0.0,10,0.5,0.5,5.105124008178711,-0.05075,-0.03,-0.12575,0.5737163689075105,10,1,100,-0.02449104680232078,-10,-1,-100,6480.973535668454,0.014110567484258195,0.04329513623731026,0.9989626735086076,188.47984116820385,19.573157916897006,179.39095656412542,-11.801469220232821,-153.8428497314453,4381.2578125,True
1599567852.6875002,0.0,10,0.5,0.5,5.150300479888916,-0.05075,-0.03,-0.12575,0.5260072449369845,10,1,100,-0.07594225263798014,-10,-1,-100,6480.693781107198,0.01335951593046762,0.043785798122193215,0.998951614051905,190.72423606320604,19.798189164639435,184.50789433556972,-11.993079017881737,-152.131103515625,4381.2578125,True
1599567852.7443485,0.0,10,0.5,0.5,3.9687349014282223,-0.05075,-0.03,-0.12575,0.6717918659550788,10,1,100,0.23478870554372244,-10,-1,-100,6479.694861489814,0.00985691228985294,0.045548653238454466,0.998913490482671,198.86458535223377,20.61264715268387,204.82449305588736,-12.759173112651737,-144.54856872558594,4381.2578125,True
1599567852.7992404,0.0,10,0.5,0.5,4.098790493011475,-0.05075,-0.03,-0.12575,0.577635467160893,10,1,100,0.10973608586537832,-10,-1,-100,6479.1949028131785,0.007817945539080889,0.046286437606881115,0.998897615084355,202.10033106953318,20.936592779075397,214.4848523562308,-13.142000973379993,-140.31658935546875,4381.2578125,True
1599567852.856089,0.0,10,0.5,0.5,4.153391021728516,-0.05075,-0.03,-0.12575,0.5312576118916648,10,1,100,0.024455142446690586,-10,-1,-100,6478.914156369283,0.006749769250796795,0.046526936548428176,0.9988942310327353,203.42329484205902,21.069555037916256,219.07489269720486,-13.333361370069932,-138.09194946289062,4381.2578125,True
1599567852.9109428,0.0,10,0.5,0.5,3.938435264587403,-0.05075,-0.03,-0.12575,0.5311254542314314,10,1,100,0.040598395555480046,-10,-1,-100,6478.632917736541,0.005642959234038379,0.04673603085765019,0.9988913356470541,204.5144604497443,21.17982873253369,223.4541650425576,-13.524688184130945,-135.79403686523438,4381.2578125,True
1599567852.9677894,0.0,10,0.5,0.5,3.290077980041504,-0.05075,-0.03,-0.12575,0.5499388047600273,10,1,100,0.18789233988147497,-10,-1,-100,6478.070919855381,0.0033091426379088943,0.047090085059823525,0.9988851653038303,205.8789677175695,21.320365823807666,231.3996817979307,-13.907254168919035,-130.97784423828125,4381.2578125,True
1599567853.023649,0.0,10,0.5,0.5,2.4256999359130864,-0.05075,-0.03,-0.12575,0.5318684881571949,10,1,100,0.3676827912745262,-10,-1,-100,6477.225218145293,-0.00043372960736369986,0.04724079460613411,0.9988834362444944,206.00473007148946,21.34567722672095,241.2402390661438,-14.480955503678972,-123.20635986328125,4381.2578125,True
1599567853.0824327,0.0,10,0.5,0.5,1.8012649993896483,-0.05075,-0.03,-0.12575,0.4779611714267724,10,1,100,0.42442249884039546,-10,-1,-100,6476.320416550967,-0.004336234647465275,0.04688173613585316,0.9988910350413455,203.17202601051224,21.080302619570432,247.50755038596398,-15.054634865846051,-114.77899169921875,4381.2578125,True
1599567853.1392715,0.0,10,0.5,0.5,2.7297346649169922,-0.05075,-0.03,-0.12575,0.5143833835550535,10,1,100,0.03620910155127356,-10,-1,-100,6476.320416550967,-0.004336234647465275,0.04688173613585316,0.9988910350413455,203.17202601051224,21.080302619570432,247.50755038596398,-15.054634865846051,-114.77899169921875,4381.2578125,True
1599567853.1994936,0.0,10,0.5,0.5,0.9997255554199223,-0.05075,-0.03,-0.12575,0.4175132798052258,10,1,100,0.4619103820283189,-10,-1,-100,6475.412170114345,-0.00818825371019325,0.04599690508123349,0.9989080224045283,196.23475099236762,20.39866959217628,248.33878398535055,-15.628522005547726,-105.69564819335938,4381.2578125,True
1599567853.2603312,0.0,10,0.5,0.5,1.437360664367676,-0.05075,-0.03,-0.12575,0.4614347206117167,10,1,100,0.21742661401430752,-10,-1,-100,6475.131876201252,-0.00944723785691453,0.0455893428854165,0.9989155927865732,193.47268701505666,20.125017615480274,247.90041276088692,-15.819897179339947,-102.52197265625,4381.2578125,True
1599567853.3175104,0.0,10,0.5,0.5,0.528673812866211,-0.05075,-0.03,-0.12575,0.39438075082661583,10,1,100,0.3824542800337026,-10,-1,-100,6474.443352644914,-0.012071286996121665,0.04460761066866085,0.998931651866478,186.1519993696936,19.38798619477803,244.4132145739933,-16.202801248373113,-95.9556884765625,4381.2578125,True
1599567853.3748987,0.0,10,0.5,0.5,-0.0019073028564453587,-0.05075,-0.03,-0.12575,0.3621912868853648,10,1,100,0.378142629602591,-10,-1,-100,6473.817320058239,-0.014397654664858069,0.043423350838116874,0.9989530119791127,176.51546584326277,18.40163114141705,237.3610447947239,-16.58593053505133,-89.09725952148438,4381.2578125,True
1599567853.4357336,0.0,10,0.5,0.5,-0.5551294784545899,-0.05075,-0.03,-0.12575,0.3263414663637362,10,1,100,0.407448000565468,-10,-1,-100,6473.128781161387,-0.01675875082682283,0.042023446339033696,0.9989760628906555,170.11685075855314,17.74023097306803,234.16362922446788,-16.96922074435374,-81.94705200195312,4381.2578125,True
1599567853.4945786,0.0,10,0.5,0.5,-1.125531349182129,-0.05075,-0.03,-0.12575,0.29690877853689246,10,1,100,0.4078080391883101,-10,-1,-100,6472.441212435253,-0.018887103579655156,0.040487330077995314,0.9990015282378335,184.52718268553767,19.23589200444705,259.8690751021894,-17.352314143256233,-74.57534790039062,4381.2578125,True
1599567853.5523498,0.0,10,0.5,0.5,-1.6980653915405275,-0.05075,-0.03,-0.12575,0.26592946435132514,10,1,100,0.4157094986360085,-10,-1,-100,6471.752174113295,-0.02087150111101481,0.03881491125789131,0.9990284195684399,196.91046007596606,20.510734321520925,283.5724559545638,-17.73505009927365,-67.1199951171875,4381.2578125,True
1599567853.6102247,0.0,10,0.5,0.5,-2.893154327392578,-0.05075,-0.03,-0.12575,0.1398402772274402,10,1,100,0.5068129930090411,-10,-1,-100,6470.658309835591,-0.023481730048597587,0.03615578806012684,0.9990702514556601,211.46551137227695,21.999144141167953,314.6196385898474,-18.308413551566066,-56.1226806640625,4381.2578125,True
1599567853.6700544,0.0,10,0.5,0.5,-2.95087663269043,-0.05075,-0.03,-0.12575,0.20424592359920746,10,1,100,0.41243239751765215,-10,-1,-100,6469.907256656559,-0.024975707305168182,0.03433398648967158,0.9990982891669535,217.76862504646988,22.643163321136132,330.9207028980431,-18.690221166453355,-49.100677490234375,4381.2578125,True
1599567853.7298706,0.0,10,0.5,0.5,-3.452547706604004,-0.05075,-0.03,-0.12575,0.18890275946540147,10,1,100,0.40837559149193775,-10,-1,-100,6469.1566943957005,-0.026278225235764317,0.03254972697862872,0.9991246019151342,221.62859384960657,23.04294855626218,343.8356313500044,-19.071793316859278,-42.37176513671875,4381.2578125,True
1599567853.787716,0.0,10,0.5,0.5,-3.958793228149414,-0.05075,-0.03,-0.12575,0.17399016838784032,10,1,100,0.4043576415581669,-10,-1,-100,6468.343149567489,-0.02740585836364625,0.0308051329671185,0.9991496197818573,223.45400098358107,23.243159482171592,353.7838186470348,-19.453241377946348,-35.94012451171875,4381.2578125,True
1599567853.842569,0.0,10,0.5,0.5,-4.441937850952149,-0.05075,-0.03,-0.12575,0.1621881058727968,10,1,100,0.3990963034032843,-10,-1,-100,6467.592109589605,-0.028365678492445937,0.02912565763571255,0.9991732003766668,223.05161488583215,23.223062388359804,360.2644525736129,-19.834680263824502,-29.80609130859375,4381.2578125,True
1599567853.9004502,0.0,10,0.5,0.5,-5.414415176391602,-0.05075,-0.03,-0.12575,0.07260145034251761,10,1,100,0.4343664828056648,-10,-1,-100,6466.371810436947,-0.029541681658071355,0.026799404725295246,0.9992042238457476,218.96141185528523,22.844750005750047,364.1744354384101,-20.407020460756492,-21.1619873046875,4381.2578125,True
1599567853.9582593,0.0,10,0.5,0.5,-4.5518002014160155,-0.05075,-0.03,-0.12575,0.3034459207899115,10,1,100,0.318513205709318,-10,-1,-100,6466.371810436947,-0.029541681658071355,0.026799404725295246,0.9992042238457476,218.96141185528523,22.844750005750047,364.1744354384101,-20.407020460756492,-21.1619873046875,4381.2578125,True
1599567854.013113,0.0,10,0.5,0.5,-6.163490844726563,-0.05075,-0.03,-0.12575,0.07506788063467823,10,1,100,0.422496472157986,-10,-1,-100,6465.089513207786,-0.030473216783065415,0.024738353402168418,0.9992294015539384,212.05385039662605,22.178456091199052,362.9180681296675,-20.979734234782384,-13.185302734375,4381.2578125,True
1599567854.0699613,0.0,10,0.5,0.5,-5.809870162963867,-0.05075,-0.03,-0.12575,0.2115577664459654,10,1,100,0.3608186801344694,-10,-1,-100,6464.683244238724,-0.030746892000158735,0.0241212012457347,0.9992361063746614,209.52875453285415,21.93197875844324,361.977422698438,-21.170730962290286,-10.674468994140625,4381.2578125,True
1599567854.1278064,0.0,10,0.5,0.5,-6.53280168914795,-0.05075,-0.03,-0.12575,0.1397412069597908,10,1,100,0.37819554560274093,-10,-1,-100,6463.808207035181,-0.031142877530481946,0.022922154316222694,0.9992520683094055,203.7859382285028,21.362109920783524,358.6477760711082,-21.552860158209338,-5.87579345703125,4381.2578125,True
1599567854.1846535,0.0,10,0.5,0.5,-6.907959503173828,-0.05075,-0.03,-0.12575,0.1481114565107211,10,1,100,0.38688208897462595,-10,-1,-100,6462.931223711115,-0.03157249533741158,0.021922652791621755,0.9992610143664903,197.87150717933648,20.766036692634813,354.6566883427621,-21.935148029227,-1.372344970703125,4381.2578125,True
1599567854.2444952,0.0,10,0.5,0.5,-7.938698570251465,-0.05075,-0.03,-0.12575,0.06398923471983745,10,1,100,0.4088948406651466,-10,-1,-100,6461.179715720238,-0.03215581766336251,0.020262206785038782,0.9992774621528301,189.18134662954353,19.873061056364037,351.39168355381236,-22.699990540848354,6.7454833984375,4381.2578125,True
1599567854.3029506,0.0,10,0.5,0.5,-7.410982055664063,-0.05075,-0.03,-0.12575,0.19298677207103243,10,1,100,0.3652608564466522,-10,-1,-100,6460.709981903434,-0.03228291073009686,0.019938207827432972,0.9992798814863746,193.3176585485668,20.30617641083362,362.2254069093808,-22.89114723650458,8.59002685546875,4381.2578125,True
1599567854.3617663,0.0,10,0.5,0.5,-8.230262741088866,-0.05075,-0.03,-0.12575,0.14095750085952613,10,1,100,0.39604044228132373,-10,-1,-100,6459.30274773878,-0.032672805493357535,0.01918213496327872,0.9992820089841725,204.08453058932037,21.420471709529465,392.3874923955392,-23.46425079395445,13.6798095703125,4381.2578125,True
1599567854.4196537,0.0,10,0.5,0.5,-8.012418212890625,-0.05075,-0.03,-0.12575,0.19532474789458937,10,1,100,0.368690326732878,-10,-1,-100,6458.833022468374,-0.0327738297303089,0.018999610058006194,0.9992821878240662,207.170630465599,21.735547517535963,401.70300655697116,-23.655158290246515,15.22845458984375,4381.2578125,True
1599567854.476501,0.0,10,0.5,0.5,-8.460319580078126,-0.05075,-0.03,-0.12575,0.1851769140403903,10,1,100,0.3844021147145943,-10,-1,-100,6457.8930888030445,-0.033004496971700416,0.018750630788700002,0.9992792988072308,212.67150556455772,22.29114219908277,419.3155244893982,-24.03678165718387,18.104034423828125,4381.2578125,True
1599567854.5363407,0.0,10,0.5,0.5,-8.671864952087402,-0.05075,-0.03,-0.12575,0.1979022687088312,10,1,100,0.3874080512607686,-10,-1,-100,6456.892615897232,-0.03323837314582735,0.018647288108077104,0.9992734806832576,217.36436513726574,22.75783167102032,435.67142486791,-24.418156195965246,20.683929443359375,4381.2578125,True
1599567855.0608,0.0,10,0.5,0.5,-8.681088020324708,-0.05075,-0.03,-0.12575,0.20778578951541837,10,1,100,0.3767243682546172,-10,-1,-100,6456.422900313861,-0.033350502829988866,0.018650601420859097,0.9992696828322308,219.4392878283623,22.961606826297615,443.41714060780095,-24.608753997314537,21.863006591796875,4381.2578125,True
1599567855.1116722,0.0,10,0.5,0.5,-9.184064735412598,-0.05075,-0.03,-0.12575,0.2335122853566505,10,1,100,0.4051640294454404,-10,-1,-100,6454.8902281008195,-0.03370836556637325,0.01889302507829148,0.999253120932947,224.72808345202577,23.472241976539486,465.1304057798773,-25.180213108478114,24.957061767578125,4381.2578125,True
1599567855.1675222,0.0,10,0.5,0.5,-9.057843727111816,-0.05075,-0.03,-0.12575,0.22601671561894487,10,1,100,0.3829837198689483,-10,-1,-100,6454.421497247997,-0.03382936390005802,0.01905002156576673,0.9992460511888256,226.21781584986547,23.613371490061418,471.91598772674894,-25.370595314858875,25.8406982421875,4381.2578125,True
1599567855.2223754,0.0,10,0.5,0.5,-9.431583908081056,-0.05075,-0.03,-0.12575,0.28751849478545444,10,1,100,0.4118704832123068,-10,-1,-100,6452.887875281391,-0.034199527064375096,0.01975537284930382,0.9992197544044843,230.09341083980004,23.97441693515178,491.30674284423,-25.941459309572696,28.048675537109375,4381.2578125,True
1599567855.279552,0.0,10,0.5,0.5,-9.34605347442627,-0.05075,-0.03,-0.12575,0.25173492375781686,10,1,100,0.3892145182434613,-10,-1,-100,6452.355677271495,-0.0343276875033766,0.020073266352215666,0.9992090241028767,231.28226851413734,24.084072625022337,497.6367085468539,-26.1316585404302,28.637115478515625,4381.2578125,True
1599567855.3354008,0.0,10,0.5,0.5,-9.622998664855956,-0.05075,-0.03,-0.12575,0.40452383724284074,10,1,100,0.4337160962458069,-10,-1,-100,6450.227400159696,-0.034846782366272006,0.021751422332392856,0.999155932467618,235.20964326400292,24.437532655221137,521.5309652005895,-26.892062430968302,30.25335693359375,4381.2578125,True
1599567855.39062,0.0,10,0.5,0.5,-9.48474629211426,-0.05075,-0.03,-0.12575,0.23688956067561773,10,1,100,0.38206299711988384,-10,-1,-100,6450.227400159696,-0.034846782366272006,0.021751422332392856,0.999155932467618,235.20964326400292,24.437532655221137,521.5309652005895,-26.892062430968302,30.25335693359375,4381.2578125,True
1599567855.4464352,0.0,10,0.5,0.5,-9.599027755737305,-0.05075,-0.03,-0.12575,0.35618951970626395,10,1,100,0.41227647507712367,-10,-1,-100,6449.100535988458,-0.03511947400508972,0.022833631698699536,0.9991222386720526,236.75212826379595,24.571214723668984,532.7380593513681,-27.272054523920602,30.619140625,4381.2578125,True
1599567855.5144627,0.0,10,0.5,0.5,-9.611898147583007,-0.05075,-0.03,-0.12575,0.3923938678493622,10,1,100,0.4098291818622197,-10,-1,-100,6448.036186083336,-0.03534299497090235,0.02414310335878769,0.9990835717129443,238.05177759097901,24.68011347987605,543.5032813068657,-27.651925287987453,30.691070556640625,4381.2578125,True
1599567855.5822825,0.0,10,0.5,0.5,-9.562102592468262,-0.05075,-0.03,-0.12575,0.5080687365452264,10,1,100,0.4291769126955326,-10,-1,-100,6446.314202595851,-0.03571995840376285,0.02638021960831197,0.9990135977978732,239.57971066458677,24.800265171935063,558.8517517730386,-28.22153206065154,30.246246337890625,4381.2578125,True
1599567855.6560829,0.0,10,0.5,0.5,-9.529562248229979,-0.05075,-0.03,-0.12575,0.4774841141293563,10,1,100,0.4137533977009664,-10,-1,-100,6445.18690687872,-0.03592018267436004,0.0281288896936441,0.998958710879105,240.31831184537813,24.851474557182257,568.5231090313978,-28.601156094798352,29.582427978515625,4381.2578125,True
1599567855.716922,0.0,10,0.5,0.5,-9.467201553344726,-0.05075,-0.03,-0.12575,0.5182128159037478,10,1,100,0.41057401222041157,-10,-1,-100,6444.064514016733,-0.03607096516158483,0.030080234070737975,0.9988964235547955,240.8199211424589,24.87811031722116,577.6903354216005,-28.980704177470944,28.624954223632812,4381.2578125,True
1599567855.7797847,0.0,10,0.5,0.5,-9.49469134902954,-0.05075,-0.03,-0.12575,0.44037364247344346,10,1,100,0.4012310429215889,-10,-1,-100,6443.470366814989,-0.036120956247622425,0.031136384465100142,0.9988622538079006,240.9722468584459,24.881206755492837,582.0548169921922,-29.170454134045052,28.03619384765625,4381.2578125,True
1599567855.8395936,0.0,10,0.5,0.5,-9.328624893188476,-0.05075,-0.03,-0.12575,0.58379159463426,10,1,100,0.403292086392209,-10,-1,-100,6442.277694541379,-0.03618305618252809,0.03338933314971014,0.9987872340379155,241.05971411280422,24.864917915059497,590.2806295639989,-29.549914913944598,26.638519287109375,4381.2578125,True
1599567855.900462,0.0,10,0.5,0.5,-9.033139076232912,-0.05075,-0.03,-0.12575,0.7754399442387043,10,1,100,0.38876152716858037,-10,-1,-100,6440.490443026531,-0.036105611467574655,0.03716733153185017,0.9986565847614254,240.56265208673966,24.775892037362535,601.0972828412063,-30.11903783579978,23.9925537109375,4381.2578125,True
1599567855.9612687,0.0,10,0.5,0.5,-8.975987007141113,-0.05075,-0.03,-0.12575,0.7050305310235244,10,1,100,0.3762649115921014,-10,-1,-100,6439.241687089321,-0.035919985290590636,0.03994624988167617,0.9985559832964372,239.74089211548974,24.666724928026785,607.0661118875955,-30.49843243804505,21.862533569335938,4381.2578125,True
1599567856.019114,0.0,10,0.5,0.5,-9.011325008392333,-0.05075,-0.03,-0.12575,0.5905483562943405,10,1,100,0.37883934898040184,-10,-1,-100,6438.651501117973,-0.035773662557840334,0.04141525149529879,0.9985013880865559,239.1592156157029,24.595005616635344,609.6033616322525,-30.68813034784764,20.68780517578125,4381.2578125,True
1599567856.076993,0.0,10,0.5,0.5,-8.43094334411621,-0.05075,-0.03,-0.12575,0.9649249862518465,10,1,100,0.3111878480758963,-10,-1,-100,6436.800420610816,-0.03502478562876131,0.04613625520805767,0.9983209455616147,236.6206418483147,24.301446164334298,615.0728851192728,-31.25725372740806,16.72515869140625,4381.2578125,True
1599567856.1348033,0.0,10,0.5,0.5,-8.356787628173828,-0.05075,-0.03,-0.12575,0.8671839435583293,10,1,100,0.30942757652189773,-10,-1,-100,6435.550785336061,-0.034328072032177054,0.04951833762834344,0.9981831083068272,234.16361299834864,24.031429172820634,616.596173027613,-31.636715771311206,13.717926025390625,4381.2578125,True
1599567856.192651,0.0,10,0.5,0.5,-8.3993051071167,-0.05075,-0.03,-0.12575,0.7251600302214134,10,1,100,0.33274530613193043,-10,-1,-100,6434.8883852015715,-0.033907598052590505,0.05127876313074986,0.9981085929126572,232.67877503029692,23.871946581124696,616.6263844178167,-31.826466658488346,12.104766845703125,4381.2578125,True
1599567856.257477,0.0,10,0.5,0.5,-7.939627006530762,-0.05075,-0.03,-0.12575,0.9528586932786384,10,1,100,0.24494594548206206,-10,-1,-100,6433.579234200646,-0.03272882057465045,0.05492650275752825,0.997953858451692,229.14409109982142,23.499786034055177,615.0395449527916,-32.20601650969714,8.659393310546875,4381.2578125,True
1599567856.3163195,0.0,10,0.5,0.5,-7.650420097351073,-0.05075,-0.03,-0.12575,1.0073786058629672,10,1,100,0.21119305990380272,-10,-1,-100,6432.332132065436,-0.03135326150953869,0.05871390379348988,0.9977823662974022,224.78058050445154,23.05054569578811,610.9853535607914,-32.58563694558144,4.9217529296875,4381.2578125,True
1599567856.3751621,0.0,10,0.5,0.5,-7.338088623046875,-0.05075,-0.03,-0.12575,1.0631648840706145,10,1,100,0.1684594223816538,-10,-1,-100,6431.009876419674,-0.02971855447619214,0.06263811301923111,0.9975937421201255,219.5094761514915,22.518011738192115,604.1584757671254,-32.96532910012016,0.892120361328125,4381.2578125,True
1599567856.4330077,0.0,10,0.5,0.5,-6.185919334411621,-0.05075,-0.03,-0.12575,1.555249545075043,10,1,100,-0.15600054138548858,-10,-1,-100,6428.315678035957,-0.025288641504149827,0.070650434934896,0.9971805256092724,212.85299344690745,21.88802344877977,600.4307026536117,-33.7247888785856,-8.04534912109375,4381.2578125,True
1599567856.4928918,0.0,10,0.5,0.5,-6.779074600219727,-0.05075,-0.03,-0.12575,0.9791003486304415,10,1,100,0.14050967774599954,-10,-1,-100,6427.598693185602,-0.023966899353196142,0.072662770252563,0.9970685581015064,216.1630309891978,22.25053628015202,613.4773298525447,-33.91451975551975,-10.462799072265625,4381.2578125,True
1599567856.5527334,0.0,10,0.5,0.5,-5.621604103088379,-0.05075,-0.03,-0.12575,1.4245183211032388,10,1,100,-0.2223259373172388,-10,-1,-100,6425.569848528481,-0.019477845180949152,0.07850915171044869,0.9967230942668144,225.9118497181857,23.341791307290293,652.7692289109189,-34.48313741525604,-18.15740966796875,4381.2578125,True
1599567856.611576,0.0,10,0.5,0.5,-5.99061260986328,-0.05075,-0.03,-0.12575,1.0583676729054132,10,1,100,0.03891956475122005,-10,-1,-100,6424.8494695100235,-0.017786793352355734,0.08046034450506565,0.9965990984063586,229.18186095987258,23.71418417313991,666.1435342701391,-34.672467260972084,-20.868621826171875,4381.2578125,True
1599567856.6694212,0.0,10,0.5,0.5,-5.715314338684081,-0.05075,-0.03,-0.12575,1.0763202060000538,10,1,100,0.010294078198780615,-10,-1,-100,6424.1950149718905,-0.016005593511526344,0.08236186544375074,0.9964739555537662,232.26122512816667,24.069421693899308,679.0683908723097,-34.861689679914555,-23.6536865234375,4381.2578125,True
1599567856.727301,0.0,10,0.5,0.5,-3.8472987365722657,-0.05075,-0.03,-0.12575,1.6476409650540105,10,1,100,-0.6793235245937148,-10,-1,-100,6421.376531287795,-0.008134360169128973,0.08925141355192252,0.9959759120398559,242.86644498077243,25.326548448369817,726.6464966372025,-35.61754176080539,-35.5352783203125,4381.2578125,True
1599567856.7861464,0.0,10,0.5,0.5,-5.1936492919921875,-0.05075,-0.03,-0.12575,0.9626594618291898,10,1,100,0.10518043845971753,-10,-1,-100,6421.376531287795,-0.008134360169128973,0.08925141355192252,0.9959759120398559,242.86644498077243,25.326548448369817,726.6464966372025,-35.61754176080539,-35.5352783203125,4381.2578125,True
1599567856.8439903,0.0,10,0.5,0.5,-2.7442499084472662,-0.05075,-0.03,-0.12575,1.5884028858148982,10,1,100,-0.8701483437492852,-10,-1,-100,6418.43695786735,0.0007088349074224492,0.09490546954231881,0.9954860367699921,249.34903875707258,26.14317084419512,762.9778049947414,-36.37197975118267,-48.6031494140625,4381.2578125,True
1599567856.9013796,0.0,10,0.5,0.5,-2.984340698242188,-0.05075,-0.03,-0.12575,1.296611381242811,10,1,100,-0.5276838685759233,-10,-1,-100,6417.000103114406,0.005604391879545841,0.09735652588585574,0.9952337904528247,250.0660358175997,26.27083525011412,773.6527525437792,-36.74888286842256,-55.5799560546875,4381.2578125,True
1599567856.962215,0.0,10,0.5,0.5,-3.6801690063476564,-0.05075,-0.03,-0.12575,1.0553700090983549,10,1,100,-0.04182393670249251,-10,-1,-100,6417.000103114406,0.005604391879545841,0.09735652588585574,0.9952337904528247,250.0660358175997,26.27083525011412,773.6527525437792,-36.74888286842256,-55.5799560546875,4381.2578125,True
1599567857.0203652,0.0,10,0.5,0.5,-2.225989196777344,-0.05075,-0.03,-0.12575,1.2521871619186329,10,1,100,-0.5518558359862065,-10,-1,-100,6415.496796508087,0.010208933739983479,0.09911421053616133,0.9950236936584406,248.76990144740813,26.173185045901953,778.0897254250577,-37.125731136462036,-62.85906982421875,4381.2578125,True
1599567857.0782466,0.0,10,0.5,0.5,-0.9517034454345701,-0.05075,-0.03,-0.12575,1.2997817670864702,10,1,100,-0.8937816937156491,-10,-1,-100,6413.277372227516,0.017471027251336143,0.10111890774196379,0.9947209305648771,242.74189515170897,25.574820046186293,771.6480731476046,-37.69116818993778,-74.333251953125,4381.2578125,True
1599567857.135062,0.0,10,0.5,0.5,-0.7869522705078125,-0.05075,-0.03,-0.12575,1.1826593123654998,10,1,100,-0.6902538998657346,-10,-1,-100,6411.774408760946,0.022185006929744313,0.10185074094296684,0.9945522872312426,235.73614171191994,24.853702235887454,757.4607434827583,-38.06839051302865,-82.35601806640625,4381.2578125,True
1599567857.6676366,0.0,10,0.5,0.5,-0.1350302009582518,-0.05075,-0.03,-0.12575,1.1458722983614877,10,1,100,-0.7120244177613112,-10,-1,-100,6410.219127407763,0.026630481479974533,0.10216039682635812,0.9944114192709301,226.24627201385758,23.872782501728214,734.7641107066354,-38.445903725387694,-90.67436981201172,4381.2578125,True
1599567857.7185018,0.0,10,0.5,0.5,0.5456561565399167,-0.05075,-0.03,-0.12575,1.108552648357794,10,1,100,-0.7369270230262495,-10,-1,-100,6408.643742832704,0.03085782996001751,0.10208290530911544,0.9942971762877579,214.31442497019535,22.642809392089095,703.4254484384244,-38.82372400262334,-99.27098083496094,4381.2578125,True
1599567857.7713602,0.0,10,0.5,0.5,0.46643490219116224,-0.05075,-0.03,-0.12575,1.0981635141229455,10,1,100,-0.5393670539595036,-10,-1,-100,6407.861145730829,0.032862271201748394,0.10190008358233678,0.9942517005755511,207.4677228107487,21.939301709413815,684.5440944513184,-39.01273986191103,-103.66163635253906,4381.2578125,True
1599567857.82422,0.0,10,0.5,0.5,1.6823862380981445,-0.05075,-0.03,-0.12575,1.051557911106139,10,1,100,-0.7484633855763658,-10,-1,-100,6406.302235356416,0.03654809658950169,0.10129869592144847,0.9941844953731165,208.14671608522164,22.064268742957253,693.979533658742,-39.39067036074024,-112.52111053466797,4381.2578125,True
1599567857.881068,0.0,10,0.5,0.5,3.1234638576507567,-0.05075,-0.03,-0.12575,0.9592936684189406,10,1,100,-0.9070010925623901,-10,-1,-100,6403.95712634339,0.0412994784084607,0.09990226194860317,0.9941397744486145,223.3694881338929,23.781870401385397,756.2552719099338,-39.95640532392138,-125.68937683105469,4381.2578125,True
1599567857.9369488,0.0,10,0.5,0.5,3.2140990562438967,-0.05075,-0.03,-0.12575,0.9718197688035812,10,1,100,-0.7212404451798471,-10,-1,-100,6402.3223372746725,0.043893282682672105,0.09874210762005302,0.9941445447811345,229.92054940307924,24.548008675316513,786.2979148771857,-40.33292865663182,-134.27456665039062,4381.2578125,True
1599567857.9937663,0.0,10,0.5,0.5,3.1109009475708005,-0.05075,-0.03,-0.12575,1.0211068099631615,10,1,100,-0.587821507183592,-10,-1,-100,6401.473668548162,0.045003579049440946,0.09813422625760888,0.9941550942934213,232.5981597135726,24.864931356527713,799.4232536512517,-40.52104916123319,-138.46893310546875,4381.2578125,True
1599567858.049617,0.0,10,0.5,0.5,4.974914291381836,-0.05075,-0.03,-0.12575,0.8817418316946962,10,1,100,-0.7676555230905161,-10,-1,-100,6399.072613446158,0.04761197663004839,0.09631394548897203,0.994211609058015,237.13105701941637,25.424195165023907,827.1331785896535,-41.08507196807071,-150.609375,4381.2578125,True
1599567858.106465,0.0,10,0.5,0.5,5.073713195800781,-0.05075,-0.03,-0.12575,0.9304652244858069,10,1,100,-0.6362943023940646,-10,-1,-100,6397.381528089871,0.048755051476187354,0.09510463042017334,0.9942726257059461,237.09673881037386,25.45400071264516,835.1202338645363,-41.46100172811329,-158.3272705078125,4381.2578125,True
1599567858.1613183,0.0,10,0.5,0.5,5.0161938476562495,-0.05075,-0.03,-0.12575,0.9880841481996563,10,1,100,-0.5681060162663832,-10,-1,-100,6396.532799139153,0.04914587689494854,0.09453452900713842,0.9943077519609433,236.28210215796528,25.379516772222377,836.302940607697,-41.64898951437854,-162.07244873046875,4381.2578125,True
1599567858.2191632,0.0,10,0.5,0.5,6.686515434265138,-0.05075,-0.03,-0.12575,0.8920909310643974,10,1,100,-0.5917954878602717,-10,-1,-100,6394.055444065598,0.04969202168107114,0.0931502404867278,0.9944112507803363,231.15536845373245,24.85986217998385,830.1130050024533,-42.21317045361235,-172.84938049316406,4381.2578125,True
1599567858.2770061,0.0,10,0.5,0.5,6.185007114410401,-0.05075,-0.03,-0.12575,0.9874580656949266,10,1,100,-0.5360334352477507,-10,-1,-100,6393.214032722288,0.04966062415361323,0.09276696137966808,0.9944486478873893,228.69733117056336,24.605683643447325,825.2505961076789,-42.40132356089456,-176.28941345214844,4381.2578125,True
1599567858.3378468,0.0,10,0.5,0.5,-55.815994625091555,-0.05075,-0.03,-0.12575,0.9371553513856701,10,1,100,-0.46634823733320707,-10,-1,-100,6390.61217025877,0.04898148569834328,0.09196969746492005,0.9945563778926734,219.6290161330166,23.667670497378005,804.0057184111581,-42.96608616344384,173.8492431640625,4381.2578125,True
1599567858.3956919,0.0,10,0.5,0.5,-11.525807991027834,-0.05075,-0.03,-0.12575,0.9943834614596514,10,1,100,-0.43708287332965845,-10,-1,-100,6388.9176605693065,0.04808338450761416,0.09177419525774659,0.9946182610524934,212.54481756688608,22.939831673047586,785.5094894628177,-43.342828763578176,167.6578369140625,4381.2578125,True
1599567858.4555638,0.0,10,0.5,0.5,-12.618810264587403,-0.05075,-0.03,-0.12575,1.01442632868115,10,1,100,-0.46402127680455785,-10,-1,-100,6388.006941466825,0.047501336831343034,0.0917873324992968,0.9946450163711166,208.7937432632575,22.55670831190409,775.3040893051414,-43.53125931467029,164.6770782470703,4381.2578125,True
1599567858.513955,0.0,10,0.5,0.5,-12.799685771942139,-0.05075,-0.03,-0.12575,1.038292347666433,10,1,100,-0.37176997161150943,-10,-1,-100,6386.253890860942,0.04612791629804804,0.09202361646370802,0.9946878250742495,211.9138744682679,22.946895024843492,794.315185384848,-43.907985145203575,158.6427764892578,4381.2578125,True
1599567858.5738337,0.0,10,0.5,0.5,-13.330002994537354,-0.05075,-0.03,-0.12575,1.0774684936315768,10,1,100,-0.32405337637184967,-10,-1,-100,6384.500891376287,0.04444353346231444,0.09260067456845257,0.9947109567119746,220.55384228056604,23.94787975905409,834.4209655175847,-44.28425791021323,152.36941528320312,4381.2578125,True
1599567858.633674,0.0,10,0.5,0.5,-12.628868965148927,-0.05075,-0.03,-0.12575,1.2652356019925282,10,1,100,-0.04267301087431352,-10,-1,-100,6380.929190333118,0.04035478214856731,0.09483727705940095,0.9946745108012469,236.24772686390574,25.807224547326676,910.2854463470889,-45.03541062570301,138.9840087890625,4381.2578125,True
1599567858.6915565,0.0,10,0.5,0.5,-14.558928787231446,-0.05075,-0.03,-0.12575,1.1284456078580836,10,1,100,-0.3234581617608294,-10,-1,-100,6380.025455569616,0.03919692523002141,0.09562834907579505,0.9946450723275867,239.61803214843843,26.214423644088566,927.4414841856577,-45.22293254075308,135.46029663085938,4381.2578125,True
1599567858.747407,0.0,10,0.5,0.5,-13.94237767791748,-0.05075,-0.03,-0.12575,1.369859234608079,10,1,100,-0.020533440618966836,-10,-1,-100,6377.2890167234,0.035399156135731996,0.09854169868055726,0.9945031087764525,249.05031367790372,27.357606053768865,976.9385786004482,-45.78495028345812,124.4630126953125,4381.2578125,True
1599567858.8092723,0.0,10,0.5,0.5,-16.184892517089846,-0.05075,-0.03,-0.12575,1.0789249910992,10,1,100,-0.39893567797198676,-10,-1,-100,6377.2890167234,0.035399156135731996,0.09854169868055726,0.9945031087764525,249.05031367790372,27.357606053768865,976.9385786004482,-45.78495028345812,124.4630126953125,4381.2578125,True
1599567858.871076,0.0,10,0.5,0.5,-15.023552108764648,-0.05075,-0.03,-0.12575,1.5032419488756048,10,1,100,0.04473493869267986,-10,-1,-100,6374.497677681153,0.03137878040745806,0.10239422424380291,0.9942488596833543,254.84455809767869,28.083868149909364,1012.9876616656112,-46.346430887369216,112.8297119140625,4381.2578125,True
1599567858.9302492,0.0,10,0.5,0.5,-15.922635108947755,-0.05075,-0.03,-0.12575,1.4571753711680098,10,1,100,-0.05207058473644027,-10,-1,-100,6372.611576927011,0.028620563452697537,0.10546898108317161,0.9940106424867532,256.1844433188006,28.278004284907336,1027.295863974406,-46.720668166043374,104.72114562988281,4381.2578125,True
1599567858.9861007,0.0,10,0.5,0.5,-15.253946941375734,-0.05075,-0.03,-0.12575,1.533354109449542,10,1,100,-0.019491706888643823,-10,-1,-100,6370.698792546755,0.025835431806340407,0.10894447648186777,0.9937120465745958,255.15946813610879,28.20483733267122,1032.203454649165,-47.09499583151084,96.33045959472656,4381.2578125,True
1599567859.0429482,0.0,10,0.5,0.5,-15.335992221832276,-0.05075,-0.03,-0.12575,1.3961558795685953,10,1,100,-0.13998808502638183,-10,-1,-100,6369.773472827976,0.024419140976996337,0.11084115177156101,0.9935380942006701,253.6787280303403,28.060944201463617,1030.7275436287898,-47.28223081638209,92.02960205078125,4381.2578125,True
1599567859.0997963,0.0,10,0.5,0.5,-14.103454833984376,-0.05075,-0.03,-0.12575,1.6600695953063385,10,1,100,0.017622019276212986,-10,-1,-100,6367.797487058677,0.021719768543800273,0.11494729597865047,0.9931341152138519,248.65408424417876,27.54960485624589,1019.2250445485148,-47.65690064738281,83.21697998046875,4381.2578125,True
1599567859.154651,0.0,10,0.5,0.5,-13.380290863037109,-0.05075,-0.03,-0.12575,1.7473653751883633,10,1,100,0.037631576785035564,-10,-1,-100,6365.912034596433,0.019106077761500233,0.11945291263900935,0.9926560126522324,240.71254139147322,26.728529068652094,995.3715030633361,-48.0318796415176,74.12307739257812,4381.2578125,True
1599567859.2105014,0.0,10,0.5,0.5,-12.634331031799316,-0.05075,-0.03,-0.12575,1.8350149968970473,10,1,100,0.042100872433899206,-10,-1,-100,6363.971128353616,0.01671239932232945,0.12432133140207768,0.9921012560557041,229.958542274465,25.614564477675373,959.2445441801129,-48.407167946095264,64.74755859375,4381.2578125,True
1599567859.2713375,0.0,10,0.5,0.5,-11.886219261169433,-0.05075,-0.03,-0.12575,1.9293468678547656,10,1,100,0.04952583315570325,-10,-1,-100,6362.028976561967,0.014490321446363464,0.12957792541871663,0.9914633587927305,243.6919557498888,27.25665991645175,1025.3536179938237,-48.78198428740894,55.09104919433594,4381.2578125,True
1599567859.3301811,0.0,10,0.5,0.5,-10.209628376007082,-0.05075,-0.03,-0.12575,2.3400050094057163,10,1,100,0.13320361838653424,-10,-1,-100,6359.053906818037,0.011732004060462884,0.1380590398330853,0.9903545130916968,265.02527726753505,29.852756796204194,1129.408590397594,-49.34262432652957,40.07807922363281,4381.2578125,True
1599567859.3880255,0.0,10,0.5,0.5,-10.015652851104736,-0.05075,-0.03,-0.12575,2.1550309431276022,10,1,100,0.014722263775111877,-10,-1,-100,6357.11181291868,0.010323061617089168,0.14405163656984438,0.989516326495121,276.3634116136067,31.271500703516235,1187.606519769278,-49.71550908440088,29.7171630859375,4381.2578125,True
1599567859.4468682,0.0,10,0.5,0.5,-9.155890853881836,-0.05075,-0.03,-0.12575,2.2441227823840784,10,1,100,-0.011039834010937555,-10,-1,-100,6355.108887631097,0.009299202188912278,0.15026800492569398,0.9886015635908642,285.24958525118797,32.4059444373314,1235.9979540208772,-50.08791532206572,19.074615478515625,4381.2578125,True
1599567859.5057116,0.0,10,0.5,0.5,-9.25507624053955,-0.05075,-0.03,-0.12575,1.9763679751845862,10,1,100,-0.07205463894676012,-10,-1,-100,6354.076492190477,0.008943173279275806,0.15344159265585106,0.9881172487589378,288.17296037642274,32.79559527545403,1253.8445736138906,-50.27402966938676,13.647705078125,4381.2578125,True
1599567859.5874932,0.0,10,0.5,0.5,-7.711090744018555,-0.05075,-0.03,-0.12575,2.3644427697535964,10,1,100,-0.06399319551899865,-10,-1,-100,6352.072856859304,0.008564113321329747,0.15981101362337333,0.9871104780558706,290.59757976354,33.176401728230545,1274.9340481088961,-50.64626997608281,2.5814208984375,4381.2578125,True
1599567859.6463346,0.0,10,0.5,0.5,-5.798031478881836,-0.05075,-0.03,-0.12575,2.784925300074853,10,1,100,-0.12644862184682087,-10,-1,-100,6348.975596340955,0.008802991161163542,0.16937772247209454,0.9855118946399289,284.707039474388,32.661858766485786,1264.881631948677,-51.20512725346702,-14.548309326171875,4381.2578125,True
1599567859.7041807,0.0,10,0.5,0.5,-5.554161079406739,-0.05075,-0.03,-0.12575,2.521884436126305,10,1,100,-0.17606372537096676,-10,-1,-100,6346.91166217858,0.009485395729246348,0.1756302348707629,0.9844105078000237,273.91265711275884,31.558101051421154,1227.216579325988,-51.57824099665879,-26.32281494140625,4381.2578125,True
1599567860.1817138,0.0,10,0.5,0.5,-5.648263046264648,-0.05075,-0.03,-0.12575,2.2394801546569836,10,1,100,-0.16037882206108012,-10,-1,-100,6345.877999039018,0.009974295645426796,0.17869185909356566,0.9838545283323459,266.3960324806301,30.77422654211661,1198.5574034044616,-51.76496661218467,-32.31671142578125,4381.2578125,True
1599567860.2297916,0.0,10,0.5,0.5,-5.012138595581055,-0.05075,-0.03,-0.12575,2.2686224814146625,10,1,100,-0.17334222109687825,-10,-1,-100,6344.845311001525,0.01054490081693089,0.18168623049713384,0.9833000146010897,257.8366660151821,29.877223337119784,1164.8871927906955,-51.95178244263689,-38.382080078125,4381.2578125,True
1599567860.2816541,0.0,10,0.5,0.5,-4.382349700927734,-0.05075,-0.03,-0.12575,2.297559263202759,10,1,100,-0.18745837377527286,-10,-1,-100,6343.813595982036,0.01119756826856129,0.18461929806291028,0.9827463198850602,265.3042081033727,30.847974242383383,1203.5703033653062,-52.138326013379896,-44.51873779296875,4381.2578125,True
1599567860.3365068,0.0,10,0.5,0.5,-2.651098815917968,-0.05075,-0.03,-0.12575,2.629931266967854,10,1,100,-0.2874811338035236,-10,-1,-100,6341.687138749636,0.012703193545916478,0.1902572491818041,0.9816520809367787,284.87339739474925,33.366198053300366,1302.8380384528728,-52.51042690580618,-57.006591796875,4381.2578125,True
1599567860.3913598,0.0,10,0.5,0.5,-0.5293841094970704,-0.05075,-0.03,-0.12575,2.9318801099676772,10,1,100,-0.42614979742501424,-10,-1,-100,6338.527806872502,0.015331685113266153,0.1980801958541162,0.9800659036217834,304.97070897014106,36.0861756668991,1411.3517164342454,-53.06674465861058,-76.27462768554688,4381.2578125,True
1599567860.452467,0.0,10,0.5,0.5,0.8797648620605469,-0.05075,-0.03,-0.12575,2.9260539398364953,10,1,100,-0.4674322889164766,-10,-1,-100,6335.367220222601,0.018091964984873535,0.20508988350113078,0.9785759145250198,311.9661777938311,37.211343509748225,1460.818284790745,-53.622249210713996,-96.18470764160156,4381.2578125,True
1599567860.5093148,0.0,10,0.5,0.5,-0.08540120315551769,-0.05075,-0.03,-0.12575,2.469406631100305,10,1,100,-0.2876434551380363,-10,-1,-100,6334.272279229015,0.018958872958534462,0.20726114957483735,0.9781019256770018,310.2709442747033,37.09809003498311,1458.6532171537394,-53.80754221407846,-102.94248962402344,4381.2578125,True
1599567860.5651848,0.0,10,0.5,0.5,1.810387508392334,-0.05075,-0.03,-0.12575,2.711862000044262,10,1,100,-0.38070379499999785,-10,-1,-100,6332.082300952636,0.020583869024535628,0.2113902406714075,0.9771849725025785,300.5064075988671,36.11488380625388,1424.1069180010115,-54.17858756567509,-116.5164794921875,4381.2578125,True
1599567860.621035,0.0,10,0.5,0.5,1.647492027282715,-0.05075,-0.03,-0.12575,2.5211597928202165,10,1,100,-0.2995739396291741,-10,-1,-100,6330.987758710864,0.02131266698507174,0.2133634132143908,0.9767404077478767,292.5503326455715,35.263254947466855,1391.9899923012497,-54.36437184086989,-123.24021911621094,4381.2578125,True
1599567860.6798782,0.0,10,0.5,0.5,3.494012851715088,-0.05075,-0.03,-0.12575,2.7413410399812057,10,1,100,-0.371503298632398,-10,-1,-100,6328.795674170717,0.022617741416657598,0.21711886714516437,0.9758831053475666,271.1431096517681,32.91676735603836,1300.4656942031959,-54.736424279937424,-136.6450653076172,4381.2578125,True
1599567860.735729,0.0,10,0.5,0.5,5.624201412200928,-0.05075,-0.03,-0.12575,2.9720709546359663,10,1,100,-0.3888983078970796,-10,-1,-100,6325.509417503839,0.023950370669880563,0.2225927439133887,0.9746172839129643,299.252600467891,36.78988523885437,1451.9600339659175,-55.292761178077264,-156.38943481445312,4381.2578125,True
1599567860.789585,0.0,10,0.5,0.5,5.771138977050781,-0.05075,-0.03,-0.12575,2.8289277580790295,10,1,100,-0.31079631056376555,-10,-1,-100,6323.318755408982,0.02443912812884908,0.22622778383869338,0.9737677951317423,315.84371808620347,39.13547070107891,1543.9747615176916,-55.66209051437892,-169.1802215576172,4381.2578125,True
1599567860.8464332,0.0,10,0.5,0.5,5.663199344635011,-0.05075,-0.03,-0.12575,2.6739742873550925,10,1,100,-0.27698595278208216,-10,-1,-100,6322.160219448851,0.024563455086885233,0.2280832053520786,0.9733317461741994,322.558044328994,40.10830577182554,1582.684519097817,-55.84649436732346,-175.4584503173828,4381.2578125,True
1599567860.9032815,0.0,10,0.5,0.5,-56.09893093490601,-0.05075,-0.03,-0.12575,2.913976177008655,10,1,100,-0.2682789020897136,-10,-1,-100,6319.906716365716,0.02458517378169809,0.23191227489992558,0.9724259694089135,330.1477298413034,41.31329691683004,1632.1276543550389,-56.21514991050195,172.22122192382812,4381.2578125,True
1599567860.9591324,0.0,10,0.5,0.5,-10.94709571838379,-0.05075,-0.03,-0.12575,2.9774405133324566,10,1,100,-0.2379195539773501,-10,-1,-100,6317.652401014464,0.02431812217574667,0.23593232752298637,0.9714651644621293,330.0793017906047,41.55430271073158,1644.3040455558437,-56.5840100821436,160.21669006347656,4381.2578125,True
1599567861.0159802,0.0,10,0.5,0.5,-11.103346973419189,-0.05075,-0.03,-0.12575,3.0524665222893512,10,1,100,-0.2090245385576782,-10,-1,-100,6315.3997647946235,0.023804496541918838,0.24023456441476898,0.9704229490303864,322.7821417863355,40.90618852065931,1620.5015012969363,-56.95336367660566,148.52947998046875,4381.2578125,True
1599567861.0728273,0.0,10,0.5,0.5,-10.20285580444336,-0.05075,-0.03,-0.12575,3.4053074429596912,10,1,100,-0.14058914640939518,-10,-1,-100,6311.924887475674,0.022710231008402738,0.24732138388528932,0.9686673208489127,299.22140113646725,38.40395297919528,1519.8639170426018,-57.50843189028889,130.94137573242188,4381.2578125,True
1599567861.1323423,0.0,10,0.5,0.5,-12.060513343811035,-0.05075,-0.03,-0.12575,2.981170888538012,10,1,100,-0.20442943606961922,-10,-1,-100,6310.829420357244,0.022292400103890258,0.24987174178710123,0.968022293934333,292.36500036385524,37.71411843023332,1490.7019815402864,-57.69358936257621,124.9600830078125,4381.2578125,True
