Timestamp,Input Throttle,horizon,dT,dt,Input Roll,Roll P,Roll I,Roll D,Input Pitch,Pitch P,Pitch I,Pitch D,Input Yaw,Yaw P,Yaw I,Yaw D,Altitude,Direction X,Direction Y,Direction Z,Drag X,Drag Y,Drag Z,Vertical Velocity,Roll,Mass,Has Fuel
1599568637.1374335,0.0,10,0.5,0.5,-5.433762931823731,-0.1005,-0.00825,-0.37525,-0.06720386470981021,10,1,100,0.6903590313691552,-10,-1,-100,6483.617967297672,-0.06725846666786028,-0.0070023813593694,0.997711012927484,205.07312908924712,21.49876650044287,-156.76516651927236,9.590823904118949,-35.944671630859375,4381.2578125,True
1599568637.1932862,0.0,10,0.5,0.5,-5.477940158843994,-0.1005,-0.00825,-0.37525,-0.06904197787086393,10,1,100,0.6895040630797888,-10,-1,-100,6483.776675087865,-0.06735113530180938,-0.0069870897788351545,0.9977048687612885,204.8426655845923,21.477778341300578,-153.51318282942157,9.400809985939217,-35.943023681640625,4381.2578125,True
1599568637.2511306,0.0,10,0.5,0.5,-5.503988130187989,-0.1005,-0.00825,-0.37525,-0.05043456705823898,10,1,100,0.710002939731557,-10,-1,-100,6484.316760019632,-0.06756050463377752,-0.006797678162072127,0.9976920215102626,204.14944147553888,21.414351769143146,-143.7893306939234,8.83079775845982,-35.980712890625,4381.2578125,True
1599568637.307979,0.0,10,0.5,0.5,-5.431418490600586,-0.1005,-0.00825,-0.37525,-0.03422604174099693,10,1,100,0.6997390066164257,-10,-1,-100,6484.697140524397,-0.06759611326667121,-0.006471955845619836,0.9976917756796292,203.75662501526364,21.37897049479562,-137.38152791605452,8.450805455283886,-36.25665283203125,4381.2578125,True
1599568637.365819,0.0,10,0.5,0.5,-5.463066200256347,-0.1005,-0.00825,-0.37525,-0.04432205235647145,10,1,100,0.7021284329401624,-10,-1,-100,6484.856804521405,-0.06758875579654793,-0.006261742967307867,0.9976936156280074,203.5917950496165,21.364384551328072,-134.20530249849526,8.260810864464133,-36.5009765625,4381.2578125,True
1599568637.4246671,0.0,10,0.5,0.5,-5.041859480285645,-0.1005,-0.00825,-0.37525,0.03863991592862275,10,1,100,0.6849916561210383,-10,-1,-100,6485.3357550376095,-0.06736483398371967,-0.005310748145371305,0.9977142752794923,203.1991320363825,21.330054838291026,-124.76099452973759,7.690821976923971,-37.67181396484375,4381.2578125,True
1599568637.488505,0.0,10,0.5,0.5,-4.978540502929688,-0.1005,-0.00825,-0.37525,0.04253697519664686,10,1,100,0.6791564057631687,-10,-1,-100,6485.590081280214,-0.06704698021063725,-0.004405951633769328,0.9977400914240319,202.97279661040585,21.30954081310679,-118.4986664497431,7.310815377529203,-38.81915283203125,4381.2578125,True
1599568637.5463426,0.0,10,0.5,0.5,-5.125967735290528,-0.1005,-0.00825,-0.37525,0.010326844530603126,10,1,100,0.6941929338455055,-10,-1,-100,6485.750193841406,-0.06683376614475571,-0.003872223309609956,0.9977566103963174,202.85003723197934,21.297800349668798,-115.36522706703329,7.120804733677286,-39.50299072265625,4381.2578125,True
1599568637.6051846,0.0,10,0.5,0.5,-4.668552153015137,-0.1005,-0.00825,-0.37525,0.08796542967620372,10,1,100,0.6601040368655647,-10,-1,-100,6486.005456815241,-0.06626927814309598,-0.002677690219678149,0.9977981823743118,202.54329355757153,21.26684069323264,-109.07264628721167,6.740763309234934,-41.091400146484375,4381.2578125,True
1599568637.6669788,0.0,10,0.5,0.5,-4.409436637115478,-0.1005,-0.00825,-0.37525,0.12119759455311256,10,1,100,0.6433405899958884,-10,-1,-100,6486.261181289214,-0.06554346746264181,-0.0012872061933867183,0.9978488848383754,202.08517291920236,21.21847416649098,-102.71656277579255,6.360687170512114,-42.973724365234375,4381.2578125,True
1599568637.7323468,0.0,10,0.5,0.5,-3.5489627838134763,-0.1005,-0.00825,-0.37525,0.24806525031739657,10,1,100,0.5651482590686889,-10,-1,-100,6486.674996672315,-0.0641132152288338,0.0011313827067293337,0.9979419901007234,200.89717912194357,21.09038256780707,-92.99301236803952,5.790480568398004,-46.3486328125,4381.2578125,True
1599568637.791165,0.0,10,0.5,0.5,-4.201571288299561,-0.1005,-0.00825,-0.37525,0.10355716398424142,10,1,100,0.6444705219644631,-10,-1,-100,6486.772070742212,-0.06353695672573267,0.002008995681927881,0.9979774642076757,200.30988104246302,21.026832814093336,-89.68757046524439,5.600378836465421,-47.620819091796875,4381.2578125,True
1599568637.8505497,0.0,10,0.5,0.5,-2.643264186859131,-0.1005,-0.00825,-0.37525,0.32379217626277024,10,1,100,0.4768343728788841,-10,-1,-100,6487.0617956700735,-0.061492587802659184,0.004800783875130674,0.9980959944411743,197.74136051848868,20.749401606615265,-79.54564463797406,5.029941370907633,-51.879486083984375,4381.2578125,True
1599568637.9094405,0.0,10,0.5,0.5,-2.702264108276367,-0.1005,-0.00825,-0.37525,0.26507815160820264,10,1,100,0.5011308263857648,-10,-1,-100,6487.255409468198,-0.05986046373795594,0.006794465224785141,0.9981836304625447,195.17746740359178,20.47357635333417,-72.59078343465953,4.649511906927662,-55.086944580078125,4381.2578125,True
1599568637.9702413,0.0,10,0.5,0.5,-2.2237946006774907,-0.1005,-0.00825,-0.37525,0.2895940095614823,10,1,100,0.4594388497894401,-10,-1,-100,6487.4475426521385,-0.058004729027830694,0.00881771386852774,0.9982773659322045,191.75002927858947,20.10646668067556,-65.49108806592034,4.26893768404271,-58.58990478515625,4381.2578125,True
1599568638.0311136,0.0,10,0.5,0.5,-1.7128516838073735,-0.1005,-0.00825,-0.37525,0.31193872661821676,10,1,100,0.41588095062231745,-10,-1,-100,6487.578627796378,-0.055930429323260006,0.010846456011686021,0.9983757516424878,187.2925266963824,19.6312924943422,-58.27345430238094,3.88818533127617,-62.3885498046875,4381.2578125,True
1599568638.0929127,0.0,10,0.5,0.5,-2.161596218109131,-0.1005,-0.00825,-0.37525,0.2233221426463794,10,1,100,0.49877911306543543,-10,-1,-100,6487.6751726808725,-0.054808716891006325,0.01187047337467043,0.9984263099571358,184.62984788817303,19.34842076435892,-54.63571610585694,3.6977323262493242,-64.39865112304688,4381.2578125,True
1599568638.1547837,0.0,10,0.5,0.5,0.18568598327636687,-0.1005,-0.00825,-0.37525,0.44975653426404194,10,1,100,0.20617602979679434,-10,-1,-100,6487.83979734173,-0.05114007598044227,0.014845095969354606,0.9985811513113871,174.75614993366534,18.30430916064559,-43.72799747397088,3.1260028776719504,-70.87362670898438,4381.2578125,True
1599568638.2176223,0.0,10,0.5,0.5,0.011605400848388125,-0.1005,-0.00825,-0.37525,0.36583920315587914,10,1,100,0.2732269450649616,-10,-1,-100,6487.969400481321,-0.048428768646153114,0.01676939775510332,0.998685857347719,166.39837989153347,17.424921994680222,-36.55962752390271,2.744460974849978,-75.56048583984375,4381.2578125,True
1599568638.2774615,0.0,10,0.5,0.5,0.6274249038696287,-0.1005,-0.00825,-0.37525,0.37223409091515136,10,1,100,0.22741050515367311,-10,-1,-100,6488.100470765261,-0.045563649351693936,0.01855921918725482,0.9987890213858558,156.61772771307187,16.39828795495536,-29.626758068181,2.3626288476573905,-80.49191284179688,4381.2578125,True
1599568638.3377135,0.0,10,0.5,0.5,1.164613539123535,-0.1005,-0.00825,-0.37525,0.3781124656544277,10,1,100,0.18139867063892479,-10,-1,-100,6488.167095690034,-0.04255886951397056,0.02022172714558539,0.9988892953560681,145.70477366686245,15.25458660574315,-23.108268290907333,1.9806084846869574,-85.4456787109375,4381.2578125,True
1599568638.3966024,0.0,10,0.5,0.5,1.6809002334594725,-0.1005,-0.00825,-0.37525,0.38187864394713733,10,1,100,0.13401805093672325,-10,-1,-100,6488.234707601834,-0.039416113433033716,0.021749981142693397,0.9989861402052217,150.9967590281423,15.808549247653419,-19.32962231326144,1.5985037223747542,-90.37039184570312,4381.2578125,True
1599568638.4553983,0.0,10,0.5,0.5,2.1325414108276366,-0.1005,-0.00825,-0.37525,0.38026131410313596,10,1,100,0.09128463722759667,-10,-1,-100,6488.3013568680035,-0.03619250491054698,0.023106653609245423,0.9990776672247671,157.53398880235525,16.492173085299886,-15.347743649763661,1.2164078142231376,-95.12997436523438,4381.2578125,True
1599568638.5172336,0.0,10,0.5,0.5,1.4677521183013917,-0.1005,-0.00825,-0.37525,0.31410991516847064,10,1,100,0.23075197602760208,-10,-1,-100,6488.273408373818,-0.03455283668182464,0.02372197416149202,0.9991212986515304,160.80524648329055,16.833746511276217,-13.20693672592933,1.0253819183369308,-97.4117660522461,4381.2578125,True
1599568638.5781062,0.0,10,0.5,0.5,2.714941376304626,-0.1005,-0.00825,-0.37525,0.3755988413282175,10,1,100,0.028545315133627458,-10,-1,-100,6488.341059565544,-0.03124699376309196,0.024824958075044166,0.9992033560979174,166.67918993369622,17.446175480283262,-8.590401352537354,0.6433750250533898,-101.7596664428711,4381.2578125,True
1599568638.636913,0.0,10,0.5,0.5,3.960182236480713,-0.1005,-0.00825,-0.37525,0.41488286814063774,10,1,100,-0.19692601201712062,-10,-1,-100,6488.318304624176,-0.02621626789493248,0.02617024620001674,0.9993136772362778,174.09679203317302,18.219468031011424,-0.9818723151594849,0.07039076031855007,-107.73165893554688,4381.2578125,True
1599568638.6977878,0.0,10,0.5,0.5,2.633611734390259,-0.1005,-0.00825,-0.37525,0.3220082214496037,10,1,100,0.11578153789291781,-10,-1,-100,6488.350442608702,-0.024512689524359057,0.026534989716265743,0.9993472981766849,176.31496412163028,18.45109247555352,1.7041857248831471,-0.12062888922448511,-109.57508850097656,4381.2578125,True
1599568638.7566297,0.0,10,0.5,0.5,4.399775539016724,-0.1005,-0.00825,-0.37525,0.3833113289739695,10,1,100,-0.2588965962446125,-10,-1,-100,6488.327748529031,-0.019585358902011712,0.02741054433003944,0.9994323767900508,181.88775047011552,19.033344496576323,10.114118393125942,-0.6938444265224937,-114.66313934326172,4381.2578125,True
1599568638.8154767,0.0,10,0.5,0.5,3.263291563987732,-0.1005,-0.00825,-0.37525,0.3218928802371259,10,1,100,0.05400119683471727,-10,-1,-100,6488.298875182634,-0.017979178925215698,0.027636730400989053,0.9994563323416976,183.54807273522175,19.206832935745172,13.01874492616992,-0.8849672702197235,-116.21160125732422,4381.2578125,True
1599568638.8763142,0.0,10,0.5,0.5,4.715459564971924,-0.1005,-0.00825,-0.37525,0.3510141296487571,10,1,100,-0.3190842221278516,-10,-1,-100,6488.211307597347,-0.013155011128215,0.028097213339552726,0.9995186302839824,187.3536603169402,19.604661542215407,21.90547229071455,-1.4585002787196926,-120.41484069824219,4381.2578125,True
1599568639.4363062,0.0,10,0.5,0.5,4.328702085113526,-0.1005,-0.00825,-0.37525,0.3240900334055097,10,1,100,-0.178541491897693,-10,-1,-100,6488.154096809449,-0.010076527622328062,0.028262398777715362,0.9995497488401495,189.05078279090685,19.782304137328307,27.90481803867579,-1.840996095525173,-122.84799194335938,4381.2578125,True
1599568639.4911566,0.0,10,0.5,0.5,4.463487607192993,-0.1005,-0.00825,-0.37525,0.3168415545502177,10,1,100,-0.1990671001721086,-10,-1,-100,6488.033427687595,-0.007120839216201288,0.028339362394058622,0.9995729959277387,190.27721957736708,19.910804049038433,33.927935622990994,-2.2235994556877317,-124.98560333251953,4381.2578125,True
1599568639.545972,0.0,10,0.5,0.5,4.145537141990662,-0.1005,-0.00825,-0.37525,0.3123936866765764,10,1,100,-0.06122651060030403,-10,-1,-100,6488.003130904981,-0.0057163053651177465,0.028362903808927243,0.9995813471351385,190.7277766094941,19.958025748818564,36.93756197106253,-2.4149390894480405,-125.94331359863281,4381.2578125,True
1599568639.6068442,0.0,10,0.5,0.5,4.967806091117859,-0.1005,-0.00825,-0.37525,0.30103813498387516,10,1,100,-0.3769698217142131,-10,-1,-100,6487.853671705001,-0.0015967683081384708,0.02827629439778354,0.9995988703005323,191.74912324690166,20.06499402097318,45.975584648535396,-2.989095974441712,-128.37364196777344,4381.2578125,True
1599568639.66393,0.0,10,0.5,0.5,4.6763322742462154,-0.1005,-0.00825,-0.37525,0.29462261189495975,10,1,100,-0.2525532340467297,-10,-1,-100,6487.732566754217,0.0009872454299803977,0.028135095341175222,0.9996036423286002,192.1746067096791,20.109442350071124,51.98857590889288,-3.3719714159409415,-129.6242218017578,4381.2578125,True
1599568639.7217693,0.0,10,0.5,0.5,4.474804590797424,-0.1005,-0.00825,-0.37525,0.2980209497736379,10,1,100,-0.1352234302102962,-10,-1,-100,6487.6407687151805,0.002240410394127181,0.028034617327459162,0.9996044421632833,192.34061740263184,20.126718892087528,54.99285179032411,-3.5634371985096696,-130.13870239257812,4381.2578125,True
1599568639.779863,0.0,10,0.5,0.5,4.822485077095033,-0.1005,-0.00825,-0.37525,0.2797097621112784,10,1,100,-0.39103763711587647,-10,-1,-100,6487.4283808209,0.005679365262230386,0.027775113453398163,0.9995980631648249,192.70168152020597,20.163939872885045,63.99618300327882,-4.137934614766534,-131.2364501953125,4381.2578125,True
1599568639.836711,0.0,10,0.5,0.5,4.600821330070496,-0.1005,-0.00825,-0.37525,0.27761516140924486,10,1,100,-0.28778718423524996,-10,-1,-100,6487.24334379856,0.007839600066330705,0.02751903163083592,0.9995905379548673,192.93172768772504,20.187417552451944,70.01755759160044,-4.521006852701154,-131.59881591796875,4381.2578125,True
1599568639.896748,0.0,10,0.5,0.5,4.5122086227417,-0.1005,-0.00825,-0.37525,0.28765191889373154,10,1,100,-0.18769504571950774,-10,-1,-100,6487.152048646007,0.008868589575398482,0.02737737459900122,0.9995858279702695,193.07079671842516,20.20162167366779,73.0440178308602,-4.712561944995139,-131.66900634765625,4381.2578125,True
1599568639.956891,0.0,10,0.5,0.5,4.386668036079407,-0.1005,-0.00825,-0.37525,0.2619435665456618,10,1,100,-0.39295197194598125,-10,-1,-100,6486.813229912077,0.011645599577972935,0.027015118963079936,0.9995671880158332,193.47600207575104,20.242903487201175,82.14952530139448,-5.28729050096556,-131.43368530273438,4381.2578125,True
1599568640.0137393,0.0,10,0.5,0.5,4.233512946891785,-0.1005,-0.00825,-0.37525,0.2655389226565656,10,1,100,-0.30463634736717016,-10,-1,-100,6486.628696109983,0.013344738801682165,0.026719464435411053,0.999553894578276,193.74398468681585,20.270306406124565,88.24434801605449,-5.670484960701928,-130.90704345703125,4381.2578125,True
1599568640.076567,0.0,10,0.5,0.5,4.259668141746521,-0.1005,-0.00825,-0.37525,0.2778723170308158,10,1,100,-0.22460963695244351,-10,-1,-100,6486.474418141996,0.01414060321362576,0.026564212026698255,0.9995470904265369,193.87058770233466,20.283333740546293,91.29588873471641,-5.862091592843159,-130.53265380859375,4381.2578125,True
1599568640.1413615,0.0,10,0.5,0.5,3.658383938980103,-0.1005,-0.00825,-0.37525,0.24872280390039903,10,1,100,-0.3769356552577702,-10,-1,-100,6486.1351182247745,0.016229569715959426,0.02615969167247134,0.9995260234723438,194.1687189731359,20.31460442795714,100.43739490557454,-6.436935885809465,-128.9638671875,4381.2578125,True
1599568640.2072196,0.0,10,0.5,0.5,3.9303976623535153,-0.1005,-0.00825,-0.37525,0.27253389935800026,10,1,100,-0.23950412614041783,-10,-1,-100,6485.979863159475,0.01685930183966767,0.026010413320185482,0.9995194957280183,194.22603251495903,20.320981013299455,103.47019995721408,-6.628555134609137,-128.29299926757812,4381.2578125,True
1599568640.2710998,0.0,10,0.5,0.5,3.4381850101470954,-0.1005,-0.00825,-0.37525,0.25177654789497944,10,1,100,-0.3059485023477887,-10,-1,-100,6485.733801805996,0.0180190471266078,0.02568806242396869,0.9995075974646472,194.2341364027155,20.32332452619711,109.483966995035,-7.011794675536334,-126.72938537597656,4381.2578125,True
1599568640.3309417,0.0,10,0.5,0.5,2.1117898769378662,-0.1005,-0.00825,-0.37525,0.21419962781432306,10,1,100,-0.39173782341012076,-10,-1,-100,6485.112269522157,0.019837780486486732,0.025055632365690375,0.9994892084220446,193.57007564419726,20.260842786399493,121.099055681589,-7.778252020902636,-122.71308898925781,4381.2578125,True
1599568640.3917754,0.0,10,0.5,0.5,3.612778964996338,-0.1005,-0.00825,-0.37525,0.27714473514597776,10,1,100,-0.21162422443146353,-10,-1,-100,6485.112269522157,0.019837780486486732,0.025055632365690375,0.9994892084220446,193.57007564419726,20.260842786399493,121.099055681589,-7.778252020902636,-122.71308898925781,4381.2578125,True
1599568640.4536119,0.0,10,0.5,0.5,1.8029736686706548,-0.1005,-0.00825,-0.37525,0.22178694175387761,10,1,100,-0.31821885816232,-10,-1,-100,6484.585432484513,0.020793951324745194,0.024554851954023744,0.9994822013591939,192.11854375479763,20.118975390780847,129.1258448924435,-8.353055411320007,-118.92375946044922,4381.2578125,True
1599568640.5164058,0.0,10,0.5,0.5,2.5431271062850955,-0.1005,-0.00825,-0.37525,0.2527329066537869,10,1,100,-0.25011277846909347,-10,-1,-100,6484.429184706067,0.02103227467935227,0.024383618696759448,0.9994814068110838,191.3790693134044,20.045995570723385,131.5976895368736,-8.544648767088557,-117.51264953613281,4381.2578125,True
1599568640.5812647,0.0,10,0.5,0.5,1.6132783578872683,-0.1005,-0.00825,-0.37525,0.22322118497202054,10,1,100,-0.27386671364852905,-10,-1,-100,6484.058088799939,0.021453819244168157,0.023962385316596068,0.9994826350316336,189.59349197338233,19.86956840101121,136.25538945438979,-8.927828772352722,-114.46968841552734,4381.2578125,True
1599568640.6431007,0.0,10,0.5,0.5,0.30557788124084495,-0.1005,-0.00825,-0.37525,0.1950754785851201,10,1,100,-0.2679243407321795,-10,-1,-100,6483.528770174715,0.021774103440519246,0.023326351034427067,0.9994907552182664,186.12674079083845,19.526090208959207,142.43928802572609,-9.502601778911833,-109.3502426147461,4381.2578125,True
1599568640.7049313,0.0,10,0.5,0.5,1.3268594957351687,-0.1005,-0.00825,-0.37525,0.23138146152157416,10,1,100,-0.24224017938758113,-10,-1,-100,6483.311473282636,0.021824115457124944,0.023081277089514816,0.9994953539824141,184.54946739972146,19.368137028354507,144.101990156881,-9.6942030614065,-107.4963150024414,4381.2578125,True
1599568640.7657716,0.0,10,0.5,0.5,-0.8386291091918943,-0.1005,-0.00825,-0.37525,0.16911278646510103,10,1,100,-0.23279193395186196,-10,-1,-100,6482.720113106887,0.021776702775311314,0.022295570034478636,0.9995142233970827,178.57630757032535,18.764636162535535,147.77677542575455,-10.269081960507219,-101.52223205566406,4381.2578125,True
1599568640.825611,0.0,10,0.5,0.5,-1.6664542205810546,-0.1005,-0.00825,-0.37525,0.14444963523498228,10,1,100,-0.20566188423076665,-10,-1,-100,6482.066233395482,0.021481920673416827,0.02136059326566102,0.9995410207387788,171.3496761878986,18.02735028836598,149.81107710369463,-10.844132209399845,-95.11769104003906,4381.2578125,True
1599568640.8884408,0.0,10,0.5,0.5,-0.3312447368621826,-0.1005,-0.00825,-0.37525,0.20087200103213804,10,1,100,-0.21942761287249749,-10,-1,-100,6481.847943428787,0.021334877551315985,0.021027772092214174,0.999551227201842,168.38381274151186,17.72163324631997,149.84642187608634,-11.035866815017211,-92.93014526367188,4381.2578125,True
1599568640.9492807,0.0,10,0.5,0.5,-0.5590214553833006,-0.1005,-0.00825,-0.37525,0.19494868631085938,10,1,100,-0.21547146143890133,-10,-1,-100,6481.629652473144,0.021162222581441882,0.02067559570100701,0.9995622442238513,165.46844713557866,17.42017975367343,149.8364644062595,-11.227628478804524,-90.7845458984375,4381.2578125,True
1599568641.0111222,0.0,10,0.5,0.5,-1.73028157081604,-0.1005,-0.00825,-0.37525,0.14693795626514142,10,1,100,-0.18866726890009786,-10,-1,-100,6481.193553422461,0.020760385002026344,0.019922956014643684,0.9995859554026388,159.63719337089935,16.813481581171455,149.54722792931213,-11.611226060386558,-86.68563842773438,4381.2578125,True
1599568641.0709686,0.0,10,0.5,0.5,-2.082770330810547,-0.1005,-0.00825,-0.37525,0.12819505744599335,10,1,100,-0.17534138397361265,-10,-1,-100,6480.694459527032,0.020273094971848225,0.01907301419809481,0.999612535810582,153.72435619162948,16.19257988224027,148.8195408380685,-11.994903382394995,-82.774169921875,4381.2578125,True
1599568641.1357949,0.0,10,0.5,0.5,-2.4351062238693237,-0.1005,-0.00825,-0.37525,0.11118531149436371,10,1,100,-0.16279909830615064,-10,-1,-100,6480.194383989787,0.019716556762302915,0.01815068925417732,0.9996408404367226,161.37885932067175,16.995075249922696,161.28550355073796,-12.37853705790966,-79.01107788085938,4381.2578125,True
1599568641.1976295,0.0,10,0.5,0.5,-3.5243344369888305,-0.1005,-0.00825,-0.37525,0.036285881481715215,10,1,100,-0.11444092661620243,-10,-1,-100,6479.4764906036435,0.018772189300004967,0.016636974422721506,0.9996853584958333,171.7467448925005,18.072179069341992,179.7261031459011,-12.953775867176251,-73.8201904296875,4381.2578125,True
1599568641.2600875,0.0,10,0.5,0.5,-2.364165591430664,-0.1005,-0.00825,-0.37525,0.1269544781790111,10,1,100,-0.170921183524673,-10,-1,-100,6479.196664892021,0.01842956815157853,0.016091789464913343,0.9997006578619239,174.7292072244001,18.379344806137386,185.5887478012866,-13.145456334603834,-72.23495483398438,4381.2578125,True
1599568641.3229206,0.0,10,0.5,0.5,-3.8504073850631713,-0.1005,-0.00825,-0.37525,-0.008049723749407628,10,1,100,-0.0847760949158511,-10,-1,-100,6478.354256495601,0.017337997697736973,0.014375432723528946,0.9997463382127713,182.7818694616782,19.202382356284474,202.75155858092188,-13.720283232634959,-67.92495727539062,4381.2578125,True
1599568641.3849146,0.0,10,0.5,0.5,-2.8784324249267583,-0.1005,-0.00825,-0.37525,0.09737613525534028,10,1,100,-0.15132878178663975,-10,-1,-100,6478.073455111822,0.016954763636487624,0.013781439717191734,0.9997612754599731,185.0658930120533,19.43359463850184,208.19280847951796,-13.911820477927492,-66.6370849609375,4381.2578125,True
1599568641.444889,0.0,10,0.5,0.5,-3.5426218509674072,-0.1005,-0.00825,-0.37525,0.015164652150386093,10,1,100,-0.1010107708081877,-10,-1,-100,6477.510387606802,0.016153316152946674,0.01250180907440131,0.9997913658094523,189.0986347937368,19.838797633350474,218.67462172429256,-14.294789956515324,-64.28567504882812,4381.2578125,True
1599568641.5027163,0.0,10,0.5,0.5,-4.098611700439453,-0.1005,-0.00825,-0.37525,-0.07075948964723064,10,1,100,-0.042456124276958274,-10,-1,-100,6476.667013920494,0.014897256749007787,0.010565433368423737,0.9998332077697218,193.97794341025124,20.32243841255876,233.4729454806438,-14.868994822532102,-61.3157958984375,4381.2578125,True
1599568641.5616088,0.0,10,0.5,0.5,-3.4102376136779786,-0.1005,-0.00825,-0.37525,0.04613226777178517,10,1,100,-0.11942518100986796,-10,-1,-100,6476.3232284752885,0.01446095564372826,0.009877255374729532,0.9998466485357305,195.34375550069495,20.456163330840834,238.1925711698928,-15.060333781980916,-60.47503662109375,4381.2578125,True
1599568641.6244411,0.0,10,0.5,0.5,-3.8138888938903808,-0.1005,-0.00825,-0.37525,-0.035697380899345627,10,1,100,-0.06399402502472729,-10,-1,-100,6475.760661198292,0.013566490736279876,0.008517549792839318,0.9998716926059208,197.73331078646058,20.687731741407116,247.33662195613127,-15.44292377848032,-59.0159912109375,4381.2578125,True
1599568641.6847897,0.0,10,0.5,0.5,-3.8420976165771488,-0.1005,-0.00825,-0.37525,-0.05045370889451378,10,1,100,-0.05109957490313241,-10,-1,-100,6475.073588595842,0.01264265845046298,0.0071576739240937805,0.9998944598762919,199.73765355997784,20.879011000077252,256.1423881116174,-15.825402802971462,-57.853851318359375,4381.2578125,True
1599568641.7486176,0.0,10,0.5,0.5,-3.990268398284912,-0.1005,-0.00825,-0.37525,-0.15149965932893464,10,1,100,0.0161428548311415,-10,-1,-100,6474.105246499064,0.011198452862610026,0.005013655712443103,0.9999247261218621,202.14358501684183,21.1031954407249,268.7998032318666,-16.398931264042286,-56.668975830078125,4381.2578125,True
1599568641.8099623,0.0,10,0.5,0.5,-3.7635054878234864,-0.1005,-0.00825,-0.37525,-0.09419426060016393,10,1,100,-0.01741280715743064,-10,-1,-100,6473.47971355007,0.010198333895275899,0.003597449175332889,0.9999415244629015,203.40135975537203,21.216381511247658,276.9008053884207,-16.781168788966117,-56.249786376953125,4381.2578125,True
1599568641.8709497,0.0,10,0.5,0.5,-3.655530680847168,-0.1005,-0.00825,-0.37525,-0.18285033077724075,10,1,100,0.05474748799411129,-10,-1,-100,6472.447922153166,0.00864092656487152,0.001515878526575076,0.9999615175097456,204.83641819664913,21.338421073579866,288.57723745211524,-17.35437363000629,-56.17657470703125,4381.2578125,True
1599568641.9327874,0.0,10,0.5,0.5,-3.641306165313721,-0.1005,-0.00825,-0.37525,0.023849143004706704,10,1,100,-0.10001438088765595,-10,-1,-100,6472.447922153166,0.00864092656487152,0.001515878526575076,0.9999615175097456,204.83641819664913,21.338421073579866,288.57723745211524,-17.35437363000629,-56.17657470703125,4381.2578125,True
1599568642.4853342,0.0,10,0.5,0.5,-3.368754318237305,-0.1005,-0.00825,-0.37525,-0.20112462709293738,10,1,100,0.07926616636492892,-10,-1,-100,6471.353647105745,0.007019009836332444,-0.000517647061406276,0.9999752324645033,205.74478053538195,21.404164455619817,299.63863586811993,-17.927423149469114,-56.76983642578125,4381.2578125,True
1599568642.5401888,0.0,10,0.5,0.5,-3.2352266082763674,-0.1005,-0.00825,-0.37525,-0.14607445141501665,10,1,100,0.04127977314058977,-10,-1,-100,6470.665643925779,0.005898903434063781,-0.001852851374518591,0.9999808847573335,206.03279547402366,21.41380638505438,306.597897935498,-18.309386235666086,-57.535552978515625,4381.2578125,True
1599568642.5970364,0.0,10,0.5,0.5,-3.2930431930541997,-0.1005,-0.00825,-0.37525,-0.08859241711261978,10,1,100,-0.006664440677549038,-10,-1,-100,6470.259877734003,0.005325803569183425,-0.0025310598378271605,0.9999826146250942,206.07291232642888,21.407424330519984,309.931215808574,-18.500350938843006,-58.029693603515625,4381.2578125,True
1599568642.6528893,0.0,10,0.5,0.5,-2.9064998176574712,-0.1005,-0.00825,-0.37525,-0.15404419419205914,10,1,100,0.06374583263486666,-10,-1,-100,6469.507920562988,0.0041734116193427985,-0.0037307232386423533,0.9999843320470437,205.902783301288,21.36777921944922,316.22375782956794,-18.88225506119696,-59.237640380859375,4381.2578125,True
1599568642.7097375,0.0,10,0.5,0.5,-2.645101518249512,-0.1005,-0.00825,-0.37525,-0.16930881691380123,10,1,100,0.07958801001218219,-10,-1,-100,6468.757435441483,0.0029911150924433476,-0.004947724738114391,0.999983286485539,205.3856517678103,21.29096923125407,321.9709189922188,-19.264137573608554,-60.74200439453125,4381.2578125,True
1599568642.765587,0.0,10,0.5,0.5,-1.871290258789063,-0.1005,-0.00825,-0.37525,-0.24012527825403515,10,1,100,0.16227492912005786,-10,-1,-100,6467.5382134218235,0.001174214781230283,-0.006685634591153867,0.9999769614894941,204.2213439226176,21.133639788842643,329.92160864623855,-19.836950328092115,-63.552093505859375,4381.2578125,True
1599568642.8234305,0.0,10,0.5,0.5,-2.405340544128418,-0.1005,-0.00825,-0.37525,-0.12732077239323758,10,1,100,0.04903981189704411,-10,-1,-100,6467.194472435513,0.0005623232400360153,-0.007227472305623188,0.999973723373092,203.59135116882499,21.055829420106615,332.1581132541399,-20.02789354837808,-64.63613891601562,4381.2578125,True
1599568642.8812761,0.0,10,0.5,0.5,-1.6688982116699225,-0.1005,-0.00825,-0.37525,-0.18886722164658537,10,1,100,0.12466466366807918,-10,-1,-100,6466.380041189957,-0.0006717712411294797,-0.008268436922882035,0.9999655902451104,201.91052488498806,20.85667287697197,335.87990915528866,-20.409802331002737,-67.02532958984375,4381.2578125,True
1599568642.937126,0.0,10,0.5,0.5,0.13686241531372034,-0.1005,-0.00825,-0.37525,-0.28955077532679263,10,1,100,0.27434838516513327,-10,-1,-100,6464.690157406847,-0.003144554505674598,-0.010119286257393586,0.999943854335133,196.51622221313357,20.251936021303656,339.5289788809093,-21.173776217704827,-72.68673706054688,4381.2578125,True
1599568642.9969678,0.0,10,0.5,0.5,-1.2131925125122072,-0.1005,-0.00825,-0.37525,-0.15011395659927637,10,1,100,0.0953345800942368,-10,-1,-100,6464.284412431065,-0.0037544269900069687,-0.010523691695986694,0.9999375761471636,194.66715101347185,20.050843958095616,339.4691249799589,-21.364815029071366,-74.28582763671875,4381.2578125,True
1599568643.0568068,0.0,10,0.5,0.5,0.6117267623901366,-0.1005,-0.00825,-0.37525,-0.22684742151375314,10,1,100,0.2295881695974725,-10,-1,-100,6462.9382762861205,-0.00551807519528865,-0.011577964893727888,0.9999177474047848,187.8070480945292,19.31981633587877,336.6010677416494,-21.938063977412053,-79.35159301757812,4381.2578125,True
1599568643.1146524,0.0,10,0.5,0.5,-1.2705717475891114,-0.1005,-0.00825,-0.37525,-0.12252613352286586,10,1,100,0.05447705757246651,-10,-1,-100,6462.9382762861205,-0.00551807519528865,-0.011577964893727888,0.9999177474047848,187.8070480945292,19.31981633587877,336.6010677416494,-21.938063977412053,-79.35159301757812,4381.2578125,True
1599568643.1730936,0.0,10,0.5,0.5,1.293592050933838,-0.1005,-0.00825,-0.37525,-0.22419015202753675,10,1,100,0.24690403230337465,-10,-1,-100,6461.593607469462,-0.007257032257724767,-0.01249334223148016,0.9998956204938081,179.35593464334056,18.4402577282527,330.16981399314017,-22.511494401421146,-84.7034912109375,4381.2578125,True
1599568643.2309003,0.0,10,0.5,0.5,0.15122880859374987,-0.1005,-0.00825,-0.37525,-0.1604908148681796,10,1,100,0.13338247408562026,-10,-1,-100,6461.185912730987,-0.007794449207208099,-0.01273736194399384,0.999888496869658,182.12023441986614,18.724935558379542,338.21441377313323,-22.702619221782676,-86.47738647460938,4381.2578125,True
1599568643.2907426,0.0,10,0.5,0.5,2.1307702713012695,-0.1005,-0.00825,-0.37525,-0.2104526006924452,10,1,100,0.258875827486588,-10,-1,-100,6459.778745825519,-0.009412978864177607,-0.013405208245858372,0.9998658391108218,192.63678508018694,19.819144068950607,367.1389745996351,-23.275682947274085,-91.99020385742188,4381.2578125,True
1599568643.3495848,0.0,10,0.5,0.5,1.7759516967773437,-0.1005,-0.00825,-0.37525,-0.1824800956035732,10,1,100,0.20772501932704462,-10,-1,-100,6458.838843598147,-0.0104080856654662,-0.013750357125374797,0.999851288658321,198.96072229837134,20.48691727700454,385.6692534142026,-23.657429571112775,-95.53846740722656,4381.2578125,True
1599568643.4084258,0.0,10,0.5,0.5,1.299402627182007,-0.1005,-0.00825,-0.37525,-0.16538644129862265,10,1,100,0.16331220061151686,-10,-1,-100,6458.369624886895,-0.010898445950635854,-0.01390230950167725,0.9998439626593646,202.17461859002765,20.82839902800977,395.1922590131829,-23.848205335656672,-97.280029296875,4381.2578125,True
1599568643.4662728,0.0,10,0.5,0.5,2.987709328842163,-0.1005,-0.00825,-0.37525,-0.18836556502898288,10,1,100,0.2573776891818924,-10,-1,-100,6456.898487238912,-0.012188949952165616,-0.014243281116595433,0.999824263779439,210.61741429701326,21.736053022226326,421.99293012335124,-24.420132359186667,-102.14581298828125,4381.2578125,True
1599568643.5266547,0.0,10,0.5,0.5,2.5635196479797364,-0.1005,-0.00825,-0.37525,-0.1724677210162306,10,1,100,0.21655147322965113,-10,-1,-100,6455.897054847563,-0.012980517827889537,-0.014403297780774475,0.999812007914467,215.5806445024029,22.27609389091616,438.9676125245768,-24.80109207518841,-105.03119659423828,4381.2578125,True
1599568643.5854652,0.0,10,0.5,0.5,2.7389357091903688,-0.1005,-0.00825,-0.37525,-0.16881281542816923,10,1,100,0.21460539502184917,-10,-1,-100,6454.897084159078,-0.013673491582729251,-0.014511646505115428,0.9998012041119212,219.99215073867208,22.76027499955405,455.1273338551151,-25.181804005890584,-107.61968231201172,4381.2578125,True
1599568643.646304,0.0,10,0.5,0.5,2.885006741714478,-0.1005,-0.00825,-0.37525,-0.16568144169007204,10,1,100,0.21299688295323782,-10,-1,-100,6453.89417998842,-0.014279827555057323,-0.014578052897979839,0.99979176176777,223.694887055086,23.17110107135391,470.0886813211477,-25.56229042847467,-109.91059112548828,4381.2578125,True
1599568643.7081373,0.0,10,0.5,0.5,2.9988929277420047,-0.1005,-0.00825,-0.37525,-0.16245251994000634,10,1,100,0.21107505506254226,-10,-1,-100,6452.830724910134,-0.014805605683294911,-0.01460634115921575,0.9997837010265227,226.78765873027396,23.51787478491882,483.9940214352662,-25.94257356463611,-111.90394592285156,4381.2578125,True
1599568643.7719665,0.0,10,0.5,0.5,3.4350163019180298,-0.1005,-0.00825,-0.37525,-0.15818288139382272,10,1,100,0.22730691644966017,-10,-1,-100,6451.297058430035,-0.015422704966586513,-0.014590489795132647,0.999774603487732,230.48312707770512,23.937516451997425,503.18035060946283,-26.512662567851734,-114.33647155761719,4381.2578125,True
1599568643.8348007,0.0,10,0.5,0.5,2.54665826625824,-0.1005,-0.00825,-0.37525,-0.15997773255849826,10,1,100,0.16641355539138622,-10,-1,-100,6451.297058430035,-0.015422704966586513,-0.014590489795132647,0.999774603487732,230.48312707770512,23.937516451997425,503.18035060946283,-26.512662567851734,-114.33647155761719,4381.2578125,True
1599568643.8976302,0.0,10,0.5,0.5,3.408926687049866,-0.1005,-0.00825,-0.37525,-0.15240861787983467,10,1,100,0.2130920380821771,-10,-1,-100,6449.637892862433,-0.015840120031266995,-0.014519995000007398,0.9997691035147038,233.28184140566628,24.260499373244404,520.7422203411061,-27.082403120548435,-116.10060119628906,4381.2578125,True
1599568643.9575057,0.0,10,0.5,0.5,2.9759886842727665,-0.1005,-0.00825,-0.37525,-0.15596083707195108,10,1,100,0.18222814157229078,-10,-1,-100,6449.105181231396,-0.015933164538916567,-0.014487188281863548,0.9997681009331422,234.05292248882046,24.350623050979532,526.2972617019201,-27.27224796276262,-116.54024505615234,4381.2578125,True
1599568644.0187922,0.0,10,0.5,0.5,3.2440029960632324,-0.1005,-0.00825,-0.37525,-0.14399801277652327,10,1,100,0.19268185028836576,-10,-1,-100,6447.446003428311,-0.01610776137158645,-0.014347941197995715,0.9997673112314559,235.96471677970624,24.577617576345496,542.2049593412129,-27.841599075725544,-117.41394805908203,4381.2578125,True
1599568644.0791073,0.0,10,0.5,0.5,3.0335600236892706,-0.1005,-0.00825,-0.37525,-0.1456110360263916,10,1,100,0.17672323871296144,-10,-1,-100,6446.322952651302,-0.016116671736581805,-0.014235611667936198,0.9997687733934156,236.94709799927764,24.69772236315296,552.2460748337509,-28.22102676652686,-117.6258316040039,4381.2578125,True
1599568644.1389055,0.0,10,0.5,0.5,2.9643354049682618,-0.1005,-0.00825,-0.37525,-0.14966310282487477,10,1,100,0.17374502186289498,-10,-1,-100,6445.789746379014,-0.016094126713591145,-0.014170337856457993,0.9997700638698683,237.35877237685514,24.749426319633695,557.1082402874823,-28.41070230833786,-117.62060546875,4381.2578125,True
1599568644.2007406,0.0,10,0.5,0.5,2.866075400352478,-0.1005,-0.00825,-0.37525,-0.14126983463452952,10,1,100,0.16444705859127806,-10,-1,-100,6444.6012602776755,-0.015986273745779753,-0.014034907371496774,0.9997737046085973,238.02602762837387,24.836755264540283,566.5103121374106,-28.789982083547113,-117.38811492919922,4381.2578125,True
1599568644.264082,0.0,10,0.5,0.5,2.5313060110092165,-0.1005,-0.00825,-0.37525,-0.1278968314430013,10,1,100,0.1429988201459816,-10,-1,-100,6442.88004678546,-0.015691139078118473,-0.013790649391730516,0.9997817792617475,238.62680526747377,24.927451312460214,579.7471140057057,-29.358741054747032,-116.484130859375,4381.2578125,True
1599568644.3239226,0.0,10,0.5,0.5,2.129156147003174,-0.1005,-0.00825,-0.37525,-0.12058231126422977,10,1,100,0.12291132749208272,-10,-1,-100,6441.0977919356665,-0.015238938254733629,-0.013502816866232586,0.9997927028627213,238.681913221295,24.964315362439137,591.7217394757108,-29.92733750179694,-114.91441345214844,4381.2578125,True
1599568644.3827648,0.0,10,0.5,0.5,2.401401936340332,-0.1005,-0.00825,-0.37525,-0.1375988738407118,10,1,100,0.14855061280580892,-10,-1,-100,6440.498170895502,-0.0150605370703527,-0.013396850161287017,0.9997968316757704,238.55732255621103,24.962590458068327,595.3653215347298,-30.116840637794343,-114.24331665039062,4381.2578125,True
1599568644.4406095,0.0,10,0.5,0.5,2.298719101715088,-0.1005,-0.00825,-0.37525,-0.1357150957188514,10,1,100,0.14495582564212697,-10,-1,-100,6439.841909273295,-0.014866003535696778,-0.013284476664441264,0.9998012425570537,238.36713667120193,24.954528154929385,598.8440685555471,-30.306331961412713,-113.4983139038086,4381.2578125,True
1599568644.501447,0.0,10,0.5,0.5,1.7632593072891234,-0.1005,-0.00825,-0.37525,-0.11997236748073022,10,1,100,0.11767577903248652,-10,-1,-100,6438.657314000768,-0.014441660536313653,-0.013040390513444652,0.9998106754062045,237.73602725533226,24.9137976032853,605.1574209941176,-30.685287188158245,-111.78663635253906,4381.2578125,True
1599568644.5632892,0.0,10,0.5,0.5,1.4471026433944703,-0.1005,-0.00825,-0.37525,-0.11412749368496825,10,1,100,0.10618420183639057,-10,-1,-100,6437.395567439147,-0.013952696616450808,-0.012766703891201317,0.9998211507709184,236.68120689883224,24.83082482946507,610.354944833418,-31.06422172911956,-109.77947998046875,4381.2578125,True
1599568644.6231284,0.0,10,0.5,0.5,1.0993116008758548,-0.1005,-0.00825,-0.37525,-0.10787061559420434,10,1,100,0.0961425570973481,-10,-1,-100,6436.145049601211,-0.013418696707968258,-0.012462581237782851,0.9998322972616713,235.12531579735943,24.697142050803443,614.1938541800548,-31.44315713338003,-107.47701263427734,4381.2578125,True
1599568644.6859612,0.0,10,0.5,0.5,0.0487062271118166,-0.1005,-0.00825,-0.37525,-0.0813448820569431,10,1,100,0.05370626564983913,-10,-1,-100,6434.232892527361,-0.01254990238224642,-0.011946677029754792,0.999849877160638,231.6667167721693,24.380357310183776,616.8049886728305,-32.011615457460124,-103.4698486328125,4381.2578125,True
1599568644.7497904,0.0,10,0.5,0.5,0.09430109882354754,-0.1005,-0.00825,-0.37525,-0.08996661156381586,10,1,100,0.07162549530511661,-10,-1,-100,6432.919383053784,-0.011926233964233032,-0.0115581334130992,0.9998620777364424,228.4787986492732,24.075848531783063,616.0043322243042,-32.39066295088153,-100.4295654296875,4381.2578125,True
1599568644.8106277,0.0,10,0.5,0.5,-0.34558704509735094,-0.1005,-0.00825,-0.37525,-0.08227525913113641,10,1,100,0.06325204701182045,-10,-1,-100,6431.664955724147,-0.011286929411326675,-0.011137365288972812,0.9998742742559604,225.0210540147572,23.740590344863882,614.277633242309,-32.76979210656461,-97.13671875,4381.2578125,True
1599568644.8715105,0.0,10,0.5,0.5,-0.7265605602264404,-0.1005,-0.00825,-0.37525,-0.07403373127563316,10,1,100,0.054622704335959324,-10,-1,-100,6430.282598701306,-0.010631567015571662,-0.010682559961155634,0.999886419897515,221.01671362187136,23.34352259371686,610.8312758965468,-33.149012068989464,-93.7738037109375,4381.2578125,True
1599568644.9313052,0.0,10,0.5,0.5,-0.2893595512390136,-0.1005,-0.00825,-0.37525,-0.09263633697432372,10,1,100,0.08302707554387016,-10,-1,-100,6429.63121583953,-0.010298604186832245,-0.010441040705337726,0.9998924559275324,218.80601449232157,23.12084959747192,608.4350808466885,-33.338657931565656,-92.07964324951172,4381.2578125,True
1599568645.4902558,0.0,10,0.5,0.5,-1.2627127630233763,-0.1005,-0.00825,-0.37525,-0.06110833123127219,10,1,100,0.04282078648428307,-10,-1,-100,6428.318684764439,-0.00963489020022553,-0.009937642944349064,0.9999042014830923,214.6498944645013,22.698363403767228,604.179368457249,-33.71800871623045,-88.73703002929688,4381.2578125,True
1599568645.545636,0.0,10,0.5,0.5,-2.2797280466079712,-0.1005,-0.00825,-0.37525,-0.02131014444915473,10,1,100,-0.00141251225407385,-10,-1,-100,6426.284947543405,-0.008634325357389025,-0.009121351651991884,0.9999211215739288,208.00534104658294,22.006641008703795,596.1198683077102,-34.28715592972912,-84.00704956054688,4381.2578125,True
1599568645.6007504,0.0,10,0.5,0.5,-1.9418934684753417,-0.1005,-0.00825,-0.37525,-0.03862340617947153,10,1,100,0.025167940120061266,-10,-1,-100,6424.902595262276,-0.007972026592919164,-0.008540446606499554,0.9999317514529497,204.7745685094912,21.662043296869818,593.8603762449345,-34.6666250823361,-81.03750610351562,4381.2578125,True
1599568645.6575987,0.0,10,0.5,0.5,-2.1417541538238525,-0.1005,-0.00825,-0.37525,-0.03092885439904413,10,1,100,0.019775550223169555,-10,-1,-100,6423.471904471866,-0.007326796566105178,-0.0079464914979635,0.9999415839562589,210.87729676313157,22.29677401208216,618.7745785703364,-35.045884337743495,-78.3284912109375,4381.2578125,True
1599568645.7154438,0.0,10,0.5,0.5,-1.743682107925415,-0.1005,-0.00825,-0.37525,-0.05663025674605694,10,1,100,0.048817690100550606,-10,-1,-100,6422.744841951993,-0.007010266813387152,-0.007644563431897421,0.9999462069577245,213.61471374652652,22.57823586192734,630.4639628332432,-35.23541493472977,-77.0830078125,4381.2578125,True
1599568645.7722917,0.0,10,0.5,0.5,-2.3806979654312133,-0.1005,-0.00825,-0.37525,-0.01740008661342382,10,1,100,0.010440397281673647,-10,-1,-100,6421.369330746587,-0.006379453857921502,-0.007017825477727852,0.9999550253356592,218.49041246128743,23.07327472922199,652.3389719637361,-35.61428497314503,-74.81436157226562,4381.2578125,True
1599568645.8281422,0.0,10,0.5,0.5,-2.490678364753723,-0.1005,-0.00825,-0.37525,-0.010163733221716167,10,1,100,0.006116332703260362,-10,-1,-100,6419.925462157116,-0.005772287355443813,-0.006386759444514563,0.9999629443146802,222.63255289724404,23.48585566393695,672.3376268945661,-35.99291181508405,-72.84347534179688,4381.2578125,True
1599568645.8879821,0.0,10,0.5,0.5,-2.9147152093887327,-0.1005,-0.00825,-0.37525,0.03489199911069943,10,1,100,-0.030960988454426602,-10,-1,-100,6417.707661169465,-0.004888845748674932,-0.005408166733088326,0.9999734251068038,227.63110215933892,23.96984487072402,699.1472502195791,-36.560433158729545,-70.44546508789062,4381.2578125,True
1599568645.9471831,0.0,10,0.5,0.5,-2.3463054857254027,-0.1005,-0.00825,-0.37525,-0.026580109750437744,10,1,100,0.025618602152035024,-10,-1,-100,6416.984020544332,-0.004605893369546193,-0.005082582711034707,0.999976476272944,229.0084577086638,24.099448079319284,707.3090465477176,-36.74950447732875,-69.79507446289062,4381.2578125,True
1599568646.0067759,0.0,10,0.5,0.5,-2.634700005531311,-0.1005,-0.00825,-0.37525,0.013719745177160132,10,1,100,-0.007499074560152072,-10,-1,-100,6415.542599765817,-0.004053072030814752,-0.004425325807326092,0.9999819943872049,231.37242453069157,24.316211738457703,722.5595347702491,-37.127507371908216,-68.71746826171875,4381.2578125,True
1599568646.0666153,0.0,10,0.5,0.5,-2.7530538246154785,-0.1005,-0.00825,-0.37525,0.055135094683436726,10,1,100,-0.039079817965194275,-10,-1,-100,6413.256937558181,-0.0032690872666094385,-0.003456785185623029,0.999988681788261,234.03650003044513,24.546540584727726,742.9559990357865,-37.69419695780175,-67.65924072265625,4381.2578125,True
1599568646.1249723,0.0,10,0.5,0.5,-2.5321635894775394,-0.1005,-0.00825,-0.37525,0.029817316017732194,10,1,100,-0.01598005816239674,-10,-1,-100,6411.756439949735,-0.002772158754569691,-0.002812347024452764,0.9999922028896293,235.280778158044,24.643563793605534,755.012480621246,-38.07180692895695,-67.32540893554688,4381.2578125,True
1599568646.1848137,0.0,10,0.5,0.5,-2.4470070739746093,-0.1005,-0.00825,-0.37525,0.0006165184232990902,10,1,100,0.006892598459558141,-10,-1,-100,6410.969815720688,-0.002533668046190255,-0.00249769140572695,0.9999936710119088,235.75499271947754,24.676494680139157,760.5999524555681,-38.260563712165094,-67.27001953125,4381.2578125,True
1599568646.2416608,0.0,10,0.5,0.5,-2.189527741241455,-0.1005,-0.00825,-0.37525,0.1026855418931518,10,1,100,-0.06786876988681524,-10,-1,-100,6407.904374805628,-0.0016421534704662178,-0.0012892340437055244,0.9999978206014051,236.69404088652243,24.708320052886542,779.9908024200387,-39.015320881422255,-67.79141235351562,4381.2578125,True
1599568646.3015337,0.0,10,0.5,0.5,-2.2436481079101562,-0.1005,-0.00825,-0.37525,0.015537981435414783,10,1,100,-0.0023993469955221197,-10,-1,-100,6407.114822203643,-0.001432030103452157,-0.0009889390437147995,0.9999984856435287,236.69168088570984,24.691750595123914,784.0827609061508,-39.20395393665427,-68.107177734375,4381.2578125,True
1599568646.3613737,0.0,10,0.5,0.5,-1.9630049499511721,-0.1005,-0.00825,-0.37525,0.047410007371755686,10,1,100,-0.02527804839967613,-10,-1,-100,6405.486402212759,-0.0010380917904106424,-0.0004322484664730255,0.999999367763149,236.39625574379454,24.628858731299893,791.3062293416993,-39.58116836794994,-68.96170043945312,4381.2578125,True
1599568646.421215,0.0,10,0.5,0.5,-2.0322518371582037,-0.1005,-0.00825,-0.37525,0.020990049733791764,10,1,100,-0.006691659901278065,-10,-1,-100,6404.71052286739,-0.0008537890031469851,-0.0001723344447904074,0.9999996206725166,236.0988552708255,24.58219764238317,794.4134932416737,-39.76975436752969,-69.50030517578125,4381.2578125,True
1599568646.4800239,0.0,10,0.5,0.5,-1.6192329368591312,-0.1005,-0.00825,-0.37525,0.05615082600011588,10,1,100,-0.028737411704127573,-10,-1,-100,6403.144604651607,-0.0004902964513834802,0.0003779449727969882,0.9999998083834752,235.18144799685118,24.45635367059807,799.5151739675164,-40.14689599766657,-70.799072265625,4381.2578125,True
1599568646.5378687,0.0,10,0.5,0.5,-0.9150701629638672,-0.1005,-0.00825,-0.37525,0.08367382111881501,10,1,100,-0.046196272324105066,-10,-1,-100,6400.668042978854,-5.130443505308805e-06,0.0011231479337683533,0.9999993692559997,232.94397881061593,24.181881790877423,804.1147361392883,-40.712569295851026,-73.302978515625,4381.2578125,True
1599568646.597363,0.0,10,0.5,0.5,-1.3843507179260257,-0.1005,-0.00825,-0.37525,0.03645020035586999,10,1,100,-0.014663337370093923,-10,-1,-100,6399.8848409811035,0.00014508400686925394,0.0013656579544020914,0.9999990569640467,231.94535703402522,24.065565022865112,804.7301815416665,-40.90112658515013,-74.28546142578125,4381.2578125,True
1599568646.6562083,0.0,10,0.5,0.5,-0.7080065666198732,-0.1005,-0.00825,-0.37525,0.06225997445834203,10,1,100,-0.030194683140606433,-10,-1,-100,6398.194413440418,0.00041902014508925743,0.0018154913888536644,0.9999982642050611,229.5309975618944,23.792552565765575,804.4122578213479,-41.27825573801781,-76.47238159179688,4381.2578125,True
1599568646.7180405,0.0,10,0.5,0.5,-0.3464486618041993,-0.1005,-0.00825,-0.37525,0.06359627673294034,10,1,100,-0.029572914070064644,-10,-1,-100,6396.559162230464,0.0006590477270009728,0.002231786098511009,0.9999972923897865,226.51481541635277,23.46200878796962,801.8187134945691,-41.65542103145901,-78.9420166015625,4381.2578125,True
1599568646.7768831,0.0,10,0.5,0.5,0.7480046607971191,-0.1005,-0.00825,-0.37525,0.08786479309016972,10,1,100,-0.039991604634203,-10,-1,-100,6394.023522348143,0.0009688507097932713,0.0028262731349716227,0.999995536744274,220.75729185811943,22.85045609664349,793.1432473767082,-42.22127636060002,-83.1702880859375,4381.2578125,True
1599568646.837721,0.0,10,0.5,0.5,0.647520125579834,-0.1005,-0.00825,-0.37525,0.06767529343548703,10,1,100,-0.026955032724584632,-10,-1,-100,6392.333095593378,0.0011287913870115724,0.00317833502167443,0.9999943119920707,216.20328029813467,22.37865528530277,784.450136579391,-42.59860399196506,-86.26657104492188,4381.2578125,True
1599568646.900553,0.0,10,0.5,0.5,1.0100902259826658,-0.1005,-0.00825,-0.37525,0.06821450325788664,10,1,100,-0.02463968007421906,-10,-1,-100,6390.642669551889,0.0012506243014271793,0.003499231763366633,0.9999930956341264,221.54061243658074,22.939687357788422,811.6909265020311,-42.97574818623806,-89.4388427734375,4381.2578125,True
1599568646.9613903,0.0,10,0.5,0.5,0.5667624561309814,-0.1005,-0.00825,-0.37525,0.05289535755702749,10,1,100,-0.017660994390717756,-10,-1,-100,6389.73153913382,0.0012955001224960107,0.0036476109577998424,0.9999925082788037,224.1083437212012,23.213068480689316,825.0870460237634,-43.164215634858614,-90.9721450805664,4381.2578125,True
1599568647.0202322,0.0,10,0.5,0.5,1.4022556753158568,-0.1005,-0.00825,-0.37525,0.06950594541412417,10,1,100,-0.020590244621769636,-10,-1,-100,6388.041112414561,0.0013608044238291412,0.003929797515599754,0.9999913524140129,228.82401596721297,23.7223022922832,850.6004827475969,-43.540942265364016,-93.8995361328125,4381.2578125,True
1599568647.0810697,0.0,10,0.5,0.5,2.196247011756897,-0.1005,-0.00825,-0.37525,0.08236269926590203,10,1,100,-0.01658577089762499,-10,-1,-100,6385.377054233919,0.0013817543971606939,0.004299481119560937,0.9999898025564503,234.85904868693956,24.390945149478288,885.5980467687975,-44.10552750601562,-97.83514404296875,4381.2578125,True
1599568647.1404974,0.0,10,0.5,0.5,1.3155389764785768,-0.1005,-0.00825,-0.37525,0.05816909353238906,10,1,100,-0.013278293246201504,-10,-1,-100,6384.465923236334,0.0013690299844050335,0.0044120502199966535,0.9999893297279515,236.79711367748757,24.608851465049487,897.1310457750861,-44.293590964289876,-99.04129028320312,4381.2578125,True
1599568647.202332,0.0,10,0.5,0.5,2.4143327798843384,-0.1005,-0.00825,-0.37525,0.07921832427957778,10,1,100,-0.003310386187948001,-10,-1,-100,6381.812606385909,0.0012655957627994829,0.004702752497834268,0.9999881411228381,241.87695142435606,25.19219490019313,929.3296454414987,-44.857402480144955,-102.25761413574219,4381.2578125,True
1599568647.26317,0.0,10,0.5,0.5,1.67144738445282,-0.1005,-0.00825,-0.37525,0.05979523416243289,10,1,100,-0.007697110597465506,-10,-1,-100,6380.894638850121,0.001210425318011932,0.004787420027036753,0.9999878076656906,243.3165883024885,25.361768981289007,939.2065074809436,-45.045221407697916,-103.18449401855469,4381.2578125,True
1599568647.3240066,0.0,10,0.5,0.5,2.4571624322891235,-0.1005,-0.00825,-0.37525,0.07649800976525659,10,1,100,0.011270733629267862,-10,-1,-100,6378.175402937224,0.0009871159614411984,0.005013532169393606,0.9999869449634156,247.48765863811477,25.858170497182265,968.5754396139366,-45.608341117547496,-105.52078247070312,4381.2578125,True
1599568647.3908293,0.0,10,0.5,0.5,1.9023947217941286,-0.1005,-0.00825,-0.37525,0.060760273252157534,10,1,100,-0.000612460142189632,-10,-1,-100,6377.267689172411,0.0008918382459042901,0.005073489470443588,0.9999867320765492,248.67601846716596,26.003309171735417,977.6737853242952,-45.79594299554186,-106.15135955810547,4381.2578125,True
1599568647.452665,0.0,10,0.5,0.5,2.3731759326934814,-0.1005,-0.00825,-0.37525,0.07188504778090934,10,1,100,0.027677087532066474,-10,-1,-100,6374.479115872993,0.0005481144460719444,0.005227087497718159,0.9999861884680433,251.66724815121793,26.380145058291106,1002.950815866402,-46.35846832468647,-107.59843444824219,4381.2578125,True
1599568647.5142787,0.0,10,0.5,0.5,2.130682881164551,-0.1005,-0.00825,-0.37525,0.0645612752481865,10,1,100,0.023883928973415146,-10,-1,-100,6372.663687466062,0.00027064941215840547,0.00529827981541934,0.9999859273909275,253.23045341347017,26.587084922559896,1018.2621343953368,-46.733274783599114,-108.19312286376953,4381.2578125,True
1599568647.57711,0.0,10,0.5,0.5,2.011678784751892,-0.1005,-0.00825,-0.37525,0.060815268220868676,10,1,100,0.01317089893637494,-10,-1,-100,6371.690055295359,0.00011669054065488906,0.0053273099966702035,0.9999858029749806,253.89447094455494,26.67841857662853,1025.4900663628143,-46.920621358259744,-108.37952423095703,4381.2578125,True
1599568647.645034,0.0,10,0.5,0.5,2.0113910020828247,-0.1005,-0.00825,-0.37525,0.06217900962105109,10,1,100,0.05319277885262521,-10,-1,-100,6368.794059756445,-0.0003860356966943637,0.0053645717205009465,0.9999855360687455,255.43853462377808,26.90608160448843,1045.5077212788117,-47.48245944964457,-108.49575805664062,4381.2578125,True
1599568647.7118554,0.0,10,0.5,0.5,1.8411585664749146,-0.1005,-0.00825,-0.37525,0.05824531322053465,10,1,100,0.04502454123673062,-10,-1,-100,6366.879509148886,-0.0007672148067578031,0.005361380798337926,0.9999853333811328,256.1029067392798,27.02004676445142,1057.461804460481,-47.856870603628074,-108.20430755615234,4381.2578125,True
1599568647.776682,0.0,10,0.5,0.5,1.6802076408386233,-0.1005,-0.00825,-0.37525,0.055295852332624254,10,1,100,0.05181084816185739,-10,-1,-100,6364.915643273154,-0.0011734813614039745,0.005330701315864379,0.9999851031715299,256.4705350556846,27.103189017830392,1068.2497289409578,-48.23118330235793,-107.61813354492188,4381.2578125,True
1599568647.8415082,0.0,10,0.5,0.5,1.4883144145965577,-0.1005,-0.00825,-0.37525,0.05217188186224084,10,1,100,0.05902154214429341,-10,-1,-100,6362.972284632153,-0.0016060549824264496,0.005273576008343244,0.9999848048762928,256.5229498006283,27.153426723268595,1077.7645661353242,-48.60541492903787,-106.73756408691406,4381.2578125,True
1599568647.9073322,0.0,10,0.5,0.5,1.560482476425171,-0.1005,-0.00825,-0.37525,0.05375955116863011,10,1,100,0.041035161319324845,-10,-1,-100,6362.001582293073,-0.0018331805842696893,0.00523555833746347,0.9999846140705567,256.4228452381816,27.16527382952104,1082.0005391241916,-48.792506073062626,-106.18693542480469,4381.2578125,True
1599568647.9701643,0.0,10,0.5,0.5,1.1408453262329101,-0.1005,-0.00825,-0.37525,0.047103220346521424,10,1,100,0.07007991327716763,-10,-1,-100,6360.058224308421,-0.0023009346892873127,0.005140077321635027,0.9999841425266118,255.94704796762707,27.159752741043256,1089.3106589135516,-49.16665140372693,-104.86536407470703,4381.2578125,True
1599568648.5680785,0.0,10,0.5,0.5,0.4312597604751589,-0.1005,-0.00825,-0.37525,0.03549791903067269,10,1,100,0.10520627724650256,-10,-1,-100,6357.0826408977155,-0.0030425071384329893,0.004947658617872143,0.9999831317699881,254.46159065080005,27.068501854965994,1096.943902999036,-49.72781746664239,-102.33259582519531,4381.2578125,True
1599568648.6239305,0.0,10,0.5,0.5,0.4008968379974366,-0.1005,-0.00825,-0.37525,0.03707310050710574,10,1,100,0.08825546370872059,-10,-1,-100,6355.0767835257575,-0.0035589889278725526,0.004787166746830341,0.9999822081578997,253.13668841763194,26.970253107012017,1100.530935084597,-50.10192169413688,-100.27766418457031,4381.2578125,True
1599568648.6837697,0.0,10,0.5,0.5,-0.5207150249481199,-0.1005,-0.00825,-0.37525,0.021819294167455115,10,1,100,0.12337167922752802,-10,-1,-100,6352.038214543136,-0.0043440224199213645,0.004502994007114505,0.9999804260655241,250.45563075143588,26.743513643881883,1102.743877363795,-50.66310592140776,-96.73234558105469,4381.2578125,True
1599568648.7595665,0.0,10,0.5,0.5,0.20305858402252208,-0.1005,-0.00825,-0.37525,0.03849124358850698,10,1,100,0.07496212032897535,-10,-1,-100,6351.003548305365,-0.004613407175586097,0.004396941316480857,0.9999796914844279,249.37043192628835,26.645394449823407,1102.5873338483364,-50.85018422131218,-95.47716522216797,4381.2578125,True
1599568648.8204048,0.0,10,0.5,0.5,0.051953036308288625,-0.1005,-0.00825,-0.37525,0.03667710048133552,10,1,100,0.07819574184535664,-10,-1,-100,6349.9708362033125,-0.004883398878415464,0.004284883359185245,0.9999788958723043,248.3534413892997,26.553249418925237,1102.702448235284,-51.037270405508046,-94.19189453125,4381.2578125,True
1599568648.8792474,0.0,10,0.5,0.5,-1.2667410684585572,-0.1005,-0.00825,-0.37525,0.007984045129488485,10,1,100,0.13948878644887702,-10,-1,-100,6346.930803784169,-0.005681966865399873,0.003923148066046366,0.9999761617967662,244.9084831985122,26.225475347505686,1101.1003645327119,-51.59858459857489,-90.43111419677734,4381.2578125,True
1599568648.9410813,0.0,10,0.5,0.5,-1.0610524515151978,-0.1005,-0.00825,-0.37525,0.014423606412493378,10,1,100,0.11989659021229958,-10,-1,-100,6344.861961742048,-0.006225358931363503,0.0036541467500676946,0.9999739457194395,242.3983929812804,25.97548089437936,1098.888037424788,-51.972839796533506,-87.92794799804688,4381.2578125,True
1599568649.0004365,0.0,10,0.5,0.5,-0.7361702543258666,-0.1005,-0.00825,-0.37525,0.025687607625639854,10,1,100,0.09594211516756507,-10,-1,-100,6343.766750346753,-0.006496991147678344,0.0035135242507209584,0.9999727217546319,241.05511150933208,25.838140989295443,1097.3195382065192,-52.159981932230224,-86.67059326171875,4381.2578125,True
1599568649.0592797,0.0,10,0.5,0.5,-1.9204170869827273,-0.1005,-0.00825,-0.37525,-0.007607738287344408,10,1,100,0.15603262050341543,-10,-1,-100,6340.663245826494,-0.00728576054177661,0.0030846006991582706,0.999968700976113,238.82972176107643,25.60741507139995,1100.6598355119183,-52.721422682246356,-83.22442626953125,4381.2578125,True
1599568649.1171257,0.0,10,0.5,0.5,-1.125784458732605,-0.1005,-0.00825,-0.37525,0.018517646299114912,10,1,100,0.1068226241132035,-10,-1,-100,6339.566570465337,-0.007550503132902646,0.0029341291100130075,0.9999671898561503,241.18263941589862,25.85853624110022,1116.0471367742189,-52.90847816879882,-82.21633911132812,4381.2578125,True
1599568649.1769652,0.0,10,0.5,0.5,-1.638224146270752,-0.1005,-0.00825,-0.37525,-0.001057252989707387,10,1,100,0.139378335557,-10,-1,-100,6337.43620815652,-0.008082366893921179,0.002621388533811313,0.999963901182211,245.4182974884525,26.305533912608396,1144.9067238295113,-53.28238161353789,-80.38336181640625,4381.2578125,True
1599568649.2352126,0.0,10,0.5,0.5,-1.7137107891082763,-0.1005,-0.00825,-0.37525,-0.003042068680771514,10,1,100,0.1418953791663383,-10,-1,-100,6335.305846756091,-0.008584179927881568,0.0023211499310583357,0.9999604612773262,249.1196293379616,26.68959862085374,1171.5889529948063,-53.65602214281227,-78.81698608398438,4381.2578125,True
1599568649.294807,0.0,10,0.5,0.5,-1.998249817657471,-0.1005,-0.00825,-0.37525,-0.025731761448184464,10,1,100,0.1762492275381592,-10,-1,-100,6332.077834883239,-0.00934811295213483,0.0018441776459571222,0.999954604866163,253.63020927877832,27.145723268856763,1207.2103917593436,-54.2160340782022,-77.0206298828125,4381.2578125,True
1599568649.3516576,0.0,10,0.5,0.5,-1.5543774387359621,-0.1005,-0.00825,-0.37525,0.004670897062153914,10,1,100,0.12738130871871375,-10,-1,-100,6330.982137895655,-0.009593794538977189,0.001689371388105602,0.9999525514396456,254.86873953777248,27.267639817668698,1217.9403666844655,-54.40259614583612,-76.5709228515625,4381.2578125,True
1599568649.4124928,0.0,10,0.5,0.5,-1.8302076707839967,-0.1005,-0.00825,-0.37525,-0.030330502309567832,10,1,100,0.18237729432635896,-10,-1,-100,6327.691628025146,-0.010312577316754843,0.0012329053138870907,0.9999460638922346,257.8390670192928,27.549950884224224,1246.8375575984755,-54.96199633927209,-75.66921997070312,4381.2578125,True
1599568649.47732,0.0,10,0.5,0.5,-1.5792539606094362,-0.1005,-0.00825,-0.37525,-0.0009222230864232468,10,1,100,0.13634787234964074,-10,-1,-100,6326.5959313076455,-0.010542631298184054,0.0010880586739400295,0.9999438329494476,258.58960109436185,27.617541764281956,1255.3928123452497,-55.1483772978966,-75.51760864257812,4381.2578125,True
1599568649.5441406,0.0,10,0.5,0.5,-1.5725883949279784,-0.1005,-0.00825,-0.37525,-0.01991362503284051,10,1,100,0.16522354536654565,-10,-1,-100,6324.401607682696,-0.011009858613789033,0.0007863081557408227,0.9999390805108022,259.74128168876996,27.7146334857597,1270.8974645086275,-55.52102827195208,-75.43789672851562,4381.2578125,True
1599568649.6099274,0.0,10,0.5,0.5,-1.3449127601623536,-0.1005,-0.00825,-0.37525,-0.03494260544118774,10,1,100,0.19062046371612548,-10,-1,-100,6321.0490877224365,-0.011661142249623897,0.00037796953420595706,0.9999319351338196,260.60024331033304,27.76708428284229,1290.0696350762198,-56.079771092616525,-75.875244140625,4381.2578125,True
1599568649.6757255,0.0,10,0.5,0.5,-1.3779293510437012,-0.1005,-0.00825,-0.37525,-0.00942910118090692,10,1,100,0.14977547624587892,-10,-1,-100,6319.889426654321,-0.011877205531469764,0.000241544057646373,0.999929434332859,260.65246491347864,27.75987466736952,1295.3335940994657,-56.265968393004435,-76.16952514648438,4381.2578125,True
1599568649.7406833,0.0,10,0.5,0.5,-0.8628603164672853,-0.1005,-0.00825,-0.37525,-0.03684477958734896,10,1,100,0.1951589686506048,-10,-1,-100,6316.474407712347,-0.012482029859563794,-0.00012912794597407477,0.9999220880931465,260.0752505469575,27.662437550562885,1307.4967954953318,-56.82445306191863,-77.49652099609375,4381.2578125,True
1599568649.8025193,0.0,10,0.5,0.5,-1.0838734138488773,-0.1005,-0.00825,-0.37525,-0.012865161566955524,10,1,100,0.15627328299088802,-10,-1,-100,6315.377246512915,-0.012673880718445794,-0.0002453211881200078,0.9999196530547089,259.62775421448237,27.604016204879983,1310.266212974244,-57.010589610355765,-78.08682250976562,4381.2578125,True
1599568649.865383,0.0,10,0.5,0.5,-0.2567754287719727,-0.1005,-0.00825,-0.37525,-0.038853644300167064,10,1,100,0.1994658557171789,-10,-1,-100,6311.899726860807,-0.013236776238737053,-0.0005846042424437506,0.9999122191436034,257.45739987729246,27.346400847351138,1314.299057994034,-57.56897073001036,-80.294921875,4381.2578125,True
1599568649.9291806,0.0,10,0.5,0.5,-0.6698096794128419,-0.1005,-0.00825,-0.37525,-0.01639598587515607,10,1,100,0.16263138378278535,-10,-1,-100,6310.7405539143365,-0.013409410970224751,-0.000686241256898415,0.9999098543220628,256.45123611961503,27.232926395583977,1314.15701533863,-57.75509940233763,-81.16583251953125,4381.2578125,True
