Timestamp,Input Throttle,horizon,dT,dt,Input Roll,Roll P,Roll I,Roll D,Input Pitch,Pitch P,Pitch I,Pitch D,Input Yaw,Yaw P,Yaw I,Yaw D,Altitude,Direction X,Direction Y,Direction Z,Drag X,Drag Y,Drag Z,Vertical Velocity,Roll,Mass,Has Fuel
1599573538.1933389,0.0,10,0.5,0.5,-10.811480827331543,-0.2,-0.02275,-0.12575,-0.06718932097417558,10,1,100,0.6903518567423522,-10,-1,-100,6483.617966901744,-0.06725807467663686,-0.0070024119854220504,0.9977110391376746,205.0731732541027,21.498771942701037,-156.7652039374907,9.590824150366704,-35.944610595703125,4381.2578125,True
1599573538.2641513,0.0,10,0.5,0.5,-10.935137471771242,-0.2,-0.02275,-0.12575,-0.0673307136503067,10,1,100,0.6999196705597427,-10,-1,-100,6483.997883003205,-0.06744546664323423,-0.006971560645399723,0.9976986049761942,204.61214036179663,21.45674068262903,-150.26671463298268,9.210801753865976,-35.9412841796875,4381.2578125,True
1599573538.9307153,0.0,10,0.5,0.5,-11.058259455108644,-0.2,-0.02275,-0.12575,-0.06931299315952422,10,1,100,0.6985899077286857,-10,-1,-100,6484.156591541832,-0.06754242016291019,-0.006955196913058312,0.9976921602951672,204.38123490993505,21.435616788162587,-147.02554101503898,9.020798007813731,-35.9395751953125,4381.2578125,True
1599573538.9916997,0.0,10,0.5,0.5,-11.077763858795167,-0.2,-0.02275,-0.12575,-0.018327717094245827,10,1,100,0.7012996744587756,-10,-1,-100,6484.697140224278,-0.0675937917691047,-0.006470495376778991,0.99769194243707,203.75668701519655,21.378977975659904,-137.38157696045542,8.450805946176034,-36.256591796875,4381.2578125,True
1599573539.0566838,0.0,10,0.5,0.5,-11.05703833694458,-0.2,-0.02275,-0.12575,-0.015057487709311264,10,1,100,0.6977843016610836,-10,-1,-100,6485.016949243844,-0.06754708639314877,-0.005994245989955859,0.9976980806510596,203.44706482536304,21.351721302986054,-131.04566580424495,8.070816532163093,-36.81793212890625,4381.2578125,True
1599573539.1245024,0.0,10,0.5,0.5,-11.121519110870361,-0.2,-0.02275,-0.12575,-0.028123157953583527,10,1,100,0.7015643960372795,-10,-1,-100,6485.175623686286,-0.06747758501261503,-0.005674621507800981,0.9977046527863888,203.31787710899087,21.340466482247738,-127.8988383597379,7.880820582162153,-37.208099365234375,4381.2578125,True
1599573539.1903267,0.0,10,0.5,0.5,-10.964745333862306,-0.2,-0.02275,-0.12575,0.026436110513255263,10,1,100,0.6871388124027198,-10,-1,-100,6485.493927993346,-0.06722191701089507,-0.004882901700227284,0.9977261002621743,203.08665725182067,21.32002270037378,-121.62919712509168,7.500821337471166,-38.20867919921875,4381.2578125,True
1599573539.255865,0.0,10,0.5,0.5,-10.786771524047852,-0.2,-0.02275,-0.12575,0.057509610057246814,10,1,100,0.6759251129598,-10,-1,-100,6485.750193244312,-0.06682643799893138,-0.003876231059578339,0.9977570856762421,202.8501509920962,21.297810950859738,-115.36529945787163,7.1208052309720795,-39.50299072265625,4381.2578125,True
1599573539.322197,0.0,10,0.5,0.5,-10.252482405090333,-0.2,-0.02275,-0.12575,0.164677285717625,10,1,100,0.624342575615429,-10,-1,-100,6486.165060826344,-0.06593722815947109,-0.0019833004883853343,0.9978218019575531,202.33885382175407,21.245436339046755,-105.90467441122715,6.550730922371525,-41.9954833984375,4381.2578125,True
1599573539.3890631,0.0,10,0.5,0.5,-10.01408017730713,-0.2,-0.02275,-0.12575,0.1388779606511796,10,1,100,0.6304768245589465,-10,-1,-100,6486.42028617498,-0.06512467854293964,-0.0004951908329153919,0.9978770119762846,201.76988462603984,21.18464148806027,-99.50448766856437,6.170633107616516,-44.0247802734375,4381.2578125,True
1599573539.456881,0.0,10,0.5,0.5,-10.00741895751953,-0.2,-0.02275,-0.12575,0.07905419209158376,10,1,100,0.6660151334204583,-10,-1,-100,6486.517860854627,-0.0646498683552494,0.00031423385863633453,0.997907959572791,201.37850194096208,21.14242498220697,-96.26428964649794,5.980564902838795,-45.149688720703125,4381.2578125,True
1599573539.5247,0.0,10,0.5,0.5,-9.32296392364502,-0.2,-0.02275,-0.12575,0.18468689948587447,10,1,100,0.591162408787535,-10,-1,-100,6486.772072782973,-0.0635401145118875,0.002003720331045948,0.997977273765616,200.30877720206936,21.026709740032327,-89.68708503967304,5.600379460251885,-47.620819091796875,4381.2578125,True
1599573539.5940244,0.0,10,0.5,0.5,-8.219956381988524,-0.2,-0.02275,-0.12575,0.32586985680346225,10,1,100,0.47717097606657466,-10,-1,-100,6487.061795535148,-0.061498511949669175,0.004814939207963263,0.9980955612507251,197.73995530789108,20.749246980667223,-79.54509024341895,5.029942129627085,-51.879241943359375,4381.2578125,True
1599573539.6618445,0.0,10,0.5,0.5,-7.6743507675170894,-0.2,-0.02275,-0.12575,0.2645751036599982,10,1,100,0.500640021865734,-10,-1,-100,6487.255409977282,-0.05986135904420237,0.0068026675801102195,0.9981835209054373,195.17808775132144,20.4736326273541,-72.59102341092206,4.649512559264651,-55.08673095703125,4381.2578125,True
1599573539.7326546,0.0,10,0.5,0.5,-7.476362886047363,-0.2,-0.02275,-0.12575,0.17884908335923483,10,1,100,0.5643553916533455,-10,-1,-100,6487.351966482936,-0.05895929833977892,0.007818299403912432,0.9982297708111653,193.5837737973331,20.302650856825753,-69.05844528186564,4.459245645793525,-56.80120849609375,4381.2578125,True
1599573539.8004742,0.0,10,0.5,0.5,-5.826479698181153,-0.2,-0.02275,-0.12575,0.4125126861408589,10,1,100,0.3205210119530101,-10,-1,-100,6487.578627683106,-0.05593037405489398,0.01085325877320751,0.9983756808096247,187.29232325997455,19.631263029389153,-58.27340053710326,3.888185951791881,-62.38836669921875,4381.2578125,True
1599573539.8693962,0.0,10,0.5,0.5,-5.138181024932862,-0.2,-0.02275,-0.12575,0.33763716632571583,10,1,100,0.36866153132795043,-10,-1,-100,6487.770738507388,-0.053624945072914154,0.012916600855809908,0.9984776045001001,181.65983435145546,19.03358038601057,-50.991310798154956,3.5072248872033223,-66.4822998046875,4381.2578125,True
1599573539.9382124,0.0,10,0.5,0.5,-4.158424532318115,-0.2,-0.02275,-0.12575,0.3504012494359102,10,1,100,0.3227747892419316,-10,-1,-100,6487.839796822285,-0.051124309226639575,0.014892222138672003,0.9985812569470104,174.75801820731814,18.304495506658455,-43.72847301207141,3.1260034034917967,-70.8729248046875,4381.2578125,True
1599573540.010022,0.0,10,0.5,0.5,-3.1123153709411624,-0.2,-0.02275,-0.12575,0.36316897448069746,10,1,100,0.27591363938854685,-10,-1,-100,6487.969401120441,-0.04843926812115218,0.01678724948422811,0.9986850482302423,166.3973449594547,17.42480429441859,-36.559405457810186,2.744461326809718,-75.56015014648438,4381.2578125,True
1599573540.0798318,0.0,10,0.5,0.5,-2.001853359985352,-0.2,-0.02275,-0.12575,0.3739764668669401,10,1,100,0.22721165282959188,-10,-1,-100,6488.100473132567,-0.04557148356566252,0.018591187410997127,0.998788069430284,156.61384544916896,16.397873436313073,-29.62602572606957,2.3626289553105586,-80.54409790039062,4381.2578125,True
1599573540.1576233,0.0,10,0.5,0.5,-0.8250963905334471,-0.2,-0.02275,-0.12575,0.3779861557639449,10,1,100,0.18100930774608653,-10,-1,-100,6488.16709831066,-0.04256216100989212,0.02025023144508363,0.9988885776584836,145.35144695526157,15.21762125375562,-23.05222057630487,1.980607759405181,-85.82546997070312,4381.2578125,True
1599573540.2291546,0.0,10,0.5,0.5,0.4206684993743897,-0.2,-0.02275,-0.12575,0.37973351187576265,10,1,100,0.13549982966841884,-10,-1,-100,6488.234709758428,-0.03943277043789056,0.02175621471564566,0.9989853471081741,152.0489015761748,15.91876109617931,-19.46435798168226,1.598506706368493,-91.40447235107422,4381.2578125,True
1599573540.3009634,0.0,10,0.5,0.5,1.7305793787002564,-0.2,-0.02275,-0.12575,0.37840459714784636,10,1,100,0.09177176916328855,-10,-1,-100,6488.301358296187,-0.03621225786245523,0.02309525256009863,0.9990772150788387,160.30135878272412,16.78181587036245,-15.617787577757328,1.216438749250282,-97.2735824584961,4381.2578125,True
1599573540.371774,0.0,10,0.5,0.5,2.083340005874634,-0.2,-0.02275,-0.12575,0.31275108294156,10,1,100,0.23122935913445364,-10,-1,-100,6488.273409190006,-0.034575302933694804,0.023699091095587696,0.9991210644903282,164.75230743751038,17.246800317328287,-13.531947735452825,1.025441506770774,-100.30513763427734,4381.2578125,True
1599573540.4425843,0.0,10,0.5,0.5,4.747810748481751,-0.2,-0.02275,-0.12575,0.4244041835213818,10,1,100,-0.1519224752080744,-10,-1,-100,6488.311658388702,-0.029626950919080988,0.025247703020834792,0.999242111438169,176.06797391823324,18.428693923688922,-6.383662240790167,0.45257461450174086,-109.339111328125,4381.2578125,True
1599573540.5133958,0.0,10,0.5,0.5,4.678619688987733,-0.2,-0.02275,-0.12575,0.3183657136506933,10,1,100,0.1578977546310676,-10,-1,-100,6488.345251527382,-0.027971662401988534,0.025675701041674145,0.9992789122554763,179.51832180357698,18.78952142186006,-3.762814980236134,0.26162327432130983,-112.2471923828125,4381.2578125,True
1599573540.5849607,0.0,10,0.5,0.5,6.251891420555116,-0.2,-0.02275,-0.12575,0.3562873828687798,10,1,100,-0.050705837050285585,-10,-1,-100,6488.350438558147,-0.02459587538175846,0.026396057651448465,0.999348933583594,184.84479275441595,19.346300585776575,1.782539361609485,-0.1203500227770169,-117.85128784179688,4381.2578125,True
1599573540.655771,0.0,10,0.5,0.5,7.394334241294861,-0.2,-0.02275,-0.12575,0.3505674457743093,10,1,100,-0.06604659295113863,-10,-1,-100,6488.354672212037,-0.021413906736715328,0.026986673816933898,0.9994064058402715,188.27283986173182,19.70443062843675,7.581114665211879,-0.5024583692887639,-123.16300964355469,4381.2578125,True
1599573540.7245884,0.0,10,0.5,0.5,8.47990574131012,-0.2,-0.02275,-0.12575,0.3363884169263628,10,1,100,-0.1132888596797546,-10,-1,-100,6488.298379805055,-0.01811874227322499,0.02738370238541363,0.9994607766301306,190.86865155567244,19.97546716270829,13.534244021993365,-0.8846936644941166,-128.18084716796875,4381.2578125,True
1599573540.7924068,0.0,10,0.5,0.5,10.239917826271057,-0.2,-0.02275,-0.12575,0.3428848966924366,10,1,100,-0.2977258837957692,-10,-1,-100,6488.210319629521,-0.013474002110677214,0.027794063215631163,0.999522856825739,192.08702833512004,20.10181605959551,22.45621669268953,-1.4582686095246722,-135.15335083007812,4381.2578125,True
1599573540.8622203,0.0,10,0.5,0.5,10.881253028297424,-0.2,-0.02275,-0.12575,0.3180516442069797,10,1,100,-0.16515163650177947,-10,-1,-100,6488.15359296836,-0.010485911012356401,0.027932995424320553,0.9995547976158514,191.47503233367328,20.036663413401207,28.260462602625957,-1.8407779232462915,-139.432373046875,4381.2578125,True
1599573540.9310691,0.0,10,0.5,0.5,11.762499996376038,-0.2,-0.02275,-0.12575,0.3151441914176363,10,1,100,-0.1820548360350635,-10,-1,-100,6488.033412114368,-0.007644959336305385,0.028025881712335752,0.9995779632179735,189.98495705333585,19.879296143032164,33.87352235298097,-2.223358924693784,-143.4151153564453,4381.2578125,True
1599573540.9984653,0.0,10,0.5,0.5,11.992450689315795,-0.2,-0.02275,-0.12575,0.3106733265337905,10,1,100,-0.05095462647683725,-10,-1,-100,6488.003115469473,-0.006282994091426141,0.02806397986886307,0.99958638297006,188.97375995648974,19.77258696336215,36.59516098523324,-2.414667336773314,-145.29525756835938,4381.2578125,True
1599573541.067249,0.0,10,0.5,0.5,13.01798752155304,-0.2,-0.02275,-0.12575,0.3080478863611475,10,1,100,-0.2101230408556113,-10,-1,-100,6487.882965307916,-0.003625066705157091,0.02807022989385591,0.9995993802944705,186.54976751807249,19.516693541699063,41.85683853535688,-2.7973042378105037,-148.8339080810547,4381.2578125,True
1599573541.1351054,0.0,10,0.5,0.5,13.73941851615906,-0.2,-0.02275,-0.12575,0.30861778970846226,10,1,100,-0.2219031346708375,-10,-1,-100,6487.761368352338,-0.001129813897709114,0.028077118911735657,0.9996051214925686,183.7229906645292,19.21796593756331,46.868836223962354,-3.179954217672917,-152.07569885253906,4381.2578125,True
1599573541.203957,0.0,10,0.5,0.5,14.832071098327637,-0.2,-0.02275,-0.12575,0.3019939431731684,10,1,100,-0.3609288760959795,-10,-1,-100,6487.5494566451525,0.0023765616338163632,0.028020592672313754,0.9996045209687144,179.2651599083096,18.74601779363574,53.99883985507167,-3.7539283675576613,-156.3829345703125,4381.2578125,True
1599573541.2714298,0.0,10,0.5,0.5,15.205279666900635,-0.2,-0.02275,-0.12575,0.3063516455117188,10,1,100,-0.25052980568113764,-10,-1,-100,6487.4269156756345,0.004532958545944776,0.02800668893807099,0.9995974578106663,176.21787708592788,18.42290481991523,58.5009662384326,-4.136577806994,-158.88311767578125,4381.2578125,True
1599573541.3392467,0.0,10,0.5,0.5,15.701807553100586,-0.2,-0.02275,-0.12575,0.3104673002601418,10,1,100,-0.25916053295790414,-10,-1,-100,6487.243351997458,0.006545299774097843,0.028030000012575395,0.9995856532334596,173.2327949138141,18.10577268551068,62.84033178812295,-4.519248097990534,-161.08596801757812,4381.2578125,True
1599573541.4080987,0.0,10,0.5,0.5,16.131821056747437,-0.2,-0.02275,-0.12575,0.3149803817990337,10,1,100,-0.2665857363375971,-10,-1,-100,6487.058823770145,0.008416785279042556,0.028091271434118742,0.9995699266158327,170.4758518690747,17.812062795606362,67.08833106087528,-4.901964279717666,-162.99156188964844,4381.2578125,True
1599573541.4759283,0.0,10,0.5,0.5,16.245463159942627,-0.2,-0.02275,-0.12575,0.313572540393136,10,1,100,-0.17927544364399434,-10,-1,-100,6486.905040232232,0.0093002825976393,0.02813353092360571,0.9995609081898784,169.19476334837768,17.675280652883107,69.18960228393554,-5.093347107435276,-163.8329315185547,4381.2578125,True
1599573541.544744,0.0,10,0.5,0.5,16.680285457992557,-0.2,-0.02275,-0.12575,0.32509225839663825,10,1,100,-0.2751014865085011,-10,-1,-100,6486.721013456117,0.010953903927215203,0.028276364743436633,0.999540123849788,166.87558495331942,17.427020840544124,73.38307683854566,-5.476173688550871,-165.29226684570312,4381.2578125,True
1599573541.6140692,0.0,10,0.5,0.5,16.934033193588256,-0.2,-0.02275,-0.12575,0.33339938232643673,10,1,100,-0.27796165060317213,-10,-1,-100,6486.473029338173,0.01246370679592706,0.0284814208250819,0.9995166155100623,164.95958735594365,17.22090856668028,77.62684053585006,-5.859089373436203,-166.4539794921875,4381.2578125,True
1599573541.6828847,0.0,10,0.5,0.5,17.22645372772217,-0.2,-0.02275,-0.12575,0.3554060591617918,10,1,100,-0.3496327888943491,-10,-1,-100,6486.134752140497,0.014469530055464691,0.02886748201679651,0.9994785146174898,162.99074533333786,17.00652402120708,84.24562324516778,-6.433627825078403,-167.63922119140625,4381.2578125,True
1599573541.749706,0.0,10,0.5,0.5,17.208427022552492,-0.2,-0.02275,-0.12575,0.33547653689981455,10,1,100,-0.21650341845487284,-10,-1,-100,6485.980003376608,0.01506387281091558,0.029036538804930057,0.9994648363750305,162.59120124896725,16.961919548714615,86.54996717279896,-6.6251842002095085,-167.8853759765625,4381.2578125,True
1599573541.8165278,0.0,10,0.5,0.5,17.308515541458128,-0.2,-0.02275,-0.12575,0.36031247438211184,10,1,100,-0.2777480908498249,-10,-1,-100,6485.732518395525,0.016143964210810432,0.02941512958133501,0.9994369027463781,162.20693377285758,16.915989367294355,91.3583073829891,-7.008361068692192,-168.15460205078125,4381.2578125,True
1599573541.8853436,0.0,10,0.5,0.5,17.301815703582765,-0.2,-0.02275,-0.12575,0.3751904694310368,10,1,100,-0.27237039175130034,-10,-1,-100,6485.4235139783705,0.017061273875175056,0.029893341141539194,0.9994074750016392,162.38470588073113,16.92852027335528,96.48101848545036,-7.391618602400786,-168.12567138671875,4381.2578125,True
1599573541.954192,0.0,10,0.5,0.5,17.226067089080814,-0.2,-0.02275,-0.12575,0.3824286630201167,10,1,100,-0.2685528174341244,-10,-1,-100,6485.111580599565,0.017847136792403698,0.030392178184835337,0.9993787046027619,163.13542457325255,17.00039060434468,101.97722772027375,-7.774949360315821,-167.79995727539062,4381.2578125,True
1599573542.0240054,0.0,10,0.5,0.5,16.946108007049563,-0.2,-0.02275,-0.12575,0.4347694019417438,10,1,100,-0.285439156045648,-10,-1,-100,6484.584842484794,0.018702965997037715,0.0313193226787132,0.9993344280519212,165.3058341692111,17.215689666528895,111.01849976174165,-8.350058919868577,-166.7525177001953,4381.2578125,True
1599573542.093818,0.0,10,0.5,0.5,16.74217495994568,-0.2,-0.02275,-0.12575,0.41827316397984954,10,1,100,-0.2416339999749431,-10,-1,-100,6484.274861036334,0.019071711431314104,0.03200922521652482,0.999305598565383,167.41644116464363,17.42704990419325,117.63021119488221,-8.733521184228534,-165.68255615234375,4381.2578125,True
1599573542.1606832,0.0,10,0.5,0.5,16.437433602905273,-0.2,-0.02275,-0.12575,0.4322416477693143,10,1,100,-0.2264522394621764,-10,-1,-100,6483.901401051902,0.019259232252219968,0.03275983378191015,0.9992776767563842,170.01201952060737,17.687564567843445,124.73339679582597,-9.117009125910597,-164.31521606445312,4381.2578125,True
1599573542.229455,0.0,10,0.5,0.5,16.06829610481262,-0.2,-0.02275,-0.12575,0.44525590682902505,10,1,100,-0.20955339145507593,-10,-1,-100,6483.5274490608135,0.01926702624420204,0.033556310921113906,0.9992510974209989,173.03628379651855,17.99116857423271,132.33034068207488,-9.50050415336369,-162.65081787109375,4381.2578125,True
1599573542.297274,0.0,10,0.5,0.5,15.632729961776736,-0.2,-0.02275,-0.12575,0.45767624785796857,10,1,100,-0.19037489029534568,-10,-1,-100,6483.155446217745,0.019092204296990933,0.034388493287764374,0.9992261602182357,176.42508484306094,18.3310586189702,140.41009040399032,-9.88398607071121,-160.68963623046875,4381.2578125,True
1599573542.3642204,0.0,10,0.5,0.5,15.13078207359314,-0.2,-0.02275,-0.12575,0.46912342083500835,10,1,100,-0.1680319365199835,-10,-1,-100,6482.719472669181,0.018724131585658395,0.035243717854999086,0.9992033262795517,180.0929465314332,18.698346303333405,148.93609389272615,-10.267434556540858,-158.43191528320312,4381.2578125,True
1599573542.4320378,0.0,10,0.5,0.5,14.989836925125124,-0.2,-0.02275,-0.12575,0.4317562685522828,10,1,100,-0.17712866225627955,-10,-1,-100,6482.501239766716,0.01846834971702224,0.035675696771880226,0.9991927565382819,182.00057084056039,18.889092912928476,153.34853409993178,-10.459139831347487,-157.19198608398438,4381.2578125,True
1599573542.4998574,0.0,10,0.5,0.5,14.241334940719604,-0.2,-0.02275,-0.12575,0.4834809665479871,10,1,100,-0.13077203669299875,-10,-1,-100,6482.064279793878,0.017811301897772174,0.03653259380721771,0.9991737221897019,185.89313632083832,19.27770074393275,162.42261789480122,-10.84250097030502,-154.490234375,4381.2578125,True
1599573542.5686722,0.0,10,0.5,0.5,13.573643451309204,-0.2,-0.02275,-0.12575,0.4903468216891237,10,1,100,-0.10309603053922035,-10,-1,-100,6481.62877715379,0.016960869880976892,0.037367537554965864,0.9991576432325177,189.78528002178615,19.665459694302214,171.7433865807953,-11.225780634359513,-151.4929962158203,4381.2578125,True
1599573543.2837832,0.0,10,0.5,0.5,12.840101772308351,-0.2,-0.02275,-0.12575,0.4975123600274495,10,1,100,-0.07471364661800378,-10,-1,-100,6481.191313838237,0.015929819470055756,0.03818492385925494,0.999143709604136,193.53767921007363,20.038632745800765,181.18033440812962,-11.608959109930193,-148.2002716064453,4381.2578125,True
1599573543.364566,0.0,10,0.5,0.5,12.637328035354615,-0.2,-0.02275,-0.12575,0.4579808995138842,10,1,100,-0.11253435124645708,-10,-1,-100,6480.97453165066,0.015338068517951888,0.0385615410896904,0.9991385045142275,195.3130745198714,20.215033737794986,185.89220568072525,-11.800505050906924,-146.44357299804688,4381.2578125,True
1599573543.4383698,0.0,10,0.5,0.5,12.215772734832765,-0.2,-0.02275,-0.12575,0.46119916080978784,10,1,100,-0.10134023592825839,-10,-1,-100,6480.693295068922,0.014701407419945734,0.03892659347603905,0.9991339194223284,196.99296862906996,20.381924237519797,190.56811463168498,-11.992020444034184,-144.6131591796875,4381.2578125,True
1599573543.5243497,0.0,10,0.5,0.5,10.465523992156982,-0.2,-0.02275,-0.12575,0.5325460793518005,10,1,100,0.07360436023682448,-10,-1,-100,6479.97505843523,0.01253619218754063,0.03990077911559293,0.999125003045868,201.22753216517373,20.803265637280106,204.10017256218876,-12.566380138674347,-138.68072509765625,4381.2578125,True
1599573543.6110737,0.0,10,0.5,0.5,10.461149418640137,-0.2,-0.02275,-0.12575,0.46715059403056464,10,1,100,-0.05340957942575893,-10,-1,-100,6479.695765831275,0.011728598736891003,0.04018540624378187,0.999123402336614,202.29282282825176,20.909834621744825,208.34461396262063,-12.75777252279889,-136.55621337890625,4381.2578125,True
1599573543.7008348,0.0,10,0.5,0.5,9.213161730194091,-0.2,-0.02275,-0.12575,0.4921268259897959,10,1,100,0.05747472218612505,-10,-1,-100,6479.19479122886,0.009993236883017224,0.040665188382380583,0.9991228541427853,203.75523625309128,21.057860796813564,216.22783120697426,-13.140473972711074,-132.0872039794922,4381.2578125,True
1599573543.804089,0.0,10,0.5,0.5,8.159135582733155,-0.2,-0.02275,-0.12575,0.4763590990531099,10,1,100,0.08790760809533696,-10,-1,-100,6478.633258834248,0.00814724438706093,0.04095230490432353,0.9991278852739126,204.14387608006228,21.101098792983375,223.03470484399162,-13.523086060925019,-127.32608795166016,4381.2578125,True
1599573543.898839,0.0,10,0.5,0.5,6.1815449335098265,-0.2,-0.02275,-0.12575,0.47194155603592813,10,1,100,0.2371168936370205,-10,-1,-100,6477.789965381613,0.0051222366923568095,0.041167970817706984,0.9991391098691011,203.12108705534786,21.012587816089038,231.47327889056936,-14.09691633093582,-119.6344985961914,4381.2578125,True
1599573543.989593,0.0,10,0.5,0.5,6.180588999938965,-0.2,-0.02275,-0.12575,0.4478926117177104,10,1,100,0.05104697927928056,-10,-1,-100,6477.507724275114,0.0040759072031731226,0.04114041099603012,0.9991450613217026,202.11399431258005,20.917370009835643,233.49924422298503,-14.28819399676702,-116.9246597290039,4381.2578125,True
1599573544.0763617,0.0,10,0.5,0.5,2.667001918983459,-0.2,-0.02275,-0.12575,0.38706575719554087,10,1,100,0.4163917652786231,-10,-1,-100,6476.319651380065,-0.0001841309372655255,0.04055819628322342,0.9991771608729103,193.77155739613727,20.099454584062318,236.0575711724839,-15.053519025671745,-105.35478210449219,4381.2578125,True
1599573544.158179,0.0,10,0.5,0.5,4.016949593162536,-0.2,-0.02275,-0.12575,0.44560629434903665,10,1,100,-0.007897548683417504,-10,-1,-100,6476.319651380065,-0.0001841309372655255,0.04055819628322342,0.9991771608729103,193.77155739613727,20.099454584062318,236.0575711724839,-15.053519025671745,-105.35478210449219,4381.2578125,True
1599573544.2389271,0.0,10,0.5,0.5,1.892167480278015,-0.2,-0.02275,-0.12575,0.38367721217417683,10,1,100,0.23633679566915464,-10,-1,-100,6475.757096215966,-0.0023897941128277075,0.03999304710670291,0.999197100209573,187.84310433411312,19.508860083405366,234.76440518517822,-15.43640048667865,-99.13127136230469,4381.2578125,True
1599573544.316721,0.0,10,0.5,0.5,0.4446313764572144,-0.2,-0.02275,-0.12575,0.35648251165059996,10,1,100,0.23777309490560966,-10,-1,-100,6475.132033417467,-0.0043918834812785735,0.039230749208727184,0.9992205260481837,179.6048072160334,18.673441136966844,230.14939450280554,-15.819481940437289,-92.61551666259766,4381.2578125,True
1599573544.3955104,0.0,10,0.5,0.5,-2.2165390918731687,-0.2,-0.02275,-0.12575,0.26805229004472414,10,1,100,0.381571088347241,-10,-1,-100,6474.162689201767,-0.007501861673974896,0.03773356350893885,0.9992596760884237,166.33275752587303,17.306107675272084,221.05249719655015,-16.39445310696872,-82.29400634765625,4381.2578125,True
1599573544.4762924,0.0,10,0.5,0.5,-3.399480347442627,-0.2,-0.02275,-0.12575,0.2875025963948845,10,1,100,0.28077437840783764,-10,-1,-100,6473.47413733881,-0.009394564437102872,0.03655127676286605,0.9992876194199753,180.42555043047994,18.766001725325467,245.50907529877983,-16.77763929269487,-75.07192993164062,4381.2578125,True
1599573544.5660522,0.0,10,0.5,0.5,-5.015176313781738,-0.2,-0.02275,-0.12575,0.26305697999953614,10,1,100,0.28833865553937643,-10,-1,-100,6472.787048239028,-0.0111647665928023,0.035257541507824806,0.9993158928755972,192.7055944982453,20.027863658276313,268.33701969458207,-17.16048914560379,-67.75344848632812,4381.2578125,True
1599573544.6663668,0.0,10,0.5,0.5,-5.409981995773316,-0.2,-0.02275,-0.12575,0.3177066137658835,10,1,100,0.2041946083685619,-10,-1,-100,6472.442283492768,-0.011989860847816357,0.034583149443730976,0.9993298999886887,197.93480224401247,20.562105434515978,278.76010555176606,-17.35177225730669,-64.16558837890625,4381.2578125,True
1599573544.7630854,0.0,10,0.5,0.5,-8.471557760047913,-0.2,-0.02275,-0.12575,0.1458889468946936,10,1,100,0.3755011810061286,-10,-1,-100,6471.347442907048,-0.014278972553411672,0.03241387710068994,0.9993725288970675,210.6760421354177,21.859597774071375,306.7330220263523,-17.92506982389737,-53.8231201171875,4381.2578125,True
1599573544.8568418,0.0,10,0.5,0.5,-9.446408963775635,-0.2,-0.02275,-0.12575,0.19594577681910763,10,1,100,0.29424835254397486,-10,-1,-100,6470.658891731757,-0.01560368365498259,0.03090483169152642,0.9994005285342379,215.79827040102435,22.38153065845784,321.03958988958044,-18.306890505580714,-47.297576904296875,4381.2578125,True
1599573544.9466035,0.0,10,0.5,0.5,-9.81056267528534,-0.2,-0.02275,-0.12575,0.2607748104098184,10,1,100,0.23030096755609591,-10,-1,-100,6470.252117353608,-0.016208736073922564,0.030131632151570137,0.9994145094097687,217.52070151241065,22.558958186001913,327.0552575376807,-18.497721806244027,-44.146881103515625,4381.2578125,True
1599573545.0543149,0.0,10,0.5,0.5,-12.48740851993561,-0.2,-0.02275,-0.12575,0.09589796907782239,10,1,100,0.34819201410259726,-10,-1,-100,6469.15777675563,-0.01781595269143923,0.027939321797802327,0.999450842276485,220.35735933000845,22.865623823924796,341.8279369866463,-19.070042528333953,-35.140594482421875,4381.2578125,True
1599573545.1567633,0.0,10,0.5,0.5,-13.348887518882751,-0.2,-0.02275,-0.12575,0.15192978616903163,10,1,100,0.28807352261699953,-10,-1,-100,6468.345215122448,-0.018714498037717877,0.026467164244738422,0.9994744903098018,219.86516492356824,22.835502600824807,348.0699832425812,-19.451566136771206,-29.5096435546875,4381.2578125,True
1599573545.254657,0.0,10,0.5,0.5,-14.536690288734437,-0.2,-0.02275,-0.12575,0.14523455283556563,10,1,100,0.2865531039443624,-10,-1,-100,6467.59369276755,-0.019502694815560957,0.025080269696068785,0.9994951850643922,217.803546268981,22.649873554709206,351.76312639471297,-19.83316342996563,-24.17578125,4381.2578125,True
1599573545.3417156,0.0,10,0.5,0.5,-14.854145188140869,-0.2,-0.02275,-0.12575,0.21027569596973805,10,1,100,0.2491228715511489,-10,-1,-100,6467.187905497965,-0.019865225399721558,0.02442360366169128,0.999504307346394,216.27487847253423,22.5071535713424,352.75534402461795,-20.02400585590827,-21.62017822265625,4381.2578125,True
1599573545.4354649,0.0,10,0.5,0.5,-17.02293522720337,-0.2,-0.02275,-0.12575,0.06464438643207507,10,1,100,0.3154418209759618,-10,-1,-100,6465.968597645755,-0.02078645877670609,0.022514813507230474,0.999530392886709,210.16734096587734,21.922922676161278,352.91288429857053,-20.596755070400498,-14.3995361328125,4381.2578125,True
1599573545.5312085,0.0,10,0.5,0.5,-16.98871007080078,-0.2,-0.02275,-0.12575,0.18947209812817403,10,1,100,0.25400092132889224,-10,-1,-100,6465.560863177176,-0.02105503376413721,0.021927107530644856,0.9995378369569261,208.11025958436736,21.72539226935106,352.80847179020816,-20.787748299838366,-12.14093017578125,4381.2578125,True
1599573545.630943,0.0,10,0.5,0.5,-18.89349026870728,-0.2,-0.02275,-0.12575,0.0668129598434187,10,1,100,0.30418222570322334,-10,-1,-100,6464.2780941954115,-0.021746395367776387,0.02028986487113941,0.9995576099815453,200.9630880018349,21.024320645105824,350.4234912546848,-21.360946245921912,-5.81005859375,4381.2578125,True
1599573545.7246912,0.0,10,0.5,0.5,-19.484311309051517,-0.2,-0.02275,-0.12575,0.12208414412997656,10,1,100,0.2788070746064172,-10,-1,-100,6463.402577579953,-0.022135353147913803,0.019316921660169156,0.9995683481776481,196.19872396615216,20.54893608854114,348.4699519521374,-21.74323291033617,-1.9599609375,4381.2578125,True
1599573545.8094656,0.0,10,0.5,0.5,-20.275811318206788,-0.2,-0.02275,-0.12575,0.12219700433412277,10,1,100,0.2790398104669305,-10,-1,-100,6462.527553911437,-0.02248392474623021,0.018445360156998002,0.999577031457148,191.55657151954438,20.07850934814554,346.44238987314424,-22.125602220031688,1.5938720703125,4381.2578125,True
1599573545.9012196,0.0,10,0.5,0.5,-21.00132758026123,-0.2,-0.02275,-0.12575,0.12362399436780107,10,1,100,0.28039778208502,-10,-1,-100,6461.58808248688,-0.02280689844932662,0.01767733094672542,0.999583591979041,186.84707692277277,19.592728077900393,344.00050826624545,-22.508021714792292,4.851531982421875,4381.2578125,True
1599573546.0089316,0.0,10,0.5,0.5,-21.197549015808107,-0.2,-0.02275,-0.12575,0.16097856776266112,10,1,100,0.2647882568551322,-10,-1,-100,6461.181337827351,-0.022952607802437647,0.01733003169661711,0.9995863383402466,186.7677479714191,19.58536476334677,346.8943716849963,-22.699221013504882,6.3692626953125,4381.2578125,True
1599573546.1246226,0.0,10,0.5,0.5,-22.439678681182865,-0.2,-0.02275,-0.12575,0.09778347768332586,10,1,100,0.2967819881898251,-10,-1,-100,6459.774097251589,-0.023371253267298518,0.016449449095889405,0.9995915166432525,196.10100070368355,20.556410437727592,373.8167120511054,-23.272524823589745,10.4783935546875,4381.2578125,True
1599573546.2353284,0.0,10,0.5,0.5,-22.785755347442628,-0.2,-0.02275,-0.12575,0.1344788733956993,10,1,100,0.28311359858718205,-10,-1,-100,6458.834640887217,-0.023623348552393845,0.015991620979112022,0.9995930199144213,201.28532351123954,21.087443806765698,390.26825510750984,-23.654472478399448,12.8477783203125,4381.2578125,True
1599573546.334063,0.0,10,0.5,0.5,-23.247491864776613,-0.2,-0.02275,-0.12575,0.140944307416939,10,1,100,0.2857017451348356,-10,-1,-100,6457.896164917271,-0.02387230864042569,0.01564245268106836,0.999592630302113,205.7382920513906,21.537047419256954,405.6225550865116,-24.03621640619849,14.92132568359375,4381.2578125,True
1599573546.4288113,0.0,10,0.5,0.5,-23.371463359069825,-0.2,-0.02275,-0.12575,0.16027450758732287,10,1,100,0.275212013440596,-10,-1,-100,6457.364917422994,-0.02399963199301546,0.015508738912559994,0.9995916649720233,207.71625937954724,21.73434107939216,412.9170859000147,-24.227013863393616,15.847152709960938,4381.2578125,True
1599573546.5275462,0.0,10,0.5,0.5,-24.084107473373415,-0.2,-0.02275,-0.12575,0.14647309783579004,10,1,100,0.30110560377204665,-10,-1,-100,6455.893250700785,-0.024347855704549972,0.01526808273853361,0.9995869484802609,212.76791976473172,22.229323607850688,433.40130496246246,-24.79912401722588,18.181015014648438,4381.2578125,True
1599573546.6542187,0.0,10,0.5,0.5,-24.064880509948733,-0.2,-0.02275,-0.12575,0.1671199298807208,10,1,100,0.27952081126512723,-10,-1,-100,6455.424019373604,-0.02446520385411807,0.015243056530547278,0.9995844651793978,214.1865267669607,22.365374970788054,439.79831264895483,-24.98973866530841,18.811172485351562,4381.2578125,True
1599573546.7738998,0.0,10,0.5,0.5,-24.379981972122195,-0.2,-0.02275,-0.12575,0.17262718602325924,10,1,100,0.292736881002385,-10,-1,-100,6454.423547354876,-0.0246895584345311,0.015274959404892409,0.9995784618125216,216.66901721676876,22.599102851269823,451.99742323844254,-25.370845517902268,19.84979248046875,4381.2578125,True
1599573547.0073054,0.0,10,0.5,0.5,-24.687043577194217,-0.2,-0.02275,-0.12575,0.21419922183650938,10,1,100,0.32012873083345,-10,-1,-100,6452.357187696034,-0.02514021195583752,0.015685564127376872,0.9995608699928292,220.3749493096641,22.931637949932913,474.20083157167585,-26.13262194421785,21.041046142578125,4381.2578125,True
1599573547.12898,0.0,10,0.5,0.5,-24.62013675117493,-0.2,-0.02275,-0.12575,0.24045414562624579,10,1,100,0.3108784001691777,-10,-1,-100,6450.761532206438,-0.025463388253523057,0.016300031178660006,0.9995428579316772,222.17766432880805,23.077666310305013,489.04986282801036,-26.703633560635254,21.159698486328125,4381.2578125,True
1599573547.243673,0.0,10,0.5,0.5,-24.607145682144168,-0.2,-0.02275,-0.12575,0.20776434069211283,10,1,100,0.29038190802033786,-10,-1,-100,6450.228835865273,-0.025568438150243913,0.01656270963475989,0.9995358580962024,222.60412309498798,23.108090662332533,493.6581126295851,-26.893920278410558,21.051727294921875,4381.2578125,True
1599573547.3673432,0.0,10,0.5,0.5,-24.40471338157654,-0.2,-0.02275,-0.12575,0.29088000657856816,10,1,100,0.3105010844142575,-10,-1,-100,6448.570208996767,-0.025844461632345956,0.017557802759329246,0.9995117745005303,223.36103975514368,23.14528096183431,506.40252999910376,-27.464656429777104,20.28607177734375,4381.2578125,True
1599573547.485028,0.0,10,0.5,0.5,-24.237048054885868,-0.2,-0.02275,-0.12575,0.2809969624067369,10,1,100,0.30105454823355954,-10,-1,-100,6447.443794347695,-0.02600726609773688,0.01837157942222707,0.9994929250273132,223.460615171036,23.12861914637904,514.0268774582354,-27.845063128029523,19.407302856445312,4381.2578125,True
1599573547.6117234,0.0,10,0.5,0.5,-24.18337728805542,-0.2,-0.02275,-0.12575,0.24964967119513334,10,1,100,0.2931880606053736,-10,-1,-100,6446.9120835198555,-0.02608158943552208,0.018824237415262225,0.9994825655199048,223.35891235857116,23.104914631374076,517.496445815567,-28.035247152758906,18.857498168945312,4381.2578125,True
1599573547.7283776,0.0,10,0.5,0.5,-23.580544360733036,-0.2,-0.02275,-0.12575,0.3782045324204,10,1,100,0.3000230124517732,-10,-1,-100,6445.190983713837,-0.026209283595025806,0.020401532706674615,0.9994482732571276,222.39313635652397,22.967539555436982,526.3468718458748,-28.60574742536807,16.767166137695312,4381.2578125,True
1599573547.8411386,0.0,10,0.5,0.5,-23.27178078956604,-0.2,-0.02275,-0.12575,0.3534528831186702,10,1,100,0.29173001339722715,-10,-1,-100,6444.063123722095,-0.02624796951989513,0.02160597452903914,0.9994219459070994,221.14683744041903,22.816320057797356,530.7704778943789,-28.98605793706443,15.005950927734375,4381.2578125,True
1599573547.9506094,0.0,10,0.5,0.5,-22.816626408386234,-0.2,-0.02275,-0.12575,0.3809578094290468,10,1,100,0.28345092785719084,-10,-1,-100,6442.875701218378,-0.026206146752307508,0.022945204705109853,0.999393193619727,219.35911272371933,22.612346348973745,533.8127543313715,-29.366368588062286,12.95098876953125,4381.2578125,True
1599573548.0543294,0.0,10,0.5,0.5,-22.691131557083136,-0.2,-0.02275,-0.12575,0.32692709491969896,10,1,100,0.2815728395307004,-10,-1,-100,6442.281504100189,-0.026149469848897766,0.023664496416748646,0.9993779049168355,218.2427528541515,22.48892021418594,534.7513747954124,-29.556528583402503,11.813385009765625,4381.2578125,True
1599573548.1741824,0.0,10,0.5,0.5,-22.00298874473572,-0.2,-0.02275,-0.12575,0.42352283934684753,10,1,100,0.2698365026267733,-10,-1,-100,6441.093115976197,-0.025989924227203785,0.02518891425211085,0.999344806579523,215.52748032625817,22.196119587105326,535.3329165257994,-29.93686596817347,9.31787109375,4381.2578125,True
1599573548.2726703,0.0,10,0.5,0.5,-20.89152582740784,-0.2,-0.02275,-0.12575,0.548280032378557,10,1,100,0.23769416561706017,-10,-1,-100,6439.244629416615,-0.025551907223510622,0.027700265538978634,0.9992896453612992,210.15842810572573,21.63542214234036,532.6150221548523,-30.507431783394484,5.024383544921875,4381.2578125,True
1599573548.3756545,0.0,10,0.5,0.5,-20.34284619941711,-0.2,-0.02275,-0.12575,0.49767659143468246,10,1,100,0.233116932612831,-10,-1,-100,6438.051867548726,-0.025112018266505675,0.02951291703267747,0.9992489050615992,205.578422197468,21.16863774043494,527.9540081554483,-30.88785508290728,1.7952880859375,4381.2578125,True
1599573548.4759064,0.0,10,0.5,0.5,-19.557625080490116,-0.2,-0.02275,-0.12575,0.5270143193871322,10,1,100,0.2102976408074672,-10,-1,-100,6436.798078185762,-0.024505086034528542,0.031415715728882396,0.999205961533298,206.17097343868232,21.244254206803088,536.4568082737502,-31.26823347780888,-1.727264404296875,4381.2578125,True
1599573548.579141,0.0,10,0.5,0.5,-18.70742073249817,-0.2,-0.02275,-0.12575,0.5558526081942216,10,1,100,0.18690596363454492,-10,-1,-100,6435.549177935231,-0.02374189546352078,0.033395100884615364,0.9991601921797654,212.12239283420232,21.882938192641298,559.1359055270267,-31.64835291468739,-5.5433349609375,4381.2578125,True
1599573548.689846,0.0,10,0.5,0.5,-17.79180058670044,-0.2,-0.02275,-0.12575,0.5839049345939072,10,1,100,0.15948443351604938,-10,-1,-100,6434.241202919744,-0.02280085864392214,0.03543590533758576,0.9991118142920768,217.89702852928315,22.514596330382343,581.7527759623331,-32.02817536257725,-9.65301513671875,4381.2578125,True
1599573549.5655732,0.0,10,0.5,0.5,-17.538479917526246,-0.2,-0.02275,-0.12575,0.49537523002613304,10,1,100,0.1931878989848186,-10,-1,-100,6433.575743049616,-0.02225474824926819,0.0364712651006497,0.999086869597594,220.90991079131516,22.847388681980583,593.5461684619929,-32.21796340032992,-11.818023681640625,4381.2578125,True
1599573549.6403377,0.0,10,0.5,0.5,-16.263360971832274,-0.2,-0.02275,-0.12575,0.6222975693635486,10,1,100,0.11007239866940563,-10,-1,-100,6432.328810805804,-0.021006283828847897,0.03855173184978072,0.9990357851504043,227.1086494823312,23.537905100765183,617.9080833980792,-32.59726779357734,-16.368560791015625,4381.2578125,True
1599573549.7176952,0.0,10,0.5,0.5,-15.987098246002196,-0.2,-0.02275,-0.12575,0.5299826548474684,10,1,100,0.15697282675856816,-10,-1,-100,6431.670678169932,-0.020302448870813696,0.039588433528552965,0.9990097929953456,230.02037253879206,23.86664185087235,629.7306193351226,-32.78678095492948,-18.754180908203125,4381.2578125,True
1599573549.7994747,0.0,10,0.5,0.5,-15.413966436767579,-0.2,-0.02275,-0.12575,0.5434036062835018,10,1,100,0.14549115811809854,-10,-1,-100,6431.009617899428,-0.019563587101216057,0.04063776804156127,0.998982401180488,232.77386309033506,24.18038074219669,641.2136211385275,-32.97620096881023,-21.213104248046875,4381.2578125,True
1599573549.8792615,0.0,10,0.5,0.5,-13.100991513061523,-0.2,-0.02275,-0.12575,0.7739332972540804,10,1,100,-0.06445998307902465,-10,-1,-100,6428.97565781232,-0.01698923501137861,0.04367200272436971,0.9989014576382251,240.91799600337524,25.113346054162726,675.8778767625117,-33.543896305768435,-29.032135009765625,4381.2578125,True
1599573549.956056,0.0,10,0.5,0.5,-13.10009228744507,-0.2,-0.02275,-0.12575,0.5818016756525153,10,1,100,0.08720519082536186,-10,-1,-100,6428.318017987884,-0.016035871682671562,0.04466694397738837,0.9988732226539552,243.23540405397193,25.382428723492534,686.488656447195,-33.73295017282462,-31.78546142578125,4381.2578125,True
1599573550.0288618,0.0,10,0.5,0.5,-10.527557600402831,-0.2,-0.02275,-0.12575,0.7879711625333078,10,1,100,-0.1676638678181854,-10,-1,-100,6426.287970162812,-0.012860837246670032,0.04743027983501399,0.9987917537805803,248.34809375605906,25.987894993067044,713.4904440088209,-34.29967068420752,-40.488525390625,4381.2578125,True
1599573550.1046593,0.0,10,0.5,0.5,-9.515641816711428,-0.2,-0.02275,-0.12575,0.696607760366067,10,1,100,-0.108659265866314,-10,-1,-100,6424.850612990325,-0.010521985214430958,0.049095538446969324,0.9987386624797047,249.916290419857,26.1858928760263,726.4247483962478,-34.6772135025529,-46.6593017578125,4381.2578125,True
1599573550.182014,0.0,10,0.5,0.5,-9.148384337615965,-0.2,-0.02275,-0.12575,0.6185113922399075,10,1,100,-0.012076728396104741,-10,-1,-100,6424.189061530167,-0.009286491071961065,0.04988337036331083,0.998711875590136,250.05763208452834,26.212556807559135,731.0542078361718,-34.865939426045315,-49.85504150390625,4381.2578125,True
1599573550.3056836,0.0,10,0.5,0.5,-6.181004267120362,-0.2,-0.02275,-0.12575,0.7437642933982911,10,1,100,-0.31535179867793856,-10,-1,-100,6422.093541604583,-0.005419409762054999,0.051723254598262325,0.9986467518254862,247.56495689110858,25.966449203331912,736.3212132898367,-35.43210096260374,-59.88861083984375,4381.2578125,True
1599573550.4243665,0.0,10,0.5,0.5,-3.843626413726806,-0.2,-0.02275,-0.12575,0.7093857166410791,10,1,100,-0.38192175986555277,-10,-1,-100,6419.939392562606,-0.0013145011503274168,0.05306853743291569,0.9985900071708392,240.1733928129085,25.183846517767005,726.5837587790661,-35.99853322657733,-70.58642578125,4381.2578125,True
1599573550.5646265,0.0,10,0.5,0.5,-3.84539623260498,-0.2,-0.02275,-0.12575,0.6105386217081765,10,1,100,-0.12723123262123587,-10,-1,-100,6419.214824348921,8.282893347755834e-05,0.05337782344472666,0.9985743843618617,236.52519573762328,24.797062383274003,719.5876492131746,-36.18746257663943,-74.30026245117188,4381.2578125,True
1599573550.6865938,0.0,10,0.5,0.5,-0.4063383743286133,-0.2,-0.02275,-0.12575,0.6279848838014811,10,1,100,-0.4284272412966078,-10,-1,-100,6416.99469932809,0.004072102622383348,0.05380411666395309,0.9985432063812983,221.8625437983908,23.25546592510222,686.4097711713183,-36.75471686087617,-85.88668823242188,4381.2578125,True
1599573550.7916293,0.0,10,0.5,0.5,-1.7106049621582031,-0.2,-0.02275,-0.12575,0.5867771301923781,10,1,100,-0.0319373275553485,-10,-1,-100,6416.99469932809,0.004072102622383348,0.05380411666395309,0.9985432063812983,221.8625437983908,23.25546592510222,686.4097711713183,-36.75471686087617,-85.88668823242188,4381.2578125,True
1599573550.8938975,0.0,10,0.5,0.5,2.418577137374878,-0.2,-0.02275,-0.12575,0.5716070632329664,10,1,100,-0.45404561587800374,-10,-1,-100,6414.770611662767,0.007887963707386033,0.05365423755648354,0.998528418634534,205.21893241315863,21.537332015047486,645.5491760392066,-37.32263347370398,-98.1109390258789,4381.2578125,True
1599573550.997069,0.0,10,0.5,0.5,2.396188052940369,-0.2,-0.02275,-0.12575,0.5682547049726723,10,1,100,-0.2023751380362241,-10,-1,-100,6413.984479589621,0.0090463992599916,0.05347843307929753,0.9985280265750242,211.42724611274033,22.207739652268188,668.7312758641112,-37.5118351756919,-102.27872467041016,4381.2578125,True
1599573551.0940757,0.0,10,0.5,0.5,4.808399334335327,-0.2,-0.02275,-0.12575,0.5256665546972716,10,1,100,-0.34801313761878006,-10,-1,-100,6412.483975581941,0.011400702239526566,0.05292343538016851,0.9985334916646544,223.38774316940325,23.513883049504667,714.2659206829653,-37.88977797998513,-110.80040740966797,4381.2578125,True
1599573551.1929781,0.0,10,0.5,0.5,6.665940435600281,-0.2,-0.02275,-0.12575,0.5072661030739767,10,1,100,-0.33080942900197663,-10,-1,-100,6410.981011934811,0.013362524379418143,0.05224662140661658,0.9985448079549576,232.68080481056478,24.54831627257793,751.9738108866158,-38.26713710197243,-119.30135345458984,4381.2578125,True
1599573551.2850685,0.0,10,0.5,0.5,9.756464506149293,-0.2,-0.02275,-0.12575,0.425565529770765,10,1,100,-0.43170066399472073,-10,-1,-100,6408.63522294315,0.01604147890689557,0.05088573887066777,0.9985756418689902,242.05748940177835,25.611134671512215,794.6969480015518,-38.832317879233834,-131.56307983398438,4381.2578125,True
1599573551.3743532,0.0,10,0.5,0.5,10.942869830322266,-0.2,-0.02275,-0.12575,0.4516208079949039,10,1,100,-0.3255979486807825,-10,-1,-100,6407.066301387502,0.017489296547222106,0.04988452785047251,0.9986018517844931,245.00815935320512,25.954384154902815,812.7512995726407,-39.20874867562493,-139.36793518066406,4381.2578125,True
1599573551.480466,0.0,10,0.5,0.5,12.586716634750367,-0.2,-0.02275,-0.12575,0.4381839259816659,10,1,100,-0.3148965705695812,-10,-1,-100,6405.500300420914,0.018687383049863237,0.04885385411085447,0.9986311043890346,245.2405336669478,25.9938373773113,821.910277222488,-39.58509491052248,-146.87213134765625,4381.2578125,True
1599573551.5749707,0.0,10,0.5,0.5,13.001990839004517,-0.2,-0.02275,-0.12575,0.4849988518403406,10,1,100,-0.2525053509851838,-10,-1,-100,6404.721448569442,0.019191176161315025,0.04834629974930062,0.9986462507104785,244.4444547179451,25.911628833569367,823.433640651931,-39.77328248681439,-150.51104736328125,4381.2578125,True
1599573551.6641,0.0,10,0.5,0.5,16.126759183883667,-0.2,-0.02275,-0.12575,0.3650407249048321,10,1,100,-0.3304114951712836,-10,-1,-100,6402.309690482798,0.020340036348664978,0.04679893237910652,0.9986972228105526,238.95534023162267,25.32344445075935,817.2975390634813,-40.33806587776967,-160.97607421875,4381.2578125,True
1599573551.749866,0.0,10,0.5,0.5,16.06868969459534,-0.2,-0.02275,-0.12575,0.46562310380455585,10,1,100,-0.24601675345499757,-10,-1,-100,6401.523510768195,0.020602440745447533,0.04631298838191378,0.9987144970122678,236.24250986552426,25.032264264817016,812.1138195376049,-40.526430355990925,-164.313232421875,4381.2578125,True
1599573551.8346386,0.0,10,0.5,0.5,17.927927625656128,-0.2,-0.02275,-0.12575,0.4087115370396275,10,1,100,-0.258496790674111,-10,-1,-100,6399.832495667157,0.020939417500766284,0.04536065334867743,0.9987511962057967,229.76101308723477,24.340635835463072,797.8326525749924,-40.90334135046761,-170.76132202148438,4381.2578125,True
1599573551.9169075,0.0,10,0.5,0.5,19.28408020992279,-0.2,-0.02275,-0.12575,0.4116545404301014,10,1,100,-0.24416438792689074,-10,-1,-100,6398.204468598007,0.021103600477178255,0.044529188425837606,0.9987851567905062,222.1519756904506,23.53734806176195,779.1849467577847,-41.28049644188338,-176.90628051757812,4381.2578125,True
1599573551.9952192,0.0,10,0.5,0.5,-96.68541818542481,-0.2,-0.02275,-0.12575,0.40825826333470633,10,1,100,-0.21899487530329853,-10,-1,-100,6396.572537424741,0.021013082885322675,0.043750571653891866,0.9988214744525732,213.73423897725124,22.659566064697277,757.1674097671415,-41.657874740868124,177.25042724609375,4381.2578125,True
1599573552.0959172,0.0,10,0.5,0.5,-51.00069608020783,-0.2,-0.02275,-0.12575,0.4135611370474061,10,1,100,-0.20152672527289306,-10,-1,-100,6394.8820164565695,0.020763254273681375,0.0430992851347169,0.998855013949894,214.85606844100934,22.806448094397258,768.7021637043948,-42.03525452883636,171.7098846435547,4381.2578125,True
1599573552.21161,0.0,10,0.5,0.5,-50.65309479141236,-0.2,-0.02275,-0.12575,0.4189232275990328,10,1,100,-0.17913213996922567,-10,-1,-100,6393.1983362938045,0.020325822278615704,0.042564268518910715,0.998886952559772,222.47622190019965,23.656067615654404,803.7957804264165,-42.412230743117554,166.47158813476562,4381.2578125,True
1599573552.335469,0.0,10,0.5,0.5,-50.28342459487916,-0.2,-0.02275,-0.12575,0.4266426206816587,10,1,100,-0.15695967517593468,-10,-1,-100,6391.5044099647785,0.019722694109188157,0.04215563105106693,0.9989163719289827,229.63793907648116,24.46762725003359,837.7466234972961,-42.788795522807696,161.23316955566406,4381.2578125,True
1599573552.419244,0.0,10,0.5,0.5,-48.91294764480591,-0.2,-0.02275,-0.12575,0.4281612244973848,10,1,100,-0.08626570839156782,-10,-1,-100,6388.902745839441,0.01852969298661254,0.041804974202987726,0.9989539501947572,239.06683626167631,25.557313503115953,884.7288554079872,-43.35288224694026,152.9044647216797,4381.2578125,True
1599573552.5100036,0.0,10,0.5,0.5,-48.717562543106084,-0.2,-0.02275,-0.12575,0.4574400432857281,10,1,100,-0.09925556105676141,-10,-1,-100,6387.1429273783,0.017563379435830327,0.041758774402726,0.9989733392154044,245.00841066088856,26.249031225127954,915.2925192743437,-43.72844981533998,146.99591064453125,4381.2578125,True
1599573552.5987666,0.0,10,0.5,0.5,-48.118562682724004,-0.2,-0.02275,-0.12575,0.4720121399136904,10,1,100,-0.0741661457678747,-10,-1,-100,6385.397282988182,0.016458306793152515,0.04185523684942097,0.9989881196920118,249.9829609376121,26.833032444519095,942.6095029772206,-44.10366543239341,140.79843139648438,4381.2578125,True
1599573552.7124612,0.0,10,0.5,0.5,-48.53975220985413,-0.2,-0.02275,-0.12575,0.47351448158302056,10,1,100,-0.11839631466139157,-10,-1,-100,6384.486136456486,0.015859316589346032,0.04196108190298275,0.9989933681876222,251.9788107868792,27.069197213660026,954.5330894130185,-44.29116434039304,137.5914306640625,4381.2578125,True
1599573552.8022225,0.0,10,0.5,0.5,-46.355088026809696,-0.2,-0.02275,-0.12575,0.527037311766334,10,1,100,0.0382918977344065,-10,-1,-100,6381.815222601057,0.013894653676974794,0.04254783214104988,0.9989978080953401,255.63133871375908,27.508660729030805,981.7602067343638,-44.85337085516504,127.53839111328125,4381.2578125,True
1599573552.8860455,0.0,10,0.5,0.5,-47.15941482048036,-0.2,-0.02275,-0.12575,0.4988989044102407,10,1,100,-0.07972901804838171,-10,-1,-100,6380.9040954224765,0.013187918230866099,0.04282799485533518,0.9989954162404386,255.96739585134804,27.55354517176501,987.5298649099979,-45.04072355060376,124.04345703125,4381.2578125,True
1599573552.9708202,0.0,10,0.5,0.5,-45.93651420555115,-0.2,-0.02275,-0.12575,0.5485355274907868,10,1,100,0.010685867297054535,-10,-1,-100,6379.0891835585935,0.011730674033305421,0.04353547679957269,0.9989830096385816,255.13711276683281,27.472035442542268,993.2851414959738,-45.415447305171256,116.83839416503906,4381.2578125,True
1599573553.054596,0.0,10,0.5,0.5,-43.0094346031189,-0.2,-0.02275,-0.12575,0.6337156846583134,10,1,100,0.1281372164263516,-10,-1,-100,6376.366135960096,0.009346605596940302,0.04495320280936096,0.9989453691373695,249.73736519977442,26.887307853050192,985.5234399176085,-45.97780724993878,105.49325561523438,4381.2578125,True
1599573553.1328979,0.0,10,0.5,0.5,-41.70521027870178,-0.2,-0.02275,-0.12575,0.6247772431963906,10,1,100,0.0712129268409329,-10,-1,-100,6374.4922182301525,0.007707142968000128,0.04615910069799223,0.9989043684807989,243.1141419410863,26.172805996474704,968.078406885779,-46.35305056778846,97.57235717773438,4381.2578125,True
1599573553.2096956,0.0,10,0.5,0.5,-39.87143495674133,-0.2,-0.02275,-0.12575,0.6636071382932798,10,1,100,0.09633936050439365,-10,-1,-100,6372.608086151537,0.0059997717986690685,0.04760510252292048,0.9988482151719279,233.92584151108434,25.193293962192236,939.9175234750122,-46.7286455453403,89.36642456054688,4381.2578125,True
1599573553.2911973,0.0,10,0.5,0.5,-39.36851392135621,-0.2,-0.02275,-0.12575,0.6095657227707385,10,1,100,0.022048609913286235,-10,-1,-100,6371.683370964252,0.005135462034024099,0.04842340997585774,0.998813696540054,228.3568391167557,24.605214284787742,921.6717906031694,-46.916583542003,85.15669250488281,4381.2578125,True
1599573553.3709846,0.0,10,0.5,0.5,-35.49072986068726,-0.2,-0.02275,-0.12575,0.8383700065303212,10,1,100,0.2173780165962016,-10,-1,-100,6368.786254018312,0.002586180579004522,0.05124134802563976,0.998682950651771,237.70984153363213,25.6855214770981,972.340034572723,-47.48007585061833,72.10057067871094,4381.2578125,True
1599573553.4468145,0.0,10,0.5,0.5,-32.50071832466125,-0.2,-0.02275,-0.12575,0.9281913003952229,10,1,100,0.2320891356601433,-10,-1,-100,6365.894145171274,0.0001485301728207324,0.05461104658455623,0.9985076922736885,255.56170869961235,27.7258511953955,1059.195010324647,-48.04200238681939,58.404693603515625,4381.2578125,True
1599573553.5225782,0.0,10,0.5,0.5,-30.946317042922978,-0.2,-0.02275,-0.12575,0.8866066221250518,10,1,100,0.15498100477734564,-10,-1,-100,6363.950689252582,-0.0013517055733024321,0.0572847701904468,0.9983569642148398,264.7369773345765,28.795595151205593,1106.7235052722674,-48.41585723062883,48.92131042480469,4381.2578125,True
1599573553.5995739,0.0,10,0.5,0.5,-31.937127954101562,-0.2,-0.02275,-0.12575,0.6207666303647412,10,1,100,0.006678532381294048,-10,-1,-100,6363.950689252582,-0.0013517055733024321,0.0572847701904468,0.9983569642148398,264.7369773345765,28.795595151205593,1106.7235052722674,-48.41585723062883,48.92131042480469,4381.2578125,True
1599573553.6783633,0.0,10,0.5,0.5,-26.95167219734192,-0.2,-0.02275,-0.12575,1.1147824128277382,10,1,100,0.21359332377914342,-10,-1,-100,6361.037838907563,-0.003218888804873538,0.061762425541883686,0.9980856884787224,273.6943095175116,29.85330274909698,1158.8772022896067,-48.97585900016866,34.16581726074219,4381.2578125,True
1599573553.7522826,0.0,10,0.5,0.5,-25.28303715667725,-0.2,-0.02275,-0.12575,1.0232665885701386,10,1,100,0.1378362253385275,-10,-1,-100,6359.032059085788,-0.004212711932263726,0.06498384615840581,0.9978774237333142,274.8721707490934,30.011165386452923,1173.762526456075,-49.34903113775164,23.9749755859375,4381.2578125,True
1599573553.826598,0.0,10,0.5,0.5,-24.658870188522343,-0.2,-0.02275,-0.12575,0.8867501436075504,10,1,100,0.08606757215160982,-10,-1,-100,6358.061172014452,-0.004631069395495947,0.06665185324707619,0.9977655454338883,273.8843740297839,29.911985871694927,1174.509696391837,-49.53566622786168,18.7734375,4381.2578125,True
1599573553.8994038,0.0,10,0.5,0.5,-19.895057081985474,-0.2,-0.02275,-0.12575,1.309817039687112,10,1,100,0.11163930505403341,-10,-1,-100,6355.0856071802555,-0.005231157683917783,0.07199455997346553,0.9973913065209224,264.2384040118266,28.881585666482483,1147.6919347437597,-50.09609604659463,2.746978759765625,4381.2578125,True
1599573553.9732058,0.0,10,0.5,0.5,-18.098652099990844,-0.2,-0.02275,-0.12575,1.1733220587796427,10,1,100,0.05489950758520522,-10,-1,-100,6353.018456615973,-0.005249114059446543,0.07558721584441024,0.9971253780756367,252.11489459929385,27.591942017138084,1104.416880531411,-50.47032107787144,-8.29217529296875,4381.2578125,True
1599573554.0622027,0.0,10,0.5,0.5,-15.576195734786989,-0.2,-0.02275,-0.12575,1.2120766013067907,10,1,100,0.014815924122904278,-10,-1,-100,6351.014323235606,-0.004890815564035303,0.0791801423743145,0.9968483259637355,243.68602740483317,26.73846852416115,1076.5956376047918,-50.84490123390064,-19.615142822265625,4381.2578125,True
1599573554.1330364,0.0,10,0.5,0.5,-14.882695697784426,-0.2,-0.02275,-0.12575,1.0500947142824943,10,1,100,0.015923340974137883,-10,-1,-100,6349.98101247719,-0.004566042287219881,0.08094591594455346,0.9967080364628994,252.3938586284639,27.742956507696892,1119.76556090088,-51.031922237922345,-25.383392333984375,4381.2578125,True
1599573554.2049146,0.0,10,0.5,0.5,-9.609552929306032,-0.2,-0.02275,-0.12575,1.4299373793016597,10,1,100,-0.10947607256918154,-10,-1,-100,6346.94259322132,-0.0031242971643882077,0.085977275628655,0.9962921995291858,272.21171708448253,30.10015769915473,1222.7513038115285,-51.59161396315397,-43.11700439453125,4381.2578125,True
1599573554.2807117,0.0,10,0.5,0.5,-9.636457269668579,-0.2,-0.02275,-0.12575,1.102357187211476,10,1,100,-0.03431558073938419,-10,-1,-100,6345.846767962677,-0.0024939216808692,0.08754472247788736,0.9961574684360496,276.3645344318448,30.616146204720433,1246.4553739063347,-51.777814595297876,-49.171142578125,4381.2578125,True
1599573554.9868305,0.0,10,0.5,0.5,-6.160388201904296,-0.2,-0.02275,-0.12575,1.2698620271505499,10,1,100,-0.1304763966287779,-10,-1,-100,6343.780084041762,-0.001045625445850553,0.09046493638364705,0.9958990922540946,282.35829891165,31.376342695992385,1283.775520477965,-52.14987330334087,-61.494140625,4381.2578125,True
1599573555.052692,0.0,10,0.5,0.5,-1.2625615200042728,-0.2,-0.02275,-0.12575,1.3910842932557093,10,1,100,-0.2528242238544039,-10,-1,-100,6340.617930220207,0.001382982215192588,0.09419153311148168,0.9955531339161668,279.7094979466544,31.172587892124994,1287.1078271520141,-52.707903470373125,-80.515625,4381.2578125,True
1599573555.1205091,0.0,10,0.5,0.5,-1.2815961524963377,-0.2,-0.02275,-0.12575,1.138171069260883,10,1,100,-0.10469474354143893,-10,-1,-100,6339.583047553431,0.00223999220327752,0.09525065618449692,0.995450799854695,275.5392129687506,30.73058449026465,1273.0272190190076,-52.894096335382734,-86.99917602539062,4381.2578125,True
1599573555.1902118,0.0,10,0.5,0.5,2.4494282585144047,-0.2,-0.02275,-0.12575,1.237262068120669,10,1,100,-0.20099218263604515,-10,-1,-100,6337.454624777543,0.003888657362273386,0.09708680732230329,0.9952683206994386,262.2342087152743,29.29860388451123,1221.3764846927138,-53.266961138078734,-100.18064880371094,4381.2578125,True
1599573555.2630167,0.0,10,0.5,0.5,5.4491982151031495,-0.2,-0.02275,-0.12575,1.2221045305989406,10,1,100,-0.2018107489430057,-10,-1,-100,6335.324166801991,0.005387140176189479,0.09859057169367953,0.9951135000058212,242.8776593021289,27.21433099087461,1140.3713154246611,-53.64053495989837,-113.64717102050781,4381.2578125,True
1599573555.3318324,0.0,10,0.5,0.5,10.745540762329101,-0.2,-0.02275,-0.12575,1.257523378429956,10,1,100,-0.262207289771405,-10,-1,-100,6332.098550526658,0.007288803743771278,0.10025544154637606,0.9949350329445263,267.83186970592584,30.19976206219225,1272.513849687044,-54.19957982841487,-134.29171752929688,4381.2578125,True
1599573555.4027567,0.0,10,0.5,0.5,12.869869076538086,-0.2,-0.02275,-0.12575,1.1872935796320638,10,1,100,-0.1690544838883945,-10,-1,-100,6329.905907675624,0.008159347008269893,0.10110808121820845,0.9948419879401807,278.73726194078944,31.55230611090606,1334.5779421916186,-54.571121253937456,-147.90255737304688,4381.2578125,True
1599573555.481547,0.0,10,0.5,0.5,13.631903463745118,-0.2,-0.02275,-0.12575,1.1451919928115837,10,1,100,-0.11699416171493321,-10,-1,-100,6328.809325993876,0.00846561053571689,0.10148053200437546,0.9948015053579113,282.3641473856992,32.01350318501912,1357.1240400008542,-54.756705977021845,-154.60015869140625,4381.2578125,True
1599573555.5912519,0.0,10,0.5,0.5,17.37200065841675,-0.2,-0.02275,-0.12575,1.1897253314352851,10,1,100,-0.12302441731502678,-10,-1,-100,6326.616635148181,0.008787005472648704,0.10220530432832473,0.9947245167894367,284.33264288582774,32.31471171978331,1377.074829580807,-55.12780698859602,-167.76470947265625,4381.2578125,True
1599573555.7299142,0.0,10,0.5,0.5,-95.02765188674927,-0.2,-0.02275,-0.12575,1.2375838001119273,10,1,100,-0.06593390180705752,-10,-1,-100,6323.264850133681,0.008549349544662417,0.10328451249379383,0.9946151105333573,274.2990605928406,31.26485239540587,1343.938465543959,-55.685071846828194,173.07269287109375,4381.2578125,True
1599573555.8481169,0.0,10,0.5,0.5,-46.661112157440186,-0.2,-0.02275,-0.12575,1.2834223785623136,10,1,100,0.02855154954159697,-10,-1,-100,6319.910688584205,0.007464300714936633,0.10466801627557298,0.9944792057070744,251.2058104264455,28.761856915327684,1245.18994944218,-56.243695408490325,154.6173095703125,4381.2578125,True
1599573555.9408834,0.0,10,0.5,0.5,-45.56499738845826,-0.2,-0.02275,-0.12575,1.2783133901431274,10,1,100,0.044510167676800966,-10,-1,-100,6317.655129139894,0.006325078044719713,0.10586638974620513,0.9943602470482379,265.07347829249613,30.486851024263963,1324.012499024817,-56.61578406656959,142.61874389648438,4381.2578125,True
1599573556.0762782,0.0,10,0.5,0.5,-47.581447711181646,-0.2,-0.02275,-0.12575,1.1596435287433848,10,1,100,-0.06990630892784372,-10,-1,-100,6317.655129139894,0.006325078044719713,0.10586638974620513,0.9943602470482379,265.07347829249613,30.486851024263963,1324.012499024817,-56.61578406656959,142.61874389648438,4381.2578125,True
1599573556.1919646,0.0,10,0.5,0.5,-40.099050101470944,-0.2,-0.02275,-0.12575,1.5242760164621183,10,1,100,0.27048112350093223,-10,-1,-100,6313.080820828909,0.0032269331264204383,0.10917157987677388,0.9940176824633488,290.17736857728255,33.68229264272246,1471.14688946379,-57.357070972815904,118.04536437988281,4381.2578125,True
1599573556.34954,0.0,10,0.5,0.5,-41.6306768409729,-0.2,-0.02275,-0.12575,1.3118454122086105,10,1,100,0.05635402425810201,-10,-1,-100,6311.92096145649,0.0023576493067521483,0.1102341247090277,0.9939028520129023,293.83889275806877,34.16949234152832,1495.189952227962,-57.54201968018331,111.73703002929688,4381.2578125,True
1599573556.5385554,0.0,10,0.5,0.5,-38.76032805900574,-0.2,-0.02275,-0.12575,1.4700277809017708,10,1,100,0.17807435475088246,-10,-1,-100,6309.602813718724,0.00046359691245518697,0.11262751104190959,0.9936371716247371,296.23230237601496,34.54909822977318,1518.497064781385,-57.91184804482551,98.91624450683594,4381.2578125,True
1599573556.6552424,0.0,10,0.5,0.5,-34.472996896362304,-0.2,-0.02275,-0.12575,1.7133872094088969,10,1,100,0.306725516292597,-10,-1,-100,6306.125152518158,-0.002421620181074622,0.11700442790414378,0.9931284406392371,286.54716785790004,33.546017679126216,1485.3634182452631,-58.46723984222916,79.17689514160156,4381.2578125,True
1599573557.002316,0.0,10,0.5,0.5,-33.07484203453064,-0.2,-0.02275,-0.12575,1.654265576293653,10,1,100,0.2245052477709848,-10,-1,-100,6303.743446210981,-0.004287468763914934,0.12043152261723089,0.9927123782706118,270.9408556189107,31.830216562345125,1415.0853671746072,-58.83835672350654,65.67886352539062,4381.2578125,True
1599573557.2167401,0.0,10,0.5,0.5,-28.512878676986695,-0.2,-0.02275,-0.12575,1.9654648548901736,10,1,100,0.3166060595167817,-10,-1,-100,6300.204430577112,-0.006809381146640979,0.12635891944308494,0.9919612168858093,283.7918448093961,33.610198132371124,1498.806640510248,-59.39477838813918,44.92529296875,4381.2578125,True
