Timestamp,Input Throttle,horizon,dT,dt,Input Roll,Roll P,Roll I,Roll D,Input Pitch,Pitch P,Pitch I,Pitch D,Input Yaw,Yaw P,Yaw I,Yaw D,Altitude,Direction X,Direction Y,Direction Z,Drag X,Drag Y,Drag Z,Vertical Velocity,Roll,Mass,Has Fuel
1599568173.4834397,0.0,10,0.5,0.5,-5.432968811035157,-0.1005,-0.001,-0.12575,-0.06718263454673021,10,1,100,0.6903860135331523,-10,-1,-100,6483.617967378115,-0.06725881735133778,-0.007002039889191594,0.9977109916834079,205.07326112355386,21.498780753895492,-156.76526894904623,9.590824034856638,-35.944580078125,4381.2578125,True
1599568173.5382936,0.0,10,0.5,0.5,-5.438348092651368,-0.1005,-0.001,-0.12575,-0.06905491003904646,10,1,100,0.6894912624827367,-10,-1,-100,6483.776675455039,-0.06735133741710346,-0.006986897226993516,0.9977048564657119,204.8426686461816,21.477779134499528,-153.51318595770292,9.400810067873609,-35.94293212890625,4381.2578125,True
1599568173.5961719,0.0,10,0.5,0.5,-5.435026290893555,-0.1005,-0.001,-0.12575,-0.05042591941617498,10,1,100,0.7100089337923824,-10,-1,-100,6484.316760664573,-0.06756074236387168,-0.006797424985490073,0.9976920071368766,204.14934667749225,21.414342373414353,-143.78926718256048,8.83079800859313,-35.9805908203125,4381.2578125,True
1599568173.6529865,0.0,10,0.5,0.5,-5.421771020507813,-0.1005,-0.001,-0.12575,-0.05281263436966523,10,1,100,0.6980497516845696,-10,-1,-100,6484.538936174358,-0.06758097180325914,-0.006640695424622773,0.9976916925655963,203.94220631446726,21.395583051939905,-140.5756838861717,8.640800887691206,-36.083984375,4381.2578125,True
1599568173.709835,0.0,10,0.5,0.5,-5.3458474975585935,-0.1005,-0.001,-0.12575,-0.027433820235315487,10,1,100,0.7036800403112484,-10,-1,-100,6484.856804945623,-0.06758910939766914,-0.006261460517681482,0.9976935934459114,203.59182075042796,21.36438794921236,-134.20532342356867,8.26081116241297,-36.5008544921875,4381.2578125,True
1599568173.7696748,0.0,10,0.5,0.5,-5.243604676818848,-0.1005,-0.001,-0.12575,-0.0019505766097955013,10,1,100,0.6968045152477282,-10,-1,-100,6485.1756239586975,-0.06747255779255744,-0.00567934342339587,0.9977049659108694,203.31738560219395,21.340414860400372,-127.89852716150365,7.8808204833383355,-37.208099365234375,4381.2578125,True
1599568173.828518,0.0,10,0.5,0.5,-5.111452531433106,-0.1005,-0.001,-0.12575,0.027024171774082076,10,1,100,0.6885832149688433,-10,-1,-100,6485.493928660289,-0.0672305240055637,-0.004881576221988795,0.9977255268136254,203.08639160931764,21.319995836772623,-121.62903401322723,7.50082112374475,-38.2086181640625,4381.2578125,True
1599568173.8843694,0.0,10,0.5,0.5,-4.949629640197754,-0.1005,-0.001,-0.12575,0.05798967376550019,10,1,100,0.6761740933175873,-10,-1,-100,6485.750195284141,-0.06683656443509838,-0.0038703909514949354,0.9977564300611627,202.84959527695366,21.29775474628366,-115.36498106355275,7.120805109272682,-39.502838134765625,4381.2578125,True
1599568174.4190755,0.0,10,0.5,0.5,-4.553494145202637,-0.1005,-0.001,-0.12575,0.16443267634039294,10,1,100,0.6244888801029054,-10,-1,-100,6486.165063100983,-0.06594779328323724,-0.001979949417681952,0.9978211104007446,202.33767976538553,21.24531516519085,-105.90405525183075,6.550730669482881,-41.995361328125,4381.2578125,True
1599568174.4729047,0.0,10,0.5,0.5,-4.650492141723633,-0.1005,-0.001,-0.12575,0.05503903661586831,10,1,100,0.6780209415361198,-10,-1,-100,6486.26118534524,-0.06556652207340795,-0.0012540538849679344,0.9978474124494441,202.08416054763273,21.21836699199392,-102.71605383902971,6.360687623484794,-42.97320556640625,4381.2578125,True
1599568174.526793,0.0,10,0.5,0.5,-4.0145442703247065,-0.1005,-0.001,-0.12575,0.246372459918401,10,1,100,0.5651188040881447,-10,-1,-100,6486.67500192218,-0.06413392288578754,0.0011463859510541675,0.9979406423903833,200.89528198609005,21.090177443514758,-92.99214162075859,5.790481167284165,-46.348297119140625,4381.2578125,True
1599568174.584607,0.0,10,0.5,0.5,-3.845617279052735,-0.1005,-0.001,-0.12575,0.2042564913089134,10,1,100,0.5760091462944945,-10,-1,-100,6486.869143863325,-0.06293340391206811,0.0029383238820423316,0.9980134031789376,199.5961568031581,20.94964502153466,-86.3439280777921,5.410257342127462,-48.966217041015625,4381.2578125,True
1599568174.6400049,0.0,10,0.5,0.5,-3.514494828796387,-0.1005,-0.001,-0.12575,0.23348338596753052,10,1,100,0.5398417030707081,-10,-1,-100,6487.061800161144,-0.061517244391656976,0.004824034478828967,0.998094362940601,197.73905043640525,20.749149262175823,-79.54472515566339,5.029942108468941,-51.8790283203125,4381.2578125,True
1599568174.6958566,0.0,10,0.5,0.5,-3.5246189743041993,-0.1005,-0.001,-0.12575,0.1517474470195428,10,1,100,0.5937768612438482,-10,-1,-100,6487.157876671758,-0.06072564035465014,0.005784697885958458,0.9981377329175999,196.5567784387949,20.621815225326436,-76.0871449088858,4.839743399987795,-53.446197509765625,4381.2578125,True
1599568174.7552085,0.0,10,0.5,0.5,-2.556183602905274,-0.1005,-0.001,-0.12575,0.38851442148552673,10,1,100,0.3753616095844975,-10,-1,-100,6487.448522580555,-0.05802663924360311,0.008799159484575502,0.9982762563190901,191.74843429396682,20.106289225567746,-65.49055817897296,4.268938743400627,-58.589935302734375,4381.2578125,True
1599568174.8120563,0.0,10,0.5,0.5,-2.3414460464477536,-0.1005,-0.001,-0.12575,0.3152598964747303,10,1,100,0.41498752870983774,-10,-1,-100,6487.578629958327,-0.055941930653021686,0.010859937419581705,0.9983749607006656,187.29173955968307,19.63119947973794,-58.27322671609724,3.8881865490276653,-62.38818359375,4381.2578125,True
1599568174.8689122,0.0,10,0.5,0.5,-1.8901811126708985,-0.1005,-0.001,-0.12575,0.3328022264127648,10,1,100,0.3698167889312953,-10,-1,-100,6487.770740119624,-0.05364658032463322,0.012877811922803132,0.9984769433389804,181.66186567009316,19.033788910381638,-50.99188752421361,3.507225452254448,-66.482666015625,4381.2578125,True
1599568174.925798,0.0,10,0.5,0.5,-1.408835252380371,-0.1005,-0.001,-0.12575,0.34936710049056885,10,1,100,0.3234913136472637,-10,-1,-100,6487.839798638364,-0.051151106563226086,0.014846688155398292,0.998580562672924,174.75658939212343,18.304340955132766,-43.72812386420358,3.126004097108837,-70.87338256835938,4381.2578125,True
1599568174.983617,0.0,10,0.5,0.5,-1.4360085998535157,-0.1005,-0.001,-0.12575,0.261175325505648,10,1,100,0.4253953712784561,-10,-1,-100,6487.9348743228475,-0.04982315408393214,0.01581781670416107,0.998632790364828,170.75916775975094,17.88339538094923,-40.12361273306899,2.935273453151482,-73.17977905273438,4381.2578125,True
1599568175.0404341,0.0,10,0.5,0.5,-0.6288646072387696,-0.1005,-0.001,-0.12575,0.3690269782140512,10,1,100,0.2507597249771089,-10,-1,-100,6488.003932016552,-0.04704298653565204,0.017664950622092862,0.9987366554489353,161.6868034154553,16.93012128380461,-33.0556694564521,2.5535775623514927,-78.015380859375,4381.2578125,True
1599568175.0972805,0.0,10,0.5,0.5,0.5336505813598632,-0.1005,-0.001,-0.12575,0.46777076149322183,10,1,100,0.03284794423359316,-10,-1,-100,6488.167097889702,-0.04255138488094522,0.020224634936835077,0.9988895553495317,145.35212660083167,15.217687567065836,-23.052346311101612,1.9806093638537368,-85.82571411132812,4381.2578125,True
1599568175.1575546,0.0,10,0.5,0.5,0.8138920433044433,-0.1005,-0.001,-0.12575,0.3819604799779538,10,1,100,0.1307332320085528,-10,-1,-100,6488.234705953393,-0.039377597390988506,0.021754183346474852,0.9989875676556947,152.05308769802127,15.919194562007483,-19.464913181711136,1.5985083406753473,-91.38789367675781,4381.2578125,True
1599568175.2163649,0.0,10,0.5,0.5,1.4128611206054686,-0.1005,-0.001,-0.12575,0.37932023061772435,10,1,100,0.09100965246396248,-10,-1,-100,6488.301352237002,-0.036152626955641656,0.023103574306995805,0.9990791822565653,160.1741362003084,16.768492674614773,-15.605399672444497,1.2164394126488967,-97.10798645019531,4381.2578125,True
1599568175.2747188,0.0,10,0.5,0.5,1.33925750579834,-0.1005,-0.001,-0.12575,0.3133702221578924,10,1,100,0.23193846313700844,-10,-1,-100,6488.273403481464,-0.03452506540002313,0.023714130067081684,0.9991224448956624,164.39551209231868,17.209444687416468,-13.502615609150729,1.0254397216304887,-99.94190979003906,4381.2578125,True
1599568175.3335617,0.0,10,0.5,0.5,2.236828841400147,-0.1005,-0.001,-0.12575,0.3764268808198576,10,1,100,0.024520189672915027,-10,-1,-100,6488.341053972254,-0.031183662022473288,0.024826123625740236,0.9992053056347268,171.51125975282466,17.95219528882174,-8.841279463255495,0.6435041448608274,-105.463623046875,4381.2578125,True
1599568175.3924034,0.0,10,0.5,0.5,3.3097088905334475,-0.1005,-0.001,-0.12575,0.4117127361881367,10,1,100,-0.19579973000649925,-10,-1,-100,6488.31829952402,-0.02616751693417978,0.026143237396831307,0.999315661938665,180.65708282801057,18.90804233659142,-1.0221170170798857,0.070613926834584,-113.25389099121094,4381.2578125,True
1599568175.4522452,0.0,10,0.5,0.5,2.889891900634766,-0.1005,-0.001,-0.12575,0.31998311950547415,10,1,100,0.11683881585613992,-10,-1,-100,6488.350437232293,-0.024476621283317714,0.026492814037092395,0.9993493012030124,182.9766930706903,19.15046793686161,1.7651257089629224,-0.1203914591971249,-115.70570373535156,4381.2578125,True
1599568175.5160737,0.0,10,0.5,0.5,3.6459995796203617,-0.1005,-0.001,-0.12575,0.3512818627076826,10,1,100,-0.0774717943343603,-10,-1,-100,6488.355159193277,-0.021199501470839755,0.027082767737245925,0.9994083774058922,186.5078911794754,19.51937194672504,7.510672621952509,-0.5025027377278559,-120.38858032226562,4381.2578125,True
1599568175.5769107,0.0,10,0.5,0.5,4.526170888900757,-0.1005,-0.001,-0.12575,0.36347072631555366,10,1,100,-0.28129433841967577,-10,-1,-100,6488.268537122174,-0.016394598154259095,0.027718773425109918,0.9994813088553322,190.51355815915875,19.937804739738095,16.42977880116953,-1.0758975407226479,-126.85970306396484,4381.2578125,True
1599568175.6347566,0.0,10,0.5,0.5,4.610416971206665,-0.1005,-0.001,-0.12575,0.3288275877982135,10,1,100,-0.14776982533474176,-10,-1,-100,6488.211303727701,-0.013270753036257597,0.027971203739627776,0.9995206345419824,191.77656979667844,20.069403777382973,22.420387940214653,-1.4583084355302778,-130.80499267578125,4381.2578125,True
1599568175.692604,0.0,10,0.5,0.5,4.54080136871338,-0.1005,-0.001,-0.12575,0.31493025192352225,10,1,100,-0.004754837651814614,-10,-1,-100,6488.181963031529,-0.011761732120191387,0.02806497710567633,0.9995369021289764,192.05539829963774,20.09825090434148,25.399416642342548,-1.64955485895769,-132.66676330566406,4381.2578125,True
1599568175.74945,0.0,10,0.5,0.5,5.1034948348999025,-0.1005,-0.001,-0.12575,0.32444861826849736,10,1,100,-0.17454720988069017,-10,-1,-100,6488.12427481974,-0.008874318496923921,0.028229628639612207,0.9995620713783034,192.04924812436957,20.09671583455081,31.293807935642125,-2.032120939559692,-136.16787719726562,4381.2578125,True
1599568175.8112843,0.0,10,0.5,0.5,5.393029302215576,-0.1005,-0.001,-0.12575,0.3147191165924732,10,1,100,-0.19858846504329727,-10,-1,-100,6488.003131441539,-0.006058570409651674,0.028284975068596296,0.9995815394003433,191.4325443257008,20.030894041356117,37.07277726683992,-2.4147695023558544,-139.37371826171875,4381.2578125,True
1599568175.8671355,0.0,10,0.5,0.5,6.243868141937256,-0.1005,-0.001,-0.12575,0.30279628366537403,10,1,100,-0.4949096723951778,-10,-1,-100,6487.761379920295,-0.0008323284967016171,0.028222190249461293,0.9996013281337701,189.0145728552853,19.773652133050902,48.22346220518134,-3.1802399741089498,-144.8974609375,4381.2578125,True
1599568175.9269755,0.0,10,0.5,0.5,5.55375305557251,-0.1005,-0.001,-0.12575,0.3095255715971123,10,1,100,0.024345245209495756,-10,-1,-100,6487.761379920295,-0.0008323284967016171,0.028222190249461293,0.9996013281337701,189.0145728552853,19.773652133050902,48.22346220518134,-3.1802399741089498,-144.8974609375,4381.2578125,True
1599568175.9869652,0.0,10,0.5,0.5,6.318790723419189,-0.1005,-0.001,-0.12575,0.30307053152738,10,1,100,-0.3661412946597866,-10,-1,-100,6487.549466068274,0.0026899570170866123,0.02816042073371489,0.9995997973365873,186.7445856865686,19.530967345173668,56.26074077079751,-3.754443230031771,-148.26141357421875,4381.2578125,True
1599568176.0468056,0.0,10,0.5,0.5,6.1192861236572265,-0.1005,-0.001,-0.12575,0.31060680122734186,10,1,100,-0.13593653471522174,-10,-1,-100,6487.518713932484,0.0037730301447150795,0.02817094436818428,0.9995959994602479,186.00351974382465,19.451267547562868,58.89951528946782,-3.9458595908555805,-149.2338409423828,4381.2578125,True
1599568176.1056478,0.0,10,0.5,0.5,6.390721681976319,-0.1005,-0.001,-0.12575,0.29132304096321243,10,1,100,-0.2680799451870859,-10,-1,-100,6487.3366075005615,0.0059332643091869666,0.02800367882409065,0.999590211210051,184.64073002484844,19.303680063557184,64.15212112375681,-4.328716106367024,-150.95921325683594,4381.2578125,True
1599568176.1664865,0.0,10,0.5,0.5,6.635648149108887,-0.1005,-0.001,-0.12575,0.30692918649790324,10,1,100,-0.3675899956044575,-10,-1,-100,6487.059315668419,0.008777084220882945,0.027992656096969225,0.9995695943741068,182.8384104104795,19.105960708737943,71.97421395866047,-4.903068031401384,-152.98721313476562,4381.2578125,True
1599568176.2273226,0.0,10,0.5,0.5,6.5027447677612304,-0.1005,-0.001,-0.12575,0.30419068825974704,10,1,100,-0.18407009732074756,-10,-1,-100,6486.9050395109225,0.009671128990413615,0.02795749101317391,0.9995623282018481,182.35075875871195,19.051466340151524,74.592359200085,-5.09453935005387,-153.51541137695312,4381.2578125,True
1599568176.2861652,0.0,10,0.5,0.5,6.6269731384277355,-0.1005,-0.001,-0.12575,0.30906250115799794,10,1,100,-0.27901904657888404,-10,-1,-100,6486.721003229497,0.0113262129723094,0.027969824429459045,0.9995445992156083,181.56491315190988,18.96169122393381,79.86935836197202,-5.4775173893569,-154.3480224609375,4381.2578125,True
1599568176.346007,0.0,10,0.5,0.5,6.681016081237793,-0.1005,-0.001,-0.12575,0.31547657439162363,10,1,100,-0.35759534567391194,-10,-1,-100,6486.380749089876,0.01352417572481264,0.028039432885184144,0.9995153259827694,180.97733198754338,18.887381189010522,87.98799716822661,-6.052081016722747,-155.04006958007812,4381.2578125,True
1599568176.4048483,0.0,10,0.5,0.5,6.616274569702148,-0.1005,-0.001,-0.12575,0.31730400096201294,10,1,100,-0.2812597672140543,-10,-1,-100,6486.1351987273665,0.014808001609978937,0.028119499173532708,0.9994948808545988,181.02910793319177,18.883227975353254,93.60425658746483,-6.435190485587343,-155.13021850585938,4381.2578125,True
1599568176.4633775,0.0,10,0.5,0.5,6.559579959869385,-0.1005,-0.001,-0.12575,0.3255791605403703,10,1,100,-0.27773211310254653,-10,-1,-100,6485.825684537878,0.01592407685728038,0.028267665864466527,0.99947354284284,181.44538798197706,18.91637525733663,99.4274846344235,-6.8183516024415205,-154.9227752685547,4381.2578125,True
1599568176.523219,0.0,10,0.5,0.5,6.472531954193116,-0.1005,-0.001,-0.12575,0.33080592414193344,10,1,100,-0.2738051393677168,-10,-1,-100,6485.578182349214,0.01688775786146144,0.02844983754749784,0.9994525553411396,182.2320547362421,18.987415735823486,105.49506677273219,-7.201559131271452,-154.41830444335938,4381.2578125,True
1599568176.5830595,0.0,10,0.5,0.5,6.355589133453369,-0.1005,-0.001,-0.12575,0.33685019659524973,10,1,100,-0.26776625014131994,-10,-1,-100,6485.2676900596125,0.017692823339242283,0.02867018914774006,0.9994323310042152,183.37675593757902,19.09505264274872,111.83400082847437,-7.584804687574845,-153.61683654785156,4381.2578125,True
1599568176.6448922,0.0,10,0.5,0.5,6.341029327392578,-0.1005,-0.001,-0.12575,0.3289358762453963,10,1,100,-0.2262038334598619,-10,-1,-100,6485.112443295657,0.01803322192528238,0.02879809699167611,0.9994225695453609,184.07295185571326,19.161513738493316,115.10914175254244,-7.776438253353736,-153.1046600341797,4381.2578125,True
1599568176.700743,0.0,10,0.5,0.5,5.957444653320312,-0.1005,-0.001,-0.12575,0.3635579729690512,10,1,100,-0.2790225700188918,-10,-1,-100,6484.58565965225,0.018809881706964043,0.029228553044902576,0.9993957574640145,186.59789818162236,19.40541624918211,125.36381345086888,-8.351362047597423,-151.1228790283203,4381.2578125,True
1599568176.7572892,0.0,10,0.5,0.5,5.823868486785889,-0.1005,-0.001,-0.12575,0.35502998277207276,10,1,100,-0.2377028010768456,-10,-1,-100,6484.27368910017,0.0191285957750217,0.029541236024026092,0.9993805142176069,188.57082884795275,19.59760010099047,132.53989973051185,-8.734645631869554,-149.43093872070312,4381.2578125,True
1599568176.8151348,0.0,10,0.5,0.5,5.586398101806641,-0.1005,-0.001,-0.12575,0.3604173867263781,10,1,100,-0.22302733568043667,-10,-1,-100,6483.901164900628,0.019275512050057547,0.02987306187742565,0.9993678275836557,190.68915684874221,19.80476410818602,139.94963299127053,-9.117913178689262,-147.44253540039062,4381.2578125,True
1599568176.8749776,0.0,10,0.5,0.5,5.035392372894288,-0.1005,-0.001,-0.12575,0.38252554030379243,10,1,100,-0.19937550262013234,-10,-1,-100,6483.310870003654,0.0191853243785786,0.03037396353043424,0.9993544644759138,193.9304925929854,20.12275882160436,151.36924414964832,-9.692755305250955,-143.90467834472656,4381.2578125,True
1599568176.9338174,0.0,10,0.5,0.5,5.479233563232422,-0.1005,-0.001,-0.12575,0.332675788913031,10,1,100,-0.20918018090865398,-10,-1,-100,6483.310870003654,0.0191853243785786,0.03037396353043424,0.9993544644759138,193.9304925929854,20.12275882160436,151.36924414964832,-9.692755305250955,-143.90467834472656,4381.2578125,True
1599568176.9931712,0.0,10,0.5,0.5,4.860838243865967,-0.1005,-0.001,-0.12575,0.3680526178020567,10,1,100,-0.180407695363645,-10,-1,-100,6482.937347841333,0.018918609829393276,0.030693448765202427,0.9993497878145674,195.98244815130738,20.324712136516627,159.06741927110545,-10.075923272293046,-141.17636108398438,4381.2578125,True
1599568177.0510173,0.0,10,0.5,0.5,4.151296186828613,-0.1005,-0.001,-0.12575,0.38317420909225486,10,1,100,-0.1301075860427945,-10,-1,-100,6482.282075100928,0.018215131419744873,0.03111901894527379,0.999349696376221,198.5759154798543,20.581165879627267,170.4465997222009,-10.650556682730542,-136.530029296875,4381.2578125,True
1599568177.1118546,0.0,10,0.5,0.5,4.349913211059571,-0.1005,-0.001,-0.12575,0.3551004634338837,10,1,100,-0.16646680860563362,-10,-1,-100,6482.063809049432,0.017904061202851713,0.031248092918370923,0.999351290228521,199.23810272874954,20.64709291226299,174.1189594700161,-10.842066994698545,-134.83358764648438,4381.2578125,True
1599568177.172691,0.0,10,0.5,0.5,3.743680729675293,-0.1005,-0.001,-0.12575,0.3644869089523021,10,1,100,-0.11618998437475034,-10,-1,-100,6481.62824551668,0.017163284145994093,0.03144822034828951,0.9993580094812115,200.1457161950289,20.73851677327039,181.15187004623326,-11.225035931107307,-131.21987915039062,4381.2578125,True
1599568177.2325308,0.0,10,0.5,0.5,2.8445548530578617,-0.1005,-0.001,-0.12575,0.3635474817774651,10,1,100,-0.04001545944165519,-10,-1,-100,6480.973903352744,0.015797836175998343,0.03161908864553466,0.9993751355749163,200.14226943468336,20.74253674252029,190.51743362646405,-11.799373228997108,-125.24723815917969,4381.2578125,True
1599568177.2913733,0.0,10,0.5,0.5,3.109083665084839,-0.1005,-0.001,-0.12575,0.3493040831022719,10,1,100,-0.11858546199560567,-10,-1,-100,6480.693122199387,0.015272824758992016,0.031642373480843165,0.9993825598960491,199.68545453060295,20.699116134607014,193.20106849323156,-11.990796339347002,-123.10913848876953,4381.2578125,True
1599568177.3502162,0.0,10,0.5,0.5,2.3578501506805423,-0.1005,-0.001,-0.12575,0.3426543174814189,10,1,100,-0.04677175132777467,-10,-1,-100,6480.193074821844,0.014145905243776865,0.03160089471599229,0.9994004586840967,198.49480432164887,20.5872821825602,198.25348989604794,-12.373626153111545,-118.61279296875,4381.2578125,True
1599568177.406067,0.0,10,0.5,0.5,1.8364581611633302,-0.1005,-0.001,-0.12575,0.3300032203162421,10,1,100,-0.025756005424906858,-10,-1,-100,6479.6939953122055,0.012934910440401789,0.031446304356724464,0.9994217418258434,196.25917410914062,20.371598008574843,202.1620357244521,-12.756462064152885,-113.82284545898438,4381.2578125,True
1599568177.4629157,0.0,10,0.5,0.5,0.6852224929809569,-0.1005,-0.001,-0.12575,0.2984308531751186,10,1,100,0.07491743772014928,-10,-1,-100,6478.913621341926,0.01092455713747817,0.0310173159265805,0.9994591438193261,190.27943711815334,19.78085781994179,204.94923734334475,-13.330829426132492,-106.08711242675781,4381.2578125,True
1599568177.5207605,0.0,10,0.5,0.5,1.0376212974548342,-0.1005,-0.001,-0.12575,0.31840702280417577,10,1,100,-0.04881531720574936,-10,-1,-100,6478.632822631742,0.010229316240729503,0.0308083431208991,0.9994729646585705,187.71180673530327,19.524675699732157,205.13028640553176,-13.52233821543823,-103.36186218261719,4381.2578125,True
1599568177.5806007,0.0,10,0.5,0.5,-0.5699640167236327,-0.1005,-0.001,-0.12575,0.250175709957916,10,1,100,0.11671604533659742,-10,-1,-100,6477.789929597289,0.008100590318880153,0.02999768829023141,0.9995171429914185,178.3633186609652,18.581504142621757,203.32850863370572,-14.097080279673882,-94.75973510742188,4381.2578125,True
1599568177.6384463,0.0,10,0.5,0.5,-0.16828774147033693,-0.1005,-0.001,-0.12575,0.2946031081613958,10,1,100,-0.01701108319557372,-10,-1,-100,6477.507661914569,0.007390920667046402,0.029665247300996934,0.9995325644491351,174.27983482396934,18.163823936979252,201.41879167158683,-14.288744016017358,-91.77454376220703,4381.2578125,True
1599568177.6962917,0.0,10,0.5,0.5,-1.193632735824585,-0.1005,-0.001,-0.12575,0.24249854611503713,10,1,100,0.07537790693139776,-10,-1,-100,6476.94605243043,0.005915706719454796,0.028890671993675312,0.9995650721617695,165.538773994491,17.26218896877352,196.53803031267003,-14.672189548106427,-85.60324096679688,4381.2578125,True
1599568177.755134,0.0,10,0.5,0.5,-2.5270302444458013,-0.1005,-0.001,-0.12575,0.1700242296417412,10,1,100,0.1597178953731383,-10,-1,-100,6476.040159143042,0.0038187744671587826,0.02752979831082996,0.9996136889651593,172.83109022517192,18.018146811602943,213.3843699112078,-15.24735577386971,-76.301513671875,4381.2578125,True
1599568177.8159714,0.0,10,0.5,0.5,-2.7382680297851563,-0.1005,-0.001,-0.12575,0.18951094982127953,10,1,100,0.10175045202993205,-10,-1,-100,6475.413606856717,0.0024515805497177683,0.02647335462081859,0.9996465131474869,183.65979578940988,19.133503913453723,232.55850055003367,-15.630492298004295,-70.22222900390625,4381.2578125,True
1599568177.876848,0.0,10,0.5,0.5,-3.297713531494141,-0.1005,-0.001,-0.12575,0.17127308208239048,10,1,100,0.10857929736800692,-10,-1,-100,6474.788521157578,0.0011587295359036937,0.025351830408659,0.9996779191523604,192.8086769885988,20.068600411437053,250.23786506135903,-16.013333361492165,-64.39498901367188,4381.2578125,True
1599568177.9346924,0.0,10,0.5,0.5,-3.823228379058838,-0.1005,-0.001,-0.12575,0.15093058755702726,10,1,100,0.11643702577314229,-10,-1,-100,6474.102405444137,-7.519246649843372e-05,0.02415304985016715,0.9997082697112335,200.46179575256454,20.84641070042679,266.5076879247231,-16.395878064003604,-58.85943603515625,4381.2578125,True
1599568177.9925375,0.0,10,0.5,0.5,-4.318172396087647,-0.1005,-0.001,-0.12575,0.13177667733361076,10,1,100,0.12212080432638805,-10,-1,-100,6473.4758638775675,-0.00123568218488417,0.022895893653930615,0.9997370910110948,206.26207555643393,21.433282180183408,280.74074456611027,-16.778153620172503,-53.62158203125,4381.2578125,True
1599568178.0503838,0.0,10,0.5,0.5,-4.23275234451294,-0.1005,-0.001,-0.12575,0.186083895457136,10,1,100,0.06795480619539462,-10,-1,-100,6473.13256587123,-0.0017853723162028208,0.022254499468204715,0.9997507437852257,208.5270381147741,21.662197706808204,287.12106659622947,-16.969203337022545,-51.114532470703125,4381.2578125,True
1599568178.1092253,0.0,10,0.5,0.5,-5.006803504180909,-0.1005,-0.001,-0.12575,0.10638484944609425,10,1,100,0.1290687693843862,-10,-1,-100,6472.444997545681,-0.002829117619616353,0.020954843259679314,0.9997764203247926,211.91557166635096,22.005731586049478,298.4917187563332,-17.35115939527562,-46.324188232421875,4381.2578125,True
1599568178.6073737,0.0,10,0.5,0.5,-5.426451287078857,-0.1005,-0.001,-0.12575,0.09068571787394916,10,1,100,0.13292628257651107,-10,-1,-100,6471.756458161864,-0.003801173984593112,0.019639575964783284,0.9997998990459354,214.2318704074712,22.244637812838512,308.5382078995534,-17.732970543112977,-41.832122802734375,4381.2578125,True
1599568178.655568,0.0,10,0.5,0.5,-5.349671118927002,-0.1005,-0.001,-0.12575,0.14635516956876615,10,1,100,0.08719015167939764,-10,-1,-100,6471.350178695866,-0.004258258795231432,0.018959380814217455,0.9998111867303617,215.1338574521651,22.340185692579304,313.2462829838577,-17.923836318214676,-39.69818115234375,4381.2578125,True
1599568178.7104833,0.0,10,0.5,0.5,-6.001657739257812,-0.1005,-0.001,-0.12575,0.06606920706771038,10,1,100,0.13780082703137564,-10,-1,-100,6470.662135580205,-0.005123297326773088,0.017620881805954176,0.9998316139975182,216.18522406582738,22.45844557233549,321.6354005056058,-18.305517261130653,-35.6534423828125,4381.2578125,True
1599568178.7653358,0.0,10,0.5,0.5,-5.930344667053223,-0.1005,-0.001,-0.12575,0.1262523474533292,10,1,100,0.09776930663446827,-10,-1,-100,6470.256349116447,-0.005535737620887956,0.01696142924757293,0.999840820094315,216.38583500236496,22.486308118572403,325.3700955110184,-18.496342590024796,-33.742645263671875,4381.2578125,True
1599568178.822184,0.0,10,0.5,0.5,-6.508280638122558,-0.1005,-0.001,-0.12575,0.042230527550651126,10,1,100,0.1416551115881905,-10,-1,-100,6469.506303270347,-0.006301141104127996,0.015607699803623141,0.9998583376296993,216.25628395333717,22.491245558335752,332.05247468288707,-18.8779844819484,-30.14501953125,4381.2578125,True
1599568178.8770382,0.0,10,0.5,0.5,-6.806667967224122,-0.1005,-0.001,-0.12575,0.033390190313287715,10,1,100,0.1459330551708249,-10,-1,-100,6468.7538219797425,-0.0070278958290484845,0.014306547838617479,0.999872957614695,215.57050335304285,22.443114904824583,337.86767126132844,-19.259636035954017,-26.844329833984375,4381.2578125,True
1599568178.9348834,0.0,10,0.5,0.5,-7.074725813293457,-0.1005,-0.001,-0.12575,0.017698698789119532,10,1,100,0.14622956584094526,-10,-1,-100,6467.941775833373,-0.007683835107463703,0.01299107365891084,0.9998860888537403,214.4934128904341,22.35779587059033,343.02697489497535,-19.64131215272867,-23.84161376953125,4381.2578125,True
1599568178.9937282,0.0,10,0.5,0.5,-7.312894732666017,-0.1005,-0.001,-0.12575,0.01045434114847052,10,1,100,0.15153375892934257,-10,-1,-100,6467.190282605705,-0.008321446531698454,0.0117394774953455,0.9998964637379995,213.18019050621584,22.250300282200953,347.7462662790524,-20.023018593068613,-21.135498046875,4381.2578125,True
1599568179.0515716,0.0,10,0.5,0.5,-7.76825594329834,-0.1005,-0.001,-0.12575,-0.06505623004664256,10,1,100,0.18640135147536874,-10,-1,-100,6465.9715005665785,-0.009211629791105907,0.009925345259565605,0.9999083124957356,211.0507127692826,22.074783222070558,354.425796957083,-20.595633561857,-17.633148193359375,4381.2578125,True
1599568179.1074228,0.0,10,0.5,0.5,-7.561762773132325,-0.1005,-0.001,-0.12575,0.05125574239879247,10,1,100,0.1296170995864436,-10,-1,-100,6465.503231462906,-0.009497915684781633,0.009344724025822964,0.9999112289251112,210.3579316864307,22.01828880372019,356.6426121539486,-20.786517042957463,-16.614013671875,4381.2578125,True
1599568179.1672664,0.0,10,0.5,0.5,-8.027742747497559,-0.1005,-0.001,-0.12575,-0.07303721474504651,10,1,100,0.1955918773795704,-10,-1,-100,6464.282024115906,-0.010351883751637841,0.0076975052204164415,0.9999167899961348,208.50147754634153,21.871723409309258,363.56660209909904,-21.359185700805657,-14.001129150390625,4381.2578125,True
1599568179.2251072,0.0,10,0.5,0.5,-7.86551183166504,-0.1005,-0.001,-0.12575,0.03394528252876783,10,1,100,0.14269286545222465,-10,-1,-100,6463.812784351525,-0.010641363058743029,0.007183458164121885,0.999917576263692,207.992190714226,21.834100331444095,366.0340837111687,-21.55007588716392,-13.278228759765625,4381.2578125,True
1599568179.281956,0.0,10,0.5,0.5,-8.167296977233887,-0.1005,-0.001,-0.12575,-0.07866765323671733,10,1,100,0.20577694665216897,-10,-1,-100,6462.529580243863,-0.011472214890416773,0.0057030940811225094,0.9999179281338094,206.9063004883148,21.766648251696356,374.1560926872349,-22.12272316799294,-11.55426025390625,4381.2578125,True
1599568179.338803,0.0,10,0.5,0.5,-8.129254487609865,-0.1005,-0.001,-0.12575,-0.0310274004270827,10,1,100,0.18559614291935883,-10,-1,-100,6461.591109126573,-0.012038301142036772,0.004801236110960512,0.9999160101915662,206.62129824683706,21.767075296599785,380.3353856786052,-22.504448410834502,-10.774871826171875,4381.2578125,True
1599568179.395652,0.0,10,0.5,0.5,-8.0965752822876,-0.1005,-0.001,-0.12575,0.010143231739931098,10,1,100,0.15990227516626304,-10,-1,-100,6461.184374951059,-0.012313432969825766,0.004366698424273924,0.9999146520145452,206.62191152661148,21.782199688348655,383.6882601270926,-22.695293100388298,-10.49627685546875,4381.2578125,True
1599568179.455492,0.0,10,0.5,0.5,-8.139498889160157,-0.1005,-0.001,-0.12575,-0.0332910338203411,10,1,100,0.19954150154394434,-10,-1,-100,6460.245910203201,-0.012918443696825864,0.003587026296173959,0.9999101194881479,206.93837574409346,21.84553935898171,390.99817365684856,-23.07693550936668,-10.160400390625,4381.2578125,True
1599568179.5123403,0.0,10,0.5,0.5,-8.107962036132813,-0.1005,-0.001,-0.12575,-0.036639252939775414,10,1,100,0.20449501768762046,-10,-1,-100,6459.3074484181125,-0.013508130370070485,0.002857540116399537,0.9999046778960424,207.6762301938884,21.953455518022814,399.14948927592235,-23.45850126944506,-10.1204833984375,4381.2578125,True
1599568179.5691888,0.0,10,0.5,0.5,-7.992439320373536,-0.1005,-0.001,-0.12575,-0.070517434869401,10,1,100,0.24574107060468242,-10,-1,-100,6457.899272784707,-0.01441387846748197,0.001895599693192113,0.9998943178203022,209.59335500606852,22.20201877979301,413.0830561954762,-24.03066789986523,-10.614959716796875,4381.2578125,True
1599568179.6290274,0.0,10,0.5,0.5,-7.984975550842286,-0.1005,-0.001,-0.12575,-0.005971989784446866,10,1,100,0.18998777777583153,-10,-1,-100,6457.367057578289,-0.014724899137652145,0.0016168341526869045,0.9998902755766297,210.4446749917242,22.307804817825943,418.195998471709,-24.22133265611009,-10.92742919921875,4381.2578125,True
1599568179.6899076,0.0,10,0.5,0.5,-7.833405499267579,-0.1005,-0.001,-0.12575,-0.03433102165022338,10,1,100,0.22852538127985114,-10,-1,-100,6456.427139743115,-0.01535297498843744,0.0011131547453631819,0.9998815165035891,212.44576262270428,22.551955669963114,429.1149857154649,-24.602562367914565,-11.77398681640625,4381.2578125,True
1599568179.74976,0.0,10,0.5,0.5,-7.6820912918090825,-0.1005,-0.001,-0.12575,-0.02907785306628717,10,1,100,0.23785844274232149,-10,-1,-100,6455.427653784049,-0.016003476266715933,0.0007105036979050902,0.9998716837334058,214.82269686571476,22.83745499983481,440.94480022432083,-24.98364385101498,-12.915435791015625,4381.2578125,True
1599568179.809643,0.0,10,0.5,0.5,-7.500626977539063,-0.1005,-0.001,-0.12575,-0.027748214127897054,10,1,100,0.24380637295723318,-10,-1,-100,6454.424264186295,-0.016643775346636417,0.00036289673740356364,0.9998614169214495,217.5290731974576,23.159557440336634,453.62487031349207,-25.36455925829687,-14.352386474609375,4381.2578125,True
1599568179.8684862,0.0,10,0.5,0.5,-7.068556961059571,-0.1005,-0.001,-0.12575,-0.02905082348487148,10,1,100,0.28925939926764294,-10,-1,-100,6452.829582699342,-0.017633618010942497,4.124901681760686e-05,0.9998445148193607,222.0846706381639,23.698303320876562,474.04851666297424,-25.93558474796963,-17.060272216796875,4381.2578125,True
1599568179.9283304,0.0,10,0.5,0.5,-7.17095634918213,-0.1005,-0.001,-0.12575,-0.004487070414945713,10,1,100,0.22706889952980683,-10,-1,-100,6452.35889600357,-0.01796250552349449,-2.2704023930024247e-05,0.9998386609247742,223.69752947072794,23.88851923080806,481.16158577751656,-26.12582634722009,-18.11029052734375,4381.2578125,True
1599568179.9875472,0.0,10,0.5,0.5,-6.489618566894532,-0.1005,-0.001,-0.12575,-0.0029268618891740384,10,1,100,0.3022416055260374,-10,-1,-100,6450.7632410369115,-0.01893949676725162,-6.227403788913681e-05,0.9998206297052225,228.66334733492178,24.473331846941136,503.1044056609596,-26.696229812246663,-21.70208740234375,4381.2578125,True
1599568180.0433989,0.0,10,0.5,0.5,-6.635998008728028,-0.1005,-0.001,-0.12575,0.005036126175473594,10,1,100,0.24026363782094518,-10,-1,-100,6450.231519715744,-0.019258210860805057,-2.182963866229423e-05,0.9998145432218456,230.3175803352643,24.667940815868416,510.52663598443723,-26.88625413898558,-23.046478271484375,4381.2578125,True
1599568180.0997877,0.0,10,0.5,0.5,-5.791310231018067,-0.1005,-0.001,-0.12575,0.02729700096152914,10,1,100,0.3107141348368329,-10,-1,-100,6448.572389125009,-0.020182646584939908,0.00022059036408519147,0.9997962853085216,235.06262684341968,25.225541434847987,532.6294140656794,-27.455994077450733,-27.52142333984375,4381.2578125,True
1599568180.1585987,0.0,10,0.5,0.5,-5.9815725860595705,-0.1005,-0.001,-0.12575,0.018109266090553522,10,1,100,0.2508665994120997,-10,-1,-100,6448.039690721431,-0.020472906451915043,0.0003598445493488677,0.9997903433286958,236.516876709071,25.396119402003045,539.8110347354819,-27.64579924711815,-29.15997314453125,4381.2578125,True
1599568180.2209804,0.0,10,0.5,0.5,-5.39432571258545,-0.1005,-0.001,-0.12575,0.03921807454520841,10,1,100,0.28459559662827794,-10,-1,-100,6446.913257931243,-0.0210378980984173,0.0006797336629434754,0.9997784478601986,239.11738260471947,25.70049834096666,553.6062031992365,-28.025258384980006,-32.658050537109375,4381.2578125,True
1599568180.2817805,0.0,10,0.5,0.5,-4.520285775756836,-0.1005,-0.001,-0.12575,0.08108273515640212,10,1,100,0.3092865989983014,-10,-1,-100,6445.190157405101,-0.02177025143590978,0.0013519816813037373,0.9997620858474033,241.9419011848291,26.028997589340012,572.0815324241906,-28.594120617009665,-38.455841064453125,4381.2578125,True
1599568180.342617,0.0,10,0.5,0.5,-4.289076681518555,-0.1005,-0.001,-0.12575,0.0735782356263483,10,1,100,0.2828060839820117,-10,-1,-100,6444.067626318312,-0.022189461354893518,0.001894676405052631,0.9997519882481355,243.2290597708272,26.173573657715384,583.1329007801543,-28.973193338971356,-42.688385009765625,4381.2578125,True
1599568180.4024577,0.0,10,0.5,0.5,-4.314630354309083,-0.1005,-0.001,-0.12575,0.05247013504147993,10,1,100,0.26136883706943953,-10,-1,-100,6443.473889471148,-0.02237005359559337,0.002195066900682688,0.9997473492755217,243.5362945578417,26.20615470103333,587.8821288583046,-29.1626946509902,-44.91473388671875,4381.2578125,True
1599568180.4632943,0.0,10,0.5,0.5,-2.9807214508056648,-0.1005,-0.001,-0.12575,0.13046454460267995,10,1,100,0.2883825965753965,-10,-1,-100,6441.680464432808,-0.022774602284239248,0.003175523647117941,0.9997355818116915,242.80332007275942,26.11132388549936,598.1360337466202,-29.731142559679448,-52.03436279296875,4381.2578125,True
1599568180.520144,0.0,10,0.5,0.5,-2.7156443984985352,-0.1005,-0.001,-0.12575,0.11147691376850816,10,1,100,0.2671539876769966,-10,-1,-100,6440.492981339921,-0.022944712843683414,0.003891383795720881,0.9997291619657173,240.69354157205413,25.86264567220901,600.9097891107548,-30.1101447930672,-57.147613525390625,4381.2578125,True
1599568180.5759947,0.0,10,0.5,0.5,-2.1314505050659185,-0.1005,-0.001,-0.12575,0.12158017271326144,10,1,100,0.25761780069252405,-10,-1,-100,6439.246900345432,-0.023008136918482733,0.0046304552959307195,0.9997245543244863,237.070588457608,25.44519598190535,599.7434917055003,-30.489260462637027,-62.55438232421875,4381.2578125,True
1599568180.6338391,0.0,10,0.5,0.5,-1.517583453369141,-0.1005,-0.001,-0.12575,0.1304364985054187,10,1,100,0.24786218385610087,-10,-1,-100,6438.059896235936,-0.022973408978740784,0.005378584413019439,0.9997216079037242,231.76120325571193,24.844696021025648,594.0469551326574,-30.868557794683568,-68.254638671875,4381.2578125,True
1599568180.6946774,0.0,10,0.5,0.5,-1.560151092529297,-0.1005,-0.001,-0.12575,0.097492821371331,10,1,100,0.24596017922648367,-10,-1,-100,6437.3958366516745,-0.022921169720417096,0.005754304350925039,0.9997207149799812,228.42470520999515,24.472263776531626,589.3203922460616,-31.058292658183586,-71.2147216796875,4381.2578125,True
1599568180.7545164,0.0,10,0.5,0.5,0.18074992980957028,-0.1005,-0.001,-0.12575,0.18036367576008955,10,1,100,0.2180276819713216,-10,-1,-100,6435.547690683277,-0.022617258125861836,0.0068442086852944445,0.9997207692362604,215.49978620344385,23.055745219241828,566.8548114043471,-31.62789453545113,-80.53521728515625,4381.2578125,True
1599568180.8113995,0.0,10,0.5,0.5,-0.2500445297241212,-0.1005,-0.001,-0.12575,0.11024611072914703,10,1,100,0.2324062567397514,-10,-1,-100,6434.892903176835,-0.022469739763548283,0.007191703521589022,0.9997216563601171,210.18045003224063,22.482235099461555,556.4155787307415,-31.817897133278596,-83.78878784179688,4381.2578125,True
1599568180.872203,0.0,10,0.5,0.5,1.6419866863250732,-0.1005,-0.001,-0.12575,0.18384204023919737,10,1,100,0.18536321526988392,-10,-1,-100,6432.981756759575,-0.021906666473841593,0.008170741850258508,0.999726631105534,211.01153518121757,22.585496192610012,569.3463916099557,-32.387922591121935,-93.93709564208984,4381.2578125,True
1599568180.9300475,0.0,10,0.5,0.5,1.1454358757019043,-0.1005,-0.001,-0.12575,0.11848391896880692,10,1,100,0.21731272427758264,-10,-1,-100,6432.326966011082,-0.021685107733234652,0.008460413082800896,0.9997290520501374,216.84825326699658,23.223830871995833,588.7742564121756,-32.57772803055082,-97.35831451416016,4381.2578125,True
1599568180.9898875,0.0,10,0.5,0.5,2.2769370178222657,-0.1005,-0.001,-0.12575,0.15184872154742846,10,1,100,0.18387916135161536,-10,-1,-100,6431.011032447335,-0.02118020771846651,0.009021098102483492,0.9997349741756703,227.6843842820861,24.421140619224435,625.916759315074,-32.95695327223583,-104.23677825927734,4381.2578125,True
1599568181.0487301,0.0,10,0.5,0.5,3.688285735702515,-0.1005,-0.001,-0.12575,0.1697162403306231,10,1,100,0.1433256915457211,-10,-1,-100,6428.973405584344,-0.020353621475784733,0.009687038262767803,0.9997459134112608,240.40291201845332,25.849552167903383,673.0788139241403,-33.52486029065656,-114.27162170410156,4381.2578125,True
1599568181.1085691,0.0,10,0.5,0.5,4.558882838439941,-0.1005,-0.001,-0.12575,0.15731572510660258,10,1,100,0.12592260519629453,-10,-1,-100,6426.940167255234,-0.019446170452723288,0.010173786893157307,0.9997591412510196,249.3971993859762,26.86868004851731,710.8806832529274,-34.09183336948475,-123.66943359375,4381.2578125,True
1599568181.1674128,0.0,10,0.5,0.5,4.058900794601441,-0.1005,-0.001,-0.12575,0.12238933153445425,10,1,100,0.18327257611602638,-10,-1,-100,6426.2819515577285,-0.019145758842293137,0.010293061703676021,0.9997637184850815,251.3149605933995,27.08662120268334,720.5823848055392,-34.28067656428927,-126.65348052978516,4381.2578125,True
1599568181.226255,0.0,10,0.5,0.5,4.348342930984497,-0.1005,-0.001,-0.12575,0.12170273911797837,10,1,100,0.17958756226724965,-10,-1,-100,6425.568560288171,-0.018842668505164292,0.010390103776354393,0.9997684729911827,252.74187442944952,27.248236829795015,728.9333625122906,-34.46946897693269,-129.56298828125,4381.2578125,True
1599568181.2860975,0.0,10,0.5,0.5,5.862187646484375,-0.1005,-0.001,-0.12575,0.1305028106117104,10,1,100,0.1098235985937628,-10,-1,-100,6423.4620748581365,-0.01793666920208235,0.010553768565674719,0.9997834234808043,254.39511303444826,27.42842379738061,746.5795508764214,-35.035669970047785,-137.84402465820312,4381.2578125,True
1599568181.3459356,0.0,10,0.5,0.5,5.418309431457519,-0.1005,-0.001,-0.12575,0.11534478849916266,10,1,100,0.16710390978880335,-10,-1,-100,6422.800928671844,-0.01763829493788853,0.010560391387474808,0.9997886620108409,254.17746170201124,27.398920272646205,750.2393592005856,-35.224382610522554,-140.45529174804688,4381.2578125,True
1599568181.4057746,0.0,10,0.5,0.5,6.226929132080078,-0.1005,-0.001,-0.12575,0.10939242492404608,10,1,100,0.1332622076973223,-10,-1,-100,6421.362912188866,-0.01706392009977884,0.010508921390517302,0.9997991724351628,252.77722166621157,27.227813416830113,754.6770952231791,-35.601832098788435,-145.45416259765625,4381.2578125,True
1599568181.4616263,0.0,10,0.5,0.5,6.6679586341857915,-0.1005,-0.001,-0.12575,0.10207098900156315,10,1,100,0.13195157591083911,-10,-1,-100,6419.9288021113025,-0.016534760703132704,0.01039255632319797,0.9998092800437288,250.29877126953448,26.93276278429888,755.7975625223208,-35.979358759019675,-150.1545867919922,4381.2578125,True
1599568181.5184717,0.0,10,0.5,0.5,7.078611717224121,-0.1005,-0.001,-0.12575,0.08962288127214957,10,1,100,0.12779129290612512,-10,-1,-100,6418.477113799658,-0.016020769502294006,0.010171585451301238,0.9998199206827004,246.9839865053739,26.543806328988598,754.2327833551082,-36.35699892177904,-154.55728149414062,4381.2578125,True
1599568181.5783117,0.0,10,0.5,0.5,7.459320303344727,-0.1005,-0.001,-0.12575,0.08091615704600795,10,1,100,0.12794906547941903,-10,-1,-100,6417.043004312902,-0.015560088468771443,0.009889995190822466,0.9998300213746181,243.04772709002307,26.087879760371322,750.5610215008219,-36.7347714211377,-158.66171264648438,4381.2578125,True
1599568181.635703,0.0,10,0.5,0.5,8.215224588775635,-0.1005,-0.001,-0.12575,0.047308194397905415,10,1,100,0.10660549386266469,-10,-1,-100,6414.760249626124,-0.01495236425928016,0.00932768720532416,0.9998446984679458,236.41673914531142,25.33245870733821,742.3351562460654,-37.30168385651241,-164.25991821289062,4381.2578125,True
1599568181.6935134,0.0,10,0.5,0.5,8.276431945037842,-0.1005,-0.001,-0.12575,0.05321243632216422,10,1,100,0.12918197016950428,-10,-1,-100,6413.25387741602,-0.014610038632728905,0.008870499736962092,0.9998539198330757,231.76741966158144,24.811902527905833,735.7864235666276,-37.67978090243477,-167.61984252929688,4381.2578125,True
1599568181.7519999,0.0,10,0.5,0.5,8.21315781173706,-0.1005,-0.001,-0.12575,0.07104915355644104,10,1,100,0.14625227193034795,-10,-1,-100,6412.532674549031,-0.014458414562617245,0.008618211547086543,0.9998583303038812,229.4323770846202,24.553320069901208,732.3693881048735,-37.86886979751053,-169.18820190429688,4381.2578125,True
1599568181.8118386,0.0,10,0.5,0.5,8.983734213256836,-0.1005,-0.001,-0.12575,0.004456742550445716,10,1,100,0.11803727430891009,-10,-1,-100,6410.246996401809,-0.014068335742575098,0.007784995683651168,0.9998707295303927,222.58312694478133,23.80639467114982,722.1756539223021,-38.43626585489008,-173.44696044921875,4381.2578125,True
1599568181.8706818,0.0,10,0.5,0.5,8.740139685058596,-0.1005,-0.001,-0.12575,0.05365537459081003,10,1,100,0.14523628111165365,-10,-1,-100,6409.466713400092,-0.013965322634164078,0.007477155288252051,0.9998745230840314,220.40102749935417,23.572302144732777,718.9591736114893,-38.62543167364923,-174.71792602539062,4381.2578125,True
1599568181.9337347,0.0,10,0.5,0.5,9.108718386840822,-0.1005,-0.001,-0.12575,0.011325551417034119,10,1,100,0.13752978844593147,-10,-1,-100,6407.9046827510465,-0.013805225644618328,0.006815280730198002,0.9998814768228631,218.30849179188453,23.352975671832333,719.8014140279823,-39.003765899586064,-177.037109375,4381.2578125,True
1599568181.994572,0.0,10,0.5,0.5,9.278231289672853,-0.1005,-0.001,-0.12575,-9.014091873450758e-05,10,1,100,0.13811458541779442,-10,-1,-100,6406.3358184034005,-0.013668483871405738,0.0061132022113303125,0.999887894369854,222.58365233966566,23.822057182180153,741.7333954086778,-39.381910830264914,-179.05917358398438,4381.2578125,True
1599568182.0564039,0.0,10,0.5,0.5,-71.86222933044434,-0.1005,-0.001,-0.12575,-0.059119383754093015,10,1,100,0.14212267780865867,-10,-1,-100,6403.921247370541,-0.013583697132246124,0.00494231564038296,0.9998955228864316,227.88946516991356,24.41858589301225,771.4778853561903,-39.94872589290183,178.46368408203125,4381.2578125,True
1599568182.1192367,0.0,10,0.5,0.5,-26.646784944152834,-0.1005,-0.001,-0.12575,-0.03534382956768829,10,1,100,0.14904043100251457,-10,-1,-100,6402.351412884542,-0.01357218972892779,0.0040989694691097875,0.9998994920066984,230.78485700093773,24.753456441615178,789.4424232666685,-40.32635127802661,177.18276977539062,4381.2578125,True
1599568182.1830676,0.0,10,0.5,0.5,-26.72125288696289,-0.1005,-0.001,-0.12575,-0.0002085118739051095,10,1,100,0.15116109647806653,-10,-1,-100,6401.502776650479,-0.013583233211846473,0.0036572236706069244,0.9999010553502459,232.06006685447673,24.90377961868881,797.9138035958538,-40.51509379746681,176.65335083007812,4381.2578125,True
1599568182.251925,0.0,10,0.5,0.5,-26.56361003112793,-0.1005,-0.001,-0.12575,-0.05854571834393758,10,1,100,0.1528735380643274,-10,-1,-100,6399.878746831906,-0.013610637533699397,0.002730964496349677,0.9999036415469472,234.40826864686292,25.18501147886142,814.300475244441,-40.89244471592563,175.51412963867188,4381.2578125,True
1599568182.316751,0.0,10,0.5,0.5,-26.2448316986084,-0.1005,-0.001,-0.12575,-0.1307735258147532,10,1,100,0.16421983700966614,-10,-1,-100,6397.408039339702,-0.013739918477364754,0.0012382912906620139,0.9999048361093744,238.31421962182065,25.65433023578086,840.5712912646591,-41.45811465356987,173.32180786132812,4381.2578125,True
1599568182.8713,0.0,10,0.5,0.5,-26.356365393066408,-0.1005,-0.001,-0.12575,-0.03996228057403411,10,1,100,0.15801809864790323,-10,-1,-100,6396.559407801484,-0.013801858186640292,0.0007138107953582212,0.9999044950317726,239.74977709350637,25.826993324947896,849.9000671796458,-41.64656747742144,172.44558715820312,4381.2578125,True
1599568182.9261193,0.0,10,0.5,0.5,-26.285752549743652,-0.1005,-0.001,-0.12575,-0.04777765663271785,10,1,100,0.15805072743807694,-10,-1,-100,6395.710776774446,-0.01385906050805234,0.00017314729068649228,0.9999039436175107,241.26495875010633,26.009207981493468,859.565988310665,-41.83496423759357,171.4954833984375,4381.2578125,True
1599568182.9869595,0.0,10,0.5,0.5,-26.20801770629883,-0.1005,-0.001,-0.12575,-0.055453557260542824,10,1,100,0.1598302393765051,-10,-1,-100,6394.931482762913,-0.013927430249898568,-0.00038122603891079307,0.9999029359659575,243.044967011264,26.220959769823022,870.2361061700435,-42.02329936735594,170.47137451171875,4381.2578125,True
1599568183.046838,0.0,10,0.5,0.5,-25.857653911590578,-0.1005,-0.001,-0.12575,-0.12802283083918384,10,1,100,0.17007056013842092,-10,-1,-100,6393.230319588911,-0.014082712833398252,-0.0015377784789621864,0.9998996511833584,246.7508333058491,26.663066376952234,892.2983739038777,-42.39977466836796,168.20103454589844,4381.2578125,True
1599568183.1066391,0.0,10,0.5,0.5,-25.597054633331304,-0.1005,-0.001,-0.12575,-0.14634454739559874,10,1,100,0.17642400052150753,-10,-1,-100,6391.488146267482,-0.014281385106254407,-0.002748157157513443,0.9998942392431734,250.7549831501033,27.140711601307558,915.7168064749065,-42.775973914372564,165.634765625,4381.2578125,True
1599568183.1664796,0.0,10,0.5,0.5,-24.957822317504885,-0.1005,-0.001,-0.12575,-0.23914368538167338,10,1,100,0.19403793514269885,-10,-1,-100,6388.8866160801845,-0.01462156575883006,-0.004684074156643588,0.9998821276850862,257.2417882549609,27.91291474951955,953.1569533077552,-43.33970388210232,161.23074340820312,4381.2578125,True
1599568183.2283456,0.0,10,0.5,0.5,-25.144330304718018,-0.1005,-0.001,-0.12575,-0.12126839708208852,10,1,100,0.17378000197541565,-10,-1,-100,6388.041415785905,-0.01474571435180846,-0.005363653907859287,0.9998768899844678,259.36315738212693,28.165967822382672,965.6360544050021,-43.52745810880394,159.6149444580078,4381.2578125,True
1599568183.2861583,0.0,10,0.5,0.5,-24.148795690155033,-0.1005,-0.001,-0.12575,-0.29165828524212856,10,1,100,0.20474941034607078,-10,-1,-100,6385.380823757034,-0.015139049944592158,-0.007521850280076679,0.999857105258116,265.3350994540979,28.878279929206283,1002.0321625081251,-44.09025770310518,154.32449340820312,4381.2578125,True
1599568183.3470004,0.0,10,0.5,0.5,-24.37945012969971,-0.1005,-0.001,-0.12575,-0.16110815246017135,10,1,100,0.18015462419250036,-10,-1,-100,6384.532212773687,-0.015271624412333294,-0.008286864798664985,0.9998490412855419,267.1233217273189,29.090980209995,1013.5327970643314,-44.277708952156985,152.41339111328125,4381.2578125,True
1599568183.405878,0.0,10,0.5,0.5,-23.70276365585327,-0.1005,-0.001,-0.12575,-0.2573166215350221,10,1,100,0.20232812730421937,-10,-1,-100,6382.709996634745,-0.015592213968678468,-0.009846938780521165,0.9998299458709005,270.2546774072711,29.461255115447376,1035.013247483113,-44.652408078778414,148.3705291748047,4381.2578125,True
1599568183.465688,0.0,10,0.5,0.5,-23.227124355316164,-0.1005,-0.001,-0.12575,-0.29005061218608974,10,1,100,0.20111276551618923,-10,-1,-100,6380.957615193562,-0.015870926371381704,-0.011552692106244504,0.9998073059351051,272.630729109883,29.737508025165663,1053.7909515835784,-45.02687072151333,144.03225708007812,4381.2578125,True
1599568183.5255587,0.0,10,0.5,0.5,-22.72187476196289,-0.1005,-0.001,-0.12575,-0.3135218346245253,10,1,100,0.21231578469736706,-10,-1,-100,6379.142257837113,-0.01622426594077286,-0.013305600330977316,0.9997798428626751,274.02718872358554,29.89230702147224,1068.9179807200192,-45.40115319487877,139.40045166015625,4381.2578125,True
1599568183.5873625,0.0,10,0.5,0.5,-22.1865152381897,-0.1005,-0.001,-0.12575,-0.3482741306027321,10,1,100,0.2156661601307967,-10,-1,-100,6377.327402392519,-0.016573791502857163,-0.015202829819062057,0.9997470597109612,274.22668146135214,29.900141903229304,1079.4459365178357,-45.775328703092896,134.4740447998047,4381.2578125,True
1599568183.6462488,0.0,10,0.5,0.5,-20.37391417770386,-0.1005,-0.001,-0.12575,-0.6168469139669092,10,1,100,0.27082395272047755,-10,-1,-100,6373.631337069208,-0.017390570708973666,-0.019355680471740567,0.9996614055188349,270.0767817671028,29.373519044472644,1082.4170532016744,-46.523723642851664,123.7403564453125,4381.2578125,True
1599568183.7060528,0.0,10,0.5,0.5,-21.070604199218753,-0.1005,-0.001,-0.12575,-0.32737908417189854,10,1,100,0.21493205496234444,-10,-1,-100,6372.661191397347,-0.017621981955027843,-0.020483275428772953,0.9996348839349724,267.92048658648883,29.113007843223457,1078.5969598127583,-46.71090592378317,120.87350463867188,4381.2578125,True
1599568183.7653694,0.0,10,0.5,0.5,-20.761434969329837,-0.1005,-0.001,-0.12575,-0.34427874715343587,10,1,100,0.2193318659466688,-10,-1,-100,6371.7540407188935,-0.017869317190526614,-0.021645872218387954,0.9996059942392551,265.2609623020433,28.79658765858688,1072.6818650939522,-46.89814797549688,117.93339538574219,4381.2578125,True
1599568183.826207,0.0,10,0.5,0.5,-19.746338552856443,-0.1005,-0.001,-0.12575,-0.5111217293510619,10,1,100,0.25217461714015615,-10,-1,-100,6369.8596839733655,-0.018389785368710204,-0.024204112957960242,0.9995378815782877,258.3242580955332,27.989022849947442,1054.0207581531643,-47.272860290941196,111.83180236816406,4381.2578125,True
1599568183.8850493,0.0,10,0.5,0.5,-18.31447017364502,-0.1005,-0.001,-0.12575,-0.6957349432496305,10,1,100,0.30761577654565975,-10,-1,-100,6366.902979337261,-0.019363636006184497,-0.028190960612058308,0.999414988550997,243.5166674591978,26.322089947483548,1007.0224162908961,-47.835657067873186,102.13294982910156,4381.2578125,True
1599568183.9438922,0.0,10,0.5,0.5,-17.983093228149414,-0.1005,-0.001,-0.12575,-0.6209973536884053,10,1,100,0.2966695908852726,-10,-1,-100,6364.994067400461,-0.020145603456010706,-0.0311171448376527,0.9993127027905458,241.07148224776762,26.040854305477662,1005.8474670038374,-48.21121952917599,95.30073547363281,4381.2578125,True
1599568184.0027359,0.0,10,0.5,0.5,-17.2245361907959,-0.1005,-0.001,-0.12575,-0.6760417907239054,10,1,100,0.3228761579680892,-10,-1,-100,6363.035400797497,-0.021090293584747705,-0.03425696148848034,0.9991905024098688,254.2195720906585,27.466819250634295,1070.1602993887518,-48.58623434544598,88.17588806152344,4381.2578125,True
1599568184.066565,0.0,10,0.5,0.5,-16.43642359085083,-0.1005,-0.001,-0.12575,-0.7297413145641938,10,1,100,0.3536246666909485,-10,-1,-100,6361.030408660998,-0.022223636435974543,-0.037577326821682674,0.9990465727344737,266.64435393736215,28.830340815420495,1132.3675788734497,-48.96056157423507,80.75912475585938,4381.2578125,True
1599568184.126404,0.0,10,0.5,0.5,-15.61874844970703,-0.1005,-0.001,-0.12575,-0.7864763016924325,10,1,100,0.3898347825157524,-10,-1,-100,6359.088962014648,-0.0235773557990748,-0.04108795461238202,0.9988773139276389,277.2256466659901,29.99840316094432,1187.5564544524025,-49.334210712683266,73.05081176757812,4381.2578125,True
1599568184.1852477,0.0,10,0.5,0.5,-15.684733175659181,-0.1005,-0.001,-0.12575,-0.6393453885209297,10,1,100,0.3405054018543968,-10,-1,-100,6358.1165585774,-0.024352876223282437,-0.042916623980293764,0.9987818084075158,282.1537105053761,30.539840064074927,1213.863208312736,-49.52079036933495,69.08749389648438,4381.2578125,True
1599568184.2450879,0.0,10,0.5,0.5,-14.333929879760744,-0.1005,-0.001,-0.12575,-0.8763440960661085,10,1,100,0.4598029850735419,-10,-1,-100,6356.1127325546695,-0.026135346379353948,-0.046708390025023125,0.9985666076786773,289.7174156491671,31.35743180132781,1257.0366396280444,-49.893545857936736,60.94317626953125,4381.2578125,True
1599568184.3039296,0.0,10,0.5,0.5,-13.443707874298097,-0.1005,-0.001,-0.12575,-0.9335568312363014,10,1,100,0.5162719085322847,-10,-1,-100,6354.108023249661,-0.028261177847525364,-0.05065069974036677,0.9983164891167939,293.7487515608669,31.759013791773953,1285.2878710433558,-50.26594566130325,52.50962829589844,4381.2578125,True
1599568184.3817227,0.0,10,0.5,0.5,-12.524272373199464,-0.1005,-0.001,-0.12575,-0.9841443305584977,10,1,100,0.5712924054292515,-10,-1,-100,6352.101945864619,-0.030684266248660445,-0.0546670790896886,0.9980330587052632,293.6996497576335,31.68122380226485,1295.867758757351,-50.63826352986168,43.788665771484375,4381.2578125,True
1599568184.43857,0.0,10,0.5,0.5,-11.575466836547852,-0.1005,-0.001,-0.12575,-1.0384293634453556,10,1,100,0.6517903975655337,-10,-1,-100,6350.034940750687,-0.033607223860878416,-0.05878181406361506,0.9977049928910627,289.06960729684806,31.0801364524763,1286.1697441612052,-51.010806001846106,34.78070068359375,4381.2578125,True
1599568184.496415,0.0,10,0.5,0.5,-9.52274619293213,-0.1005,-0.001,-0.12575,-1.3032878031821613,10,1,100,0.9354208466908125,-10,-1,-100,6346.933428928605,-0.03882908264722259,-0.06489885194560494,0.9971361197734828,272.81039416256993,29.17626939341826,1229.3277632812278,-51.57066791124462,20.735321044921875,4381.2578125,True
1599568184.5578318,0.0,10,0.5,0.5,-10.18951985168457,-0.1005,-0.001,-0.12575,-0.9148729211023457,10,1,100,0.6334715293244314,-10,-1,-100,6345.899325946346,-0.040813537343621975,-0.06689538028183964,0.9969249035240563,264.8089898977951,28.28100032975616,1198.3780643216787,-51.757676969773534,15.91192626953125,4381.2578125,True
1599568184.6176715,0.0,10,0.5,0.5,-7.418939437866213,-0.1005,-0.001,-0.12575,-1.3359636391067258,10,1,100,1.1751457660992108,-10,-1,-100,6342.797672749264,-0.04752310928022158,-0.07250597780987084,0.9962351315157355,285.3667159249354,30.42105689926741,1308.1038546578145,-52.31810611490798,1.0205078125,4381.2578125,True
1599568184.6760006,0.0,10,0.5,0.5,-6.957487892150879,-0.1005,-0.001,-0.12575,-1.1506477230431331,10,1,100,1.0603340953501705,-10,-1,-100,6340.667682732572,-0.05255494783787043,-0.07588705903811982,0.9957304513412772,302.94667094977666,32.29609421787629,1400.5022878241837,-52.690469989339185,-9.2572021484375,4381.2578125,True
1599568184.7338784,0.0,10,0.5,0.5,-7.054552658081055,-0.1005,-0.001,-0.12575,-0.989302107958236,10,1,100,0.8545897541442034,-10,-1,-100,6339.633237444679,-0.05523136950531341,-0.07745916389737761,0.9954645015021312,310.410219715296,33.09259761969937,1441.020040024423,-52.87627901514772,-14.500762939453125,4381.2578125,True
1599568184.7937262,0.0,10,0.5,0.5,-4.052889350891113,-0.1005,-0.001,-0.12575,-1.2492256859395936,10,1,100,1.5259894332480242,-10,-1,-100,6336.406432770309,-0.06373933718238155,-0.08121822701536523,0.9946561699884194,325.9023953241325,34.6927524928327,1531.7073154455559,-53.43248889136432,-30.643463134765625,4381.2578125,True
1599568184.8521054,0.0,10,0.5,0.5,-4.824225665283203,-0.1005,-0.001,-0.12575,-0.9870358048650705,10,1,100,1.0044069386202497,-10,-1,-100,6335.37202185893,-0.06669638833677363,-0.08221719311009915,0.9943801712322743,327.6921938352307,34.83665244994612,1546.3816757615234,-53.617660557776674,-36.16229248046875,4381.2578125,True
1599568184.9109893,0.0,10,0.5,0.5,-2.9645487106323247,-0.1005,-0.001,-0.12575,-1.0669548861705482,10,1,100,1.379640307379041,-10,-1,-100,6333.178692395682,-0.07275895542770325,-0.08381960047801153,0.9938211151815883,325.5848698732946,34.471921497749285,1548.9465161979338,-53.988057178826146,-47.40631103515625,4381.2578125,True
1599568184.9718187,0.0,10,0.5,0.5,-1.7626542083740238,-0.1005,-0.001,-0.12575,-1.0150334059858388,10,1,100,1.4463495337681638,-10,-1,-100,6331.048331093742,-0.07883637504337658,-0.0847741674464912,0.9932764803939407,315.4248679420471,33.21846027090923,1512.9507957093338,-54.35900298574909,-58.923828125,4381.2578125,True
1599568185.031536,0.0,10,0.5,0.5,0.8244789337158205,-0.1005,-0.001,-0.12575,-0.9638304407436233,10,1,100,1.8326950975833831,-10,-1,-100,6327.757965186494,-0.08782975972067732,-0.08514910401712822,0.9924895784805441,284.6632831383106,29.774194180283324,1382.684267420602,-54.91747557513847,-76.7147216796875,4381.2578125,True
1599568185.0913277,0.0,10,0.5,0.5,1.3596361129760743,-0.1005,-0.001,-0.12575,-0.8815361336799672,10,1,100,1.5707488039878954,-10,-1,-100,6325.563963922905,-0.09357494081657373,-0.08471785511717089,0.9920013182831565,311.69108480361007,32.55204479825649,1526.8896583589615,-55.289561278667065,-88.91897583007812,4381.2578125,True
1599568185.1491723,0.0,10,0.5,0.5,2.6412374088287356,-0.1005,-0.001,-0.12575,-0.8289980838366122,10,1,100,1.5991537785481647,-10,-1,-100,6323.308823757456,-0.09900629080141897,-0.08383017475211413,0.9915494219567549,334.9085100174771,34.977567386289095,1654.4635477599788,-55.66021952720171,-101.31818389892578,4381.2578125,True
1599568185.209044,0.0,10,0.5,0.5,3.861688958358765,-0.1005,-0.001,-0.12575,-0.7832086334772861,10,1,100,1.6176562472262563,-10,-1,-100,6321.052592472173,-0.10405918345429929,-0.08259152960382295,0.9911358764450641,352.1049743847948,36.76034210035688,1753.7532738142809,-56.029571895638576,-113.5521240234375,4381.2578125,True
1599568185.2688918,0.0,10,0.5,0.5,6.3629973701477045,-0.1005,-0.001,-0.12575,-0.6581310970994323,10,1,100,1.863579550131881,-10,-1,-100,6317.700509594986,-0.11083699218862883,-0.08031925136394688,0.9905876937570511,360.97225790628187,37.51931439661326,1819.7416805726064,-56.582263527427706,-131.35662841796875,4381.2578125,True
1599568185.327734,0.0,10,0.5,0.5,4.136290885162353,-0.1005,-0.001,-0.12575,-0.8858021403196217,10,1,100,1.191626881134003,-10,-1,-100,6317.700509594986,-0.11083699218862883,-0.08031925136394688,0.9905876937570511,360.97225790628187,37.51931439661326,1819.7416805726064,-56.582263527427706,-131.35662841796875,4381.2578125,True
1599568185.3865767,0.0,10,0.5,0.5,6.745770851898194,-0.1005,-0.001,-0.12575,-0.7093225976753119,10,1,100,1.6340622750021512,-10,-1,-100,6315.443532022531,-0.11480858156680898,-0.07871229180584718,0.9902642903373263,355.34550848222733,36.72101977442813,1805.8777061187786,-56.950860014529106,-142.83859252929688,4381.2578125,True
1599568185.4439664,0.0,10,0.5,0.5,9.077788243103027,-0.1005,-0.001,-0.12575,-0.6208104949479636,10,1,100,1.814072444481809,-10,-1,-100,6311.9661477342015,-0.12000914686552926,-0.07644904212388022,0.9898249080655371,331.50226789978285,33.92438880476886,1705.728161481758,-57.50545982603426,-159.4779510498047,4381.2578125,True
1599568185.503772,0.0,10,0.5,0.5,9.419772019195557,-0.1005,-0.001,-0.12575,-0.7056659428198495,10,1,100,1.629945535785128,-10,-1,-100,6309.648480412434,-0.12301458636846081,-0.07516819934909669,0.989554017397338,310.2153667022828,31.614871805989296,1609.8142963521113,-57.87673019089958,-170.1831512451172,4381.2578125,True
