Timestamp,Input Throttle,horizon,dT,dt,Input Roll,Roll P,Roll I,Roll D,Input Pitch,Pitch P,Pitch I,Pitch D,Input Yaw,Yaw P,Yaw I,Yaw D,Altitude,Direction X,Direction Y,Direction Z,Drag X,Drag Y,Drag Z,Vertical Velocity,Roll,Mass,Has Fuel
1599569397.4440806,0.0,10,0.5,0.5,-5.434168807983399,-0.1005,-0.02275,-0.5,-0.06718574203538781,10,1,100,0.6903465132232685,-10,-1,-100,6483.617967135622,-0.0672578370379626,-0.007002501255808369,0.9977110545308884,205.07318077719037,21.49877294764639,-156.76520453078973,9.590823836680507,-35.944610595703125,4381.2578125,True
1599569397.5029235,0.0,10,0.5,0.5,-5.556513913726807,-0.1005,-0.02275,-0.5,-0.06907420179149341,10,1,100,0.6894721998311053,-10,-1,-100,6483.776675186935,-0.067350273817487,-0.006987491611334086,0.9977049241021572,204.84278224243778,21.47779168488292,-153.51326922367315,9.400809938139714,-35.9429931640625,4381.2578125,True
1599569398.034543,0.0,10,0.5,0.5,-5.680737378692627,-0.1005,-0.02275,-0.5,-0.0677346515376005,10,1,100,0.7080699160069444,-10,-1,-100,6484.156591743114,-0.06754214987881908,-0.006955316485311771,0.9976921777594211,204.38115763192846,21.4356089545204,-147.02547944717537,9.020797625099044,-35.9395751953125,4381.2578125,True
1599569398.0849888,0.0,10,0.5,0.5,-5.715279822540284,-0.1005,-0.02275,-0.5,-0.03711814934334305,10,1,100,0.6997785207855993,-10,-1,-100,6484.538935719524,-0.06757980438721892,-0.0066414115176297705,0.9976917668759419,203.94246239697867,21.395610672262983,-140.5758577617864,8.640800702086203,-36.084014892578125,4381.2578125,True
1599569398.1428342,0.0,10,0.5,0.5,-5.806526106262207,-0.1005,-0.02275,-0.5,-0.05058194079948209,10,1,100,0.7044594964027571,-10,-1,-100,6484.697140067583,-0.06759515389647727,-0.006472403822504098,0.9976918377728016,203.75665448728935,21.37897509327574,-137.38154643075885,8.450805386470083,-36.256591796875,4381.2578125,True
1599569398.2006798,0.0,10,0.5,0.5,-5.677959291076661,-0.1005,-0.02275,-0.5,-0.01605219864169303,10,1,100,0.7037472825068481,-10,-1,-100,6485.016948918812,-0.06754118318411617,-0.005998969712934945,0.9976984519064229,203.4469328628086,21.35170787454528,-131.04557280460983,8.070816023671066,-36.8179931640625,4381.2578125,True
1599569398.260555,0.0,10,0.5,0.5,-5.5669663009643555,-0.1005,-0.02275,-0.5,0.011633569958979496,10,1,100,0.6959861652494609,-10,-1,-100,6485.335754242376,-0.06736016221309882,-0.005311432653581479,0.9977145870587397,203.19983961904987,21.330130835368085,-124.76142778953442,7.690821896261773,-37.6717529296875,4381.2578125,True
1599569398.326379,0.0,10,0.5,0.5,-5.790450395202637,-0.1005,-0.02275,-0.5,-0.010650474454390664,10,1,100,0.7053359747251107,-10,-1,-100,6485.493926555384,-0.06721935945084977,-0.004884152610060256,0.997726266452026,203.08721713497172,21.320083226091644,-121.62952276642312,7.5008207071037765,-38.208709716796875,4381.2578125,True
1599569398.386219,0.0,10,0.5,0.5,-4.944710059356689,-0.1005,-0.02275,-0.5,0.12022286820204411,10,1,100,0.6531536741307618,-10,-1,-100,6485.909320286824,-0.06655586388026487,-0.003301518407609682,0.9977772381445449,202.7112932387463,21.284039855869178,-112.22535757658694,6.9307876724689015,-40.260406494140625,4381.2578125,True
1599569398.4455712,0.0,10,0.5,0.5,-5.5847776382446295,-0.1005,-0.02275,-0.5,0.03080619124723428,10,1,100,0.6931176893744768,-10,-1,-100,6486.005454172497,-0.06625548998751213,-0.0026726375427823315,0.9977991115726049,202.5449882705503,21.267021080056402,-109.0735595354064,6.740763325153784,-41.091278076171875,4381.2578125,True
1599569398.508406,0.0,10,0.5,0.5,-4.349821073150634,-0.1005,-0.02275,-0.5,0.20559518499234503,10,1,100,0.6017713790759796,-10,-1,-100,6486.420281402301,-0.06509176954594374,-0.0005095071429448403,0.9978791519717451,201.77252836622787,21.18492425481162,-99.50578476057318,6.170632601425596,-44.024932861328125,4381.2578125,True
1599569398.5717463,0.0,10,0.5,0.5,-5.122648255157471,-0.1005,-0.02275,-0.5,0.07737669202924305,10,1,100,0.6645343384899687,-10,-1,-100,6486.517854632111,-0.06460638338236513,0.000285449653503894,0.9979107844615902,201.38233550931298,21.142833438512604,-96.26611638749878,5.980564448863429,-45.1500244140625,4381.2578125,True
1599569398.6345816,0.0,10,0.5,0.5,-3.3724960823059087,-0.1005,-0.02275,-0.5,0.28911479057982203,10,1,100,0.521490471002555,-10,-1,-100,6486.869133003638,-0.06286721888416728,0.0029264176904945176,0.9980176094985854,199.60166263850255,20.950232234095992,-86.34630378374486,5.4102568356050185,-48.9664306640625,4381.2578125,True
1599569398.6959279,0.0,10,0.5,0.5,-3.502084870147705,-0.1005,-0.02275,-0.5,0.23592012846556443,10,1,100,0.5382131225085984,-10,-1,-100,6487.061787382816,-0.06144243429131023,0.004834726492014737,0.99809891929012,197.74606402528408,20.74989795070397,-79.54753817729664,5.029941462911116,-51.87896728515625,4381.2578125,True
1599569398.7567654,0.0,10,0.5,0.5,-3.9816827560424803,-0.1005,-0.02275,-0.5,0.1572607413720172,10,1,100,0.592935329182535,-10,-1,-100,6487.157864156761,-0.060650229604017704,0.005844034485264831,0.9981419723215305,196.560958754926,20.62226627444727,-76.08875185944859,4.839742570171087,-53.445556640625,4381.2578125,True
1599569398.8186002,0.0,10,0.5,0.5,-1.636856410217285,-0.1005,-0.02275,-0.5,0.38598738911580555,10,1,100,0.3725510579918889,-10,-1,-100,6487.447532075341,-0.05793286371773904,0.008829723605610474,0.9982814329048249,191.75524353083958,20.107015931165574,-65.492859430239,4.268937116990609,-58.589630126953125,4381.2578125,True
1599569398.8834271,0.0,10,0.5,0.5,-3.041140343475342,-0.1005,-0.02275,-0.5,0.20214648566946675,10,1,100,0.5314566595001278,-10,-1,-100,6487.544081599917,-0.0569158623070755,0.009859224871577484,0.9983302961959902,189.6634241064957,19.88374776391344,-61.895492484652344,4.078585027058113,-60.4517822265625,4381.2578125,True
1599569398.9442644,0.0,10,0.5,0.5,-1.5510484123229982,-0.1005,-0.02275,-0.5,0.33176639405383845,10,1,100,0.3886815634288235,-10,-1,-100,6487.6751601592405,-0.05470285496937499,0.011959706410018908,0.9984310507395019,184.6350193159785,19.348967048468786,-54.63722619395885,3.6977309791117867,-64.39739990234375,4381.2578125,True
1599569399.0060995,0.0,10,0.5,0.5,0.42381657867431644,-0.1005,-0.02275,-0.5,0.452321714992521,10,1,100,0.2028733177564649,-10,-1,-100,6487.839784287731,-0.05101324288760897,0.014949879945299064,0.9985860754785794,174.759267057343,18.304643282435713,-43.72874175813486,3.1260004086290802,-70.87216186523438,4381.2578125,True
1599569399.069929,0.0,10,0.5,0.5,-1.3592431091308592,-0.1005,-0.02275,-0.5,0.26596297813648895,10,1,100,0.42164651507431783,-10,-1,-100,6487.9348593897885,-0.04966202698979549,0.015957457007450816,0.9986385946082396,170.76251173962268,17.883768421657486,-40.124340140963525,2.935269255180778,-73.17803955078125,4381.2578125,True
1599569399.1317644,0.0,10,0.5,0.5,1.9452094581604005,-0.1005,-0.02275,-0.5,0.4693961585172125,10,1,100,0.08800614818569497,-10,-1,-100,6488.100459408364,-0.04541563962279367,0.018705892254186045,0.9987930262434891,156.6166975288636,16.398191188296728,-29.626509395753413,2.3626246641482633,-80.47927856445312,4381.2578125,True
1599569399.1965895,0.0,10,0.5,0.5,-0.15034611740112314,-0.1005,-0.02275,-0.5,0.29015260805675763,10,1,100,0.3473575420183962,-10,-1,-100,6488.133528216742,-0.043930914805746714,0.01955751438394382,0.9988431199920498,151.29130171939872,15.83986461463151,-26.307019633903995,2.1716299477088192,-82.9307861328125,4381.2578125,True
1599569399.2614179,0.0,10,0.5,0.5,3.255878964996338,-0.1005,-0.02275,-0.5,0.4719109433053908,10,1,100,-0.02594832424210808,-10,-1,-100,6488.23469790013,-0.03920627115931455,0.021966544763501697,0.9989896592122139,151.09532518930212,15.818874168659264,-19.342176330298265,1.5984984490930239,-90.50119018554688,4381.2578125,True
1599569399.3252466,0.0,10,0.5,0.5,2.53265248336792,-0.1005,-0.02275,-0.5,0.3860247213013578,10,1,100,0.08472834992206185,-10,-1,-100,6488.30134913791,-0.03593880210743672,0.02335847933845128,0.9990809696646603,157.90440837209283,16.53093666870258,-15.383801555850663,1.2164051536499834,-95.44287872314453,4381.2578125,True
1599569399.388078,0.0,10,0.5,0.5,3.0954777700424194,-0.1005,-0.02275,-0.5,0.38198251557720764,10,1,100,0.04443649215065776,-10,-1,-100,6488.307468686835,-0.032625271200702174,0.02457028730650732,0.9991655982172104,164.86708925263915,17.257749025333506,-11.01893296114333,0.8343790027220219,-100.32974243164062,4381.2578125,True
1599569399.4519079,0.0,10,0.5,0.5,2.1759198751449587,-0.1005,-0.02275,-0.5,0.3211667608842749,10,1,100,0.19289858026166135,-10,-1,-100,6488.3415425904095,-0.03098810295777382,0.025102036550421383,0.9992044962049059,167.84243797070107,17.567941743184495,-8.650564131737857,0.6433898524414263,-102.6897964477539,4381.2578125,True
1599569399.5157378,0.0,10,0.5,0.5,5.093560013198853,-0.1005,-0.02275,-0.5,0.42119337495524495,10,1,100,-0.19947332472595752,-10,-1,-100,6488.318306080531,-0.025957246110460564,0.02647998479740225,0.9993122794099403,176.09818472754932,18.42946905350708,-0.9937246948863582,0.07043054610364585,-109.34648132324219,4381.2578125,True
1599569399.5796034,0.0,10,0.5,0.5,4.322045526123047,-0.1005,-0.02275,-0.5,0.3620353070185718,10,1,100,-0.06775752754182457,-10,-1,-100,6488.322046778514,-0.022609300420210282,0.02717975462257344,0.9993748448270877,180.43183779705944,18.882347850927076,4.505637612217993,-0.3116277460453514,-113.41907501220703,4381.2578125,True
1599569399.6424358,0.0,10,0.5,0.5,3.5538008436203006,-0.1005,-0.02275,-0.5,0.32507920141020874,10,1,100,0.07898964142261922,-10,-1,-100,6488.355174338329,-0.020928954560158756,0.027466108005187083,0.9994036180503181,182.2737686316162,19.07477260261112,7.342944224475734,-0.5027013711777766,-115.34501647949219,4381.2578125,True
1599569399.7052677,0.0,10,0.5,0.5,4.871993300056458,-0.1005,-0.02275,-0.5,0.35227776983983894,10,1,100,-0.10350349480101934,-10,-1,-100,6488.29840084177,-0.017769688256558336,0.02796231058595986,0.9994510229951036,185.82189786782175,19.44552488195784,13.179533409983224,-0.8849274777924023,-118.97530364990234,4381.2578125,True
1599569399.7680995,0.0,10,0.5,0.5,5.163980327987671,-0.1005,-0.02275,-0.5,0.34231161192810244,10,1,100,-0.14117506746474914,-10,-1,-100,6488.241650843876,-0.014584152173372444,0.02831188890239341,0.9994927410702705,188.4053665233899,19.715560508768977,19.13896108184633,-1.267267152776189,-122.31076049804688,4381.2578125,True
1599569399.8329263,0.0,10,0.5,0.5,5.417328498458863,-0.1005,-0.02275,-0.5,0.3307121243485859,10,1,100,-0.17025661094473893,-10,-1,-100,6488.18198963115,-0.011451861236521201,0.028515504760566298,0.9995277489206938,190.1760752287328,19.900693088899896,25.152845985008632,-1.649722310096751,-125.35140991210938,4381.2578125,True
1599569399.895632,0.0,10,0.5,0.5,5.641825300979614,-0.1005,-0.02275,-0.5,0.32510569439643244,10,1,100,-0.1864842394022539,-10,-1,-100,6488.124301236472,-0.00848632653846923,0.028641498913543326,0.9995537238197194,191.31038208786924,20.019180505968368,31.175229158291774,-2.0322873101140777,-128.0963134765625,4381.2578125,True
1599569399.9563031,0.0,10,0.5,0.5,6.49466930809021,-0.1005,-0.02275,-0.5,0.3147811465031061,10,1,100,-0.3630169442595056,-10,-1,-100,6487.974814367015,-0.004213470354829555,0.028656111386173983,0.9995804489623594,192.14638984050353,20.106094309028435,40.16507705240568,-2.606320145343965,-131.6596221923828,4381.2578125,True
1599569400.0221264,0.0,10,0.5,0.5,5.999926596260071,-0.1005,-0.02275,-0.5,0.3052899979432039,10,1,100,-0.23494683582484477,-10,-1,-100,6487.8536943686195,-0.0015221705661564102,0.028578296254341176,0.9995903981031264,192.29199903873007,20.12062557429736,46.1066959316328,-2.9891164394705663,-133.6654815673828,4381.2578125,True
1599569400.0894575,0.0,10,0.5,0.5,6.099364882469178,-0.1005,-0.02275,-0.5,0.3022809836072363,10,1,100,-0.24713488561621422,-10,-1,-100,6487.7325895178365,0.0010069905119820387,0.028476556905122706,0.999593953401549,192.28976279671366,20.11926737685842,52.02065750021442,-3.3719871569082103,-135.37493896484375,4381.2578125,True
1599569400.154283,0.0,10,0.5,0.5,6.167626291656495,-0.1005,-0.02275,-0.5,0.29804745157767215,10,1,100,-0.25963660745652994,-10,-1,-100,6487.549976706738,0.0033907934238655386,0.02834251218706015,0.9995925192411571,192.17719460457346,20.105865477034346,57.90459825512097,-3.7549230426263733,-136.78814697265625,4381.2578125,True
1599569400.2171156,0.0,10,0.5,0.5,5.881080174636842,-0.1005,-0.02275,-0.5,0.302666493189087,10,1,100,-0.1497054138603164,-10,-1,-100,6487.518733587582,0.004531832456944665,0.028260951433116452,0.999590306635012,192.1077590512424,20.097587192766223,60.841071787519574,-3.9464132991798193,-137.38369750976562,4381.2578125,True
1599569400.2820196,0.0,10,0.5,0.5,6.443481816673279,-0.1005,-0.02275,-0.5,0.28456903637837033,10,1,100,-0.38707992027065175,-10,-1,-100,6487.243376891594,0.007702416969949505,0.028021300052333355,0.999577650568578,192.02832128002245,20.085365059255665,69.68955936657052,-4.520963997227022,-138.725341796875,4381.2578125,True
1599569400.3468165,0.0,10,0.5,0.5,6.140577299690246,-0.1005,-0.02275,-0.5,0.28783107754458875,10,1,100,-0.2860688234804585,-10,-1,-100,6487.060303139733,0.009640455309561142,0.027832585360362393,0.9995661102766452,192.0793246619004,20.08736066736725,75.62974500037187,-4.90405639167099,-139.24945068359375,4381.2578125,True
1599569400.4096484,0.0,10,0.5,0.5,6.061091326904297,-0.1005,-0.02275,-0.5,0.28803125133815366,10,1,100,-0.2896077157856168,-10,-1,-100,6486.813269302598,0.011409561781467596,0.02766296424326265,0.999552190888115,192.23323305047901,20.0995805489223,81.62032793914877,-5.287189100699832,-139.47666931152344,4381.2578125,True
1599569400.4715166,0.0,10,0.5,0.5,5.94484324760437,-0.1005,-0.02275,-0.5,0.28710945561885354,10,1,100,-0.29266008690721884,-10,-1,-100,6486.628739739885,0.013021958571619991,0.027500973198141185,0.9995369553288732,192.49874117921073,20.123016831590068,87.67489315618143,-5.670356927892852,-139.40724182128906,4381.2578125,True
1599569400.5353134,0.0,10,0.5,0.5,5.923973310852051,-0.1005,-0.02275,-0.5,0.29366240805606425,10,1,100,-0.21679449057051142,-10,-1,-100,6486.474464104627,0.013775837668871973,0.027414203207971246,0.9995292330687447,192.68128041898493,20.13980961084655,90.73316912110475,-5.861952223365426,-139.2614288330078,4381.2578125,True
1599569400.6000283,0.0,10,0.5,0.5,5.713453965377808,-0.1005,-0.02275,-0.5,0.28516653850850904,10,1,100,-0.29544595769835885,-10,-1,-100,6486.226947972318,0.015155957309165713,0.0272592019443895,0.9995134980916455,193.13064116563004,20.182042448535206,96.91179482141258,-6.245161744051225,-138.7471466064453,4381.2578125,True
1599569400.6628587,0.0,10,0.5,0.5,5.189665768051148,-0.1005,-0.02275,-0.5,0.27579245898487803,10,1,100,-0.355371957836824,-10,-1,-100,6485.825641272822,0.01693778477645153,0.0270343427176838,0.9994909983389993,193.98503396516355,20.264194793419755,106.33804572410064,-6.820011507640631,-137.41983032226562,4381.2578125,True
1599569400.7246933,0.0,10,0.5,0.5,5.107978060150147,-0.1005,-0.02275,-0.5,0.2821687843154618,10,1,100,-0.2884110295816194,-10,-1,-100,6485.578118830919,0.017932110439534403,0.02688929542689907,0.9994775661347427,194.62442355656853,20.32657380296979,112.711726054882,-7.203257880816095,-136.16439819335938,4381.2578125,True
1599569400.7865295,0.0,10,0.5,0.5,4.805512971496583,-0.1005,-0.02275,-0.5,0.2824319787885359,10,1,100,-0.28163366299969206,-10,-1,-100,6485.267603282351,0.018759043964385356,0.026761269895466552,0.9994658236793914,195.2565583971335,20.388823721325647,119.12467024661615,-7.586504311764883,-134.61239624023438,4381.2578125,True
1599569400.8493605,0.0,10,0.5,0.5,5.043823781585694,-0.1005,-0.02275,-0.5,0.2883500414227006,10,1,100,-0.2392348147433757,-10,-1,-100,6485.112832048908,0.01911138650233742,0.026700121111103575,0.999460783842273,195.549479683547,20.417886050461792,122.33290033263044,-7.778124741681641,-133.72523498535156,4381.2578125,True
1599569400.9101982,0.0,10,0.5,0.5,3.614366540145874,-0.1005,-0.02275,-0.5,0.271000952219848,10,1,100,-0.2981527449515431,-10,-1,-100,6484.58551767387,0.01995406130778137,0.0264882312510404,0.9994499532455423,196.21940293920875,20.4853112860359,131.87795936965597,-8.352961099026484,-130.61996459960938,4381.2578125,True
1599569400.9730334,0.0,10,0.5,0.5,4.438070514297485,-0.1005,-0.02275,-0.5,0.2843140138419356,10,1,100,-0.23711479792091683,-10,-1,-100,6484.429273683112,0.020154101026690328,0.02641802563736676,0.999447797602871,196.33264018969453,20.497151654592777,134.99991938919027,-8.544562116152221,-129.43679809570312,4381.2578125,True
1599569401.0368598,0.0,10,0.5,0.5,2.609508265304566,-0.1005,-0.02275,-0.5,0.2643925134052447,10,1,100,-0.2601510204054934,-10,-1,-100,6483.90242272371,0.02053581766126996,0.026174383766168985,0.9994464376981111,196.16216223789428,20.482745828695165,144.0187542621553,-9.119323126892402,-125.44375610351562,4381.2578125,True
1599569401.0987253,0.0,10,0.5,0.5,2.7536829895019537,-0.1005,-0.02275,-0.5,0.26727238609108417,10,1,100,-0.2306188020637201,-10,-1,-100,6483.52839010919,0.020606061475162776,0.025980425071748723,0.9994500526507432,195.473122761533,20.416369894273224,149.58762383038624,-9.502458666294318,-122.41224670410156,4381.2578125,True
1599569401.1615574,0.0,10,0.5,0.5,2.2329863708496096,-0.1005,-0.02275,-0.5,0.26136148877249976,10,1,100,-0.21691700385946208,-10,-1,-100,6483.156300441595,0.020538463046932496,0.02575174587222171,0.999457362332282,194.16358435252533,20.28817526897286,154.62410310595456,-9.88556827689493,-119.08537292480469,4381.2578125,True
1599569401.2243898,0.0,10,0.5,0.5,1.6754878364562988,-0.1005,-0.02275,-0.5,0.25431040710163366,10,1,100,-0.20210426195410944,-10,-1,-100,6482.718770970707,0.020336200799058072,0.02548126627322178,0.999468430720137,192.48127966847485,20.1240499340986,159.27558888761118,-10.268663682285025,-115.46333312988281,4381.2578125,True
1599569401.2881994,0.0,10,0.5,0.5,1.0813832496643068,-0.1005,-0.02275,-0.5,0.24543361894129556,10,1,100,-0.18715795253637857,-10,-1,-100,6482.283184681088,0.020011741175838413,0.025156293959647105,0.9994832120097502,190.1345839262275,19.89322375449329,163.25726891696291,-10.65176228672814,-111.54634094238281,4381.2578125,True
1599569401.3530247,0.0,10,0.5,0.5,0.45181773796081526,-0.1005,-0.02275,-0.5,0.23543273917421192,10,1,100,-0.17165944382873852,-10,-1,-100,6481.846612331574,0.019573087842478916,0.024771654811931217,0.9995015054266749,186.77496898284338,19.558393297443725,166.1974105467591,-11.034892545680409,-107.33451843261719,4381.2578125,True
1599569401.4138775,0.0,10,0.5,0.5,1.1611652397155763,-0.1005,-0.02275,-0.5,0.24968493420082327,10,1,100,-0.18713336271802056,-10,-1,-100,6481.628811414237,0.019313492277142897,0.02455347339662685,0.9995119388782816,184.6704862222425,19.34686017531124,167.20684926565258,-11.226480083347877,-105.11807250976562,4381.2578125,True
1599569401.4742503,0.0,10,0.5,0.5,-2.0413403182983396,-0.1005,-0.02275,-0.5,0.18717177963473697,10,1,100,-0.11274904277934746,-10,-1,-100,6480.974906795891,0.018400771174383344,0.023788832338021038,0.9995476492274801,177.4836293161537,18.619883704719342,169.0198137141465,-11.80137363110634,-98.0512466430664,4381.2578125,True
1599569402.0083315,0.0,10,0.5,0.5,-0.061793266105651945,-0.1005,-0.02275,-0.5,0.2308741892815392,10,1,100,-0.16585721550780141,-10,-1,-100,6480.693621202488,0.018054472301522382,0.02349364536223494,0.9995609459445218,174.53658894156197,18.31866152888477,168.94433400091543,-11.99305963596178,-95.5987777709961,4381.2578125,True
1599569402.058238,0.0,10,0.5,0.5,-0.42389023704528817,-0.1005,-0.02275,-0.5,0.22483764752889207,10,1,100,-0.15962112654929234,-10,-1,-100,6480.475809846073,0.017684690325668023,0.023173138264576974,0.9995750383993469,171.25807087680187,17.9816412475037,168.4524507976795,-12.18477770357623,-93.08644104003906,4381.2578125,True
1599569402.1160436,0.0,10,0.5,0.5,-0.799971176147461,-0.1005,-0.02275,-0.5,0.21881391100693695,10,1,100,-0.15377146525380853,-10,-1,-100,6480.1940330559155,0.01729759107284241,0.02282995683229995,0.9995897090377193,167.75452101873503,17.619675931886324,167.63483791719713,-12.376528482999657,-90.5060043334961,4381.2578125,True
1599569402.1818664,0.0,10,0.5,0.5,-2.6612780591964724,-0.1005,-0.02275,-0.5,0.17140916217645152,10,1,100,-0.10387092343926539,-10,-1,-100,6479.694439604995,0.01649498521431276,0.022090061838074486,0.9996199000774094,160.46631713749164,16.861194501633033,165.38537839718728,-12.76011856754462,-85.39019775390625,4381.2578125,True
1599569402.2456968,0.0,10,0.5,0.5,-3.2083157815933228,-0.1005,-0.02275,-0.5,0.15186566028244236,10,1,100,-0.08836154856687636,-10,-1,-100,6479.195330510149,0.015628086549773948,0.021243298519954594,0.9996521821007468,159.8878335974949,16.800010612724463,169.80994840419453,-13.143760590176331,-80.35986328125,4381.2578125,True
1599569402.3119185,0.0,10,0.5,0.5,-3.694978877067566,-0.1005,-0.02275,-0.5,0.13239025351323647,10,1,100,-0.07481060705288244,-10,-1,-100,6478.6342059264425,0.014721270455972501,0.02030056312135488,0.9996855362228254,169.57395342669062,17.810046676435555,185.42629621512216,-13.527266536791613,-75.5076904296875,4381.2578125,True
1599569402.3787425,0.0,10,0.5,0.5,-4.117513752174378,-0.1005,-0.02275,-0.5,0.11402468382755708,10,1,100,-0.06309818645574616,-10,-1,-100,6478.072103918064,0.013795520120127297,0.019281280946532482,0.9997189184114084,177.9408078226085,18.675531067900373,200.17063597398166,-13.91058692258023,-70.91531372070312,4381.2578125,True
1599569402.4535408,0.0,10,0.5,0.5,-4.495757047843933,-0.1005,-0.02275,-0.5,0.0937573558942378,10,1,100,-0.05092535789810561,-10,-1,-100,6477.509515018784,0.01284891793797648,0.018175753272766593,0.9997522429586195,185.3324786287697,19.434518225667034,214.31621646629503,-14.293700999703404,-66.61557006835938,4381.2578125,True
1599569402.525348,0.0,10,0.5,0.5,-5.97622598361969,-0.1005,-0.02275,-0.5,0.006888865120093152,10,1,100,0.012459390756190791,-10,-1,-100,6476.665635687532,0.011418258393622592,0.016387010836431893,0.99980052473036,194.2590219242211,20.34276928291548,233.8108487203076,-14.86798399195239,-60.72430419921875,4381.2578125,True
1599569402.5971582,0.0,10,0.5,0.5,-4.2212596025466915,-0.1005,-0.02275,-0.5,0.11588593821284711,10,1,100,-0.07735506255179764,-10,-1,-100,6476.3223331839545,0.010941331323267606,0.015759187888389196,0.9998159506959132,196.6778995128386,20.58706562424046,239.8191379001776,-15.059314026050396,-58.909698486328125,4381.2578125,True
1599569402.677941,0.0,10,0.5,0.5,-5.447998748016357,-0.1005,-0.02275,-0.5,0.03593163687992357,10,1,100,-0.019689829070939108,-10,-1,-100,6475.7597544554155,0.009990313172983555,0.01446888214573256,0.9998454105971376,200.79721240631972,21.00124074916254,251.16811094182262,-15.441838821109336,-55.50421142578125,4381.2578125,True
1599569402.7507458,0.0,10,0.5,0.5,-5.702825382423401,-0.1005,-0.02275,-0.5,0.021917353102619636,10,1,100,-0.01007124533103404,-10,-1,-100,6475.072670573834,0.009045640601570317,0.013176678675538766,0.9998722676048121,204.08214506804177,21.329968405265387,261.71043519225543,-15.824197003748218,-52.396209716796875,4381.2578125,True
1599569402.829536,0.0,10,0.5,0.5,-5.928175260734558,-0.1005,-0.02275,-0.5,-0.0029457139314346403,10,1,100,-0.00037978003089798873,-10,-1,-100,6474.447604031418,0.008106596806397134,0.011785008056497586,0.9998976931033128,206.67634796185226,21.589022909498517,271.55668864091945,-16.20640717286905,-49.587249755859375,4381.2578125,True
1599569402.9063308,0.0,10,0.5,0.5,-6.812326920318603,-0.1005,-0.02275,-0.5,-0.09177422538780959,10,1,100,0.06059087596214573,-10,-1,-100,6473.4777902239,0.006706997387454248,0.009722361888471106,0.9999302434996925,209.54918682372647,21.876745429670322,285.25638280311773,-16.77948780997732,-45.931060791015625,4381.2578125,True
1599569402.9811356,0.0,10,0.5,0.5,-6.314237524414063,-0.1005,-0.02275,-0.5,-0.040990488048586377,10,1,100,0.023962964541197243,-10,-1,-100,6472.790729246568,0.005776513462993754,0.008320142711485066,0.9999487022430062,210.96973463447793,22.020644078990863,293.85920621208055,-17.1614094747867,-43.86572265625,4381.2578125,True
1599569403.056933,0.0,10,0.5,0.5,-5.917720419311524,-0.1005,-0.02275,-0.5,0.02059810348758799,10,1,100,-0.016920316578790506,-10,-1,-100,6472.44695789041,0.005311241153744812,0.00761704261528886,0.9999568847601398,211.71739816452833,22.097548396096055,298.2494398888135,-17.35233467564255,-42.944610595703125,4381.2578125,True
1599569403.1367218,0.0,10,0.5,0.5,-6.9234202003479,-0.1005,-0.02275,-0.5,-0.1364587890270147,10,1,100,0.09283347826197136,-10,-1,-100,6471.352177327848,0.0038990591279681464,0.0055616012508923444,0.9999769326986712,213.67915848397354,22.302668320815798,311.1631000320505,-17.924977492201883,-40.626251220703125,4381.2578125,True
1599569403.2170157,0.0,10,0.5,0.5,-6.538105222320557,-0.1005,-0.02275,-0.5,-0.08410310508499685,10,1,100,0.056299848437441444,-10,-1,-100,6470.664651454077,0.0029563779765688666,0.0041814513915462564,0.9999868875607918,214.7984985310897,22.422407419160773,319.6044914216128,-18.30663539202319,-39.452301025390625,4381.2578125,True
1599569403.2918158,0.0,10,0.5,0.5,-6.539921755218506,-0.1005,-0.02275,-0.5,-0.09379712088768087,10,1,100,0.0687131928865139,-10,-1,-100,6469.91414447804,0.001995539743906506,0.0028513643774628855,0.9999939437528196,215.83863406982147,22.53550861154873,328.0041266454697,-18.688212952977082,-38.57470703125,4381.2578125,True
1599569403.3636577,0.0,10,0.5,0.5,-6.500475083160401,-0.1005,-0.02275,-0.5,-0.10476403345581184,10,1,100,0.08102593641568154,-10,-1,-100,6469.163156707655,0.0010186825172662144,0.0015548002926395112,0.9999982724394973,216.84614510526356,22.646351211736818,336.42690501337717,-19.06970999811381,-37.99359130859375,4381.2578125,True
1599569403.4364288,0.0,10,0.5,0.5,-6.3651471481323245,-0.1005,-0.02275,-0.5,-0.04730082732999259,10,1,100,0.038420002520383356,-10,-1,-100,6468.756903940812,0.000526977754646843,0.0009114115326673003,0.9999994458115786,217.34796766025966,22.70185251347115,340.6621814652209,-19.260427869067925,-37.8143310546875,4381.2578125,True
1599569403.506243,0.0,10,0.5,0.5,-6.397751153564453,-0.1005,-0.02275,-0.5,-0.1209609289460094,10,1,100,0.10018907733907834,-10,-1,-100,6467.943914697855,-0.00047296058661496095,-0.0003307996541684394,0.9999998334399222,218.36165268044743,22.814152522106564,349.2024719421861,-19.641800726101813,-37.67779541015625,4381.2578125,True
1599569403.576104,0.0,10,0.5,0.5,-6.267178737640381,-0.1005,-0.02275,-0.5,-0.1292251735393148,10,1,100,0.11332527299798639,-10,-1,-100,6467.19294394413,-0.0014927621290355968,-0.0015229325218403364,0.999997726166295,219.39460745824704,22.928367007857073,357.84641631881965,-20.023087103039614,-37.837310791015625,4381.2578125,True
1599569403.6431665,0.0,10,0.5,0.5,-5.896463559722901,-0.1005,-0.02275,-0.5,-0.20126934625573836,10,1,100,0.18355669078707448,-10,-1,-100,6465.974214590853,-0.003049595184832037,-0.003249538571165604,0.9999900701848408,220.9663416594452,23.10066463766004,370.98749601736216,-20.594848189083137,-38.631988525390625,4381.2578125,True
1599569403.7098806,0.0,10,0.5,0.5,-5.770401300811768,-0.1005,-0.02275,-0.5,-0.14751058177282766,10,1,100,0.14588856608638812,-10,-1,-100,6465.097282520961,-0.004113590835938664,-0.004318671756653353,0.9999822135641676,221.99653052661768,23.211952936497614,379.8110848423479,-20.975907475944943,-39.53125,4381.2578125,True
1599569403.7777011,0.0,10,0.5,0.5,-5.512547626495361,-0.1005,-0.02275,-0.5,-0.15088381055845407,10,1,100,0.15956466707422381,-10,-1,-100,6464.284320510575,-0.0051961967965623475,-0.005309786901085967,0.9999724024701465,222.96819179217576,23.31505165940056,388.6061097428511,-21.35687548928432,-40.725830078125,4381.2578125,True
1599569403.851502,0.0,10,0.5,0.5,-4.706492248535156,-0.1005,-0.02275,-0.5,-0.20131534014778116,10,1,100,0.2341981964834926,-10,-1,-100,6462.938177946955,-0.0068493184481678605,-0.006657517456367339,0.9999543811085153,224.1946038733653,23.4403808036459,401.5161514090568,-21.928165135246036,-43.071197509765625,4381.2578125,True
1599569403.9223127,0.0,10,0.5,0.5,-5.315611254882812,-0.1005,-0.02275,-0.5,-0.11226981466744809,10,1,100,0.1312106299209852,-10,-1,-100,6462.530968992505,-0.007406134455808136,-0.007062113985249868,0.9999476364882721,224.50666840814958,23.470395790612493,405.6750527908482,-22.118555743389138,-44.00042724609375,4381.2578125,True
1599569403.9961152,0.0,10,0.5,0.5,-4.5213053443908695,-0.1005,-0.02275,-0.5,-0.1525020556734809,10,1,100,0.1995354161892413,-10,-1,-100,6461.593507477664,-0.0085240447811631,-0.007785455233946287,0.9999333614533364,224.92273878456461,23.505847801360666,413.64706040896436,-22.49928747252026,-46.07965087890625,4381.2578125,True
1599569404.0619383,0.0,10,0.5,0.5,-4.853272078704833,-0.1005,-0.02275,-0.5,-0.11642133748228077,10,1,100,0.15025717635160613,-10,-1,-100,6461.185813267133,-0.009082779637939046,-0.008105361822285386,0.9999259003665114,225.00306859330627,23.508709672247086,417.409815784771,-22.689632651778012,-47.229644775390625,4381.2578125,True
1599569404.1297572,0.0,10,0.5,0.5,-3.0697638412475587,-0.1005,-0.02275,-0.5,-0.18266322286604522,10,1,100,0.2803910412375318,-10,-1,-100,6459.778162520379,-0.010764572404739044,-0.008989602985977948,0.9999016506732538,224.57559582261064,23.440957121230763,427.4575602564623,-23.260614178318875,-51.122222900390625,4381.2578125,True
1599569404.1945846,0.0,10,0.5,0.5,-3.2066166069030766,-0.1005,-0.02275,-0.5,-0.1466624494200631,10,1,100,0.23542008165713507,-10,-1,-100,6458.838754400262,-0.011874382969135995,-0.009457177908445307,0.9998847737690131,223.86590091703948,23.34595890854464,433.3265835353187,-23.641252056885953,-54.08502197265625,4381.2578125,True
1599569404.261406,0.0,10,0.5,0.5,-3.694779027557373,-0.1005,-0.02275,-0.5,-0.1238049893737393,10,1,100,0.18640159283111485,-10,-1,-100,6458.369051451795,-0.012427314108912565,-0.009666154220945166,0.9998760559822479,223.32063393562018,23.277043431225394,435.87762071185534,-23.83157511343917,-55.6768798828125,4381.2578125,True
1599569404.3262317,0.0,10,0.5,0.5,-2.4063924636840825,-0.1005,-0.02275,-0.5,-0.1363499149202762,10,1,100,0.2486016361545425,-10,-1,-100,6457.367632074514,-0.01348549321894072,-0.009962774535732551,0.9998594324184734,221.66443751546677,23.07760299114298,439.81652691640016,-24.21224956064991,-59.08026123046875,4381.2578125,True
1599569404.3930554,0.0,10,0.5,0.5,-0.6646736534118656,-0.1005,-0.02275,-0.5,-0.1433712165011578,10,1,100,0.31441015709485653,-10,-1,-100,6455.896019212669,-0.015036246329301797,-0.010290156439943127,0.9998339982100859,217.83294549216268,22.63407313732917,442.81950317910605,-24.783392074504093,-64.73703002929688,4381.2578125,True
1599569404.4568832,0.0,10,0.5,0.5,-2.215271223449707,-0.1005,-0.02275,-0.5,-0.1184454006276929,10,1,100,0.21532975458751658,-10,-1,-100,6455.426803275361,-0.015535361265478448,-0.01035574940430007,0.9998256903103793,216.07354769372049,22.43595225546104,442.75966862733037,-24.973824200966966,-66.7694091796875,4381.2578125,True
1599569404.5197153,0.0,10,0.5,0.5,-0.5992135635375977,-0.1005,-0.02275,-0.5,-0.11823891203544712,10,1,100,0.26983675305011584,-10,-1,-100,6454.424404014251,-0.016475221043963654,-0.010408914964237589,0.9998100927580296,211.67904456000554,21.950534320853716,440.66184389016405,-25.35478959965203,-71.05416870117188,4381.2578125,True
1599569404.5875332,0.0,10,0.5,0.5,2.911292056274414,-0.1005,-0.02275,-0.5,-0.10047816960043285,10,1,100,0.36309451419101424,-10,-1,-100,6452.359048784128,-0.01816868603241674,-0.010292375635218958,0.9997819591549145,199.1010964289289,20.60519305054664,427.53634163692624,-26.117193649453533,-80.36178588867188,4381.2578125,True
1599569404.6557724,0.0,10,0.5,0.5,-0.17102432022094716,-0.1005,-0.02275,-0.5,-0.10438835122009399,10,1,100,0.23562777136461555,-10,-1,-100,6451.826838093111,-0.018539626949337185,-0.010219041294789878,0.9997759016037518,195.09449768276662,20.18580186354727,422.14456141963103,-26.307895512136916,-82.84100341796875,4381.2578125,True
1599569404.7186034,0.0,10,0.5,0.5,1.692633620452881,-0.1005,-0.02275,-0.5,-0.0914603850910067,10,1,100,0.2727208276094411,-10,-1,-100,6450.762414847733,-0.019204950492246756,-0.010032634396807336,0.9997652305034669,193.96405366028546,20.068768873554813,426.0970597445407,-26.689323326674838,-87.86953735351562,4381.2578125,True
1599569404.7824647,0.0,10,0.5,0.5,2.1998771606445313,-0.1005,-0.02275,-0.5,-0.08479755531373634,10,1,100,0.2721152659097062,-10,-1,-100,6449.698474236648,-0.01979508299684486,-0.009800850334689365,0.9997560192476288,203.01944642846468,21.01784261198473,452.69868799109645,-27.070480194923523,-92.74723052978516,4381.2578125,True
1599569404.844841,0.0,10,0.5,0.5,2.750870313835144,-0.1005,-0.02275,-0.5,-0.07809962418341891,10,1,100,0.26894438667649073,-10,-1,-100,6448.571540662553,-0.020294531362002897,-0.009528509770353131,0.9997486381577885,211.46801839223886,21.914612343235635,478.53125385291764,-27.45130612519115,-97.56845092773438,4381.2578125,True
1599569404.9089942,0.0,10,0.5,0.5,1.835954916191101,-0.1005,-0.02275,-0.5,-0.08932545282970825,10,1,100,0.24270076022486237,-10,-1,-100,6448.039322357392,-0.020502342227683705,-0.009382915579684724,0.9997457751140555,215.4155413470378,22.337467537438553,491.0267307291198,-27.641583972777283,-99.89446258544922,4381.2578125,True
1599569404.9727948,0.0,10,0.5,0.5,4.706706384277344,-0.1005,-0.02275,-0.5,-0.05315255128212586,10,1,100,0.2765630729693918,-10,-1,-100,6446.323029902298,-0.02099175946859946,-0.008921970154682024,0.9997398383994565,225.3073730472309,23.411190810305236,524.7505722950336,-28.21189239728323,-106.44427490234375,4381.2578125,True
1599569405.0346637,0.0,10,0.5,0.5,2.761971642303467,-0.1005,-0.02275,-0.5,-0.08175853380604439,10,1,100,0.24114807836263316,-10,-1,-100,6445.784458849928,-0.02110790585823447,-0.008763929431607056,0.9997387908104785,228.36174370834078,23.74501920385404,535.6387553568702,-28.40182564508703,-108.47994232177734,4381.2578125,True
1599569405.098493,0.0,10,0.5,0.5,5.242860936164856,-0.1005,-0.02275,-0.5,-0.045269204291844264,10,1,100,0.2539275702953261,-10,-1,-100,6444.067663097521,-0.021324150994082657,-0.008289922348690117,0.9997382446279798,235.74899375445116,24.560105310717507,564.6520337048352,-28.9711721228133,-114.14057159423828,4381.2578125,True
1599569405.1632679,0.0,10,0.5,0.5,4.563088670349121,-0.1005,-0.02275,-0.5,-0.059331851739491376,10,1,100,0.2364322292802874,-10,-1,-100,6442.874787400477,-0.02135642639041829,-0.0079887270928857,0.9997400078476733,239.38628112196878,24.965224944425223,581.2738545997688,-29.350411852325998,-117.5423583984375,4381.2578125,True
1599569405.2270966,0.0,10,0.5,0.5,3.9223363700866702,-0.1005,-0.02275,-0.5,-0.07295581949050706,10,1,100,0.23202920649913772,-10,-1,-100,6442.280545663671,-0.021341302720579818,-0.007840967647046693,0.9997415006013036,240.8764758944733,25.1317124021169,588.8725724253293,-29.53995005719927,-119.13166809082031,4381.2578125,True
1599569405.2909617,0.0,10,0.5,0.5,4.990938868331909,-0.1005,-0.02275,-0.5,-0.0591584724360093,10,1,100,0.2238244600877281,-10,-1,-100,6441.092058241367,-0.021250081129088244,-0.0075834390030505,0.9997454303495937,243.30260318481666,25.402717253807666,602.8473803508938,-29.918887409194234,-122.08763122558594,4381.2578125,True
1599569405.35417,0.0,10,0.5,0.5,5.930220868682861,-0.1005,-0.02275,-0.5,-0.04644632176568202,10,1,100,0.2022275326699292,-10,-1,-100,6439.243402564782,-0.02096835265649796,-0.007236153049952567,0.9997539528683598,246.195782801043,25.720632955800745,622.2371791880992,-30.48699679121337,-125.96436309814453,4381.2578125,True
1599569405.4190161,0.0,10,0.5,0.5,5.40772341594696,-0.1005,-0.02275,-0.5,-0.060456306010054014,10,1,100,0.20003315527194887,-10,-1,-100,6438.0505123224575,-0.020690683884921287,-0.007050344296036786,0.9997610655780119,247.54060737012063,25.86461622669323,633.8391741838776,-30.865572963086482,-128.1778564453125,4381.2578125,True
1599569405.4818754,0.0,10,0.5,0.5,4.979387522888183,-0.1005,-0.02275,-0.5,-0.07011041012814975,10,1,100,0.20987605717389662,-10,-1,-100,6437.395716939587,-0.020526924472698313,-0.006971692289949359,0.999764992824967,248.07949070136627,25.920711197274446,639.3334147049516,-31.054818711922458,-129.17337036132812,4381.2578125,True
1599569405.545204,0.0,10,0.5,0.5,6.079851458740235,-0.1005,-0.02275,-0.5,-0.0577850203590434,10,1,100,0.16293404083721091,-10,-1,-100,6435.547537840321,-0.01995109541024329,-0.006790465847860188,0.9997778970178829,249.30704598641904,26.041438209379287,654.9189171014978,-31.622404742849312,-131.71511840820312,4381.2578125,True
1599569405.6100643,0.0,10,0.5,0.5,5.676480320549011,-0.1005,-0.02275,-0.5,-0.06773851496441782,10,1,100,0.16966153034285553,-10,-1,-100,6434.23305921338,-0.019489274573351346,-0.006718557623947823,0.9997874920002042,249.90700644306716,26.09419869718142,664.8120042073078,-32.000678728784955,-133.03919982910156,4381.2578125,True
1599569405.6748557,0.0,10,0.5,0.5,5.405806322669982,-0.1005,-0.02275,-0.5,-0.07240876521293065,10,1,100,0.18790878802107444,-10,-1,-100,6433.639784685802,-0.019236687504974523,-0.006697646434041912,0.9997925241699303,250.16769273795148,26.115269382690457,669.6732873517857,-32.18978218078843,-133.59017944335938,4381.2578125,True
1599569405.7376902,0.0,10,0.5,0.5,5.9132724899291995,-0.1005,-0.02275,-0.5,-0.07233911934797391,10,1,100,0.12351721110444858,-10,-1,-100,6431.66855167842,-0.018423386032983775,-0.00667988155626199,0.9998079605751666,250.8752369354982,26.166942411179182,684.1261756569427,-32.756958239427064,-134.79888916015625,4381.2578125,True
1599569406.2802722,0.0,10,0.5,0.5,5.509027410316468,-0.1005,-0.02275,-0.5,-0.07528824831733,10,1,100,0.17176278627816977,-10,-1,-100,6431.010822763201,-0.018125254255445197,-0.006692005604176597,0.9998133286864949,251.10572105034598,26.182643124389458,688.951527018192,-32.94597131593457,-135.05386352539062,4381.2578125,True
1599569406.33509,0.0,10,0.5,0.5,5.530087581062317,-0.1005,-0.02275,-0.5,-0.07649429231487237,10,1,100,0.16687619910607593,-10,-1,-100,6430.352116610622,-0.017812739276241066,-0.006715170339975451,0.9998187899848561,251.3401011576495,26.198409702916237,693.7986430913107,-33.134960810122045,-135.23489379882812,4381.2578125,True
1599569406.3939333,0.0,10,0.5,0.5,5.560377708244324,-0.1005,-0.02275,-0.5,-0.08067793603344467,10,1,100,0.12653947713632147,-10,-1,-100,6428.976599238929,-0.01716514506218894,-0.006775285767513313,0.9998297121499053,251.83078440991807,26.231537731326217,703.5874048764302,-33.51286676961929,-135.37506103515625,4381.2578125,True
1599569406.4527757,0.0,10,0.5,0.5,5.427281293678284,-0.1005,-0.02275,-0.5,-0.08527629644082602,10,1,100,0.11378943914222345,-10,-1,-100,6427.656745785731,-0.016464227191346936,-0.006872474117374416,0.9998408364947382,252.36198061188378,26.26851202452979,713.5362367983655,-33.890670803572924,-135.21978759765625,4381.2578125,True
1599569406.5122275,0.0,10,0.5,0.5,5.255274464797973,-0.1005,-0.02275,-0.5,-0.08832127960822564,10,1,100,0.10236910316564787,-10,-1,-100,6426.285134276026,-0.0157273025503082,-0.006988839445072304,0.9998518930710197,252.93285106772035,26.3099094909251,723.6464118871558,-34.268367596353386,-134.7689971923828,4381.2578125,True
1599569406.5700731,0.0,10,0.5,0.5,5.047635215759278,-0.1005,-0.02275,-0.5,-0.09136397760526879,10,1,100,0.09047607033755979,-10,-1,-100,6424.90278125694,-0.014953764743049106,-0.007122342910998926,0.9998628191664433,253.5319837905354,26.35522395047623,733.8884992989401,-34.64595236179689,-134.0229034423828,4381.2578125,True
1599569406.632907,0.0,10,0.5,0.5,4.806429126358033,-0.1005,-0.02275,-0.5,-0.09416133822034611,10,1,100,0.07820480700471218,-10,-1,-100,6423.524334604386,-0.01414405812408736,-0.007269003294141058,0.9998735456100898,254.13607048793995,26.40275860197462,744.1968320149231,-35.023421321297604,-132.98162841796875,4381.2578125,True
1599569406.694739,0.0,10,0.5,0.5,4.059877987289429,-0.1005,-0.02275,-0.5,-0.10481844409376935,10,1,100,0.01863519955335738,-10,-1,-100,6421.3626728190575,-0.012871698436642688,-0.007498778661804771,0.9998890376926519,254.96600776332167,26.4710431113976,759.5299763438422,-35.58940557104907,-130.86660766601562,4381.2578125,True
1599569406.7556105,0.0,10,0.5,0.5,5.112445716094971,-0.1005,-0.02275,-0.5,-0.08191892943118378,10,1,100,0.14520941068415366,-10,-1,-100,6421.3626728190575,-0.012871698436642688,-0.007498778661804771,0.9998890376926519,254.96600776332167,26.4710431113976,759.5299763438422,-35.58940557104907,-130.86660766601562,4381.2578125,True
1599569406.8174474,0.0,10,0.5,0.5,4.038212473297119,-0.1005,-0.02275,-0.5,-0.09848437287800202,10,1,100,0.04759409845830566,-10,-1,-100,6419.925146932132,-0.01199007286101528,-0.007648645300205152,0.9998988630745907,255.39132172064694,26.507735585193327,769.4278644256908,-35.966585584014155,-129.08802795410156,4381.2578125,True
1599569406.8782487,0.0,10,0.5,0.5,2.9807069660186762,-0.1005,-0.02275,-0.5,-0.10602794300619235,10,1,100,-0.014844546901280564,-10,-1,-100,6417.763488872675,-0.010626819482786825,-0.007852584914694554,0.9999126999982738,255.6696872241426,26.53418032914463,783.251380494543,-36.53216042161727,-125.86770629882812,4381.2578125,True
1599569406.9400847,0.0,10,0.5,0.5,3.059831270217895,-0.1005,-0.02275,-0.5,-0.0994222303565076,10,1,100,0.017149940742441,-10,-1,-100,6416.256630054093,-0.009685173967315388,-0.00797687755895095,0.999921280316422,255.4915193872686,26.520950994902332,791.374917045827,-36.909100148724235,-123.3529052734375,4381.2578125,True
1599569407.0019183,0.0,10,0.5,0.5,3.468837649154663,-0.1005,-0.02275,-0.5,-0.09266063721635015,10,1,100,0.05853185523745116,-10,-1,-100,6415.542752463021,-0.009212720508031378,-0.00802725483680172,0.9999253416933814,255.2577173107193,26.50158439236624,794.9879786304674,-37.09754433450974,-121.985107421875,4381.2578125,True
1599569407.0637524,0.0,10,0.5,0.5,0.3953186809539795,-0.1005,-0.02275,-0.5,-0.10244107878587048,10,1,100,-0.10442300393340649,-10,-1,-100,6412.53245985473,-0.007309039029450988,-0.008160827313598705,0.999939987622269,253.0627990987845,26.30889043878511,805.4048654414099,-37.85122742515784,-115.7786865234375,4381.2578125,True
1599569407.12459,0.0,10,0.5,0.5,3.454300625228882,-0.1005,-0.02275,-0.5,-0.08921266642579434,10,1,100,0.08502962510844286,-10,-1,-100,6412.53245985473,-0.007309039029450988,-0.008160827313598705,0.999939987622269,253.0627990987845,26.30889043878511,805.4048654414099,-37.85122742515784,-115.7786865234375,4381.2578125,True
1599569407.1889918,0.0,10,0.5,0.5,1.2829951599121094,-0.1005,-0.02275,-0.5,-0.09253968180396087,10,1,100,-0.022887097860247882,-10,-1,-100,6411.029024580144,-0.0063356308783909425,-0.008190007464428831,0.9999463903425551,251.00873898740167,26.12177854342599,807.4625437991879,-38.22807165659179,-112.23480224609375,4381.2578125,True
1599569407.2521262,0.0,10,0.5,0.5,-0.41496816368103007,-0.1005,-0.02275,-0.5,-0.0842681522747343,10,1,100,-0.07989878615594014,-10,-1,-100,6408.683787445072,-0.00494026096916157,-0.00814036854714195,0.9999546630830186,246.48551918499803,25.698304839947127,805.6308871628711,-38.793449399441954,-106.53898620605469,4381.2578125,True
1599569407.3129518,0.0,10,0.5,0.5,-0.09189141006469725,-0.1005,-0.02275,-0.5,-0.08118529482147063,10,1,100,-0.04396081992500944,-10,-1,-100,6407.114926810027,-0.0040068187421023515,-0.008066424131621478,0.9999594382800218,242.41542053448399,25.30761129530572,800.7101878552003,-39.170496488405306,-102.43461608886719,4381.2578125,True
1599569407.3728244,0.0,10,0.5,0.5,0.5984691097259522,-0.1005,-0.02275,-0.5,-0.08263813704705378,10,1,100,-0.0008834134130602384,-10,-1,-100,6406.335624475265,-0.0035579066673340006,-0.00801189355095379,0.9999615746926852,240.11080148223596,25.083517932400635,797.2627322835679,-39.359071404268256,-100.2745132446289,4381.2578125,True
1599569407.4356875,0.0,10,0.5,0.5,-2.2762068426132203,-0.1005,-0.02275,-0.5,-0.06483299609599438,10,1,100,-0.09933343839385766,-10,-1,-100,6403.986976453569,-0.00226327163750944,-0.007799988909983398,0.9999670183433547,232.75237793274624,24.357787116011366,784.9929387425208,-39.92501317888353,-93.8046875,4381.2578125,True
1599569407.497491,0.0,10,0.5,0.5,-1.7002426622390747,-0.1005,-0.02275,-0.5,-0.06561639664510553,10,1,100,-0.06232762193504254,-10,-1,-100,6402.351226370316,-0.0014315897611340733,-0.007614332565356981,0.9999699857947437,227.1221001389232,23.788886794740446,773.9535245223681,-40.30249734577853,-89.51046752929688,4381.2578125,True
1599569407.559358,0.0,10,0.5,0.5,-2.251707547187805,-0.1005,-0.02275,-0.5,-0.06058147665331881,10,1,100,-0.06484100694324979,-10,-1,-100,6400.727196509135,-0.0006610256731924494,-0.007399998663361575,0.9999724011515726,221.42688622773903,23.203025438352814,762.3184182355653,-40.680115161507466,-85.15432739257812,4381.2578125,True
1599569407.6211934,0.0,10,0.5,0.5,-1.4246899698257447,-0.1005,-0.02275,-0.5,-0.06939000676345937,10,1,100,-0.028268309144662208,-10,-1,-100,6399.87856102013,-0.0003011957080455174,-0.00728575164336302,0.9999734131986394,218.35947082295704,22.882730471380924,755.5960035453826,-40.86897033265822,-83.04916381835938,4381.2578125,True
1599569407.6882238,0.0,10,0.5,0.5,-2.8640618898391725,-0.1005,-0.02275,-0.5,-0.053366453518793336,10,1,100,-0.07034129701353573,-10,-1,-100,6398.249650321086,0.000400302763805102,-0.007036896144043223,0.9999751606166801,218.188367048009,22.858201846329322,762.6796236587979,-41.24666121776353,-79.046875,4381.2578125,True
1599569407.7520595,0.0,10,0.5,0.5,-3.173067740058899,-0.1005,-0.02275,-0.5,-0.04904251499501673,10,1,100,-0.07115798776681116,-10,-1,-100,6396.621717539965,0.0010384446161597544,-0.00677237709550867,0.9999765279951602,225.4364274537328,23.600205238111958,795.9482121794313,-41.624007797119155,-75.3389892578125,4381.2578125,True
1599569407.814364,0.0,10,0.5,0.5,-4.414339886665344,-0.1005,-0.02275,-0.5,-0.028326703502880572,10,1,100,-0.103066231373249,-10,-1,-100,6394.086069009616,0.0019010598932264998,-0.006344841901656103,0.9999780642356737,234.4143611631347,24.49908594306504,840.0153053151379,-42.189375679686094,-70.33779907226562,4381.2578125,True
1599569407.877232,0.0,10,0.5,0.5,-2.920146230506897,-0.1005,-0.02275,-0.5,-0.054986759757688436,10,1,100,-0.045714391858181935,-10,-1,-100,6393.237435517251,0.002156387339721461,-0.006200215114618179,0.9999784534309596,236.95474206627242,24.748330277957365,853.2840894603053,-42.37766736124138,-68.82058715820312,4381.2578125,True
1599569407.9430196,0.0,10,0.5,0.5,-3.934643210411072,-0.1005,-0.02275,-0.5,-0.03685222687751938,10,1,100,-0.07281376797896602,-10,-1,-100,6391.546516589588,0.0026284096664432057,-0.005905640603339006,0.9999791072175906,241.4366263087983,25.18122516773896,877.9085517877894,-42.75402202023143,-66.01077270507812,4381.2578125,True
1599569408.007847,0.0,10,0.5,0.5,-5.447712318611146,-0.1005,-0.02275,-0.5,-0.0017575370440567756,10,1,100,-0.11025348703401884,-10,-1,-100,6388.037725730916,0.003391849929046594,-0.005320767306897627,0.9999800921965021,248.3723227653255,25.82931258514498,920.5759177491735,-43.50590662937379,-61.289520263671875,4381.2578125,True
1599569408.071738,0.0,10,0.5,0.5,-3.7722086280822755,-0.1005,-0.02275,-0.5,-0.044461863104034494,10,1,100,-0.05131347122305662,-10,-1,-100,6387.192509835237,0.0035437502453169447,-0.005179731934536222,0.9999803059117139,249.75336863877197,25.954261567868024,930.0802812755073,-43.693724412126144,-60.296295166015625,4381.2578125,True
1599569408.1335511,0.0,10,0.5,0.5,-4.409959690856933,-0.1005,-0.02275,-0.5,-0.0286299024541986,10,1,100,-0.06523690596198031,-10,-1,-100,6385.436161094462,0.0038031390105685457,-0.00490997309645957,0.9999807139629535,252.16805259692603,26.1684287767672,947.9297912496405,-44.06919650695335,-58.534210205078125,4381.2578125,True
1599569408.19734,0.0,10,0.5,0.5,-4.061088543701172,-0.1005,-0.02275,-0.5,-0.04122827584921138,10,1,100,-0.05158502935258805,-10,-1,-100,6384.528446208686,0.003910080165464887,-0.004781726964952637,0.9999809229982002,253.22132745792553,26.259835947207204,956.3375058961688,-44.25685624024618,-57.765350341796875,4381.2578125,True
1599569408.2591767,0.0,10,0.5,0.5,-4.855394941711426,-0.1005,-0.02275,-0.5,-0.009490789406672737,10,1,100,-0.06863391632495949,-10,-1,-100,6381.867799780215,0.004158133727993432,-0.004378997215649082,0.9999817669874215,255.86299896224898,26.482004864418055,979.8068899842223,-44.819559434413065,-55.90618896484375,4381.2578125,True
1599569408.3210094,0.0,10,0.5,0.5,-4.507760840606689,-0.1005,-0.02275,-0.5,-0.021905892862736063,10,1,100,-0.05453089543420325,-10,-1,-100,6380.046020344598,0.004251373749979743,-0.0041283863426352565,0.9999824409695621,257.2639934353687,26.5942649128652,994.2259720324062,-45.19448574796628,-55.0399169921875,4381.2578125,True
1599569408.3828437,0.0,10,0.5,0.5,-4.470393881988525,-0.1005,-0.02275,-0.5,-0.020376398980722524,10,1,100,-0.050118996499279575,-10,-1,-100,6378.237424952444,0.004292528260571471,-0.0038892978862420267,0.9999832236408189,258.42838663820777,26.68303881303858,1007.8311624134051,-45.56926197229749,-54.4718017578125,4381.2578125,True
1599569408.4456766,0.0,10,0.5,0.5,-4.396102451324463,-0.1005,-0.02275,-0.5,-0.01874056248842828,10,1,100,-0.04513222910896652,-10,-1,-100,6376.415645506233,0.004281648945157094,-0.003659694484326658,0.9999841369334774,259.38722385566166,26.75127042988855,1020.7216198412232,-45.943900979520386,-54.2015380859375,4381.2578125,True
1599569408.5075111,0.0,10,0.5,0.5,-4.311828131103516,-0.1005,-0.02275,-0.5,-0.0290131178913727,10,1,100,-0.04373609184890081,-10,-1,-100,6375.504511948209,0.0042569023296416715,-0.003546792029355208,0.9999846494066079,259.795962196829,26.778233593194134,1026.9179442480106,-46.13117275997001,-54.177978515625,4381.2578125,True
1599569408.5713403,0.0,10,0.5,0.5,-4.107934545135498,-0.1005,-0.02275,-0.5,-0.004764933168825765,10,1,100,-0.030365723337008335,-10,-1,-100,6372.712514598388,0.004110947042710519,-0.0032261275937991566,0.9999863460143645,260.75177152537464,26.831194327440137,1044.5335539196726,-46.69281416139128,-54.553375244140625,4381.2578125,True
1599569408.6341732,0.0,10,0.5,0.5,-3.948475130462647,-0.1005,-0.02275,-0.5,-0.014014810961961818,10,1,100,-0.027601357789189207,-10,-1,-100,6370.824327869457,0.003951782061087237,-0.003021140189603565,0.9999876279887149,261.1601454545764,26.84237437466928,1055.430607469985,-47.06711110556046,-55.174896240234375,4381.2578125,True
1599569408.6965797,0.0,10,0.5,0.5,-3.721796208953857,-0.1005,-0.02275,-0.5,-0.012774181265345762,10,1,100,-0.021341460701311543,-10,-1,-100,6368.851179882768,0.0037496694386926007,-0.002825600122290421,0.9999889779207815,261.3689896359452,26.83214506437107,1065.5629862083829,-47.441317658882845,-56.093048095703125,4381.2578125,True
1599569408.7594123,0.0,10,0.5,0.5,-3.4611590873718265,-0.1005,-0.02275,-0.5,-0.011313988267204776,10,1,100,-0.01454350947976148,-10,-1,-100,6366.938090289244,0.003503943935234862,-0.00263670206276105,0.9999903850433417,261.348721682538,26.797211704281775,1074.790197686739,-47.81544751748134,-57.3074951171875,4381.2578125,True
1599569408.822752,0.0,10,0.5,0.5,-3.6398938644409182,-0.1005,-0.02275,-0.5,-0.019747981850047204,10,1,100,-0.023713679855322814,-10,-1,-100,6365.951760825468,0.0033641942946650515,-0.002543715833063552,0.9999911058137009,261.24069252717294,26.769208293920947,1079.0080744729748,-48.002488454885324,-58.02569580078125,4381.2578125,True
1599569408.8825924,0.0,10,0.5,0.5,-2.438234455108643,-0.1005,-0.02275,-0.5,0.0008952914462709051,10,1,100,0.01471611756645877,-10,-1,-100,6363.031832592096,0.002888283632013391,-0.0022735513316737427,0.9999932443681824,260.4509920157908,26.63555610401541,1089.731581394869,-48.56354219027547,-60.623809814453125,4381.2578125,True
1599569408.9454255,0.0,10,0.5,0.5,-1.7675302490234377,-0.1005,-0.02275,-0.5,0.0028802346756140913,10,1,100,0.029889434075780635,-10,-1,-100,6360.11630021676,0.0023188527432416645,-0.002011816342765319,0.9999952877473763,258.80629422565033,26.412375270717178,1096.817319718518,-49.12454701926094,-63.886138916015625,4381.2578125,True
1599569409.009612,0.0,10,0.5,0.5,-2.637052570343018,-0.1005,-0.02275,-0.5,-0.013682303866163063,10,1,100,-0.004871113911910151,-10,-1,-100,6359.146571844351,0.002118950117888864,-0.001926368130500972,0.9999958995697051,258.027963770776,26.314398309478992,1098.178230726472,-49.31155159149788,-65.1209716796875,4381.2578125,True
1599569409.0724444,0.0,10,0.5,0.5,-1.6146024116516116,-0.1005,-0.02275,-0.5,-0.003419356734528471,10,1,100,0.02237063695400083,-10,-1,-100,6357.141197253484,0.001691544158007748,-0.0017571728997510154,0.9999970255064571,256.0645871176919,26.07765224943359,1099.0992692423058,-49.68558518146288,-67.81146240234375,4381.2578125,True
1599569409.1362734,0.0,10,0.5,0.5,-2.0548175682067873,-0.1005,-0.02275,-0.5,-0.010905734241409167,10,1,100,0.004617614509760736,-10,-1,-100,6356.168540105107,0.0014667390392335974,-0.0016731465960268573,0.9999975246254658,254.85698158115264,25.936970898341063,1098.5480565903292,-49.87262139338515,-69.26702880859375,4381.2578125,True
1599569409.2054229,0.0,10,0.5,0.5,-0.867843936920166,-0.1005,-0.02275,-0.5,-0.0006223818602025706,10,1,100,0.03599977223576084,-10,-1,-100,6354.163166489103,0.0009796149185574668,-0.0015049773395696795,0.9999983876976097,251.93400901396626,25.60647956854773,1095.1390865318783,-50.246751532262984,-72.39846801757812,4381.2578125,True
1599569409.2872033,0.0,10,0.5,0.5,-0.3362607856750488,-0.1005,-0.02275,-0.5,0.0010153705820173144,10,1,100,0.042639428831526154,-10,-1,-100,6352.095782082644,0.0004792609599123479,-0.0013387722208195456,0.9999989889984255,248.26195001489558,25.20503872905372,1088.2772704437543,-50.620984333655784,-75.82345581054688,4381.2578125,True
1599569409.3490386,0.0,10,0.5,0.5,1.409716121673584,-0.1005,-0.02275,-0.5,0.012071244488070405,10,1,100,0.08272757508621452,-10,-1,-100,6349.055253390106,-0.0003368871310793135,-0.0010886981391451086,0.9999993506215005,241.1412558548828,24.4543543635193,1070.401724704839,-51.18259140850777,-81.50454711914062,4381.2578125,True
1599569409.4138649,0.0,10,0.5,0.5,-0.15525026016235355,-0.1005,-0.02275,-0.5,-0.0036388778654282035,10,1,100,0.032614203622752094,-10,-1,-100,6348.022538971156,-0.0006195487854313729,-0.0010057563608211943,0.9999993023064792,238.30205774397837,24.162256065541314,1062.2121218741697,-51.369876164189826,-83.532470703125,4381.2578125,True
1599569409.4772718,0.0,10,0.5,0.5,2.6332573387146,-0.1005,-0.02275,-0.5,0.015290887187423734,10,1,100,0.10109103789715372,-10,-1,-100,6344.9195132900495,-0.0014952819712271996,-0.0007597486488662,0.9999985934559193,240.68120677003967,24.410290057656653,1086.234409137324,-51.931651178461586,-89.76528930664062,4381.2578125,True
1599569409.5400193,0.0,10,0.5,0.5,1.9900522743225098,-0.1005,-0.02275,-0.5,0.008839635004497151,10,1,100,0.08119842930285102,-10,-1,-100,6342.851156747551,-0.0021061434472152973,-0.0005963748098284444,0.9999976042455632,247.10583084906457,25.081822985684653,1124.4373062120133,-52.30571210282427,-93.76361846923828,4381.2578125,True
1599569409.600352,0.0,10,0.5,0.5,2.4294941900253297,-0.1005,-0.02275,-0.5,0.010243184769286786,10,1,100,0.08867143778520868,-10,-1,-100,6340.720301854191,-0.0027248681142447934,-0.0004366183005886202,0.9999961922218602,253.2044120591197,25.730813546803862,1161.630115902058,-52.67938907860639,-97.69902801513672,4381.2578125,True
1599569409.662187,0.0,10,0.5,0.5,2.7569608863830566,-0.1005,-0.02275,-0.5,0.011174088340393075,10,1,100,0.09623954639661618,-10,-1,-100,6338.5889594185865,-0.0033515608708685066,-0.0002843543488534289,0.9999943430751662,258.8886004445778,26.346068086725424,1197.360227908501,-53.05267339618372,-101.39302825927734,4381.2578125,True
1599569409.7235332,0.0,10,0.5,0.5,3.036420939064026,-0.1005,-0.02275,-0.5,0.01234877460289824,10,1,100,0.10438826021497907,-10,-1,-100,6336.459571315208,-0.003990387583430856,-0.0001367463483274331,0.9999920290219169,263.7338415694216,26.881666953347175,1229.5974513004048,-53.42559268991731,-104.79676055908203,4381.2578125,True
1599569410.2621348,0.0,10,0.5,0.5,2.3736861457824707,-0.1005,-0.02275,-0.5,0.005440680633777608,10,1,100,0.07642231345393251,-10,-1,-100,6335.424419094459,-0.004311737868167625,-6.68312262516459e-05,0.9999907021818469,266.09922085795705,27.145011535932788,1245.5810744002438,-53.61192040077553,-106.3870849609375,4381.2578125,True
1599569410.3169546,0.0,10,0.5,0.5,2.573136955261231,-0.1005,-0.02275,-0.5,0.005925117109177343,10,1,100,0.08027536750674205,-10,-1,-100,6334.326766703278,-0.004633649093947137,-3.283431061828856e-07,0.9999892645903588,268.3838944999164,27.40067805606885,1261.2719319696905,-53.79816182321444,-107.90276336669922,4381.2578125,True
1599569410.3747997,0.0,10,0.5,0.5,2.761387079048157,-0.1005,-0.02275,-0.5,0.00650123455965145,10,1,100,0.08426605144782878,-10,-1,-100,6333.230580097996,-0.004957471640472477,6.399839203358129e-05,0.999987709614043,270.49520288626763,27.638945340872283,1276.2285117044462,-53.98432124765139,-109.34375762939453,4381.2578125,True
1599569410.4356718,0.0,10,0.5,0.5,3.7132850746154786,-0.1005,-0.02275,-0.5,0.013452258050612969,10,1,100,0.12451146226142176,-10,-1,-100,6331.099241849151,-0.005612780660527827,0.0001843931187940597,0.9999842312218901,274.2451271770743,28.06718104597343,1304.1266869587673,-54.35641002107576,-112.00177001953125,4381.2578125,True
1599569410.496475,0.0,10,0.5,0.5,3.8706296813964847,-0.1005,-0.02275,-0.5,0.01354952338470667,10,1,100,0.13270798415044094,-10,-1,-100,6328.906869990868,-0.006278233701815185,0.00029356974501540173,0.9999802486041361,277.4452854603352,28.438026578195874,1329.667988244588,-54.728217390962804,-114.36141967773438,4381.2578125,True
1599569410.5563474,0.0,10,0.5,0.5,3.998981745910645,-0.1005,-0.02275,-0.5,0.013089399488211275,10,1,100,0.1408306424510658,-10,-1,-100,6326.712057980942,-0.006951889101249024,0.0003874570733340849,0.9999757602636875,280.1850034158914,28.759633235398333,1353.226284913657,-55.09977102081748,-116.42310333251953,4381.2578125,True
1599569410.6161551,0.0,10,0.5,0.5,4.550996585655213,-0.1005,-0.02275,-0.5,0.014249891000393752,10,1,100,0.1849249004905687,-10,-1,-100,6323.360027597053,-0.007960199440066157,0.0004823161985325464,0.9999682007923847,283.6004202688412,29.166006665592974,1385.5684817774215,-55.65667601683127,-118.9580078125,4381.2578125,True
1599569410.679984,0.0,10,0.5,0.5,3.759083955383301,-0.1005,-0.02275,-0.5,0.007119551800424803,10,1,100,0.12193527992679742,-10,-1,-100,6322.261891091359,-0.008298890419326674,0.0005027498732511019,0.9999654372328942,284.58702699950925,29.284537742518502,1395.694819665355,-55.842207477239654,-119.65446472167969,4381.2578125,True
1599569410.738827,0.0,10,0.5,0.5,4.448464252662658,-0.1005,-0.02275,-0.5,0.00642938979931207,10,1,100,0.19899787940817976,-10,-1,-100,6318.846387268277,-0.009302293102753273,0.0005141977700998186,0.9999566005300847,287.1878504373212,29.599603193063825,1424.5366720736833,-56.398518073221396,-121.2991943359375,4381.2578125,True
1599569410.7996645,0.0,10,0.5,0.5,4.1076134513854985,-0.1005,-0.02275,-0.5,0.002077063685897062,10,1,100,0.17257808991508902,-10,-1,-100,6316.5915215209825,-0.009968887699356733,0.0004843123915503763,0.99995019211936,288.67500044683914,29.78178528066886,1442.7161623790225,-56.76917084832201,-122.025634765625,4381.2578125,True
1599569410.860534,0.0,10,0.5,0.5,4.042404278755188,-0.1005,-0.02275,-0.5,-0.00238621563884596,10,1,100,0.17829110533117726,-10,-1,-100,6314.334215439623,-0.010621384290855294,0.0004160040001533305,0.999943504972365,290.00662215405055,29.946627597518678,1460.2451558197015,-57.13965846371912,-122.45663452148438,4381.2578125,True
