Timestamp,Input Throttle,horizon,dT,dt,Input Roll,Roll P,Roll I,Roll D,Input Pitch,Pitch P,Pitch I,Pitch D,Input Yaw,Yaw P,Yaw I,Yaw D,Altitude,Direction X,Direction Y,Direction Z,Drag X,Drag Y,Drag Z,Vertical Velocity,Roll,Mass,Has Fuel
1599569114.3206878,0.0,10,0.5,0.5,-5.43256983947754,-0.1005,-0.02275,-0.001,-0.06717303822164873,10,1,100,0.6903807008358467,-10,-1,-100,6483.61796723376,-0.06725855313837753,-0.0070018306190196365,0.9977110109634527,205.0732355738484,21.4987777229578,-156.76524601502143,9.59082381965064,-35.944610595703125,4381.2578125,True
1599569114.3844864,0.0,10,0.5,0.5,-5.555880277252197,-0.1005,-0.02275,-0.001,-0.06734128189277998,10,1,100,0.6999111017086754,-10,-1,-100,6483.997883243137,-0.06744582327484173,-0.006971128733934924,0.9976985838854106,204.61202602429645,21.456727786416078,-150.2666269201728,9.210801548455946,-35.9412841796875,4381.2578125,True
1599569114.4523065,0.0,10,0.5,0.5,-5.674861612701417,-0.1005,-0.02275,-0.001,-0.05200268252119752,10,1,100,0.7005410128157686,-10,-1,-100,6484.31676017202,-0.06756048093326018,-0.006797438727085404,0.9976920247465237,204.1494124996185,21.414348728956398,-143.78931053574544,8.830797826736879,-35.980682373046875,4381.2578125,True
1599569114.5301242,0.0,10,0.5,0.5,-5.769790151977539,-0.1005,-0.02275,-0.001,-0.034030257338739045,10,1,100,0.6995317755746011,-10,-1,-100,6484.697140632663,-0.0675941216651452,-0.006469973547629777,0.9976919234706726,203.756613780622,21.378969230654953,-137.38152071219176,8.450805535386891,-36.256591796875,4381.2578125,True
1599569114.6029038,0.0,10,0.5,0.5,-5.835356271362305,-0.1005,-0.02275,-0.001,-0.015241232869997248,10,1,100,0.6974026436357059,-10,-1,-100,6485.01694927935,-0.06754389920226421,-0.005995586822456436,0.9976982883713938,203.44703569217324,21.351716874874903,-131.04564171297906,8.070816239330064,-36.81793212890625,4381.2578125,True
1599569114.6787019,0.0,10,0.5,0.5,-5.91729864654541,-0.1005,-0.02275,-0.001,-0.02835831014416692,10,1,100,0.7011776067900501,-10,-1,-100,6485.175623430521,-0.0674711567199553,-0.00567812178677089,0.9977050676145962,203.31801412250803,21.340479485035235,-127.8989195141779,7.880820302945407,-37.208160400390625,4381.2578125,True
1599569114.7544987,0.0,10,0.5,0.5,-5.9362376518249516,-0.1005,-0.02275,-0.001,0.026749132714724164,10,1,100,0.687589188408871,-10,-1,-100,6485.493927228847,-0.06722015869919105,-0.004883378526715229,0.9977262163933652,203.08713183273576,21.320071838834963,-121.62947488905142,7.500820972308195,-38.20867919921875,4381.2578125,True
1599569114.830296,0.0,10,0.5,0.5,-5.846819300079346,-0.1005,-0.02275,-0.001,0.12148748146227946,10,1,100,0.647553112609065,-10,-1,-100,6485.909321520827,-0.06656690511968061,-0.0032951875030262016,0.9977765225149905,202.7104917005744,21.28395290226759,-112.22491747934578,6.930787954118478,-40.260345458984375,4381.2578125,True
1599569114.905126,0.0,10,0.5,0.5,-5.7859090820312495,-0.1005,-0.02275,-0.001,0.10627109639893609,10,1,100,0.6495590264291354,-10,-1,-100,6486.165060010157,-0.0659307584411084,-0.001986712629791093,0.997822222675115,202.33930952360154,21.24548531339076,-105.90490944777407,6.550730701978207,-41.995513916015625,4381.2578125,True
1599569114.9826982,0.0,10,0.5,0.5,-5.79760016860962,-0.1005,-0.02275,-0.001,0.05478830025522881,10,1,100,0.6776014532233756,-10,-1,-100,6486.261181418318,-0.06554743737831667,-0.0012634093348567047,0.9978486544812236,202.08607479182663,21.218568220721334,-102.71702847522766,6.360687657119588,-42.973388671875,4381.2578125,True
1599569115.0804358,0.0,10,0.5,0.5,-5.562967011260986,-0.1005,-0.02275,-0.001,0.24425331747024023,10,1,100,0.5637997656433948,-10,-1,-100,6486.674996362766,-0.06410481430925316,0.0011176969164336215,0.9979425452078787,200.89721658390522,21.090384585132274,-92.9930382460192,5.790481166916356,-46.348724365234375,4381.2578125,True
1599569115.1572332,0.0,10,0.5,0.5,-5.413539885711669,-0.1005,-0.02275,-0.001,0.10293887603730645,10,1,100,0.6442965970332633,-10,-1,-100,6486.772069963627,-0.06352799520349343,0.001990280834093199,0.9979780722078148,200.30888152529488,21.026726798288802,-89.68713131505501,5.6003794332989365,-47.6209716796875,4381.2578125,True
1599569115.2340581,0.0,10,0.5,0.5,-4.955992339324951,-0.1005,-0.02275,-0.001,0.32387661916753385,10,1,100,0.4764406301734062,-10,-1,-100,6487.06179362128,-0.06148121252505075,0.004783917142633039,0.9980967761911779,197.7421244223867,20.749482703509848,-79.54596061553936,5.029941999317566,-51.87957763671875,4381.2578125,True
1599569115.3059053,0.0,10,0.5,0.5,-4.598508433532715,-0.1005,-0.02275,-0.001,0.26374845102614364,10,1,100,0.5005846238947386,-10,-1,-100,6487.255406651297,-0.05984551845884971,0.00676643829832051,0.9981847169903707,195.1792455699943,20.473765898503622,-72.5914531328687,4.649512498797423,-55.087188720703125,4381.2578125,True
1599569115.377714,0.0,10,0.5,0.5,-4.203325975799561,-0.1005,-0.02275,-0.001,0.2889891640245541,10,1,100,0.4590158568877168,-10,-1,-100,6487.448516093777,-0.057987670156063376,0.008786158183616534,0.998278635218767,191.75168226799025,20.106644598710556,-65.49166004021139,4.268938241969938,-58.59014892578125,4381.2578125,True
1599569115.4514806,0.0,10,0.5,0.5,-3.7717284782409672,-0.1005,-0.02275,-0.001,0.31148339365554933,10,1,100,0.4155699150263314,-10,-1,-100,6487.578624356771,-0.05591244152665066,0.010813322216889173,0.9983771186005631,187.29419101219426,19.631474568514744,-58.27397885246406,3.8881858137978598,-62.38885498046875,4381.2578125,True
1599569115.5198421,0.0,10,0.5,0.5,-3.3026635284423826,-0.1005,-0.02275,-0.001,0.33337827769198486,10,1,100,0.36957738657384726,-10,-1,-100,6487.770734890364,-0.053618264073246796,0.012840250789283114,0.9984789480592167,181.66150942775337,19.033773659329345,-50.99177551765581,3.5072245876368098,-66.48321533203125,4381.2578125,True
1599569115.587626,0.0,10,0.5,0.5,-2.7967755889892576,-0.1005,-0.02275,-0.001,0.3489568078449083,10,1,100,0.3228122802416562,-10,-1,-100,6487.839793227031,-0.05111987623497422,0.014808423738926001,0.9985827300930501,174.75809567048321,18.30452375119797,-43.728487733985844,3.1260031207565935,-70.87393188476562,4381.2578125,True
1599569115.6574423,0.0,10,0.5,0.5,-2.255757731628418,-0.1005,-0.02275,-0.001,0.36180093908808886,10,1,100,0.27524619570184206,-10,-1,-100,6487.969396651024,-0.04843023836698694,0.016697978876046675,0.9986869827494359,166.40029553512076,17.425133359916998,-36.56005159410036,2.7444611968698784,-75.56124877929688,4381.2578125,True
1599569115.7252703,0.0,10,0.5,0.5,-1.9349049621582028,-0.1005,-0.02275,-0.001,0.2745904940661786,10,1,100,0.3870084491792791,-10,-1,-100,6488.003926180769,-0.047017043082315316,0.01760594796277007,0.998738918965376,161.68867633171746,16.930342144272256,-33.056035748263824,2.553576240902266,-78.01620483398438,4381.2578125,True
1599569115.790122,0.0,10,0.5,0.5,-1.3366570426940918,-0.1005,-0.02275,-0.001,0.37488329958359845,10,1,100,0.20318575326900978,-10,-1,-100,6488.1335351807065,-0.04407805049188048,0.01932597322149731,0.9988411446390648,151.16464833630388,15.826609783570126,-26.285049423461583,2.171634277789109,-83.14901733398438,4381.2578125,True
1599569115.8539538,0.0,10,0.5,0.5,-0.7069001518249511,-0.1005,-0.02275,-0.001,0.3782957976117737,10,1,100,0.15695264563974393,-10,-1,-100,6488.200651961379,-0.041004144216507644,0.020904102278500883,0.9989402778269588,148.0064513020968,15.495585958410265,-21.21022791686043,1.7895603746643816,-88.57925415039062,4381.2578125,True
1599569115.9197412,0.0,10,0.5,0.5,-0.03781669692993163,-0.1005,-0.02275,-0.001,0.38295224944656786,10,1,100,0.10390201689535244,-10,-1,-100,6488.269243291812,-0.03774788175120786,0.02236390205478007,0.9990370129820921,155.96278573030972,16.328265036002655,-17.580237456224005,1.4074626634524963,-94.30667877197266,4381.2578125,True
1599569115.9845936,0.0,10,0.5,0.5,0.6646019193649292,-0.1005,-0.02275,-0.001,0.3768530769468929,10,1,100,0.0660499487977369,-10,-1,-100,6488.273395208875,-0.034465109191660494,0.023619563933298518,0.9991267549455414,164.77300533250576,17.24898828988066,-13.533649656947134,1.025441671128513,-100.33253479003906,4381.2578125,True
1599569116.0483973,0.0,10,0.5,0.5,1.3988733461380005,-0.1005,-0.02275,-0.001,0.3736667787835044,10,1,100,0.021768443272214277,-10,-1,-100,6488.341041689506,-0.031101284459355585,0.02471678736170723,0.9992105836746797,172.769869686965,18.084087498996947,-8.906390265993123,0.6435200947271889,-106.61198425292969,4381.2578125,True
1599569116.1142178,0.0,10,0.5,0.5,2.151080541038513,-0.1005,-0.02275,-0.001,0.36663388998605245,10,1,100,-0.01658058521137512,-10,-1,-100,6488.345231271698,-0.027719076612588225,0.025635845462849142,0.9992869739064703,180.16790229325562,18.85758445162452,-3.7765136431362123,0.26162889868888595,-113.00840759277344,4381.2578125,True
1599569116.1770906,0.0,10,0.5,0.5,2.901296465492249,-0.1005,-0.02275,-0.001,0.35826798477686783,10,1,100,-0.051887017234887645,-10,-1,-100,6488.350418302114,-0.024349004974326023,0.026381824122671056,0.9993553548726902,185.91214890556677,19.45805858485402,1.7926900653662,-0.12034032908972225,-119.32814025878906,4381.2578125,True
1599569116.238962,0.0,10,0.5,0.5,3.9320566640853882,-0.1005,-0.02275,-0.001,0.37544965122259905,10,1,100,-0.2629543729459351,-10,-1,-100,6488.3277248913655,-0.0193931177595317,0.027203872987167272,0.9994417723299658,190.778540348004,19.966335110744215,10.604383968136052,-0.6935522828667913,-128.36122131347656,4381.2578125,True
1599569116.3007958,0.0,10,0.5,0.5,4.344876258277893,-0.1005,-0.02275,-0.001,0.31661696347468216,10,1,100,0.0516616361746515,-10,-1,-100,6488.298362655798,-0.01777675379124714,0.02740507893059346,0.9994663319359254,191.63607184336053,20.055689612877185,13.588599276648285,-0.884687359418296,-131.22889709472656,4381.2578125,True
1599569116.3636298,0.0,10,0.5,0.5,5.296968743705749,-0.1005,-0.02275,-0.001,0.3484877315861701,10,1,100,-0.3025111581303255,-10,-1,-100,6488.210310237366,-0.013115446130557514,0.027867993952853932,0.9995255674497977,191.56640590245416,20.046934265541058,22.395322863812318,-1.4582631746101695,-139.3896484375,4381.2578125,True
1599569116.42651,0.0,10,0.5,0.5,5.689515988731385,-0.1005,-0.02275,-0.001,0.31682308003138243,10,1,100,-0.0025002223053091632,-10,-1,-100,6488.181949069258,-0.011636085489205054,0.027991636189874398,0.9995404293063396,190.76762326899492,19.96274256907839,25.228490906528283,-1.64950097676897,-141.96189880371094,4381.2578125,True
1599569116.4883108,0.0,10,0.5,0.5,6.32053637866974,-0.1005,-0.02275,-0.001,0.31542752740362145,10,1,100,-0.18360919217746868,-10,-1,-100,6488.124264245504,-0.008674259693685618,0.028083473506033015,0.9995679445313371,188.23612631631661,19.69641978835216,30.671057545215852,-2.0320172589222727,-146.88597106933594,4381.2578125,True
1599569116.5521665,0.0,10,0.5,0.5,6.917785867118836,-0.1005,-0.02275,-0.001,0.32575859435597193,10,1,100,-0.1892623619970092,-10,-1,-100,6488.003124611918,-0.0059596891398746915,0.028254354064628097,0.9995829998463093,184.64587766422872,19.31888926668223,35.755241655244326,-2.414555282566918,-151.5118408203125,4381.2578125,True
1599569116.614978,0.0,10,0.5,0.5,7.482947157287599,-0.1005,-0.02275,-0.001,0.309432183365507,10,1,100,-0.21475769078128573,-10,-1,-100,6487.882979335263,-0.0032890203680180016,0.028255923152519537,0.9995953106891897,180.31483566876898,18.863805625460056,40.45402393847493,-2.797067562003768,-155.84332275390625,4381.2578125,True
1599569116.6778386,0.0,10,0.5,0.5,8.207738624954224,-0.1005,-0.02275,-0.001,0.31948349626101963,10,1,100,-0.35593018139399346,-10,-1,-100,6487.732578412513,0.000393904713036657,0.028344510295817124,0.9995981360402626,172.94459251928106,18.089865683942993,46.76832488985067,-3.370717183323006,-161.7825927734375,4381.2578125,True
1599569116.7392914,0.0,10,0.5,0.5,8.513207905578614,-0.1005,-0.02275,-0.001,0.31316868483332483,10,1,100,-0.11872232909939998,-10,-1,-100,6487.640786253964,0.0015569514120696857,0.028364338755895786,0.9995964386637446,170.31723531699058,17.81386025981018,48.67376200584793,-3.561906630223984,-163.61407470703125,4381.2578125,True
1599569116.803087,0.0,10,0.5,0.5,9.138882932662964,-0.1005,-0.02275,-0.001,0.3268582423566247,10,1,100,-0.36623761144771755,-10,-1,-100,6487.4269551109755,0.004837790952516546,0.028504334703185436,0.9995819619630141,162.07540055214992,16.947822469200762,53.78842143489828,-4.135470420220019,-168.66213989257812,4381.2578125,True
1599569116.863926,0.0,10,0.5,0.5,9.401739394378662,-0.1005,-0.02275,-0.001,0.32242693919075394,10,1,100,-0.15342042742836118,-10,-1,-100,6487.336643714691,0.005859137229176959,0.028589389616867644,0.9995740679470755,159.26953893455627,16.653115602979558,55.305123750985885,-4.326680379876323,-170.19583129882812,4381.2578125,True
1599569116.9262486,0.0,10,0.5,0.5,9.784230698013305,-0.1005,-0.02275,-0.001,0.3262709074256938,10,1,100,-0.26930524225560126,-10,-1,-100,6487.151144443313,0.007818175565489782,0.028700397870869376,0.9995574837361186,153.70348522228855,16.069188581863326,58.09908395620422,-4.709174310020449,-173.04165649414062,4381.2578125,True
1599569116.9870863,0.0,10,0.5,0.5,10.13492998199463,-0.1005,-0.02275,-0.001,0.34852649438764266,10,1,100,-0.27448351606446014,-10,-1,-100,6486.905111638014,0.009622926606439486,0.029002460420579326,0.99953301925103,148.81438319313733,15.557598003636643,60.83062740750203,-5.091801342383875,-175.58767700195312,4381.2578125,True
1599569117.0484009,0.0,10,0.5,0.5,10.443104830169679,-0.1005,-0.02275,-0.001,0.3475431317347999,10,1,100,-0.28174074976421914,-10,-1,-100,6486.721099970047,0.011308912974812483,0.029267091744864596,0.9995076517106439,152.56366007315566,15.95102008327979,67.06202467052908,-5.474560903711172,-177.83763122558594,4381.2578125,True
1599569117.1068335,0.0,10,0.5,0.5,10.720482039642333,-0.1005,-0.02275,-0.001,0.3665623904776125,10,1,100,-0.28611377298414353,-10,-1,-100,6486.473133416264,0.012860523522183595,0.02967940852319042,0.9994767329180049,155.7223075748379,16.284587658517808,73.25073193571487,-5.857448153790749,-179.78846740722656,4381.2578125,True
1599569117.1686604,0.0,10,0.5,0.5,-25.578845422363283,-0.1005,-0.02275,-0.001,0.378977605723843,10,1,100,-0.28900000625837147,-10,-1,-100,6486.226640546694,0.014277739973908616,0.03016565670116403,0.9994429344875199,158.68990331508448,16.599942980201426,79.54258857251095,-6.2404420336230935,178.55862426757812,4381.2578125,True
1599569117.2295454,0.0,10,0.5,0.5,-25.77653656845093,-0.1005,-0.02275,-0.001,0.43182600895861856,10,1,100,-0.3565661657098381,-10,-1,-100,6485.825912115164,0.016161958716750347,0.03108640298087751,0.9993860248373241,162.1809832916924,16.97541487934208,88.80572027706383,-6.815090784920379,176.63870239257812,4381.2578125,True
1599569117.2913792,0.0,10,0.5,0.5,-26.485043199157715,-0.1005,-0.02275,-0.001,0.3798071099762981,10,1,100,-0.23177606981177357,-10,-1,-100,6485.732705133618,0.016722746721092453,0.03144797280820653,0.9993654860702147,163.11036629025017,17.076741962968754,91.83552940925236,-7.006678825886546,176.14796447753906,4381.2578125,True
1599569117.3541768,0.0,10,0.5,0.5,-27.14674084892273,-0.1005,-0.02275,-0.001,0.433032294673523,10,1,100,-0.289539835986128,-10,-1,-100,6485.423738290439,0.017742834742981176,0.032257716637105506,0.9993220859826142,164.77471225422804,17.259976177246624,97.86916305633702,-7.389906654853229,175.0880126953125,4381.2578125,True
1599569117.4170203,0.0,10,0.5,0.5,-27.70839718284607,-0.1005,-0.02275,-0.001,0.5129643614806602,10,1,100,-0.3278211086805998,-10,-1,-100,6484.959083050489,0.019003484620710748,0.033716963109004724,0.9992507362874328,167.69231084342107,17.581507993796816,107.39086858204354,-7.964856177605787,173.01953125,4381.2578125,True
1599569117.4808493,0.0,10,0.5,0.5,-28.311081787490846,-0.1005,-0.02275,-0.001,0.4906067478596637,10,1,100,-0.2766186571865197,-10,-1,-100,6484.586172191077,0.01967117522900218,0.03483556102471694,0.999199443831512,170.08045154536717,17.844304686274455,114.19258073251135,-8.348207235171436,171.27854919433594,4381.2578125,True
1599569117.542683,0.0,10,0.5,0.5,-28.88320310058594,-0.1005,-0.02275,-0.001,0.5192901606155413,10,1,100,-0.26713995300255566,-10,-1,-100,6484.275282441406,0.020179440254867606,0.036107548180956156,0.999144151339215,173.05690527879864,18.170619720736358,121.56036419890059,-8.731578634231045,169.24432373046875,4381.2578125,True
1599569117.605518,0.0,10,0.5,0.5,-29.549519664764404,-0.1005,-0.02275,-0.001,0.46880499950070736,10,1,100,-0.23917656576366192,-10,-1,-100,6484.119597732904,0.02037604924467407,0.036798210358029604,0.999114962520142,174.6258769941594,18.342954604294608,125.37327695637607,-8.923266133077409,168.11705017089844,4381.2578125,True
1599569117.6683502,0.0,10,0.5,0.5,-29.94454863471985,-0.1005,-0.02275,-0.001,0.6493772818037503,10,1,100,-0.26141270985518383,-10,-1,-100,6483.529513086774,0.020747155888386295,0.039060564221817265,0.9990214351280039,179.85961409138525,18.918086457067282,137.5142349385533,-9.498305489325054,164.29412841796875,4381.2578125,True
1599569117.7341714,0.0,10,0.5,0.5,-30.430782894134524,-0.1005,-0.02275,-0.001,0.6108991106695891,10,1,100,-0.23212307387551323,-10,-1,-100,6483.156160247163,0.02080967592566079,0.04075854483997099,0.9989523003679389,183.6569717260111,19.336051422317148,146.13038082224978,-9.881620331326099,161.37847900390625,4381.2578125,True
1599569117.7999954,0.0,10,0.5,0.5,-30.884146078872682,-0.1005,-0.02275,-0.001,0.6477838084268606,10,1,100,-0.21466085011686625,-10,-1,-100,6482.720324314199,0.020700538332283108,0.04262740707579795,0.9988765648861463,187.42042669791277,19.75180632708394,154.95934536077948,-10.264879359856842,158.16954040527344,4381.2578125,True
1599569118.3274827,0.0,10,0.5,0.5,-30.66696741790772,-0.1005,-0.02275,-0.001,0.572804993568029,10,1,100,-0.21292142567988767,-10,-1,-100,6482.501682041329,0.020579670481277797,0.04363341829112887,0.9988356230987727,189.24962559467548,19.954471834868087,159.41910815143885,-10.456482610987084,156.45523071289062,4381.2578125,True
1599569118.3764825,0.0,10,0.5,0.5,-30.441304582214354,-0.1005,-0.02275,-0.001,0.5877303490225131,10,1,100,-0.2092178688524402,-10,-1,-100,6482.284997823765,0.020432105816692057,0.04467225261346115,0.9987927306995855,191.0184142750287,20.15083774171575,163.88508056677395,-10.648065652552848,154.66744995117188,4381.2578125,True
1599569118.4343283,0.0,10,0.5,0.5,-30.009013293075565,-0.1005,-0.02275,-0.001,0.7296485684746418,10,1,100,-0.17801945868202612,-10,-1,-100,6481.84872016497,0.02001096206634162,0.0468947910107778,0.9986993741728462,194.29444042917615,20.515654188812455,172.75289801590895,-11.031164887894576,150.8722686767578,4381.2578125,True
1599569118.490179,0.0,10,0.5,0.5,-29.75395566329956,-0.1005,-0.02275,-0.001,0.6383665305755566,10,1,100,-0.19221858064314185,-10,-1,-100,6481.631080775172,0.019755125104466493,0.04807213732346155,0.998648489031682,195.75861401011147,20.679251506385246,177.10760507358464,-11.22267877541549,148.86476135253906,4381.2578125,True
1599569118.5490227,0.0,10,0.5,0.5,-29.271214262771608,-0.1005,-0.02275,-0.001,0.7979374015275194,10,1,100,-0.1492315849798153,-10,-1,-100,6481.194362244452,0.019131071869019085,0.05058004627617875,0.9985367599682258,198.35183392964777,20.969374923098304,185.64329193535085,-11.60563437197448,144.63031005859375,4381.2578125,True
1599569118.609859,0.0,10,0.5,0.5,-28.75538685913086,-0.1005,-0.02275,-0.001,0.8503701871680438,10,1,100,-0.12326200091623143,-10,-1,-100,6480.69567333546,0.018328154621088846,0.05332231202515237,0.9984091394756349,200.55694369414465,21.215150952839288,193.96939821089788,-11.988495957652159,140.1038360595703,4381.2578125,True
1599569118.669699,0.0,10,0.5,0.5,-27.948841410446164,-0.1005,-0.02275,-0.001,1.0749967175646247,10,1,100,-0.05041612548174554,-10,-1,-100,6479.978007013095,0.016937677605960374,0.0578416904697844,0.9981820745339571,202.0189696438968,21.379613792994903,204.85330207974772,-12.562647631219686,132.76612854003906,4381.2578125,True
1599569118.7275443,0.0,10,0.5,0.5,-27.612713168716432,-0.1005,-0.02275,-0.001,0.8056736340944282,10,1,100,-0.13029807749461048,-10,-1,-100,6479.698450872209,0.016402932948359365,0.05948269422416468,0.9980945610905442,201.91124602797538,21.368650528194827,207.90149186441616,-12.75400925367702,130.17457580566406,4381.2578125,True
1599569118.7873852,0.0,10,0.5,0.5,-26.411749198913576,-0.1005,-0.02275,-0.001,1.4472940299987616,10,1,100,0.08720733670112427,-10,-1,-100,6478.638038423494,0.013943428787797248,0.06678886293636584,0.9976696991396035,197.8773497323703,20.93011298604311,216.14172563962228,-13.51950049663769,119.08163452148438,4381.2578125,True
1599569118.8473911,0.0,10,0.5,0.5,-26.326616819000243,-0.1005,-0.02275,-0.001,0.7192801905882856,10,1,100,-0.15805645464130108,-10,-1,-100,6478.638038423494,0.013943428787797248,0.06678886293636584,0.9976696991396035,197.8773497323703,20.93011298604311,216.14172563962228,-13.51950049663769,119.08163452148438,4381.2578125,True
1599569118.9095652,0.0,10,0.5,0.5,-25.31581610069275,-0.1005,-0.02275,-0.001,1.4103486324169543,10,1,100,0.06954193599517988,-10,-1,-100,6477.796351426747,0.011880495336142409,0.07304933835675322,0.9972575635191786,190.50033718561377,20.132569233511532,217.05515999682942,-14.093858352991406,109.99911499023438,4381.2578125,True
1599569118.9713993,0.0,10,0.5,0.5,-24.89723776664734,-0.1005,-0.02275,-0.001,1.037302385004876,10,1,100,-0.0531391506062836,-10,-1,-100,6477.514057867811,0.011128292235692346,0.07532260838057228,0.9970971195318257,187.11540885708996,19.76898471466395,216.14098995542597,-14.285388757128272,106.82696533203125,4381.2578125,True
1599569119.0317504,0.0,10,0.5,0.5,-24.125396979141236,-0.1005,-0.02275,-0.001,1.3295595763482673,10,1,100,0.024095932107936438,-10,-1,-100,6476.953957061516,0.009750792132045742,0.08001823709101398,0.9967457066803168,179.28470852558738,18.932714665130707,212.7428590143873,-14.668584467175911,100.26365661621094,4381.2578125,True
1599569119.0905948,0.0,10,0.5,0.5,-23.321416881942753,-0.1005,-0.02275,-0.001,1.429001100867704,10,1,100,0.05277718154155335,-10,-1,-100,6476.329547663801,0.008247108106547127,0.0851608920997011,0.9963330806836947,169.9745798147936,17.94741515407945,207.0595948349441,-15.051941366500124,93.41233825683594,4381.2578125,True
1599569119.151792,0.0,10,0.5,0.5,-22.477270805740357,-0.1005,-0.02275,-0.001,1.5199849404066836,10,1,100,0.05316002763135827,-10,-1,-100,6475.767804159666,0.006887104043457358,0.09062944178088353,0.9958608698409532,163.46596748407364,17.26848124450236,204.2977273103092,-15.435368584568813,86.27102661132812,4381.2578125,True
1599569119.215659,0.0,10,0.5,0.5,-21.597427698898315,-0.1005,-0.02275,-0.001,1.619073496574523,10,1,100,0.06180983827664012,-10,-1,-100,6475.081245290465,0.005583232950987335,0.09646524709666182,0.9953206938531898,176.05683411591298,18.619453171214445,225.60296903404392,-15.818555194021682,78.84031677246094,4381.2578125,True
1599569119.2824776,0.0,10,0.5,0.5,-20.68189913215637,-0.1005,-0.02275,-0.001,1.7227498648942194,10,1,100,0.059784665286540195,-10,-1,-100,6474.458364512888,0.0044278925501701335,0.10267381624566523,0.9947052232823127,187.8067339789116,19.892630252277492,246.60182688753676,-16.201381016934832,71.12026977539062,4381.2578125,True
1599569119.3463068,0.0,10,0.5,0.5,-19.318897982788087,-0.1005,-0.02275,-0.001,2.20326076571004,10,1,100,0.0935071985895939,-10,-1,-100,6473.4914914229885,0.0030823871421774528,0.11264549445601589,0.9936304602156002,201.79796873575523,21.428052829492614,274.548701421406,-16.774935465294476,58.997344970703125,4381.2578125,True
1599569119.411099,0.0,10,0.5,0.5,-18.312029780197143,-0.1005,-0.02275,-0.001,1.9871558099418618,10,1,100,0.02265390595930116,-10,-1,-100,6472.806181428139,0.0025154308368287516,0.11969773614004955,0.9928071940566567,208.91579506587325,22.215690929445827,290.8400719338402,-17.156908668290033,50.553375244140625,4381.2578125,True
1599569119.4729362,0.0,10,0.5,0.5,-17.278099494552613,-0.1005,-0.02275,-0.001,2.0945237361496276,10,1,100,-0.005683787201346768,-10,-1,-100,6472.058608628227,0.0022680204952003394,0.12703683802451105,0.9918954067177483,212.97412952402087,22.670239251340327,303.2280704249404,-17.538693930794086,41.81965637207031,4381.2578125,True
1599569119.5357652,0.0,10,0.5,0.5,-16.195138392639162,-0.1005,-0.02275,-0.001,2.1992286294152628,10,1,100,-0.04359602530185525,-10,-1,-100,6471.372310170322,0.002398372720354221,0.1346058406081744,0.9908963192395364,213.96755633236648,22.787608840089064,311.42088453448173,-17.920457718510487,32.7957763671875,4381.2578125,True
1599569119.600592,0.0,10,0.5,0.5,-15.083095294952393,-0.1005,-0.02275,-0.001,2.299401426897933,10,1,100,-0.08993016998016767,-10,-1,-100,6470.6261828948045,0.0029467143517658517,0.14234145338657317,0.9898132286054411,211.77218027325097,22.555763576359567,314.95077809740184,-18.302369295983826,23.481201171875,4381.2578125,True
1599569119.669436,0.0,10,0.5,0.5,-14.419006783294677,-0.1005,-0.02275,-0.001,1.9629745932329201,10,1,100,-0.08273737734051306,-10,-1,-100,6470.2824981812155,0.00338725551803768,0.1462544766563392,0.9892412014054185,209.17235436727904,22.277815942803688,314.4136775958541,-18.4934254993943,18.71478271484375,4381.2578125,True
1599569119.731244,0.0,10,0.5,0.5,-13.248457246780395,-0.1005,-0.02275,-0.001,2.4424808725902833,10,1,100,-0.17379706134035,-10,-1,-100,6469.537171558826,0.004621347829750594,0.15411070376886132,0.988042779503045,201.51715502026647,21.461093145150873,309.33968345057133,-18.875783078710164,8.963134765625,4381.2578125,True
1599569119.7920804,0.0,10,0.5,0.5,-12.046601727294922,-0.1005,-0.02275,-0.001,2.5252629225865255,10,1,100,-0.23837615115764993,-10,-1,-100,6468.727568866918,0.006333628711716694,0.16194261086051168,0.9867798518084078,190.51305270088875,20.29603252657343,298.55011975385577,-19.258436874863445,-1.0810546875,4381.2578125,True
1599569119.8569434,0.0,10,0.5,0.5,-10.808682886505126,-0.1005,-0.02275,-0.001,2.601551613280109,10,1,100,-0.3081484944908878,-10,-1,-100,6467.982078732224,0.008525044885016894,0.16969122979642673,0.9854604051608998,177.32777695910573,18.914225433060736,283.578779621537,-19.641224826363036,-11.418365478515625,4381.2578125,True
1599569119.9207788,0.0,10,0.5,0.5,-9.534497689437865,-0.1005,-0.02275,-0.001,2.6637604897796168,10,1,100,-0.37986807575280124,-10,-1,-100,6467.171754446346,0.011166563225003534,0.1772343949947998,0.9841053180918033,191.58974968506843,20.480354209731715,312.53207774498605,-20.023579152085215,-22.05072021484375,4381.2578125,True
1599569119.983569,0.0,10,0.5,0.5,-8.223945247268677,-0.1005,-0.02275,-0.001,2.7173212410957603,10,1,100,-0.4521394005081403,-10,-1,-100,6466.3644189167535,0.014218829513062805,0.18451095147915011,0.9827275989161682,205.13267619124684,21.986347483736303,341.191423828503,-20.40526838676335,-32.97900390625,4381.2578125,True
1599569120.0484247,0.0,10,0.5,0.5,-6.886261339950562,-0.1005,-0.02275,-0.001,2.7590429696412984,10,1,100,-0.5219974034850137,-10,-1,-100,6465.55513815186,0.017618565763478367,0.19143995903622518,0.9813461816426691,214.2231325830395,23.019022185099118,363.15570073064066,-20.786403901695476,-44.20428466796875,4381.2578125,True
1599569120.1102734,0.0,10,0.5,0.5,-4.916203853225708,-0.1005,-0.02275,-0.001,3.1307256052169734,10,1,100,-0.7955353431570142,-10,-1,-100,6464.280818757135,0.02318221350185011,0.2010527696634394,0.979306064919346,219.84548136065658,23.688191602742815,383.21620787030173,-21.35757880154185,-61.600433349609375,4381.2578125,True
1599569120.174709,0.0,10,0.5,0.5,-3.4833486862182617,-0.1005,-0.02275,-0.001,2.8195170868478177,10,1,100,-0.6677060843240189,-10,-1,-100,6463.408358381013,0.027058978008245693,0.20689523285606098,0.9779888416186484,216.1525201455718,23.314453904662546,383.69945935488687,-21.738477354758395,-73.57058715820312,4381.2578125,True
1599569120.239536,0.0,10,0.5,0.5,-2.634503789520264,-0.1005,-0.02275,-0.001,2.544937665207276,10,1,100,-0.4971437841220462,-10,-1,-100,6462.9422927963315,0.029010324280143843,0.2096446688414867,0.977347181871163,212.70484139267418,22.95127120099866,380.99540740210824,-21.929058386943083,-79.66744995117188,4381.2578125,True
1599569120.300598,0.0,10,0.5,0.5,-1.1455740447998046,-0.1005,-0.02275,-0.001,2.8453713827274623,10,1,100,-0.7169134520154126,-10,-1,-100,6462.071565849357,0.032758487317328784,0.21481418697346183,0.976105397272042,202.07542277801696,21.822093623118413,368.470114112321,-22.310535467190263,-92.08482360839844,4381.2578125,True
1599569120.362433,0.0,10,0.5,0.5,1.0412101284027102,-0.1005,-0.02275,-0.001,3.1066176361538815,10,1,100,-0.9425533051235702,-10,-1,-100,6460.731985822436,0.03819047853229899,0.22182638784248201,0.9743380014174909,178.03385791553293,19.2759073062885,333.26932912980124,-22.883242879347687,-111.26839447021484,4381.2578125,True
1599569120.4232075,0.0,10,0.5,0.5,2.6312495183944704,-0.1005,-0.02275,-0.001,2.8839810142693976,10,1,100,-0.7627065951392706,-10,-1,-100,6459.797913831426,0.041463164881775955,0.2261155869025745,0.9732176258770137,197.6000057701415,21.457302107142546,376.27066653774017,-23.264404244631784,-124.42796325683594,4381.2578125,True
1599569120.4840448,0.0,10,0.5,0.5,3.577753353309632,-0.1005,-0.02275,-0.001,2.6900673874149437,10,1,100,-0.6053072966185877,-10,-1,-100,6459.330110767623,0.042975495634594206,0.22819366855303438,0.9726668270313679,205.7770445590955,22.379924893969083,395.15124934813423,-23.454680595531276,-131.11810302734375,4381.2578125,True
1599569120.546388,0.0,10,0.5,0.5,5.858612622261048,-0.1005,-0.02275,-0.001,3.164887458586907,10,1,100,-0.8965317628059184,-10,-1,-100,6457.866125235101,0.046966518329086916,0.23434619575614613,0.97101802593498,220.25080385345055,24.048031861993167,433.55477350884837,-24.024815198753558,-150.9726104736328,4381.2578125,True
1599569120.607738,0.0,10,0.5,0.5,7.441195712089539,-0.1005,-0.02275,-0.001,3.0023104726751653,10,1,100,-0.7471037137991094,-10,-1,-100,6456.930537595879,0.04920373855574195,0.23840950988635792,0.9699174695343334,222.05705271725031,24.287476023500794,444.2578269340785,-24.404838048759,-163.87054443359375,4381.2578125,True
1599569120.6682503,0.0,10,0.5,0.5,9.004586363029482,-0.1005,-0.02275,-0.001,3.0683053978933605,10,1,100,-0.7349268789222827,-10,-1,-100,6455.933521334664,0.05109507216378203,0.24265438699907296,0.9687662989961419,218.0288554671752,23.87841796853983,443.25447989422463,-24.78519066627924,-176.46670532226562,4381.2578125,True
1599569120.7280836,0.0,10,0.5,0.5,-25.999593290138247,-0.1005,-0.02275,-0.001,3.141002872973253,10,1,100,-0.7285826314016259,-10,-1,-100,6454.9352344337385,0.05272635818781222,0.2471276937586649,0.9675473291419774,208.63971486188797,22.883371625880724,430.95839751542707,-25.16597004031793,171.24246215820312,4381.2578125,True
1599569120.788889,0.0,10,0.5,0.5,-24.96520313510895,-0.1005,-0.02275,-0.001,3.220826548257615,10,1,100,-0.7235918007463283,-10,-1,-100,6453.875672720722,0.05413711598125881,0.2518781197480652,0.9662435435569083,194.75792952967694,21.407557165500968,408.6469113055804,-25.547027418332494,159.25823974609375,4381.2578125,True
1599569120.8507612,0.0,10,0.5,0.5,-24.312742537117007,-0.1005,-0.02275,-0.001,3.3131554779217263,10,1,100,-0.7265643985866288,-10,-1,-100,6452.8764805432875,0.055422030193873886,0.25699514920183736,0.9648222073811913,193.67679238593846,21.357692728125045,412.69600256053116,-25.92789699769753,147.493408203125,4381.2578125,True
1599569120.9145527,0.0,10,0.5,0.5,-23.63015626163483,-0.1005,-0.02275,-0.001,3.4114241328158417,10,1,100,-0.7385659056854836,-10,-1,-100,6451.817596118199,0.05667522799177379,0.2624972996767037,0.9632668821227683,210.87736946875614,23.343855615725992,456.1957115617983,-26.30792126707738,135.56097412109375,4381.2578125,True
1599569120.9784105,0.0,10,0.5,0.5,-22.9219991437912,-0.1005,-0.02275,-0.001,3.514871465183753,10,1,100,-0.7609637073594308,-10,-1,-100,6450.758633627556,0.05799637260446918,0.268396336663833,0.9615611406614546,222.96853683065555,24.774578337176287,489.5658156868542,-26.687267239182543,123.36408996582031,4381.2578125,True
1599569121.039111,0.0,10,0.5,0.5,-22.83837703514099,-0.1005,-0.02275,-0.001,3.2701221691517968,10,1,100,-0.7099400295445044,-10,-1,-100,6450.227852881537,0.05871555618671823,0.27149176764382243,0.9606480643624474,227.37845722053626,25.306780126497838,502.92230764340417,-26.876787736780877,117.16105651855469,4381.2578125,True
1599569121.0999484,0.0,10,0.5,0.5,-21.462490689468382,-0.1005,-0.02275,-0.001,4.045970610819695,10,1,100,-0.921576096090303,-10,-1,-100,6448.5800505726365,0.06127763969253832,0.2813177123855744,0.9576561990463273,233.2397982888203,26.063849107581635,527.2208334121667,-27.445293337988332,98.12948608398438,4381.2578125,True
1599569121.1607854,0.0,10,0.5,0.5,-20.006854623031618,-0.1005,-0.02275,-0.001,4.222102561531045,10,1,100,-1.0411684825419838,-10,-1,-100,6446.927915274515,0.06467737171642828,0.2918032943901498,0.9542890940228284,225.10887910357073,25.23791986382963,519.8819715032192,-28.01449432159573,78.46243286132812,4381.2578125,True
1599569121.2206268,0.0,10,0.5,0.5,-19.868687609863283,-0.1005,-0.02275,-0.001,3.573270901676141,10,1,100,-0.8588979836147403,-10,-1,-100,6446.336892153835,0.06609493188118298,0.295384938305961,0.9530892918303118,219.0641401168415,24.591217162841303,509.5269796667908,-28.204451029711645,71.76490783691406,4381.2578125,True
1599569121.2794685,0.0,10,0.5,0.5,-19.724425805282596,-0.1005,-0.02275,-0.001,3.6174164348779767,10,1,100,-0.8888883995318302,-10,-1,-100,6445.811887043528,0.06764090745445586,0.29899050541451555,0.9518557586686707,211.67759795969883,23.797352389355893,495.8356690269045,-28.39448243976908,64.99613952636719,4381.2578125,True
1599569121.3393083,0.0,10,0.5,0.5,-18.175847191619873,-0.1005,-0.02275,-0.001,4.452384972432124,10,1,100,-1.345509268075311,-10,-1,-100,6444.040579981753,0.07318239693028951,0.3098077021105888,0.9479786519181189,208.1047816164205,23.539464393123673,497.7213927438343,-28.96420929262252,44.26042175292969,4381.2578125,True
1599569121.4010444,0.0,10,0.5,0.5,-17.191550413894653,-0.1005,-0.02275,-0.001,3.7691545075078334,10,1,100,-1.0306560073957016,-10,-1,-100,6443.452879477758,0.0753392158669214,0.3133733494182964,0.9466367552693672,218.98754533353673,24.82886259185471,527.3198310279992,-29.153625247453263,37.20477294921875,4381.2578125,True
1599569121.466868,0.0,10,0.5,0.5,-14.728186882400513,-0.1005,-0.02275,-0.001,4.54761971222495,10,1,100,-1.6334348572348034,-10,-1,-100,6441.673856595415,0.08276049344431889,0.3236358986230315,0.9425553065191006,240.71938199006865,27.46974548190775,591.3777248033111,-29.720842229468555,15.601348876953125,4381.2578125,True
1599569121.5287025,0.0,10,0.5,0.5,-12.190097077560425,-0.1005,-0.02275,-0.001,4.5541111880769085,10,1,100,-1.8439764930074147,-10,-1,-100,6439.897691984777,0.09139627114602177,0.33296391972651646,0.9384997335007383,247.2966754988223,28.36215553519043,619.6522572347493,-30.28790818456659,-6.661102294921875,4381.2578125,True
1599569121.592759,0.0,10,0.5,0.5,-11.888804304885863,-0.1005,-0.02275,-0.001,3.6283557397333936,10,1,100,-0.9838708271525521,-10,-1,-100,6439.897691984777,0.09139627114602177,0.33296391972651646,0.9384997335007383,247.2966754988223,28.36215553519043,619.6522572347493,-30.28790818456659,-6.661102294921875,4381.2578125,True
1599569122.1665866,0.0,10,0.5,0.5,-9.26587841644287,-0.1005,-0.02275,-0.001,4.523057914908322,10,1,100,-2.035049502759491,-10,-1,-100,6438.067801916273,0.10092207738013798,0.3410388780616861,0.9346160805099083,233.6889970518996,26.93980335917712,597.1606709476576,-30.855972850593982,-29.58837890625,4381.2578125,True
1599569122.223434,0.0,10,0.5,0.5,-7.365807279586792,-0.1005,-0.02275,-0.001,4.22880233181212,10,1,100,-1.8159443644761553,-10,-1,-100,6436.823827106622,0.10755166677112837,0.3456414738742222,0.9321827130519036,214.27966760194064,24.818995663362244,554.674109867019,-31.23501829322109,-45.244964599609375,4381.2578125,True
1599569122.278288,0.0,10,0.5,0.5,-6.249351961898804,-0.1005,-0.02275,-0.001,4.0020039519332,10,1,100,-1.5257378231373189,-10,-1,-100,6436.171650664881,0.1108982576352406,0.34770537228536613,0.9310223147365281,214.69850262004067,24.93679735597647,559.2918339504066,-31.42430445452061,-53.185211181640625,4381.2578125,True
1599569122.3371315,0.0,10,0.5,0.5,-3.4945138347625733,-0.1005,-0.02275,-0.001,4.382837497979072,10,1,100,-2.288235932877229,-10,-1,-100,6434.278865762637,0.12083039497668834,0.35299294664328196,0.9277909221747488,245.8500152671331,28.791084780746633,652.4457693469086,-31.990319973715504,-77.4539794921875,4381.2578125,True
1599569122.3986442,0.0,10,0.5,0.5,-1.4993759109497067,-0.1005,-0.02275,-0.001,4.174773803427042,10,1,100,-2.001745200758897,-10,-1,-100,6432.974422433181,0.12720539002866008,0.35585597337424396,0.9258430293313904,254.54920638272915,29.94319470672101,683.8038307945368,-32.36710870071602,-94.00505065917969,4381.2578125,True
1599569122.4584837,0.0,10,0.5,0.5,-0.30298913803100563,-0.1005,-0.02275,-0.001,4.033805112905245,10,1,100,-1.7079981557278048,-10,-1,-100,6432.3049447005615,0.13027626286419336,0.35712549551768424,0.924926740766742,255.49602691628627,30.113578283795285,690.5269308909078,-32.555601140420436,-102.391357421875,4381.2578125,True
1599569122.5178382,0.0,10,0.5,0.5,2.620405523300171,-0.1005,-0.02275,-0.001,4.280748182547949,10,1,100,-2.3564132724575546,-10,-1,-100,6430.3501632093685,0.13891074480682689,0.36048152737810263,0.922364826625757,240.09755167072777,28.47176008214789,660.829570921015,-33.12199575363593,-127.98887634277344,4381.2578125,True
1599569122.5776792,0.0,10,0.5,0.5,4.736256758117676,-0.1005,-0.02275,-0.001,4.174558919229567,10,1,100,-2.0753966439267266,-10,-1,-100,6429.038372598821,0.14414778492354083,0.3625242828774433,0.920759230432056,216.1030566227889,25.762039011497606,601.9554603192341,-33.50006700654179,-145.38427734375,4381.2578125,True
1599569122.6405132,0.0,10,0.5,0.5,5.9728321723938,-0.1005,-0.02275,-0.001,4.08619391448177,10,1,100,-1.8292077982283637,-10,-1,-100,6428.323117770138,0.14661484344013273,0.3635426620298145,0.9199678367026217,221.56688735937462,26.491902805127467,620.8062197473123,-33.68878100378181,-154.13037109375,4381.2578125,True
1599569122.7013478,0.0,10,0.5,0.5,8.061728689575196,-0.1005,-0.02275,-0.001,4.220101563154412,10,1,100,-2.1007140082660136,-10,-1,-100,6426.944886085112,0.15127566348074573,0.36565800466326387,0.9183735064036532,247.295830124513,29.736808988552212,700.9246888215625,-34.06519561379873,-171.491455078125,4381.2578125,True
1599569122.7601905,0.0,10,0.5,0.5,-26.38676451187134,-0.1005,-0.02275,-0.001,4.266409115188088,10,1,100,-2.1210160337778836,-10,-1,-100,6425.574156422634,0.15564290066565206,0.36797229927130876,0.9167178815979148,260.8030415956874,31.512661014667906,747.6777299346118,-34.441129680179294,171.42599487304688,4381.2578125,True
1599569122.8230233,0.0,10,0.5,0.5,-23.959457603454588,-0.1005,-0.02275,-0.001,4.480569442103031,10,1,100,-2.3774844183551678,-10,-1,-100,6423.489421343664,0.16189490085419175,0.3719986305949312,0.9140060502605589,260.92417425770344,31.737430430650495,760.9395445911758,-35.00566886525784,146.3846435546875,4381.2578125,True
1599569122.884857,0.0,10,0.5,0.5,-22.75717338485718,-0.1005,-0.02275,-0.001,4.422666662485929,10,1,100,-2.2167881783100816,-10,-1,-100,6422.11192763818,0.16606825953965154,0.37510858184105006,0.9119840376907192,246.0883366064832,30.09383738663387,725.8941225178229,-35.382661683480464,129.99761962890625,4381.2578125,True
1599569122.9476893,0.0,10,0.5,0.5,-22.35364807434082,-0.1005,-0.02275,-0.001,4.2991093918048,10,1,100,-2.0409951906239985,-10,-1,-100,6421.39751704759,0.1682139493639193,0.37678765032264266,0.9108979821054247,234.66384061099436,28.78696409252314,696.0983927137904,-35.57120876742501,121.75473022460938,4381.2578125,True
1599569123.0095236,0.0,10,0.5,0.5,-21.123240840911865,-0.1005,-0.02275,-0.001,4.526932488797242,10,1,100,-2.3264170266019812,-10,-1,-100,6419.959388730698,0.17271624448179237,0.3803635637297678,0.9085662652106871,242.82149434335736,29.988877546537825,728.2523701408652,-35.94755342267438,105.08625793457031,4381.2578125,True
1599569123.0693634,0.0,10,0.5,0.5,-19.873832923126223,-0.1005,-0.02275,-0.001,4.588584936852493,10,1,100,-2.4185653356279326,-10,-1,-100,6418.528699012124,0.17760557843968278,0.38415259127278795,0.9060259627215482,265.906309357745,33.044758615971055,806.0761836241784,-36.32255757027464,88.15020751953125,4381.2578125,True
1599569123.1302016,0.0,10,0.5,0.5,-18.577282024383546,-0.1005,-0.02275,-0.001,4.639318272321597,10,1,100,-2.5263069256030715,-10,-1,-100,6417.0360547789605,0.18298686984156123,0.38803380382002073,0.903297056653321,278.1445558848257,34.74911443283265,852.1915243183734,-36.697238568954475,70.93869018554688,4381.2578125,True
1599569123.1900427,0.0,10,0.5,0.5,-16.373431067276,-0.1005,-0.02275,-0.001,4.877701471610978,10,1,100,-2.9967078149366757,-10,-1,-100,6414.8276474463055,0.19211525545081556,0.39370425133246134,0.8989375345961556,272.7069019229835,34.335952819867124,849.0601608462084,-37.26013908850122,44.59757995605469,4381.2578125,True
1599569123.2518754,0.0,10,0.5,0.5,-15.92641523666382,-0.1005,-0.02275,-0.001,4.508594476320212,10,1,100,-2.455283785796703,-10,-1,-100,6414.04850820615,0.19544814440293132,0.3954753400516231,0.8974404037374872,263.66080786769936,33.299043755156184,825.3015999919878,-37.44806929062908,35.675750732421875,4381.2578125,True
1599569123.3137105,0.0,10,0.5,0.5,-13.606601849365235,-0.1005,-0.02275,-0.001,4.850482577668409,10,1,100,-3.3154609181460017,-10,-1,-100,6411.77120733168,0.20625344165260945,0.40016446464673394,0.8929322029361727,251.43194283696192,32.093895745408915,799.4179598216148,-38.01140512675914,8.478271484375,4381.2578125,True
1599569123.3785367,0.0,10,0.5,0.5,-13.108236666870118,-0.1005,-0.02275,-0.001,4.52798484865758,10,1,100,-2.6621217929541583,-10,-1,-100,6411.064777223044,0.21008701276132566,0.40146413814220583,0.891453864681038,267.630686059696,34.278417016261805,855.2164892938191,-38.19841558701326,-0.733489990234375,4381.2578125,True
1599569123.441953,0.0,10,0.5,0.5,-9.875778474426271,-0.1005,-0.02275,-0.001,4.724893766809181,10,1,100,-3.5997123781927516,-10,-1,-100,6408.728128058836,0.22204613353314973,0.4044052934495849,0.8872157985591408,294.81001384991464,38.09273317683985,956.3091537635929,-38.75867199125503,-28.8123779296875,4381.2578125,True
1599569123.5037875,0.0,10,0.5,0.5,-7.567510121154784,-0.1005,-0.02275,-0.001,4.556406345256676,10,1,100,-3.306217678723528,-10,-1,-100,6407.172118061804,0.23019524493719778,0.4055179065668571,0.884627252950042,294.1141202076405,38.22516681661401,963.756818184411,-39.132653668790816,-47.90374755859375,4381.2578125,True
1599569123.5646248,0.0,10,0.5,0.5,-5.2137986862182615,-0.1005,-0.02275,-0.001,4.497882328101685,10,1,100,-3.3877443457493177,-10,-1,-100,6405.605653011706,0.2382863822907509,0.40596969167685387,0.8822744524548959,275.2656652990172,36.03159255638616,911.1635132693331,-39.50719168006917,-67.29367065429688,4381.2578125,True
1599569123.6274981,0.0,10,0.5,0.5,-3.8077046936035157,-0.1005,-0.02275,-0.001,4.455417980655013,10,1,100,-3.0228838634873694,-10,-1,-100,6404.763307722984,0.2422613460162116,0.4059678367624683,0.8811921219239397,259.7540804299542,34.13783536605607,864.0844279411853,-39.69447851125979,-77.10055541992188,4381.2578125,True
1599569123.6880822,0.0,10,0.5,0.5,-0.3716301067352292,-0.1005,-0.02275,-0.001,4.375718460449438,10,1,100,-3.8904858808770224,-10,-1,-100,6402.370454016374,0.253699017650596,0.40521833277203734,0.8783136747361805,292.4999065685331,38.867350123303936,986.9656975281018,-40.253887499946735,-106.96662902832031,4381.2578125,True
1599569123.7509143,0.0,10,0.5,0.5,2.1005078430175783,-0.1005,-0.02275,-0.001,4.3494131199719845,10,1,100,-3.5346052148617613,-10,-1,-100,6400.739917189116,0.2607924463187968,0.40427867537503304,0.8766675838538039,306.6201129226802,40.98273522395117,1044.3796244161783,-40.62604471758579,-127.24360656738281,4381.2578125,True
1599569123.8197308,0.0,10,0.5,0.5,4.6154356327056885,-0.1005,-0.02275,-0.001,4.323869182464801,10,1,100,-3.561182853076282,-10,-1,-100,6399.125516011845,0.2674119003859502,0.4031774556990047,0.875179304341717,301.85818990665405,40.59273082486523,1038.0340517426425,-40.99888654583215,-147.7789764404297,4381.2578125,True
1599569123.8882532,0.0,10,0.5,0.5,7.124022848129273,-0.1005,-0.02275,-0.001,4.3136032125890384,10,1,100,-3.585975660363273,-10,-1,-100,6397.501582743134,0.2735865235633031,0.40207440789977517,0.8737771939325216,275.3725814867169,37.30793798231511,956.0225145796519,-41.372407777921296,-168.38455200195312,4381.2578125,True
1599569123.9591088,0.0,10,0.5,0.5,-26.904227283096315,-0.1005,-0.02275,-0.001,4.317598005359773,10,1,100,-3.6164084102843916,-10,-1,-100,6395.81074722542,0.2794054438336701,0.4011019543185294,0.8723816940983837,275.44212485959696,37.604906917337416,965.0297126182742,-41.745339521272186,171.23989868164062,4381.2578125,True
1599569124.0300858,0.0,10,0.5,0.5,-23.891381643295286,-0.1005,-0.02275,-0.001,4.302298305357441,10,1,100,-3.958042766335736,-10,-1,-100,6393.2837593803415,0.287734636405215,0.4000779651631286,0.8701415981342859,314.4986979864224,43.334356244321356,1116.6751518604988,-42.302267319534586,141.254638671875,4381.2578125,True
1599569124.0934265,0.0,10,0.5,0.5,-23.237191035842894,-0.1005,-0.02275,-0.001,4.381602591947722,10,1,100,-3.435037377831468,-10,-1,-100,6392.440670009935,0.29048144646235896,0.3998692741481114,0.8693245037691034,318.77471296881157,44.05369100660738,1136.9868800306374,-42.4879974660016,131.3314971923828,4381.2578125,True
1599569124.1632395,0.0,10,0.5,0.5,-22.59989059753418,-0.1005,-0.02275,-0.001,4.385885661492247,10,1,100,-3.471563850461373,-10,-1,-100,6391.601134725846,0.2932483914355533,0.39972261569332007,0.8684625561437584,317.53444305396357,44.02535772368805,1137.7453904654608,-42.67390674316756,121.365478515625,4381.2578125,True
1599569124.226581,0.0,10,0.5,0.5,-19.92353607788086,-0.1005,-0.02275,-0.001,4.382018734405296,10,1,100,-4.149429292385757,-10,-1,-100,6389.007250839844,0.30186888802277134,0.399559404388968,0.8655792608468786,281.2249925875326,39.464016174019484,1021.3991676440409,-43.23230805825469,91.10530090332031,4381.2578125,True
1599569124.2894135,0.0,10,0.5,0.5,-18.23295012702942,-0.1005,-0.02275,-0.001,4.3937062011497074,10,1,100,-3.973601828979823,-10,-1,-100,6387.253344318946,0.30804946933861377,0.39952310770749516,0.863415780981529,301.120051820627,42.58549375904039,1102.9908709439758,-43.60332289577046,70.600830078125,4381.2578125,True
1599569124.3532407,0.0,10,0.5,0.5,-16.480387458419802,-0.1005,-0.02275,-0.001,4.3784833056732415,10,1,100,-4.089645754501742,-10,-1,-100,6385.510646178853,0.3146633170183767,0.3993575796100565,0.8611042448687557,327.1553466392069,46.554723596722106,1208.4179888582908,-43.97309686820457,49.82164001464844,4381.2578125,True
1599569124.4190657,0.0,10,0.5,0.5,-15.792684553146364,-0.1005,-0.02275,-0.001,4.3740473385483005,10,1,100,-3.816584244290507,-10,-1,-100,6384.602791012265,0.31813810636227013,0.3991721005050328,0.859912658040704,333.67626960780484,47.62269270701714,1237.7533516027015,-44.15806372596485,39.327301025390625,4381.2578125,True
1599569124.4809,0.0,10,0.5,0.5,-14.030143713378907,-0.1005,-0.02275,-0.001,4.316871399294213,10,1,100,-4.2737098856719005,-10,-1,-100,6382.859907126753,0.32540056099651005,0.3984883442116741,0.8575089004964294,327.1931042515957,47.017310885257295,1224.2553588402818,-44.52862017852659,18.12548828125,4381.2578125,True
1599569124.527776,0.0,10,0.5,0.5,-12.247389297866823,-0.1005,-0.02275,-0.001,4.250252810239697,10,1,100,-4.3899432040212165,-10,-1,-100,6381.048048218479,0.3330067420484396,0.39726538687311364,0.8551530401880352,295.00156289494305,42.74845972499158,1113.2765022293252,-44.899756580186455,-3.36602783203125,4381.2578125,True
1599569124.611552,0.0,10,0.5,0.5,-10.432825819015502,-0.1005,-0.02275,-0.001,4.166249753799305,10,1,100,-4.495061190056257,-10,-1,-100,6379.242144513875,0.3408230517700713,0.39539431516226115,0.8529378540781866,311.0638480613793,45.42062131457131,1183.3648430404742,-45.269759498420264,-25.1539306640625,4381.2578125,True
1599569124.68635,0.0,10,0.5,0.5,-8.890642497634888,-0.1005,-0.02275,-0.001,4.221489998260488,10,1,100,-4.151741773074965,-10,-1,-100,6378.337253543665,0.3447518680826916,0.3942007136830935,0.8519107622193972,330.03002341058243,48.339136078941344,1260.4752961054878,-45.45407519202289,-36.16058349609375,4381.2578125,True
1599569124.7581592,0.0,10,0.5,0.5,-7.373200250625611,-0.1005,-0.02275,-0.001,4.190305238349618,10,1,100,-4.194637234818078,-10,-1,-100,6377.432660900522,0.3486616441721225,0.39283746656782415,0.8509487544757124,341.87842924993686,50.21927336412305,1310.9379566129176,-45.638349294982994,-47.242645263671875,4381.2578125,True
1599569124.8286183,0.0,10,0.5,0.5,-4.7054427490234385,-0.1005,-0.02275,-0.001,3.9731327592482986,10,1,100,-4.653015057766811,-10,-1,-100,6375.559343798901,0.3563301661004938,0.3896302482962766,0.8492450072501905,349.5565527679798,51.680001137114544,1351.3767721992717,-46.00727944675656,-69.63262939453125,4381.2578125,True
1599569124.896437,0.0,10,0.5,0.5,-0.8276010734558101,-0.1005,-0.02275,-0.001,3.6543100284983216,10,1,100,-5.083518827878306,-10,-1,-100,6372.775938496925,0.36715787324124044,0.38382538174023095,0.8472739654025344,305.0012024174964,45.67731564475213,1193.5371930552153,-46.56167898642581,-103.7775650024414,4381.2578125,True
1599569124.9642556,0.0,10,0.5,0.5,0.7518191072463988,-0.1005,-0.02275,-0.001,3.999257997336712,10,1,100,-4.378101053783174,-10,-1,-100,6371.866572560393,0.3705290008908558,0.3816984246084009,0.8467671298239495,311.17902536290154,46.78360743445659,1222.313788543038,-46.745986956687915,-115.30669403076172,4381.2578125,True
1599569125.0320737,0.0,10,0.5,0.5,3.5256205677032475,-0.1005,-0.02275,-0.001,3.725504541762403,10,1,100,-4.74334117545406,-10,-1,-100,6369.981839992339,0.3768572275588303,0.3772923636952427,0.8459486404823455,350.18420421960616,52.9628289038003,1385.7639902355531,-47.11330369921682,-138.58148193359375,4381.2578125,True
1599569125.0978985,0.0,10,0.5,0.5,7.514844001007081,-0.1005,-0.02275,-0.001,3.4330946358520364,10,1,100,-5.049486615225335,-10,-1,-100,6367.094153168844,0.38533676133623646,0.37064864118947266,0.84506518396352,352.80220430785175,53.86178192778037,1412.4144838229324,-47.66501372820314,-173.89065551757812,4381.2578125,True
1599569125.1637225,0.0,10,0.5,0.5,-26.199635166168218,-0.1005,-0.02275,-0.001,3.6281456320132124,10,1,100,-4.769886023261446,-10,-1,-100,6365.126933853724,0.39044251515695766,0.36640801474870655,0.8445707839404702,313.234056993237,48.21973393950889,1263.6612444948773,-48.03378567921868,162.70285034179688,4381.2578125,True
1599569125.2285483,0.0,10,0.5,0.5,-23.846378376770023,-0.1005,-0.02275,-0.001,3.6093091118111422,10,1,100,-4.797918587487472,-10,-1,-100,6363.161321465392,0.3952798219831586,0.36241082264568486,0.844045175308905,336.26219466362244,52.10611325240815,1366.2769834862213,-48.40132601741361,139.59371948242188,4381.2578125,True
1599569125.2943726,0.0,10,0.5,0.5,-21.873134552764895,-0.1005,-0.02275,-0.001,3.594750352749938,10,1,100,-4.840334988877855,-10,-1,-100,6361.220984952059,0.400006365401495,0.3586763452553155,0.8434134140459087,365.88357307519885,56.986548385192975,1497.3372401609738,-48.76776776598112,116.720947265625,4381.2578125,True
1599569125.3591998,0.0,10,0.5,0.5,-21.053475667572023,-0.1005,-0.02275,-0.001,3.7682813495215246,10,1,100,-4.634928056243199,-10,-1,-100,6360.25125000102,0.4023820842909117,0.3568923002982732,0.8430400608687044,370.81022446897595,57.926244302516125,1523.1398007423236,-48.951139189457095,105.24018859863281,4381.2578125,True
1599569125.420036,0.0,10,0.5,0.5,-19.038537263870243,-0.1005,-0.02275,-0.001,3.560920896923951,10,1,100,-4.939294176896657,-10,-1,-100,6358.307804574724,0.40725640236340543,0.35341926296224296,0.8421621264942046,354.33702242185285,55.78524660401674,1466.403915510409,-49.31836445616512,82.10614013671875,4381.2578125,True
1599569125.4843748,0.0,10,0.5,0.5,-15.784193270492553,-0.1005,-0.02275,-0.001,3.322085197146698,10,1,100,-5.31782345620056,-10,-1,-100,6355.275212886045,0.41507550791553405,0.34812655738933646,0.8405475731741248,346.31320110191695,55.129030482638946,1448.1126095655202,-49.86857943009789,46.91651916503906,4381.2578125,True
1599569125.5472064,0.0,10,0.5,0.5,-14.880015770721435,-0.1005,-0.02275,-0.001,3.64050993639617,10,1,100,-4.845076622713612,-10,-1,-100,6354.304248502478,0.41783268234775595,0.34624750785342295,0.839957447057512,366.8914063579611,58.54596535846901,1539.2752416720987,-50.051111958156845,35.04936218261719,4381.2578125,True
1599569125.6309829,0.0,10,0.5,0.5,-12.777111640357973,-0.1005,-0.02275,-0.001,3.37811017980519,10,1,100,-5.2020243778893756,-10,-1,-100,6352.301846204093,0.42353811614309506,0.3421879903734807,0.8387626859953398,383.8700932223366,61.565912335446974,1621.6902860294063,-50.41638562549684,11.1025390625,4381.2578125,True
1599569126.1628711,0.0,10,0.5,0.5,-10.62863977394104,-0.1005,-0.02275,-0.001,3.276414283821898,10,1,100,-5.282415251351767,-10,-1,-100,6350.237259734771,0.4294075101564685,0.3376089303684441,0.8376332134990218,364.49397808267264,58.88926831905431,1550.8279284128948,-50.78246333612242,-13.1339111328125,4381.2578125,True
1599569126.2167268,0.0,10,0.5,0.5,-9.697000770950318,-0.1005,-0.02275,-0.001,3.4535840386523877,10,1,100,-5.025212483279418,-10,-1,-100,6349.205532694003,0.4323573429292433,0.33509285852898507,0.8371259786782623,340.56190849027604,55.24783365019727,1453.969907806445,-50.96573562002092,-25.3631591796875,4381.2578125,True
1599569126.276566,0.0,10,0.5,0.5,-7.541655479049683,-0.1005,-0.02275,-0.001,3.0960646681055697,10,1,100,-5.374213759525338,-10,-1,-100,6347.202116385335,0.4381690019780079,0.32958766783601534,0.8362893607573954,357.214421337866,58.294881956353464,1534.8390528263353,-51.33122503881766,-50.047637939453125,4381.2578125,True
1599569126.3354084,0.0,10,0.5,0.5,-5.81809880180359,-0.1005,-0.02275,-0.001,3.315752098305555,10,1,100,-5.106577532642,-10,-1,-100,6346.170790836215,0.4409758840626535,0.3266135805232361,0.8359807645472189,379.36942811805096,62.04061637471329,1635.2310065715135,-51.51328288345183,-62.503143310546875,4381.2578125,True
1599569126.396752,0.0,10,0.5,0.5,-1.5328237125396726,-0.1005,-0.02275,-0.001,2.551161086102285,10,1,100,-5.683888228088836,-10,-1,-100,6343.068940419587,0.4487343322235939,0.3169915803480638,0.8355560047491025,390.40673737633045,64.40283754261034,1699.815864402144,-52.05991956089861,-100.31555938720703,4381.2578125,True
1599569126.455594,0.0,10,0.5,0.5,1.5185202585220339,-0.1005,-0.02275,-0.001,2.762474804679658,10,1,100,-5.4051277306329055,-10,-1,-100,6340.93954350031,0.45320898242319296,0.31020323650761716,0.8356886802578658,345.7086246393436,57.484130707826445,1514.9875192061609,-52.425001088999274,-125.885986328125,4381.2578125,True
1599569126.5134397,0.0,10,0.5,0.5,4.642557633018495,-0.1005,-0.02275,-0.001,2.6811393934699526,10,1,100,-5.386813558169957,-10,-1,-100,6338.869348278269,0.4570641474930451,0.30333504660875077,0.8361101689223274,380.19202195464374,63.51821928792098,1676.0319717003547,-52.78866198529136,-151.73619079589844,4381.2578125,True
1599569126.5752742,0.0,10,0.5,0.5,6.470854866981507,-0.1005,-0.02275,-0.001,2.9891852990896606,10,1,100,-5.192976621823986,-10,-1,-100,6337.770279420773,0.4587614092760112,0.29993718603937275,0.8364063927241775,396.4479863229535,66.34773921248161,1753.0268915064298,-52.970152183712365,-164.76235961914062,4381.2578125,True
1599569126.6371093,0.0,10,0.5,0.5,-26.967158828926088,-0.1005,-0.02275,-0.001,2.5961210592939397,10,1,100,-5.357444457629157,-10,-1,-100,6335.636279687751,0.4617598222211543,0.2933187191339316,0.8371033362661492,400.3021721734949,67.32826176635785,1781.443692947799,-53.33364658789299,169.29238891601562,4381.2578125,True
1599569126.6983926,0.0,10,0.5,0.5,-23.04533241329193,-0.1005,-0.02275,-0.001,2.2268293731676687,10,1,100,-5.478837328213786,-10,-1,-100,6332.402912595542,0.46554928995853245,0.2839928509721276,0.8382194934596959,338.9930861666292,57.582805022999494,1522.5706330353257,-53.88029499655283,130.9359893798828,4381.2578125,True
1599569126.7602475,0.0,10,0.5,0.5,-20.794570158576967,-0.1005,-0.02275,-0.001,2.515542141581876,10,1,100,-5.357884406653906,-10,-1,-100,6330.268686687923,0.46785649663849965,0.2781923552100726,0.8388797959516145,394.7973199368182,67.27953189455984,1783.4456412099669,-54.243061477318,105.69717407226562,4381.2578125,True
1599569126.823673,0.0,10,0.5,0.5,-19.80521972293854,-0.1005,-0.02275,-0.001,2.782285824016645,10,1,100,-5.257471874312314,-10,-1,-100,6329.169770625536,0.4690061624294717,0.2753981348804826,0.8391597505287843,407.58101332964924,69.57970238758627,1846.75618178503,-54.424319950272185,93.03776550292969,4381.2578125,True
1599569126.883512,0.0,10,0.5,0.5,-17.500648415946962,-0.1005,-0.02275,-0.001,2.454580672463204,10,1,100,-5.408630518302624,-10,-1,-100,6326.972832149011,0.4713921655307216,0.26993306477004997,0.8395984557037397,402.6420641716301,69.13581110389681,1835.7236811332805,-54.7871577922063,67.55409240722656,4381.2578125,True
1599569126.9453459,0.0,10,0.5,0.5,-15.181712852668763,-0.1005,-0.02275,-0.001,2.3940400961472212,10,1,100,-5.456712803620535,-10,-1,-100,6324.776895941002,0.4739681680678819,0.2644686817968441,0.8398871900481729,352.57618936377287,60.94699645961226,1616.8265738777995,-55.15058857541369,41.820465087890625,4381.2578125,True
1599569127.0051885,0.0,10,0.5,0.5,-12.805590641975403,-0.1005,-0.02275,-0.001,2.310638904468989,10,1,100,-5.507031018706875,-10,-1,-100,6322.580826895777,0.47673743388971684,0.2587993636229697,0.8400858935350561,399.1605909940173,69.21501925616995,1840.3508591000311,-55.51251059179039,15.818572998046875,4381.2578125,True
1599569127.068021,0.0,10,0.5,0.5,-10.428377809143067,-0.1005,-0.02275,-0.001,2.2090906218371558,10,1,100,-5.5488551988431425,-10,-1,-100,6320.322306377348,0.47960971072747277,0.2527751738198173,0.8402852116253572,420.6848781201983,73.17590666311108,1950.7839261161516,-55.87405549897973,-10.46142578125,4381.2578125,True
1599569127.1318476,0.0,10,0.5,0.5,-6.661780375671387,-0.1005,-0.02275,-0.001,1.714879197432147,10,1,100,-5.723496055726529,-10,-1,-100,6316.965340074967,0.4837845149804596,0.24285801383389485,0.8408165841500613,363.52080403179065,63.79871497026034,1700.2808776967274,-56.41776017149242,-50.416778564453125,4381.2578125,True
1599569127.195123,0.0,10,0.5,0.5,-5.565695139694214,-0.1005,-0.02275,-0.001,2.309897665269433,10,1,100,-5.447414101800174,-10,-1,-100,6315.804021992837,0.48504566438612856,0.23930665176591784,0.8411082153211944,368.6199754232534,64.80540954268112,1728.601808307299,-56.598867745442725,-63.8802490234375,4381.2578125,True
1599569127.2559602,0.0,10,0.5,0.5,-1.6657204158782954,-0.1005,-0.02275,-0.001,1.42999474092214,10,1,100,-5.659315667353563,-10,-1,-100,6312.383107572212,0.48809464693712196,0.22813414196848467,0.8424478790403768,429.39148211033734,75.76523433435283,2030.0235517224276,-57.14018470804675,-104.69744110107422,4381.2578125,True
1599569127.320787,0.0,10,0.5,0.5,1.7133027402877805,-0.1005,-0.02275,-0.001,1.700416526011947,10,1,100,-5.497948491265534,-10,-1,-100,6310.119310055976,0.4893755341783921,0.22049495345087589,0.8437378514979101,407.0871311608064,72.24276411555742,1935.3701364773908,-57.50130464998536,-132.24929809570312,4381.2578125,True
1599569127.385613,0.0,10,0.5,0.5,3.692655035591126,-0.1005,-0.02275,-0.001,2.039631485508489,10,1,100,-5.416183625861105,-10,-1,-100,6308.958020120743,0.48977499994476115,0.21669173433712852,0.8444910548366255,376.0203344713178,66.90891021917595,1792.2805879592684,-57.682202591379095,-146.12277221679688,4381.2578125,True
