Timestamp,Input Throttle,horizon,dT,dt,Input Roll,Roll P,Roll I,Roll D,Input Pitch,Pitch P,Pitch I,Pitch D,Input Yaw,Yaw P,Yaw I,Yaw D,Altitude,Direction X,Direction Y,Direction Z,Drag X,Drag Y,Drag Z,Vertical Velocity,Roll,Mass,Has Fuel
1599567130.9916136,0.0,10,0.5,0.5,-2.7439012222290042,-0.05075,-0.0155,-0.12575,-0.0666466973393489,10,1,100,0.6932141544964738,-10,-1,-100,6483.997883174452,-0.06744622093251339,-0.006971409980335347,0.9976985550379477,204.61201838467093,21.45672788142106,-150.2666161502934,9.210801191797234,-35.94122314453125,4381.2578125,True
1599567131.0813742,0.0,10,0.5,0.5,-2.8275810516357422,-0.05075,-0.0155,-0.12575,-0.0685770064406376,10,1,100,0.6919165039045685,-10,-1,-100,6484.156592044164,-0.06754358159147869,-0.006954735122510353,0.9976920848864999,204.3810700376746,21.43559945700715,-147.02541315989927,9.020797429258801,-35.939483642578125,4381.2578125,True
1599567131.1630018,0.0,10,0.5,0.5,-2.904530895996094,-0.05075,-0.0155,-0.12575,-0.04963765373071681,10,1,100,0.7133442373149135,-10,-1,-100,6484.6971681374125,-0.06776548560191258,-0.006761077740649705,0.9976783684078362,203.68466153329538,21.371552623062335,-137.33302044657512,8.450805884500578,-35.977020263671875,4381.2578125,True
1599567131.2557507,0.0,10,0.5,0.5,-2.901187138366699,-0.05075,-0.0155,-0.12575,-0.01013507468272036,10,1,100,0.7021710534882253,-10,-1,-100,6485.175690473639,-0.06780403713515357,-0.006219764786030375,0.9976792706447205,203.12425702475542,21.321005653239137,-127.77714523055994,7.880824148414417,-36.49713134765625,4381.2578125,True
1599567131.3445144,0.0,10,0.5,0.5,-2.924707992553711,-0.05075,-0.0155,-0.12575,-0.000340920915552885,10,1,100,0.6929207588085422,-10,-1,-100,6485.494022694882,-0.06769335036179812,-0.005632970006869435,0.9976902725624303,202.84628957139643,21.29649752767719,-121.48544470497647,7.500828351513334,-37.20428466796875,4381.2578125,True
1599567131.4422565,0.0,10,0.5,0.5,-2.918868927001953,-0.05075,-0.0155,-0.12575,0.027447986337984287,10,1,100,0.6828804691916532,-10,-1,-100,6485.750314795063,-0.06743991125281072,-0.004841772896230179,0.9977115893911598,202.61017567097093,21.27542147710012,-115.22915973830536,7.120817036785677,-38.204833984375,4381.2578125,True
1599567131.5270274,0.0,10,0.5,0.5,-3.0172273010253905,-0.05075,-0.0155,-0.12575,4.309928556463921e-05,10,1,100,0.695076590758942,-10,-1,-100,6485.908967794268,-0.06725907688502225,-0.00436723652076537,0.9977259863418143,202.49317901990105,21.264573915564753,-112.10503406293678,6.930802930627098,-38.815277099609375,4381.2578125,True
1599567131.611799,0.0,10,0.5,0.5,-2.7722644195556647,-0.05075,-0.0155,-0.12575,0.1416666656802711,10,1,100,0.6333869812959181,-10,-1,-100,6486.260375070968,-0.0664727227583825,-0.0026443826335538806,0.9977847384930151,202.05069869878588,21.22050664297686,-102.69978301301435,6.360713627461431,-41.08758544921875,4381.2578125,True
1599567131.7035549,0.0,10,0.5,0.5,-2.974191493225098,-0.05075,-0.0155,-0.12575,0.043527946264537085,10,1,100,0.6810234366567202,-10,-1,-100,6486.420465828618,-0.0661304843076642,-0.001967918019292332,0.99780904302572,201.84062291171819,21.19855161844225,-99.54024845437651,6.170664231588261,-41.99200439453125,4381.2578125,True
1599567131.7843406,0.0,10,0.5,0.5,-2.6054826705932617,-0.05075,-0.0155,-0.12575,0.22177060317304634,10,1,100,0.5764041946447136,-10,-1,-100,6486.772284289356,-0.064808155802986,0.0002692266183130623,0.9978977054079461,200.85971362177736,21.093672260457684,-89.93526594379814,5.600436260936449,-45.14697265625,4381.2578125,True
1599567131.8541517,0.0,10,0.5,0.5,-2.860139262390137,-0.05075,-0.0155,-0.12575,0.08844152523595956,10,1,100,0.6561010133101675,-10,-1,-100,6486.869361485587,-0.06427163900859814,0.0010906671925096198,0.9979318447991443,200.3680039871956,21.04069505915242,-86.67962091610333,5.410327120007885,-46.345855712890625,4381.2578125,True
1599567131.9509332,0.0,10,0.5,0.5,-2.281941731262207,-0.05075,-0.0155,-0.12575,0.29661762621515414,10,1,100,0.4985142636300419,-10,-1,-100,6487.157629088382,-0.06235417563653887,0.003722612198705673,0.9980471426436257,198.18827024352223,20.80577366345428,-76.72163675204384,4.83986736383751,-50.384552001953125,4381.2578125,True
1599567132.0257304,0.0,10,0.5,0.5,-2.50384754486084,-0.05075,-0.0155,-0.12575,0.13966611842733181,10,1,100,0.6080714799123276,-10,-1,-100,6487.254684391781,-0.061611719451737525,0.004678750908702595,0.9980892271315901,197.16840303555753,20.69605054234496,-73.33469984931646,4.649661678773592,-51.87786865234375,4381.2578125,True
1599567132.1120596,0.0,10,0.5,0.5,-1.7980486343383788,-0.05075,-0.0155,-0.12575,0.3664815069142545,10,1,100,0.39938308978561066,-10,-1,-100,6487.54435847234,-0.059045186433629944,0.007599526150717864,0.9982263837233029,192.9688498703741,20.245891368571755,-62.97955562301014,4.078841097886782,-56.801025390625,4381.2578125,True
1599567132.2013352,0.0,10,0.5,0.5,-1.7413436813354495,-0.05075,-0.0155,-0.12575,0.30216404194275226,10,1,100,0.436080738569982,-10,-1,-100,6487.674467869569,-0.05705355217948236,0.009657509151957408,0.9983244085469827,189.01630323747275,19.824353305505138,-55.94067384590886,3.6980845050924103,-60.451568603515625,4381.2578125,True
1599567132.3003068,0.0,10,0.5,0.5,-1.8225051773071288,-0.05075,-0.0155,-0.12575,0.2048173696502174,10,1,100,0.5169419552227623,-10,-1,-100,6487.77101262426,-0.055987750098175575,0.010629532605735017,0.9983748719171212,186.63602093618567,19.57129648070563,-52.39584369247105,3.507631334893238,-62.388458251953125,4381.2578125,True
1599567132.3576686,0.0,10,0.5,0.5,-1.3058005584716796,-0.05075,-0.0155,-0.12575,0.3270531807684385,10,1,100,0.3696839279069375,-10,-1,-100,6487.8386076051975,-0.05369054083152976,0.012610360114333065,0.9984779940704775,181.0282847593202,18.976935978324615,-45.30725350226069,3.126558002409349,-66.48355102539062,4381.2578125,True
1599567132.48134,0.0,10,0.5,0.5,-1.3969067077636719,-0.05075,-0.0155,-0.12575,0.23915229187131715,10,1,100,0.4627497817668353,-10,-1,-100,6487.934659494902,-0.052460557020626714,0.013596579226143735,0.9985304316796925,177.75444359033656,18.63109696602149,-41.77834595041403,2.9359213462655718,-68.64199829101562,4381.2578125,True
1599567132.5830653,0.0,10,0.5,0.5,-0.8244506484985352,-0.05075,-0.0155,-0.12575,0.35421049645589997,10,1,100,0.29733524573142844,-10,-1,-100,6488.002736343187,-0.049851359742881844,0.015524361222322645,0.998635987805579,170.11741632580225,17.826879540005347,-34.79239818690017,2.554408966900734,-73.18121337890625,4381.2578125,True
1599567132.684794,0.0,10,0.5,0.5,-0.4933814758300783,-0.05075,-0.0155,-0.12575,0.36565445357874843,10,1,100,0.24861916382479526,-10,-1,-100,6488.132337302552,-0.047051287949930555,0.017365024211564262,0.9987415242375699,161.0727898395621,16.876843226297336,-28.022009943162743,2.172594008329761,-78.01708984375,4381.2578125,True
1599567132.7825327,0.0,10,0.5,0.5,-0.14597098693847654,-0.05075,-0.0155,-0.12575,0.37379961557953056,10,1,100,0.20028254266296902,-10,-1,-100,6488.200906752492,-0.04408248691655192,0.01909685949488807,0.9988453555504399,150.59887617231524,15.778088074664716,-21.59520679791719,1.7905586817770578,-83.14215087890625,4381.2578125,True
1599567132.8782766,0.0,10,0.5,0.5,-0.7334131546020508,-0.05075,-0.0155,-0.12575,0.20241670647738771,10,1,100,0.4951437307916277,-10,-1,-100,6488.200906752492,-0.04408248691655192,0.01909685949488807,0.9988453555504399,150.59887617231524,15.778088074664716,-21.59520679791719,1.7905586817770578,-83.14215087890625,4381.2578125,True
1599567132.9839954,0.0,10,0.5,0.5,0.7466903663635254,-0.05075,-0.0155,-0.12575,0.4606586737651114,10,1,100,-0.021980527072814338,-10,-1,-100,6488.301581172738,-0.03939796792571153,0.02143053715450721,0.9989937598406678,151.2500195871648,15.845765698621863,-14.747695420819193,1.2173407532804292,-91.2403335571289,4381.2578125,True
1599567133.0862064,0.0,10,0.5,0.5,0.27460278930664067,-0.05075,-0.0155,-0.12575,0.3063577778782045,10,1,100,0.266467056734364,-10,-1,-100,6488.2726469984045,-0.03778175937912736,0.022134097985874724,0.9990408501981133,155.01747467182867,16.23998357498623,-12.743382291152686,1.0262738443253956,-93.98960876464844,4381.2578125,True
1599567133.1530275,0.0,10,0.5,0.5,1.4598069622039795,-0.05075,-0.0155,-0.12575,0.44278558083137487,10,1,100,-0.12293011424779215,-10,-1,-100,6488.311841324321,-0.03279183498880806,0.024000738248660235,0.9991739889136356,166.67954478474832,17.458133205350354,-6.05172167760123,0.4531893335853554,-102.33682250976562,4381.2578125,True
1599567133.2268674,0.0,10,0.5,0.5,0.9593108432769777,-0.05075,-0.0155,-0.12575,0.3152361405048209,10,1,100,0.19361437949986895,-10,-1,-100,6488.345424616244,-0.031155273410942597,0.024525104276317752,0.9992136249065688,170.1342593407499,17.818714555036458,-3.57398966793527,0.26219111547335716,-105.08041381835938,4381.2578125,True
1599567133.3026285,0.0,10,0.5,0.5,2.086057581710816,-0.05075,-0.0155,-0.12575,0.41200963691916825,10,1,100,-0.19657313263016846,-10,-1,-100,6488.321204816457,-0.026142905935962045,0.025868927385527214,0.9993234446690149,179.48574798686911,18.796300985825233,4.4710332084419715,-0.31085000282980246,-113.0440444946289,4381.2578125,True
1599567133.3764777,0.0,10,0.5,0.5,2.04094397315979,-0.05075,-0.0155,-0.12575,0.35380876434115405,10,1,100,-0.06139578829887926,-10,-1,-100,6488.326408584253,-0.022840136484351053,0.02654943267294369,0.9993865397283082,184.4404996674441,19.314488752450753,10.244179685303799,-0.6930034374938616,-118.05335998535156,4381.2578125,True
1599567133.4462907,0.0,10,0.5,0.5,2.719871616363526,-0.05075,-0.0155,-0.12575,0.3706342867914613,10,1,100,-0.2590149473710699,-10,-1,-100,6488.240261407103,-0.018068008646354123,0.027309257817009828,0.9994637319588138,189.6457583973937,19.85893538441147,19.25340316671257,-1.2664470521354079,-125.0350112915039,4381.2578125,True
1599567133.5290723,0.0,10,0.5,0.5,2.307209757232666,-0.05075,-0.0155,-0.12575,0.3160922349301718,10,1,100,0.041985573257485365,-10,-1,-100,6488.210417229566,-0.01649497293670426,0.027493457570517604,0.9994858806699751,190.6850266020451,19.967580581236845,22.283343415239273,-1.4576551035305603,-127.21578979492188,4381.2578125,True
1599567133.5998812,0.0,10,0.5,0.5,2.839920499038696,-0.05075,-0.0155,-0.12575,0.33254144655678886,10,1,100,-0.13528594442976544,-10,-1,-100,6488.152700754115,-0.013481159689877764,0.027801242512713053,0.9995225606499162,191.9413937302429,20.09867268293501,28.32024556043688,-1.8401557370275239,-131.35565185546875,4381.2578125,True
1599567133.6678922,0.0,10,0.5,0.5,3.0726176120758053,-0.05075,-0.0155,-0.12575,0.324563658941238,10,1,100,-0.15766673516568228,-10,-1,-100,6488.09403051238,-0.010565687119915046,0.028000608588187703,0.999552065764648,192.2300400736556,20.128172696746788,34.265234758059336,-2.2227567449569476,-135.2001495361328,4381.2578125,True
1599567133.7419915,0.0,10,0.5,0.5,3.296227397537231,-0.05075,-0.0155,-0.12575,0.31806101361022593,10,1,100,-0.1767775247084282,-10,-1,-100,6487.97385403933,-0.007771992878466373,0.02811464120007064,0.9995744910094938,191.7655288978331,20.078330629919122,40.073812158458864,-2.605439876001779,-138.74896240234375,4381.2578125,True
1599567133.8078032,0.0,10,0.5,0.5,3.7651366500854495,-0.05075,-0.0155,-0.12575,0.31586777540360267,10,1,100,-0.33298782320189324,-10,-1,-100,6487.759931105771,-0.0038409281045244837,0.02819229222349895,0.9995951390090293,190.02056885584778,19.89265833407735,48.47127252195993,-3.179573139160855,-143.51686096191406,4381.2578125,True
1599567133.878615,0.0,10,0.5,0.5,3.2423406471252445,-0.05075,-0.0155,-0.12575,0.30870849248453414,10,1,100,0.056724571064835416,-10,-1,-100,6487.759931105771,-0.0038409281045244837,0.02819229222349895,0.9995951390090293,190.02056885584778,19.89265833407735,48.47127252195993,-3.179573139160855,-143.51686096191406,4381.2578125,True
1599567133.9414463,0.0,10,0.5,0.5,4.029995840454102,-0.05075,-0.0155,-0.12575,0.3104250253666312,10,1,100,-0.3441730555894814,-10,-1,-100,6487.547996274894,-0.00022272323210731555,0.02820408656426816,0.999602160809708,187.5322453240691,19.627317957733677,56.4897855611231,-3.753787207413258,-147.61785888671875,4381.2578125,True
1599567134.0063093,0.0,10,0.5,0.5,3.7952892890930183,-0.05075,-0.0155,-0.12575,0.31083723269719066,10,1,100,-0.10923748104505555,-10,-1,-100,6487.518212551717,0.0009026554740691155,0.02821521150225621,0.9996014641110618,186.65922130235677,19.53384441560019,59.099045252390624,-3.945204344980874,-148.83633422851562,4381.2578125,True
1599567134.0691056,0.0,10,0.5,0.5,4.0888087123870855,-0.05075,-0.0155,-0.12575,0.2956165195557259,10,1,100,-0.24465019183790643,-10,-1,-100,6487.335115118767,0.0031321647947008505,0.02808482197721682,0.9996006364134664,184.9281250066029,19.347753505453817,64.24405400057391,-4.328055998197502,-151.05313110351562,4381.2578125,True
1599567134.1409154,0.0,10,0.5,0.5,4.349401678848267,-0.05075,-0.0155,-0.12575,0.30698820448262853,10,1,100,-0.3511790774762796,-10,-1,-100,6487.058779662591,0.006103824681733955,0.028068269190785335,0.9995873726637847,182.3875680257819,19.07280970666379,71.78875956152048,-4.9023841501549805,-153.8191680908203,4381.2578125,True
1599567134.2197018,0.0,10,0.5,0.5,4.182850507354737,-0.05075,-0.0155,-0.12575,0.3039041698260904,10,1,100,-0.15982172042328713,-10,-1,-100,6486.904985820875,0.007043746939165856,0.02802449451408475,0.9995824194813989,181.6144148446463,18.98846670781867,74.28306091966893,-5.093843800226469,-154.5934600830078,4381.2578125,True
1599567134.85866,0.0,10,0.5,0.5,4.361753707885742,-0.05075,-0.0155,-0.12575,0.30724336318462037,10,1,100,-0.26050769056470197,-10,-1,-100,6486.720938445651,0.008792149883684201,0.02801457289584943,0.9995688479569008,180.21524302345483,18.83463071586219,79.26721979048536,-5.476794495486298,-155.91830444335938,4381.2578125,True
1599567134.9245133,0.0,10,0.5,0.5,4.41457435836792,-0.05075,-0.0155,-0.12575,0.31248229513153425,10,1,100,-0.2627098370754246,-10,-1,-100,6486.472933397978,0.010381378156458756,0.028052985960259142,0.9995525283677122,179.08882862471887,18.708635148000614,84.29680064612282,-5.859793468766103,-156.94577026367188,4381.2578125,True
1599567134.9873564,0.0,10,0.5,0.5,4.390200335693359,-0.05075,-0.0155,-0.12575,0.3076200838031999,10,1,100,-0.18931423373158962,-10,-1,-100,6486.381159007433,0.011139855587422238,0.028043657390944866,0.9995446247655133,178.64662135529318,18.65804134074886,86.84567832842795,-6.051312955793254,-157.34873962402344,4381.2578125,True
1599567135.046741,0.0,10,0.5,0.5,4.426286814880371,-0.05075,-0.0155,-0.12575,0.3115971587671774,10,1,100,-0.1933274747256813,-10,-1,-100,6486.226397729246,0.01184867194418452,0.028071396631067252,0.9995356950426235,178.29638514140407,18.616900244411706,89.42796638375103,-6.242846486580761,-157.6769561767578,4381.2578125,True
1599567135.1115692,0.0,10,0.5,0.5,4.502098182678223,-0.05075,-0.0155,-0.12575,0.3236871678022993,10,1,100,-0.3337094092526298,-10,-1,-100,6485.823641400086,0.013754986582350937,0.028206633200218195,0.9995074718018009,177.81087155232544,18.551573509069062,97.42547713530993,-6.8175330607584135,-158.21597290039062,4381.2578125,True
1599567135.1754353,0.0,10,0.5,0.5,4.462621464538574,-0.05075,-0.0155,-0.12575,0.3161704197853009,10,1,100,-0.20712818776463704,-10,-1,-100,6485.732847226085,0.014321265226532404,0.028261228425676594,0.9994979761511191,177.8545178850887,18.550933382910873,100.19912231623593,-7.009123368695592,-158.24725341796875,4381.2578125,True
1599567135.246208,0.0,10,0.5,0.5,4.412999606323242,-0.05075,-0.0155,-0.12575,0.3372853716387486,10,1,100,-0.3128865911342563,-10,-1,-100,6485.267590653384,0.01578428221691333,0.028502762609432474,0.9994690835431216,178.61070894361953,18.613231942953945,108.91588099936845,-7.583971026278695,-157.89505004882812,4381.2578125,True
1599567135.3120337,0.0,10,0.5,0.5,4.4243611953735344,-0.05075,-0.0155,-0.12575,0.32531937660815474,10,1,100,-0.21282732587675393,-10,-1,-100,6485.112342838664,0.016191139226970658,0.028613295957016806,0.9994594170375349,179.06872186469786,18.65511515561806,111.96805665258096,-7.775609242220432,-157.62893676757812,4381.2578125,True
1599567135.3808625,0.0,10,0.5,0.5,4.248631300354004,-0.05075,-0.0155,-0.12575,0.35104426369372926,10,1,100,-0.28514350071031663,-10,-1,-100,6484.584582762327,0.01720655721238946,0.02894716299743524,0.9994328372348473,181.05003494495992,18.842886368785603,121.62446587075995,-8.350571727788115,-156.38595581054688,4381.2578125,True
1599567135.4397423,0.0,10,0.5,0.5,4.071594348907471,-0.05075,-0.0155,-0.12575,0.36408381218718067,10,1,100,-0.2572862812503248,-10,-1,-100,6484.118827364524,0.017866323629015125,0.02936842084429551,0.9994089705106193,183.83296798008593,19.112363862925445,132.0513443975889,-8.925569910452248,-154.47479248046875,4381.2578125,True
1599567135.5065258,0.0,10,0.5,0.5,4.173110647583008,-0.05075,-0.0155,-0.12575,0.3388935947237761,10,1,100,-0.20805810801570454,-10,-1,-100,6483.901072235662,0.018008743726823862,0.02952115879511007,0.9994019143131434,184.9115094593267,19.21752441176213,135.6975976671242,-9.11723484988294,-153.68936157226562,4381.2578125,True
1599567135.5813265,0.0,10,0.5,0.5,4.116679399108887,-0.05075,-0.0155,-0.12575,0.34259774517688535,10,1,100,-0.20476516906368214,-10,-1,-100,6483.745817428804,0.018099902012683293,0.029692315949152243,0.9993951970670596,186.05083931193968,19.328847518395406,139.4240494587889,-9.308895647897982,-152.82962036132812,4381.2578125,True
1599567135.642164,0.0,10,0.5,0.5,3.875729382324219,-0.05075,-0.0155,-0.12575,0.3626316201669895,10,1,100,-0.2037240624394288,-10,-1,-100,6483.309324846952,0.018166291736102087,0.030028549198201627,0.9993839462777107,188.4740945800213,19.566142932731807,147.09944759607626,-9.69219693979627,-150.88807678222656,4381.2578125,True
1599567135.709984,0.0,10,0.5,0.5,3.497845539093018,-0.05075,-0.0155,-0.12575,0.38508345549986744,10,1,100,-0.17792041388138397,-10,-1,-100,6482.719025155297,0.017985679737638146,0.03053651893508427,0.9993718208633373,192.30240088891625,19.941800430235975,159.0636530185461,-10.267069625766656,-147.42054748535156,4381.2578125,True
1599567135.7797961,0.0,10,0.5,0.5,3.4446938102722164,-0.05075,-0.0155,-0.12575,0.37123196555341126,10,1,100,-0.1604564598410494,-10,-1,-100,6482.282026217901,0.01765714469521929,0.030870145948824326,0.999367429592495,194.82885066415406,20.19008318079312,167.22186097743761,-10.650242340772154,-144.73898315429688,4381.2578125,True
1599567135.8426273,0.0,10,0.5,0.5,3.504795866394043,-0.05075,-0.0155,-0.12575,0.3557113795977712,10,1,100,-0.16899787078087541,-10,-1,-100,6482.0647443449125,0.017432578248734325,0.03102992562285619,0.9993664237562926,196.03817962196692,20.309062136009178,171.31452739750733,-10.841800526598483,-143.28733825683594,4381.2578125,True
1599567135.9074552,0.0,10,0.5,0.5,3.112667945861817,-0.05075,-0.0155,-0.12575,0.3713875326628807,10,1,100,-0.1293170707992603,-10,-1,-100,6481.629196434282,0.016864863922076763,0.03131517335693417,0.9993672679663442,198.26604999270978,20.5286445536909,179.44352353358653,-11.224854163484546,-140.16278076171875,4381.2578125,True
1599567135.971284,0.0,10,0.5,0.5,2.8745363792419436,-0.05075,-0.0155,-0.12575,0.3702062578083768,10,1,100,-0.10747491620260101,-10,-1,-100,6481.1921748028835,0.0161492125999592,0.03156119387946639,0.9993713493858547,200.11197402942528,20.711314453410647,187.35829489920525,-11.607820695602,-136.74317932128906,4381.2578125,True
1599567136.037109,0.0,10,0.5,0.5,2.2693202888488773,-0.05075,-0.0155,-0.12575,0.3749836473100907,10,1,100,-0.03037551134208663,-10,-1,-100,6480.474855942302,0.014797754923508568,0.03182559980639994,0.9993838890267276,201.81727698274477,20.882366451515676,198.40958051787058,-12.182109350174965,-131.06126403808594,4381.2578125,True
1599567136.1238756,0.0,10,0.5,0.5,1.8248879089355468,-0.05075,-0.0155,-0.12575,0.35803631373735056,10,1,100,0.016004917058003998,-10,-1,-100,6479.694040829898,0.013149706597906152,0.03190928540130648,0.999404263910039,201.71263984375452,20.87729237286709,207.7680853243527,-12.756238144915198,-124.71746826171875,4381.2578125,True
1599567136.1941864,0.0,10,0.5,0.5,2.576496375274658,-0.05075,-0.0155,-0.12575,0.34992184070239835,10,1,100,-0.1483282537991267,-10,-1,-100,6479.694040829898,0.013149706597906152,0.03190928540130648,0.999404263910039,201.71263984375452,20.87729237286709,207.7680853243527,-12.756238144915198,-124.71746826171875,4381.2578125,True
1599567136.264002,0.0,10,0.5,0.5,1.2953102661132814,-0.05075,-0.0155,-0.12575,0.3323085549999739,10,1,100,0.05671023558674271,-10,-1,-100,6478.913693783223,0.011290137637242719,0.031746993598006076,0.999432169379003,200.07844793808405,20.72627101067806,215.48377008835297,-13.330289527033411,-117.71305084228516,4381.2578125,True
1599567136.3328152,0.0,10,0.5,0.5,1.6836951637268067,-0.05075,-0.0155,-0.12575,0.336451617838346,10,1,100,-0.05600430359936179,-10,-1,-100,6478.6329035782255,0.010630488724127312,0.03163525191385559,0.9994429466186817,198.95082456723082,20.618093426672054,217.38846771045502,-13.521644414617437,-115.23152160644531,4381.2578125,True
1599567136.4006362,0.0,10,0.5,0.5,0.05900531730651859,-0.05075,-0.0155,-0.12575,0.2668350506684486,10,1,100,0.19174865234716634,-10,-1,-100,6477.507283039973,0.007785359024519391,0.03089933004243276,0.9994921808537515,190.70923159442864,19.80579060820844,220.3658088924823,-14.287255615967403,-104.57160949707031,4381.2578125,True
1599567136.462469,0.0,10,0.5,0.5,0.8303381969451904,-0.05075,-0.0155,-0.12575,0.31169146896606587,10,1,100,-0.008628928646034345,-10,-1,-100,6477.227461127914,0.00702976487091685,0.03063776595192912,0.9995058327510322,188.1805849448196,19.5544780251307,220.4063470807299,-14.478733818684663,-101.72325134277344,4381.2578125,True
1599567136.5282924,0.0,10,0.5,0.5,0.6061743106842041,-0.05075,-0.0155,-0.12575,0.3050563541723688,10,1,100,0.0006611516128669503,-10,-1,-100,6476.9461732137715,0.006268067074219348,0.030339872444253013,0.9995199865311447,185.17611242921924,19.25314698212463,219.8052353129699,-14.67025108252022,-98.80160522460938,4381.2578125,True
1599567136.5941193,0.0,10,0.5,0.5,-0.14048613319396963,-0.05075,-0.0155,-0.12575,0.2601613040383581,10,1,100,0.08160075179244874,-10,-1,-100,6476.321584242163,0.004849949540293162,0.02966155066621882,0.9995482331541243,177.68720403977335,18.492971824362865,216.5236494297323,-15.053417340124728,-92.88033294677734,4381.2578125,True
1599567136.6709793,0.0,10,0.5,0.5,-1.0903677516937256,-0.05075,-0.0155,-0.12575,0.18688149813649702,10,1,100,0.1875547207119376,-10,-1,-100,6475.413748220541,0.002608456532348352,0.02838021774407147,0.9995937970972599,164.41608497364126,17.12500234664077,208.15198645016682,-15.628472997729691,-83.69509887695312,4381.2578125,True
1599567136.7333574,0.0,10,0.5,0.5,-1.1340322463989259,-0.05075,-0.0155,-0.12575,0.20494739973179688,10,1,100,0.1216057971178,-10,-1,-100,6474.788666302105,0.0011825810633157854,0.027382496898563327,0.9996243296186967,172.94347838827497,18.009343854930613,224.42521015276978,-16.01181425189436,-77.36941528320312,4381.2578125,True
1599567136.798212,0.0,10,0.5,0.5,-0.9806878395080567,-0.05075,-0.0155,-0.12575,0.24502236871627042,10,1,100,0.056932953957158805,-10,-1,-100,6474.445363870123,0.00048664300552854744,0.0268438350324219,0.9996395208770695,178.8556693202466,18.61956694489604,234.93079570877993,-16.20338784715539,-74.20291137695312,4381.2578125,True
1599567136.8619947,0.0,10,0.5,0.5,-1.7513615623474124,-0.05075,-0.0155,-0.12575,0.17592290261754537,10,1,100,0.1341490087971948,-10,-1,-100,6473.820284877205,-0.0008364802150125621,0.02573057041718572,0.9996685640985497,189.34313364425853,19.695308165341114,254.70622705197465,-16.586304682273536,-68.02407836914062,4381.2578125,True
1599567136.928811,0.0,10,0.5,0.5,-2.103957874298096,-0.05075,-0.0155,-0.12575,0.152809936273962,10,1,100,0.14371100781580115,-10,-1,-100,6473.132709095604,-0.0021135320549346115,0.024514010813833094,0.999697252299951,198.04706045796576,20.58140922131671,272.69055974299414,-16.968900007850113,-62.122039794921875,4381.2578125,True
1599567136.9945843,0.0,10,0.5,0.5,-2.4379595737457276,-0.05075,-0.0155,-0.12575,0.13041271694117973,10,1,100,0.14925507444730246,-10,-1,-100,6472.443671293324,-0.0033127037245208706,0.023211011892109206,0.9997250996753948,205.12909363894443,21.298827956663004,288.9419742073636,-17.351185070951097,-56.51287841796875,4381.2578125,True
1599567137.053427,0.0,10,0.5,0.5,-3.210709547042847,-0.05075,-0.0155,-0.12575,0.041482555259139464,10,1,100,0.209653727219555,-10,-1,-100,6471.35030774842,-0.004939262819848267,0.021225669802543257,0.9997625091111538,212.28059931115692,22.021424367584128,309.10840549984755,-17.924124194158757,-48.654022216796875,4381.2578125,True
1599567137.129734,0.0,10,0.5,0.5,-3.1680384159088137,-0.05075,-0.0155,-0.12575,0.08909801411433912,10,1,100,0.15695613446632334,-10,-1,-100,6470.661770732491,-0.005927316043439824,0.019862475401839563,0.9997851514177597,215.20709262971815,22.319976736948906,320.1960654891115,-18.30584214849566,-43.787689208984375,4381.2578125,True
1599567137.1950662,0.0,10,0.5,0.5,-3.452223363876343,-0.05075,-0.0155,-0.12575,0.0763855289499295,10,1,100,0.1600168075597691,-10,-1,-100,6469.911716722418,-0.0068415913830867855,0.018517435436568926,0.9998051296188669,217.28058108639695,22.537687845187627,330.180212637506,-18.687433121599234,-39.219268798828125,4381.2578125,True
1599567137.2569,0.0,10,0.5,0.5,-3.353567715072632,-0.05075,-0.0155,-0.12575,0.13713466424164716,10,1,100,0.11748342693330988,-10,-1,-100,6469.504954442265,-0.007274165814836843,0.017857684368072765,0.9998140775267712,217.87861732806718,22.603959086757836,334.55147196736056,-18.87819831977761,-37.046630859375,4381.2578125,True
1599567137.3218448,0.0,10,0.5,0.5,-4.238391683959962,-0.05075,-0.0155,-0.12575,-0.015751513420417668,10,1,100,0.2067647660090616,-10,-1,-100,6468.347664886154,-0.008468041912248156,0.015878767114601254,0.999838065399139,218.23675798123102,22.66447061478925,345.52311888046614,-19.45044584718983,-30.975860595703125,4381.2578125,True
1599567137.3901696,0.0,10,0.5,0.5,-3.887633869934082,-0.05075,-0.0155,-0.12575,0.11078537070975969,10,1,100,0.12912931482088175,-10,-1,-100,6467.941885486711,-0.008837537445961718,0.015241451695019193,0.9998447859953662,217.9615153697342,22.64673136748708,348.5633973052984,-19.641195261976936,-29.100921630859375,4381.2578125,True
1599567137.4530032,0.0,10,0.5,0.5,-4.349085655212403,-0.05075,-0.0155,-0.12575,0.03281804255085444,10,1,100,0.16821064681756814,-10,-1,-100,6467.190388308489,-0.009519618114299126,0.013964317462321402,0.9998571771552022,216.9613269460963,22.568027551899508,353.89493304133936,-20.022715277632997,-25.57452392578125,4381.2578125,True
1599567137.5173428,0.0,10,0.5,0.5,-4.816449195861817,-0.05075,-0.0155,-0.12575,-0.0364143068923328,10,1,100,0.20826750140403244,-10,-1,-100,6465.97160090215,-0.010494748071646602,0.012185609999085436,0.9998706772237413,214.66773805020372,22.37363104562041,360.4685761275159,-20.5950732481906,-20.8411865234375,4381.2578125,True
1599567137.5871563,0.0,10,0.5,0.5,-4.5465868438720705,-0.05075,-0.0155,-0.12575,0.07548956546746302,10,1,100,0.14371998555134355,-10,-1,-100,6465.564365286962,-0.010785654008886559,0.011598224745249157,0.999874567558531,213.76893104044476,22.2958219497315,362.3908871795428,-20.7858832781399,-19.41217041015625,4381.2578125,True
1599567137.6489916,0.0,10,0.5,0.5,-5.111343263244629,-0.05075,-0.0155,-0.12575,-0.04576588650197598,10,1,100,0.21241972305469892,-10,-1,-100,6464.282116415445,-0.01166677327281343,0.009973657483919988,0.9998821993403993,210.93220648445012,22.048601240329923,367.7630419166586,-21.358382985976554,-15.569366455078125,4381.2578125,True
1599567137.7158122,0.0,10,0.5,0.5,-4.891492970275879,-0.05075,-0.0155,-0.12575,0.05938598512539014,10,1,100,0.1566487249224689,-10,-1,-100,6463.812874182826,-0.011953187102864592,0.009464738219695153,0.9998837632687693,209.9891614041444,21.966343092005186,369.5049137320767,-21.549236677381764,-14.436676025390625,4381.2578125,True
1599567137.7926445,0.0,10,0.5,0.5,-5.323299052429199,-0.05075,-0.0155,-0.12575,-0.05208218535737255,10,1,100,0.21720943531244624,-10,-1,-100,6462.5296632942045,-0.012757738929835429,0.007999429094722777,0.9998866181880607,207.38240431876372,21.741313209661254,374.97192664116574,-22.121839798212267,-11.483673095703125,4381.2578125,True
1599567137.8574736,0.0,10,0.5,0.5,-5.149653923034669,-0.05075,-0.0155,-0.12575,0.04460443335050003,10,1,100,0.16814261352251497,-10,-1,-100,6462.06091350771,-0.013036878190003726,0.007557083738735019,0.999886458700399,206.7528215627724,21.690722593754376,377.18176954735617,-22.31271447235342,-10.64727783203125,4381.2578125,True
1599567137.922298,0.0,10,0.5,0.5,-5.344712504577637,-0.05075,-0.0155,-0.12575,-0.00808126643607772,10,1,100,0.19670434496936312,-10,-1,-100,6461.18396308471,-0.013544661178939965,0.0066859546458662,0.9998859135741542,205.65792037721522,21.60569704274632,381.85543358142945,-22.694461510683468,-9.1971435546875,4381.2578125,True
1599567137.9891188,0.0,10,0.5,0.5,-5.409322859191895,-0.05075,-0.0155,-0.12575,-0.006075579980902648,10,1,100,0.20775366734603123,-10,-1,-100,6460.245493035065,-0.014101030012884343,0.005922408738052689,0.9998830361733893,204.85165164209374,21.549574738912973,387.01641780287156,-23.076192458796715,-8.04248046875,4381.2578125,True
1599567138.049956,0.0,10,0.5,0.5,-5.451140335083008,-0.05075,-0.0155,-0.12575,-0.010664713670638787,10,1,100,0.20900527819747966,-10,-1,-100,6459.307514752494,-0.014613077244119095,0.005195607932294213,0.9998797245827477,204.60611153610873,21.551238357879164,393.21514610378375,-23.457888393170208,-7.184295654296875,4381.2578125,True
1599567138.6864176,0.0,10,0.5,0.5,-5.476502546691894,-0.05075,-0.0155,-0.12575,-0.008866761198764374,10,1,100,0.21824021474179983,-10,-1,-100,6458.369051130256,-0.01515727820491891,0.004560357534769661,0.9998747221810209,204.7154179449832,21.589440842204624,400.10351593431585,-23.839532153581786,-6.62164306640625,4381.2578125,True
1599567138.7482524,0.0,10,0.5,0.5,-5.482234988403321,-0.05075,-0.0155,-0.12575,-0.008252755594626404,10,1,100,0.22397116552640894,-10,-1,-100,6457.367602476617,-0.015698980758150988,0.003996988096991824,0.9998687744345793,205.16338361826155,21.662939423004744,407.68367785023077,-24.2211086006312,-6.354736328125,4381.2578125,True
1599567138.8021078,0.0,10,0.5,0.5,-5.466062292480469,-0.05075,-0.0155,-0.12575,-0.006214742239873283,10,1,100,0.23085829652652295,-10,-1,-100,6456.427191294264,-0.016249316785920728,0.0035108056585116316,0.9998618074252156,205.96828541649265,21.774187443593604,416.0254135776535,-24.602602900383552,-6.3834228515625,4381.2578125,True
1599567138.8629448,0.0,10,0.5,0.5,-5.489864181518555,-0.05075,-0.0155,-0.12575,0.04159475969947223,10,1,100,0.1763710600272524,-10,-1,-100,6456.427191294264,-0.016249316785920728,0.0035108056585116316,0.9998618074252156,205.96828541649265,21.774187443593604,416.0254135776535,-24.602602900383552,-6.3834228515625,4381.2578125,True
1599567138.9297664,0.0,10,0.5,0.5,-5.446899330139161,-0.05075,-0.0155,-0.12575,-0.0034805091538914062,10,1,100,0.2383435865145111,-10,-1,-100,6455.426724104327,-0.016808537441702073,0.003106905806958697,0.9998538994300006,207.13312208771953,21.924060521951137,425.16961459075964,-24.98399970711764,-6.70751953125,4381.2578125,True
1599567138.990117,0.0,10,0.5,0.5,-5.316078558349608,-0.05075,-0.0155,-0.12575,-0.014186924906484863,10,1,100,0.2757161115002587,-10,-1,-100,6453.8916032287525,-0.01765225612833842,0.0026481729190803945,0.9998406798254261,209.53379829916844,22.220246843391298,440.4221759397085,-25.555878280199796,-7.74749755859375,4381.2578125,True
1599567139.0509534,0.0,10,0.5,0.5,-5.365387956237793,-0.05075,-0.0155,-0.12575,0.0180419973852581,10,1,100,0.22253439241940254,-10,-1,-100,6453.361343164812,-0.01793135338163777,0.0025289980020029123,0.9998360219230996,210.49772746657018,22.337156604614947,445.9106828698214,-25.746438945360314,-8.24188232421875,4381.2578125,True
1599567139.122286,0.0,10,0.5,0.5,-4.952233781433105,-0.05075,-0.0155,-0.12575,0.007425130178461862,10,1,100,0.32117186492896166,-10,-1,-100,6451.295968413004,-0.019077332930004413,0.0023287111807222646,0.9998152991790605,215.55503783635316,22.937881354353095,470.8289533829581,-26.50829149585582,-10.9560546875,4381.2578125,True
1599567139.1930957,0.0,10,0.5,0.5,-5.290814643859863,-0.05075,-0.0155,-0.12575,0.027018087960012236,10,1,100,0.20712717726740387,-10,-1,-100,6451.295968413004,-0.019077332930004413,0.0023287111807222646,0.9998152991790605,215.55503783635316,22.937881354353095,470.8289533829581,-26.50829149585582,-10.9560546875,4381.2578125,True
1599567139.2559283,0.0,10,0.5,0.5,-4.790387898254394,-0.05075,-0.0155,-0.12575,0.03558977353622127,10,1,100,0.29967816433661415,-10,-1,-100,6449.698844926199,-0.01991418162798167,0.002409902592830829,0.9997987886267821,220.38447342388923,23.505206086959344,492.2905992839347,-27.079201478038293,-13.7657470703125,4381.2578125,True
1599567139.3217523,0.0,10,0.5,0.5,-4.737910189819336,-0.05075,-0.0155,-0.12575,0.04653115542888164,10,1,100,0.2766252078191957,-10,-1,-100,6448.57241139398,-0.020460561653817315,0.0025857125349895847,0.9997873171367482,224.00952469790158,23.92961551052246,507.79037685494967,-27.45954244572704,-16.007080078125,4381.2578125,True
1599567139.3862836,0.0,10,0.5,0.5,-4.787892608642579,-0.05075,-0.0155,-0.12575,0.04131200746736806,10,1,100,0.2520880929309646,-10,-1,-100,6448.039223958855,-0.02072938492063953,0.0026998880873017666,0.999781477726572,225.867865147081,24.147429406610133,515.7363374458376,-27.64962750034824,-17.23834228515625,4381.2578125,True
1599567139.4501138,0.0,10,0.5,0.5,-4.452372308349609,-0.05075,-0.0155,-0.12575,0.06762599349841135,10,1,100,0.28120248432485173,-10,-1,-100,6446.91327896493,-0.021233872899365527,0.003044081280603862,0.9997699016327961,229.6199241392023,24.587729111475863,531.8968146630233,-28.02961913784327,-19.92095947265625,4381.2578125,True
1599567139.5169356,0.0,10,0.5,0.5,-4.243251843261719,-0.05075,-0.0155,-0.12575,0.07942016716025736,10,1,100,0.2834699933802003,-10,-1,-100,6445.78440457175,-0.02170858063860738,0.0034646282390570103,0.9997583377385869,233.31092251073417,25.02166931676239,548.1639065034619,-28.409367477391083,-22.898162841796875,4381.2578125,True
1599567139.5857503,0.0,10,0.5,0.5,-4.014641873168946,-0.05075,-0.0155,-0.12575,0.09344104963291151,10,1,100,0.2850682603733961,-10,-1,-100,6444.5959586193785,-0.022149699861626584,0.003974448203238051,0.9997467652148315,236.81014086226403,25.433684142101196,564.2190973225412,-28.788872063790333,-26.169525146484375,4381.2578125,True
1599567139.653569,0.0,10,0.5,0.5,-3.4324734909057617,-0.05075,-0.0155,-0.12575,0.14581053559250087,10,1,100,0.30121254392366303,-10,-1,-100,6442.8748121443205,-0.022692627948991993,0.004913218459038646,0.9997304161228378,241.37208973108224,25.97126721562526,587.0663210959858,-29.35769466570391,-31.62774658203125,4381.2578125,True
1599567139.7183957,0.0,10,0.5,0.5,-3.7347662109375,-0.05075,-0.0155,-0.12575,0.09090616632151662,10,1,100,0.26399023813674405,-10,-1,-100,6442.28058821708,-0.022843232183242506,0.005265456202266641,0.9997251930977855,242.62578760042572,26.118966323804855,594.1296045287075,-29.547197071176733,-33.5941162109375,4381.2578125,True
1599567139.7802303,0.0,10,0.5,0.5,-3.2097178985595702,-0.05075,-0.0155,-0.12575,0.13942321855315132,10,1,100,0.2760207930134543,-10,-1,-100,6441.0921384090325,-0.023085048459802516,0.006024248754397621,0.9997153539705959,244.83731512674981,26.376919282797193,607.6488125508815,-29.92606652908706,-37.747222900390625,4381.2578125,True
1599567139.8490477,0.0,10,0.5,0.5,-2.49367262878418,-0.05075,-0.0155,-0.12575,0.2011277606691797,10,1,100,0.2730881081358262,-10,-1,-100,6439.246958318283,-0.02327457728912427,0.007271650968686338,0.999702664367862,246.70423275431756,26.590514571253944,624.542609312575,-30.494108021566348,-44.527801513671875,4381.2578125,True
1599567139.916866,0.0,10,0.5,0.5,-2.431659049987793,-0.05075,-0.0155,-0.12575,0.17487466591995,10,1,100,0.2559453848731622,-10,-1,-100,6438.059965627384,-0.02328721760942972,0.008162494902330389,0.9996954932243021,246.6025993670356,26.574911538860576,632.4699931025384,-30.872705964463456,-49.415252685546875,4381.2578125,True
1599567139.9926617,0.0,10,0.5,0.5,-1.5998283264160156,-0.05075,-0.0155,-0.12575,0.23588935223976706,10,1,100,0.2336357539536795,-10,-1,-100,6436.150319852168,-0.02309282758681988,0.0095218023609965,0.9996879796185625,243.93836712769348,26.26237067877283,637.818100373161,-31.44062650365453,-57.2972412109375,4381.2578125,True
1599567140.054623,0.0,10,0.5,0.5,-2.5269886337280276,-0.05075,-0.0155,-0.12575,0.10065221535575668,10,1,100,0.2533379828079638,-10,-1,-100,6436.150319852168,-0.02309282758681988,0.0095218023609965,0.9996879796185625,243.93836712769348,26.26237067877283,637.818100373161,-31.44062650365453,-57.2972412109375,4381.2578125,True
1599567140.1214116,0.0,10,0.5,0.5,-1.4726934982299809,-0.05075,-0.0155,-0.12575,0.20168581268405622,10,1,100,0.225698837192973,-10,-1,-100,6434.893003699137,-0.02283941404244162,0.010434087869186773,0.9996846957798924,240.20073638418708,25.83374310254358,636.0767261853889,-31.819368177964563,-62.918792724609375,4381.2578125,True
1599567140.1978252,0.0,10,0.5,0.5,-0.5274517715454101,-0.05075,-0.0155,-0.12575,0.2549889280797524,10,1,100,0.18681517338326273,-10,-1,-100,6432.981873345678,-0.022254090657333945,0.011741293919694638,0.9996833986148346,231.21686050804416,24.825047340589663,623.9496860196307,-32.38785424661071,-71.90182495117188,4381.2578125,True
1599567140.2646518,0.0,10,0.5,0.5,-1.02675438079834,-0.05075,-0.0155,-0.12575,0.17272499591111473,10,1,100,0.21848927132902043,-10,-1,-100,6432.327087465208,-0.022009428915816833,0.012174284886186321,0.9996836358700234,227.2478164662476,24.38650066031289,617.0795010340335,-32.57747737455085,-75.04266357421875,4381.2578125,True
1599567140.334622,0.0,10,0.5,0.5,0.9886506942749024,-0.05075,-0.0155,-0.12575,0.2932271033023421,10,1,100,0.1128803342117285,-10,-1,-100,6429.631758515257,-0.020827055423322086,0.01365593234411451,0.9996898265333138,206.21896243246027,22.11278082077709,573.9982583591328,-33.33667300217404,-88.26992797851562,4381.2578125,True
1599567140.398531,0.0,10,0.5,0.5,0.021286602020263667,-0.05075,-0.0155,-0.12575,0.18365098306276956,10,1,100,0.19283398479956126,-10,-1,-100,6428.973548240261,-0.020480717774148678,0.0139987901092485,0.9996922396792588,207.96182599723818,22.306273407920013,582.398740089073,-33.5265257352159,-91.71564483642578,4381.2578125,True
1599567140.4623613,0.0,10,0.5,0.5,0.9158087196350098,-0.05075,-0.0155,-0.12575,0.21445492881703662,10,1,100,0.14905413502382686,-10,-1,-100,6427.657126293401,-0.01977001447185626,0.01458257546267548,0.9996982019693034,219.6863850909145,23.591139647799878,622.7358031474207,-33.90587613476416,-98.7282943725586,4381.2578125,True
1599567140.527701,0.0,10,0.5,0.5,1.341396992111206,-0.05075,-0.0155,-0.12575,0.21108012059831904,10,1,100,0.13708709531127655,-10,-1,-100,6426.282106835162,-0.019018142957829012,0.015074829048613231,0.9997054865146989,230.25108066024637,24.766219402554214,660.5379615311194,-34.28470218644911,-105.60029602050781,4381.2578125,True
1599567140.5905266,0.0,10,0.5,0.5,1.1746810913085937,-0.05075,-0.0155,-0.12575,0.18619352377622952,10,1,100,0.16817323002224555,-10,-1,-100,6425.568717697053,-0.018621094110023318,0.01528899672101044,0.9997097085821517,234.70069964638867,25.267377628250284,677.3000137653884,-34.47392400581818,-109.01545715332031,4381.2578125,True
1599567140.650375,0.0,10,0.5,0.5,2.0168754150390624,-0.05075,-0.0155,-0.12575,0.2025783673239215,10,1,100,0.12218186945193436,-10,-1,-100,6424.186369544244,-0.017846279264560228,0.015626169090151756,0.9997186269926042,242.52491610775462,26.155136711055192,708.1250607458096,-34.852013587520986,-115.6968765258789,4381.2578125,True
1599567140.7151637,0.0,10,0.5,0.5,2.399157775878906,-0.05075,-0.0155,-0.12575,0.19605807073391357,10,1,100,0.11340366622621792,-10,-1,-100,6422.804507473484,-0.017066869874198413,0.015867864577890013,0.9997284295379596,248.7924364847641,26.87020012588507,734.8667840802627,-35.22968664502518,-122.11019897460938,4381.2578125,True
1599567140.7849774,0.0,10,0.5,0.5,3.2936379695892333,-0.05075,-0.0155,-0.12575,0.19166148190757215,10,1,100,0.06319420530707277,-10,-1,-100,6420.63893634791,-0.01590734438161601,0.016041849611760875,0.9997447751580192,254.13513415200552,27.48291084245309,763.5685686668729,-35.79565910936449,-131.17816162109375,4381.2578125,True
1599567140.8358412,0.0,10,0.5,0.5,3.2603939098358157,-0.05075,-0.0155,-0.12575,0.1746074254325612,10,1,100,0.09817047095746219,-10,-1,-100,6419.205311889178,-0.015177498230327206,0.016039882982104674,0.9997561531200441,255.33301157987654,27.617848646317725,775.8300264834172,-36.17278039027204,-136.85096740722656,4381.2578125,True
1599567140.9031768,0.0,10,0.5,0.5,3.1285871486663823,-0.05075,-0.0155,-0.12575,0.17120740451760647,10,1,100,0.13186067581208188,-10,-1,-100,6418.484104980831,-0.014826709584585752,0.016003278047679075,0.9997620035661602,255.32114321146418,27.613978453433397,780.1317579099072,-36.36132083027679,-139.5754852294922,4381.2578125,True
1599567140.9859552,0.0,10,0.5,0.5,3.808237335586548,-0.05075,-0.0155,-0.12575,0.16072172658025569,10,1,100,0.09396529053147734,-10,-1,-100,6416.984073524713,-0.014169837058025507,0.015871195586805803,0.9997736348135984,254.24010693670724,27.482847685512585,785.4876122130663,-36.73841252972085,-144.80059814453125,4381.2578125,True
1599567141.0508108,0.0,10,0.5,0.5,4.108369292831421,-0.05075,-0.0155,-0.12575,0.15026802915880477,10,1,100,0.09218062604776672,-10,-1,-100,6415.539705959032,-0.01356250800981455,0.0156540731337781,0.9997854811762402,251.9662553479874,27.21365084063662,787.0773111984831,-37.11557114175308,-149.72732543945312,4381.2578125,True
1599567141.1166053,0.0,10,0.5,0.5,4.784378729248047,-0.05075,-0.0155,-0.12575,0.11953044777589428,10,1,100,0.06542384236576393,-10,-1,-100,6413.254013889818,-0.012773436486844866,0.015175751724795067,0.9998032485843921,246.8495710355755,26.617391902035425,783.8268398434852,-37.68152664402464,-156.55807495117188,4381.2578125,True
1599567141.181441,0.0,10,0.5,0.5,4.752973049545288,-0.05075,-0.0155,-0.12575,0.12344900580392316,10,1,100,0.09543056990794602,-10,-1,-100,6411.75349407387,-0.012335247696333183,0.014775998083917918,0.999814738611556,242.6297449493393,26.132907653597997,778.8217274313488,-38.059005511030435,-160.73895263671875,4381.2578125,True
1599567141.245874,0.0,10,0.5,0.5,4.997973993301391,-0.05075,-0.0155,-0.12575,0.11308460965541287,10,1,100,0.09793354231304655,-10,-1,-100,6410.247116293875,-0.011965723904333926,0.014318635564465594,0.9998258839053014,238.00353898022487,25.60868601760663,772.2453825819472,-38.43662845550131,-164.62156677246094,4381.2578125,True
1599567141.324663,0.0,10,0.5,0.5,5.228592238998413,-0.05075,-0.0155,-0.12575,0.10220493866518185,10,1,100,0.10149050372058298,-10,-1,-100,6408.67726362485,-0.011668179533681015,0.01380482750246733,0.9998366268165999,233.1529583302385,25.06672146734561,764.6475019502813,-38.8143856602245,-168.20608520507812,4381.2578125,True
1599567141.4004257,0.0,10,0.5,0.5,5.709631044769288,-0.05075,-0.0155,-0.12575,0.058085221191506164,10,1,100,0.0966043219359997,-10,-1,-100,6406.332008376485,-0.011358881271164774,0.012938296688697025,0.9998517771625266,225.8022442178503,24.260784236813677,752.423395079255,-39.38123398902253,-173.02423095703125,4381.2578125,True
1599567141.4872289,0.0,10,0.5,0.5,5.182665966033936,-0.05075,-0.0155,-0.12575,0.1444453457796174,10,1,100,0.12696334932732042,-10,-1,-100,6406.332008376485,-0.011358881271164774,0.012938296688697025,0.9998517771625266,225.8022442178503,24.260784236813677,752.423395079255,-39.38123398902253,-173.02423095703125,4381.2578125,True
1599567141.5570433,0.0,10,0.5,0.5,5.979699660491944,-0.05075,-0.0155,-0.12575,0.037607836024552616,10,1,100,0.10900495434060166,-10,-1,-100,6403.931580563192,-0.011199758101385923,0.011969868011762858,0.9998656348121238,218.75755328534916,23.50716638442117,740.515775110642,-39.94827072969382,-177.17251586914062,4381.2578125,True
1599567141.6537883,0.0,10,0.5,0.5,5.738359170532227,-0.05075,-0.0155,-0.12575,0.09626410391592313,10,1,100,0.12208629964822945,-10,-1,-100,6403.142018652405,-0.011177638122682621,0.01162641711808093,0.9998699349570397,220.17033406175372,23.664345451398344,749.1885170622074,-40.13725478643394,-178.40655517578125,4381.2578125,True
1599567141.7215881,0.0,10,0.5,0.5,-57.156515956878664,-0.05075,-0.0155,-0.12575,-0.033497546101897493,10,1,100,0.13632150538366516,-10,-1,-100,6399.882214316516,-0.011290257350058038,0.010138516633598625,0.9998848636565311,228.64250062366105,24.614984791027616,794.2175291729129,-40.892595242464274,177.400146484375,4381.2578125,True
1599567141.792414,0.0,10,0.5,0.5,-12.621773455047608,-0.05075,-0.0155,-0.12575,0.02596422434476066,10,1,100,0.14219939382065339,-10,-1,-100,6398.246455566725,-0.011448691615015553,0.009331652905359974,0.9998909179077275,232.0271933133372,25.007838548330167,814.2157953929324,-41.269926792261145,175.74880981445312,4381.2578125,True
1599567141.862228,0.0,10,0.5,0.5,-13.33391705093384,-0.05075,-0.0155,-0.12575,0.10601835514578398,10,1,100,0.12614458568542197,-10,-1,-100,6398.246455566725,-0.011448691615015553,0.009331652905359974,0.9998909179077275,232.0271933133372,25.007838548330167,814.2157953929324,-41.269926792261145,175.74880981445312,4381.2578125,True
1599567142.474577,0.0,10,0.5,0.5,-13.556486847686768,-0.05075,-0.0155,-0.12575,0.010872989137771169,10,1,100,0.144939847249424,-10,-1,-100,6396.562848060974,-0.011620761942753598,0.008472007849668435,0.9998965861402191,235.04554700659833,25.365883450030946,833.168992751176,-41.64704779856309,174.091552734375,4381.2578125,True
1599567142.5264356,0.0,10,0.5,0.5,-13.559754518890381,-0.05075,-0.0155,-0.12575,-0.10623524812283158,10,1,100,0.19322472000552407,-10,-1,-100,6393.1888050283305,-0.01221679243461962,0.00663162290597451,0.9999033811125165,241.70440128330534,26.163076171418112,874.0020381901941,-42.40061607398488,169.9888916015625,4381.2578125,True
1599567142.5862439,0.0,10,0.5,0.5,-14.59431036682129,-0.05075,-0.0155,-0.12575,0.07703454498071177,10,1,100,0.13364677767195035,-10,-1,-100,6393.1888050283305,-0.01221679243461962,0.00663162290597451,0.9999033811125165,241.70440128330534,26.163076171418112,874.0020381901941,-42.40061607398488,169.9888916015625,4381.2578125,True
1599567142.6560564,0.0,10,0.5,0.5,-14.67895389556885,-0.05075,-0.0155,-0.12575,-0.03293111933630406,10,1,100,0.1731914584642747,-10,-1,-100,6391.48811812955,-0.012575790793730807,0.005638456143634814,0.9999050241389071,245.74302297471965,26.64540797426484,897.3748437064486,-42.77701310131829,167.49847412109375,4381.2578125,True
1599567142.7328513,0.0,10,0.5,0.5,-15.028149327087403,-0.05075,-0.0155,-0.12575,-0.05209020846658027,10,1,100,0.18019976853644876,-10,-1,-100,6389.797688208055,-0.012964758566740226,0.004568039949909909,0.9999055195598843,249.92031950485236,27.146801717934984,921.5493515166936,-43.153123111931464,164.712158203125,4381.2578125,True
1599567142.8056931,0.0,10,0.5,0.5,-15.066747496032715,-0.05075,-0.0155,-0.12575,-0.1269538475920504,10,1,100,0.2255269390050183,-10,-1,-100,6387.1961352191865,-0.013728970930739806,0.0029219651060546185,0.9999014838858387,256.86737007427206,27.977661076250406,960.9130754683437,-43.71669820208158,159.979736328125,4381.2578125,True
1599567142.867523,0.0,10,0.5,0.5,-15.23193450012207,-0.05075,-0.0155,-0.12575,-0.16070491214774646,10,1,100,0.24300556660662653,-10,-1,-100,6384.52525992319,-0.014580306773636451,0.001126930936503216,0.999893066623152,263.4456931173233,28.767636361717408,999.6046074524455,-44.27954778806681,154.5831298828125,4381.2578125,True
1599567142.9343498,0.0,10,0.5,0.5,-16.083150207519534,-0.05075,-0.0155,-0.12575,-0.052848178602331576,10,1,100,0.19158240989729103,-10,-1,-100,6383.620973199955,-0.014883671871047666,0.00048514243839805607,0.9998891143264083,265.4614961918734,29.009770792904106,1011.9785215548092,-44.46700762823259,152.63671875,4381.2578125,True
1599567143.0001793,0.0,10,0.5,0.5,-15.180930560302734,-0.05075,-0.0155,-0.12575,-0.2137224785988328,10,1,100,0.2704047032460326,-10,-1,-100,6380.957442738814,-0.01587275788593643,-0.001552019492397373,0.9998728153083218,270.65036292544073,29.630504640036765,1046.1986949216614,-45.02896068314161,146.355712890625,4381.2578125,True
1599567143.0709906,0.0,10,0.5,0.5,-15.529757902526857,-0.05075,-0.0155,-0.12575,-0.08787978878159736,10,1,100,0.21240470057764793,-10,-1,-100,6380.046328407363,-0.01624063236042188,-0.0022500661835112975,0.9998655804970503,272.0077941565973,29.791230772436023,1056.2803582307245,-45.21615305535318,144.11520385742188,4381.2578125,True
1599567143.1328266,0.0,10,0.5,0.5,-15.354046949768067,-0.05075,-0.0155,-0.12575,-0.0985444573769218,10,1,100,0.2177667616278372,-10,-1,-100,6379.142052765586,-0.016619453400641825,-0.002971076781673386,0.9998574730787491,273.13569831119946,29.92338985556094,1065.514956520442,-45.40329389586376,141.8011932373047,4381.2578125,True
1599567143.1996486,0.0,10,0.5,0.5,-14.739059991455079,-0.05075,-0.0155,-0.12575,-0.20141184829658415,10,1,100,0.26502966069953837,-10,-1,-100,6377.32716168242,-0.017388954618350067,-0.0045512962568800865,0.9998384419293265,274.58917436104997,30.088254609075378,1080.9516952714075,-45.777455450167416,136.95176696777344,4381.2578125,True
1599567143.2606158,0.0,10,0.5,0.5,-13.43085765914917,-0.05075,-0.0155,-0.12575,-0.4078336430354432,10,1,100,0.3864912343481117,-10,-1,-100,6373.565094345948,-0.01918799533835938,-0.00785425489636412,0.9997850426541288,273.44570493111235,29.924932886205546,1095.9765966830348,-46.52559493133504,126.37493896484375,4381.2578125,True
1599567143.324409,0.0,10,0.5,0.5,-14.194235818481445,-0.05075,-0.0155,-0.12575,-0.17855188649607512,10,1,100,0.2617076893499725,-10,-1,-100,6372.660841891891,-0.019682753581199548,-0.008759395983898677,0.9997679041624906,272.1443399354215,29.76371843484378,1095.6473318709861,-46.7126628102078,123.54742431640625,4381.2578125,True
1599567143.4018228,0.0,10,0.5,0.5,-13.444766476440432,-0.05075,-0.0155,-0.12575,-0.3006206876955293,10,1,100,0.3304432871361208,-10,-1,-100,6370.780086123734,-0.020750941997485166,-0.01067887893608192,0.9997276428862439,268.11583994485085,29.278418752872046,1089.106873336144,-47.086930802957944,117.672607421875,4381.2578125,True
1599567143.4626236,0.0,10,0.5,0.5,-13.022203912353516,-0.05075,-0.0155,-0.12575,-0.331033631285517,10,1,100,0.35432785505282693,-10,-1,-100,6368.87005771487,-0.02193207646295965,-0.012686483908079308,0.9996789670429566,261.9920163492449,28.561579853369146,1073.765872097141,-47.4614616853398,111.5059814453125,4381.2578125,True
1599567143.538494,0.0,10,0.5,0.5,-12.582587475585937,-0.05075,-0.0155,-0.12575,-0.36616419006639833,10,1,100,0.37989896281159136,-10,-1,-100,6366.8965785850305,-0.02323084231525957,-0.014816758554253915,0.9996203237386024,253.57223447130548,27.601478161348705,1048.5690892558139,-47.83634882838855,105.04742431640625,4381.2578125,True
1599567143.6013274,0.0,10,0.5,0.5,-12.126506816101074,-0.05075,-0.0155,-0.12575,-0.4056348807167853,10,1,100,0.4108859984715198,-10,-1,-100,6364.987096482771,-0.024685374745584642,-0.01709770206624275,0.9995490487503472,242.70185442603662,26.392282986870274,1012.6069387869603,-48.211660823190805,98.29692077636719,4381.2578125,True
1599567143.6641579,0.0,10,0.5,0.5,-12.276163761901856,-0.05075,-0.0155,-0.12575,-0.30913912136893795,10,1,100,0.3532552286769606,-10,-1,-100,6364.005269791349,-0.025474850226952773,-0.018278068497157043,0.9995083512497169,238.92240780550515,25.97724584589488,1001.2857827332375,-48.399438522216016,94.81254577636719,4381.2578125,True
1599567143.7369628,0.0,10,0.5,0.5,-11.365916361236573,-0.05075,-0.0155,-0.12575,-0.4629785440753289,10,1,100,0.46514689976826895,-10,-1,-100,6362.062644330901,-0.027201023045080226,-0.020734463596223808,0.9994149220242201,252.49052312604832,27.463155468545548,1067.5733264965859,-48.77453015025306,87.62548828125,4381.2578125,True
1599567143.8027525,0.0,10,0.5,0.5,-10.862314512634278,-0.05075,-0.0155,-0.12575,-0.5019290076675251,10,1,100,0.5077217184469183,-10,-1,-100,6360.05707860156,-0.02914735087619776,-0.023304841175838368,0.9993034155423811,265.87016183631283,28.948869414489117,1134.0690877820316,-49.1489236649185,80.14778137207031,4381.2578125,True
1599567143.8865285,0.0,10,0.5,0.5,-9.631558223724367,-0.05075,-0.0155,-0.12575,-0.6847896712222827,10,1,100,0.6817663897430304,-10,-1,-100,6357.080079419655,-0.032487575100382395,-0.02728543249471834,0.9990996259821505,282.64650652246905,30.831601335646003,1221.3791481697453,-49.70920150213287,68.38848876953125,4381.2578125,True
1599567143.9568512,0.0,10,0.5,0.5,-8.813906392669677,-0.05075,-0.0155,-0.12575,-0.7418472769352822,10,1,100,0.7904014748885333,-10,-1,-100,6354.1042012913385,-0.03649800824143479,-0.03140218998542028,0.9988402263918527,294.74520582705065,32.17085108866345,1289.9753631883193,-50.268121474349236,55.97993469238281,4381.2578125,True
1599567144.0568285,0.0,10,0.5,0.5,-8.741707324981691,-0.05075,-0.0155,-0.12575,-0.6400629177598537,10,1,100,0.736784147387356,-10,-1,-100,6352.098408633727,-0.03964068992610528,-0.03419797722529173,0.9986286166818379,298.3536919854029,32.53490063013233,1316.7696213851548,-50.640310950588265,47.348419189453125,4381.2578125,True
1599567144.1560988,0.0,10,0.5,0.5,-8.928408265686034,-0.05075,-0.0155,-0.12575,-0.5139460116753001,10,1,100,0.6130460456904885,-10,-1,-100,6351.064540122054,-0.04135463786370248,-0.03556995867782311,0.9985111776874708,298.6214320301257,32.53478442107591,1323.4776827145968,-50.82638238975566,42.92573547363281,4381.2578125,True
1599567144.2319264,0.0,10,0.5,0.5,-7.769872067260742,-0.05075,-0.0155,-0.12575,-0.6730050123101944,10,1,100,0.8563289516545842,-10,-1,-100,6348.996387800551,-0.04510570450131333,-0.03824057720431273,0.9982500356506487,295.79092766350226,32.144385740464074,1321.9689970533532,-51.198670992811245,33.86720275878906,4381.2578125,True
1599567144.3032522,0.0,10,0.5,0.5,-7.970436646270752,-0.05075,-0.0155,-0.12575,-0.5515952109010331,10,1,100,0.7051912134365138,-10,-1,-100,6347.963081668946,-0.04712071870803314,-0.03954145576713253,0.9981062624511753,292.58907185288984,31.748182153498174,1313.178256765239,-51.38496351374308,29.231475830078125,4381.2578125,True
1599567144.3830364,0.0,10,0.5,0.5,-5.906557321166992,-0.05075,-0.0155,-0.12575,-0.8216664031317888,10,1,100,1.2393185344799411,-10,-1,-100,6344.859890773194,-0.053786534654179784,-0.04315678830160023,0.9976194165679543,275.34907013504045,29.750032712556546,1251.6748951653476,-51.944813844562745,14.901123046875,4381.2578125,True
1599567144.4494412,0.0,10,0.5,0.5,-5.831141117095948,-0.05075,-0.0155,-0.12575,-0.6912402348046267,10,1,100,1.1162062855405819,-10,-1,-100,6342.792521347408,-0.05870070946949293,-0.0452340717242918,0.9972502722301058,270.70827941192243,29.21066740691748,1241.2024693943733,-52.318770178430526,4.996337890625,4381.2578125,True
1599567144.5142677,0.0,10,0.5,0.5,-5.139908386230469,-0.05075,-0.0155,-0.12575,-0.674002745603169,10,1,100,1.2088320062227504,-10,-1,-100,6340.6622563058045,-0.06397998779939501,-0.04694130129470076,0.996846565622789,291.85474247595556,31.50350126159616,1349.6892084101999,-52.691891498508845,-5.18804931640625,4381.2578125,True
1599567144.5771024,0.0,10,0.5,0.5,-4.430050057983398,-0.05075,-0.0155,-0.12575,-0.6426088718575043,10,1,100,1.2953190938506354,-10,-1,-100,6338.592132893158,-0.0695321425643283,-0.0481841049267497,0.9964153617758117,309.12353460338704,33.40632832267315,1441.7121401599984,-53.06394994749273,-15.650848388671875,4381.2578125,True
1599567144.6459167,0.0,10,0.5,0.5,-4.655498514556885,-0.05075,-0.0155,-0.12575,-0.5707078735243685,10,1,100,1.0573990407857496,-10,-1,-100,6337.4955731473165,-0.07237993296668857,-0.04863766345853759,0.9961905053738626,316.6540371268432,34.23876783667022,1483.0204689146065,-53.24959832929335,-20.986602783203125,4381.2578125,True
1599567144.7117422,0.0,10,0.5,0.5,-2.289348027801514,-0.05075,-0.0155,-0.12575,-0.5906482003664685,10,1,100,1.7399979837901527,-10,-1,-100,6334.268954319414,-0.08113801248899584,-0.0492118539760331,0.9954872256124522,331.27266520998097,35.81581886705983,1570.7485278020054,-53.805393653799285,-37.409210205078125,4381.2578125,True
1599567144.7805586,0.0,10,0.5,0.5,-2.2163617752075195,-0.05075,-0.0155,-0.12575,-0.505356152581312,10,1,100,1.5140409280981646,-10,-1,-100,6332.137440975639,-0.08700516609003205,-0.04894227249935432,0.9950049020161884,332.20812242401064,35.83645596761115,1588.0706671223104,-54.17555857382751,-48.703125,4381.2578125,True
1599567144.8483756,0.0,10,0.5,0.5,-1.4455961471557617,-0.05075,-0.0155,-0.12575,-0.44899458877587284,10,1,100,1.5678489928294503,-10,-1,-100,6329.943918541423,-0.09278504770110944,-0.04817141667207501,0.9945202107242005,325.2066493276873,34.9504300759917,1567.4089564925916,-54.546084139078765,-60.2730712890625,4381.2578125,True
1599567144.9231749,0.0,10,0.5,0.5,-1.7012350883483887,-0.05075,-0.0155,-0.12575,-0.4651663256141816,10,1,100,1.30614967203466,-10,-1,-100,6328.847397305653,-0.09561364587682952,-0.04760619856581094,0.9942794781047494,318.5856428091605,34.16808525788091,1541.8870543579496,-54.73164972285577,-66.16159057617188,4381.2578125,True
1599567144.984012,0.0,10,0.5,0.5,1.992852662658691,-0.05075,-0.0155,-0.12575,-0.17405739714792995,10,1,100,2.1992452389352968,-10,-1,-100,6324.460248820018,-0.106258233061694,-0.04443740491827632,0.9933451086861684,300.9797394972559,32.14459781307108,1481.5902674184404,-55.47621667062228,-90.40818786621094,4381.2578125,True
1599567145.0498374,0.0,10,0.5,0.5,-0.8707154678344726,-0.05075,-0.0155,-0.12575,-0.4914263568165062,10,1,100,1.1407002718842145,-10,-1,-100,6324.460248820018,-0.106258233061694,-0.04443740491827632,0.9933451086861684,300.9797394972559,32.14459781307108,1481.5902674184404,-55.47621667062228,-90.40818786621094,4381.2578125,True
1599567145.1136658,0.0,10,0.5,0.5,2.61530771484375,-0.05075,-0.0155,-0.12575,-0.15527441967152023,10,1,100,1.9292689905726985,-10,-1,-100,6321.108473281958,-0.11337933805121884,-0.04138031402003402,0.9926896772479659,337.850922519579,36.17224933487519,1684.241580378969,-56.03233982649089,-109.23421478271484,4381.2578125,True
1599567145.1745026,0.0,10,0.5,0.5,1.5248476707458498,-0.05075,-0.0155,-0.12575,-0.34433367729131775,10,1,100,1.4652608863034573,-10,-1,-100,6319.949846296338,-0.11558510652235585,-0.0403233644160885,0.9924787702678497,347.17415300444793,37.20137923342966,1737.862204044643,-56.217017307239026,-115.46569061279297,4381.2578125,True
1599567145.2453165,0.0,10,0.5,0.5,3.1241442752838138,-0.05075,-0.0155,-0.12575,-0.19992263990138978,10,1,100,1.696432220925393,-10,-1,-100,6317.6940606364515,-0.11964499443020439,-0.03805568983339196,0.9920871129992069,359.4727525858011,38.531309776887014,1814.0910498941419,-56.58565007798433,-127.99812316894531,4381.2578125,True
1599567145.3051538,0.0,10,0.5,0.5,6.070761186981201,-0.05075,-0.0155,-0.12575,0.023291676095365088,10,1,100,2.0921866795873356,-10,-1,-100,6313.119843170163,-0.12688801228711538,-0.03397415408105494,0.9913350539511359,353.8757275145765,37.69521885720699,1815.049956133496,-57.32266438756061,-152.6351318359375,4381.2578125,True
1599567145.3665028,0.0,10,0.5,0.5,4.231554302978516,-0.05075,-0.0155,-0.12575,-0.284203152156929,10,1,100,1.5557757954279139,-10,-1,-100,6311.961131896474,-0.1285465585925666,-0.03307240502611258,0.991151854308812,346.39804548958233,36.815250959183786,1784.0840547122234,-57.507386578059446,-158.611572265625,4381.2578125,True
