Timestamp,Input Throttle,horizon,dT,dt,Input Roll,Roll P,Roll I,Roll D,Input Pitch,Pitch P,Pitch I,Pitch D,Input Yaw,Yaw P,Yaw I,Yaw D,Altitude,Direction X,Direction Y,Direction Z,Drag X,Drag Y,Drag Z,Vertical Velocity,Roll,Mass,Has Fuel
1599564957.1976752,0.0,10,0.5,0.5,-0.05405865478515625,-0.001,-0.00825,-0.001,-0.06718107987242794,10,1,100,0.6903908503557594,-10,-1,-100,6483.61796745169,-0.06725867753047797,-0.007002336253556316,0.9977109990291995,205.07306820147568,21.49876049775315,-156.7651352347707,9.590824946728128,-35.944580078125,4381.2578125,True
1599564957.248547,0.0,10,0.5,0.5,-0.09865779418945313,-0.001,-0.00825,-0.001,-0.06732672088318409,10,1,100,0.6999123671212641,-10,-1,-100,6483.997883014847,-0.06744594774923648,-0.006971455569213273,0.9976985731870393,204.6119340378641,21.456718564987913,-150.2665748211502,9.21080255912227,-35.941253662109375,4381.2578125,True
1599564957.3053944,0.0,10,0.5,0.5,-0.14325635147094726,-0.001,-0.00825,-0.001,-0.06931028185234417,10,1,100,0.6985882931853655,-10,-1,-100,6484.156592076761,-0.06754284186891857,-0.006955076905376314,0.9976921325827474,204.38118509455117,21.435611087261677,-147.02551720044417,9.020798829090982,-35.939544677734375,4381.2578125,True
1599564957.361249,0.0,10,0.5,0.5,-0.18783578033447268,-0.001,-0.00825,-0.001,-0.018256133585926107,10,1,100,0.7014311627188201,-10,-1,-100,6484.697140741628,-0.06759536911723467,-0.006469735793188572,0.9976918404961881,203.7211013600936,21.375354374275936,-137.3576127632713,8.450807216335846,-35.94891357421875,4381.2578125,True
1599564957.437602,0.0,10,0.5,0.5,-0.23236405334472657,-0.001,-0.00825,-0.001,-0.01479093500002502,10,1,100,0.6982454448619413,-10,-1,-100,6485.016949774465,-0.0675527097541711,-0.005991133216970443,0.9976977186140326,203.31909182533545,21.33886444774928,-130.96333757830195,8.07082030383041,-35.98553466796875,4381.2578125,True
1599564957.5069358,0.0,10,0.5,0.5,-0.27689888763427734,-0.001,-0.00825,-0.001,-0.027907806393464914,10,1,100,0.7020557089381096,-10,-1,-100,6485.175624589319,-0.06748715572502924,-0.0056698377665152615,0.9977040326428709,203.12750163089748,21.321494599071784,-127.77924407311626,7.8808263433197965,-36.01739501953125,4381.2578125,True
1599564957.5777483,0.0,10,0.5,0.5,-0.32095003967285163,-0.001,-0.00825,-0.001,0.13971600475927182,10,1,100,0.6475162798201294,-10,-1,-100,6485.750199293601,-0.06687039620135042,-0.003848743766743385,0.997754246938239,202.41506395865997,21.256773049260573,-115.11846502935373,7.120825795824863,-36.27557373046875,4381.2578125,True
1599564957.6679308,0.0,10,0.5,0.5,-0.36531999359130857,-0.001,-0.00825,-0.001,0.022660740320795514,10,1,100,0.6897986168565227,-10,-1,-100,6485.9093301562825,-0.06663329933815385,-0.0032538436766035147,0.997772226472876,202.24922558629947,21.24162244806517,-111.97033486465263,6.930814457710238,-36.381011962890625,4381.2578125,True
1599564957.7432427,0.0,10,0.5,0.5,-0.40941170730590826,-0.001,-0.00825,-0.001,0.034226596608663756,10,1,100,0.6901847215738562,-10,-1,-100,6486.005468208925,-0.06636069105146167,-0.0026049232250624638,0.9977922995584622,202.08750128150686,21.226787512611907,-108.82817956184658,6.74079651889747,-36.505706787109375,4381.2578125,True
1599564957.8132677,0.0,10,0.5,0.5,-0.45264996795654294,-0.001,-0.00825,-0.001,0.21016293076358972,10,1,100,0.6042612050591223,-10,-1,-100,6486.420308530796,-0.06527141455792441,-0.00041320621023030625,0.9978674619919397,201.62023677427382,21.18341282500172,-99.43246549193357,6.170692549253154,-37.01531982421875,4381.2578125,True
1599564957.8860729,0.0,10,0.5,0.5,-0.49643255004882814,-0.001,-0.00825,-0.001,0.08375119260836077,10,1,100,0.6721489964904632,-10,-1,-100,6486.517888556584,-0.06483898729085008,0.0004304418256697828,0.9978956460707361,201.46678081810649,21.16893051302833,-96.30863823178638,5.980637334630443,-37.235015869140625,4381.2578125,True
1599564957.9574034,0.0,10,0.5,0.5,-0.49453752670288087,-0.001,-0.00825,-0.001,0.20008715462766222,10,1,100,0.6053271328044012,-10,-1,-100,6486.772117632325,-0.06384059982385433,0.0022482371693187623,0.9979575758737248,201.16001133101386,21.139553916597016,-90.07136717036013,5.6004892006607,-37.76007080078125,4381.2578125,True
1599564958.0132544,0.0,10,0.5,0.5,-0.4906877899169922,-0.001,-0.00825,-0.001,0.46982342755780426,10,1,100,0.42411144868638784,-10,-1,-100,6487.157969559543,-0.06128883713271751,0.006344544787693188,0.9980999074212742,200.48319874150204,21.07235216364063,-77.6138564620227,4.840009167814296,-39.19720458984375,4381.2578125,True
1599564958.0740917,0.0,10,0.5,0.5,-0.4894373542785645,-0.001,-0.00825,-0.001,0.061522627889668655,10,1,100,0.6786623173264499,-10,-1,-100,6487.157969559543,-0.06128883713271751,0.006344544787693188,0.9980999074212742,200.48319874150204,21.07235216364063,-77.6138564620227,4.840009167814296,-39.19720458984375,4381.2578125,True
1599564958.1329343,0.0,10,0.5,0.5,-0.48489484329223637,-0.001,-0.00825,-0.001,0.3105846025794577,10,1,100,0.5058660259333282,-10,-1,-100,6487.352098655305,-0.05972369496731142,0.008597095211617741,0.9981779251282679,200.07619660623143,21.03063126281872,-71.38439807742958,4.459656785449187,-40.1285400390625,4381.2578125,True
1599564958.1867914,0.0,10,0.5,0.5,-0.480254451751709,-0.001,-0.00825,-0.001,0.3351273726409667,10,1,100,0.4641397185812306,-10,-1,-100,6487.543775296654,-0.057928625672638505,0.010854722389900519,0.9982617138453811,199.58310042059335,20.97929988041517,-65.14691783638919,4.079214778794219,-41.205413818359375,4381.2578125,True
1599564958.2625878,0.0,10,0.5,0.5,-0.47328717193603514,-0.001,-0.00825,-0.001,0.5275541346376761,10,1,100,0.3108783028113503,-10,-1,-100,6487.770982115297,-0.054912148470530026,0.014641422606349114,0.9983838363547423,198.61434102643133,20.877329475498623,-55.773892975575855,3.5083571973291012,-43.087432861328125,4381.2578125,True
1599564958.3184378,0.0,10,0.5,0.5,-0.4651410820007324,-0.001,-0.00825,-0.001,0.5717078281720112,10,1,100,0.2246522020491944,-10,-1,-100,6487.935204823734,-0.051396893959621645,0.018468465320366254,0.9985075237973993,197.33907077885874,20.742311440406688,-46.406836846061594,2.9372293906288687,-45.291595458984375,4381.2578125,True
1599564958.3842695,0.0,10,0.5,0.5,-0.4583823799133301,-0.001,-0.00825,-0.001,0.32856973596376327,10,1,100,0.4336122737972023,-10,-1,-100,6487.968788208091,-0.050114696334121855,0.019717501213945974,0.9985488157106877,196.82260637096053,20.687564193734552,-43.28798269437099,2.7467867403263684,-46.097412109375,4381.2578125,True
1599564958.4500866,0.0,10,0.5,0.5,-0.4495935211181641,-0.001,-0.00825,-0.001,0.34410608450233404,10,1,100,0.41341840895700377,-10,-1,-100,6488.004326330032,-0.04878025062577237,0.02097393480896999,0.9985892955602498,196.2448188846175,20.626328476818042,-40.17116581094617,2.5563083039512655,-46.93817138671875,4381.2578125,True
1599564958.510924,0.0,10,0.5,0.5,-0.4367888824462891,-0.001,-0.00825,-0.001,0.6315681024516249,10,1,100,0.07191571806192854,-10,-1,-100,6488.167589437566,-0.04447754021361956,0.024709995384877014,0.9987047434275182,194.22393216625838,20.41231916528477,-30.873844834364437,1.9846445884423813,-49.667694091796875,4381.2578125,True
1599564958.5727584,0.0,10,0.5,0.5,-0.42730575714111324,-0.001,-0.00825,-0.001,0.39789026980503583,10,1,100,0.3304402531842746,-10,-1,-100,6488.201183502446,-0.042934718746481276,0.025959997835678764,0.9987405511135172,193.41909532042393,20.327222800171242,-27.794711529510156,1.7940100742388183,-50.645538330078125,4381.2578125,True
1599564958.6316035,0.0,10,0.5,0.5,-0.4091580955505371,-0.001,-0.00825,-0.001,0.7850352398832396,10,1,100,-0.24669368324680713,-10,-1,-100,6488.274078645976,-0.03630448697341607,0.030594307281967336,0.9988723504970662,189.3377681958217,19.896778871482546,-15.641648285106188,1.0310555572202977,-54.893035888671875,4381.2578125,True
1599564958.7024457,0.0,10,0.5,0.5,-0.40045653228759764,-0.001,-0.00825,-0.001,0.32402927150380995,10,1,100,0.4138310590437837,-10,-1,-100,6488.274078645976,-0.03630448697341607,0.030594307281967336,0.9988723504970662,189.3377681958217,19.896778871482546,-15.641648285106188,1.0310555572202977,-54.893035888671875,4381.2578125,True
1599564958.7552705,0.0,10,0.5,0.5,-0.377979273223877,-0.001,-0.00825,-0.001,0.780447648727699,10,1,100,-0.3884597946388535,-10,-1,-100,6488.3460729874205,-0.02903364680371873,0.034721520018098806,0.9989752065996982,183.68773213546208,19.302722221038884,-3.9373138578840257,0.2674473024165467,-59.657135009765625,4381.2578125,True
1599564958.810124,0.0,10,0.5,0.5,-0.3666322814941406,-0.001,-0.00825,-0.001,0.37033881759520015,10,1,100,0.33555521751452094,-10,-1,-100,6488.3460729874205,-0.02903364680371873,0.034721520018098806,0.9989752065996982,183.68773213546208,19.302722221038884,-3.9373138578840257,0.2674473024165467,-59.657135009765625,4381.2578125,True
1599564958.8804514,0.0,10,0.5,0.5,-0.34361761932373047,-0.001,-0.00825,-0.001,0.6671466284562116,10,1,100,-0.2958813273177086,-10,-1,-100,6488.322977942997,-0.023319582740579298,0.037398075755355094,0.9990283184127474,178.32010086266703,18.74046361087435,4.36886476024642,-0.30563309525632,-63.553131103515625,4381.2578125,True
1599564958.9382925,0.0,10,0.5,0.5,-0.325142658996582,-0.001,-0.00825,-0.001,0.5655935782108681,10,1,100,-0.1597406319434794,-10,-1,-100,6488.328763436293,-0.019391342246336398,0.03888741082958586,0.9990554264528353,174.85458710073877,18.37836663992587,9.641896320435405,-0.6877976761023303,-66.2965087890625,4381.2578125,True
1599564958.9951446,0.0,10,0.5,0.5,-0.3048479988098145,-0.001,-0.00825,-0.001,0.558127083052828,10,1,100,-0.2084560007364034,-10,-1,-100,6488.27109525667,-0.015406443491373803,0.04015491189971418,0.9990746841699438,171.3507006443221,18.012508821990643,14.700856111879478,-1.0699799896318676,-69.1510009765625,4381.2578125,True
1599564959.0519876,0.0,10,0.5,0.5,-0.285747550201416,-0.001,-0.00825,-0.001,0.48875148935478063,10,1,100,-0.029673390509711184,-10,-1,-100,6488.241780004813,-0.01344065767332569,0.04065791892013425,0.999082720474332,169.3902202525505,17.807545696407445,17.12913102472358,-1.2610665451889007,-70.61886596679688,4381.2578125,True
1599564959.1088376,0.0,10,0.5,0.5,-0.25544269714355466,-0.001,-0.00825,-0.001,0.6162957840340013,10,1,100,-0.7208309347433701,-10,-1,-100,6488.1265188010875,-0.005402456157478186,0.042256797086589803,0.9990921762117092,160.23430728956282,16.847328575587692,26.029549929314076,-2.025318778067877,-76.7369384765625,4381.2578125,True
1599564959.1676795,0.0,10,0.5,0.5,-0.2392286430358887,-0.001,-0.00825,-0.001,0.4581626475586171,10,1,100,0.07908170843576628,-10,-1,-100,6488.1265188010875,-0.005402456157478186,0.042256797086589803,0.9990921762117092,160.23430728956282,16.847328575587692,26.029549929314076,-2.025318778067877,-76.7369384765625,4381.2578125,True
1599564959.2305198,0.0,10,0.5,0.5,-0.21130632629394533,-0.001,-0.00825,-0.001,0.5115732177018157,10,1,100,-0.37118873171199923,-10,-1,-100,6488.007392697036,-0.0013432087584885025,0.04272753245220896,0.9990858590535532,154.85213888758935,16.28124215565449,29.904307561392063,-2.40739024383301,-79.93539428710938,4381.2578125,True
1599564959.2833774,0.0,10,0.5,0.5,-0.18055717773437502,-0.001,-0.00825,-0.001,0.4833920203153729,10,1,100,-0.8196893666591465,-10,-1,-100,6487.765763711068,0.0063925116690080695,0.04288825078546759,0.9990594245284534,145.77524055468476,15.32619472522746,37.09610054276224,-3.1715588396652814,-86.5792236328125,4381.2578125,True
1599564959.3437629,0.0,10,0.5,0.5,-0.15764535140991212,-0.001,-0.00825,-0.001,0.4569095064831359,10,1,100,-0.2520638715080433,-10,-1,-100,6487.736980338814,0.008225937557501811,0.04278243192313373,0.9990505480054764,148.49942496896406,15.6128984792597,40.068464326683774,-3.362634641946748,-88.2864990234375,4381.2578125,True
1599564959.3996127,0.0,10,0.5,0.5,-0.12880704040527347,-0.001,-0.00825,-0.001,0.43034590640362325,10,1,100,-0.46078320249317584,-10,-1,-100,6487.553444774472,0.011756264479305308,0.042437417582193715,0.9990299574259258,153.5308036183886,16.14325503528527,46.14100637269005,-3.744872327735799,-91.74967956542969,4381.2578125,True
1599564959.450513,0.0,10,0.5,0.5,-0.10228663902282716,-0.001,-0.00825,-0.001,0.43961653836779063,10,1,100,-0.2968601320424009,-10,-1,-100,6487.523691183887,0.013438361121135056,0.04220103220140968,0.9990187602500333,155.83702934601283,16.386888410600676,49.228396374518404,-3.9360491441874963,-93.5032958984375,4381.2578125,True
1599564959.514307,0.0,10,0.5,0.5,-0.07223780250549318,-0.001,-0.00825,-0.001,0.3947111416871024,10,1,100,-0.5135622401272208,-10,-1,-100,6487.341627786052,0.016904142738240722,0.041573539197739706,0.9989924378076439,160.62772830332474,16.89413298780497,55.680974076400474,-4.318544823351218,-97.05007934570312,4381.2578125,True
1599564959.5751803,0.0,10,0.5,0.5,-0.043228319931030275,-0.001,-0.00825,-0.001,0.3721356148200552,10,1,100,-0.5132519600378516,-10,-1,-100,6487.157125690137,0.020019036675720175,0.04079541701527734,0.9989669524669602,165.6932418383008,17.43212816258571,62.53689812028567,-4.7012337417590455,-100.64236450195312,4381.2578125,True
1599564959.635982,0.0,10,0.5,0.5,-0.006264088821411139,-0.001,-0.00825,-0.001,0.23056557451097365,10,1,100,-0.8369119730111292,-10,-1,-100,6486.728064795956,0.02576091720939757,0.03880045056921485,0.9989148613271085,174.82226711294467,18.4071639314936,76.75908131748321,-5.467048099688547,-107.93043518066406,4381.2578125,True
1599564959.6958241,0.0,10,0.5,0.5,0.020903408050537108,-0.001,-0.00825,-0.001,0.36795562084218136,10,1,100,-0.4094209534658184,-10,-1,-100,6486.635324316216,0.027058888812435355,0.03823753373794258,0.9989022512487775,177.02600428795566,18.643386712815897,80.45780455138906,-5.6585739547695075,-109.76719665527344,4381.2578125,True
1599564959.7556617,0.0,10,0.5,0.5,0.053681523513793954,-0.001,-0.00825,-0.001,0.2990793035833038,10,1,100,-0.5433305317364829,-10,-1,-100,6486.389781878097,0.029426712485866733,0.03710329670111313,0.9988780776281875,181.10797518136678,19.08199642552588,87.9048220350756,-6.041691712640475,-113.44965362548828,4381.2578125,True
1599564959.8105152,0.0,10,0.5,0.5,0.09134484157562256,-0.001,-0.00825,-0.001,0.20955599600200778,10,1,100,-0.656229542521224,-10,-1,-100,6485.987032197416,0.03257397122462623,0.03526300887178864,0.9988470636708933,186.66586410602613,19.680209438522528,99.25626895339987,-6.616484323523753,-118.97854614257812,4381.2578125,True
1599564959.8743784,0.0,10,0.5,0.5,0.12537472438812255,-0.001,-0.00825,-0.001,0.2602297726685149,10,1,100,-0.537239504677734,-10,-1,-100,6485.740493823891,0.034322554115845755,0.03405747656353501,0.9988303412337297,189.55252607661683,19.99167539169439,106.65527485325421,-6.9997279798393475,-122.65263366699219,4381.2578125,True
1599564959.9301956,0.0,10,0.5,0.5,0.15146120014190675,-0.001,-0.00825,-0.001,0.3798999260716849,10,1,100,-0.365174219800465,-10,-1,-100,6485.740493823891,0.034322554115845755,0.03405747656353501,0.9988303412337297,189.55252607661683,19.99167539169439,106.65527485325421,-6.9997279798393475,-122.65263366699219,4381.2578125,True
1599564959.9860458,0.0,10,0.5,0.5,0.18711752147674562,-0.001,-0.00825,-0.001,0.2520867766450858,10,1,100,-0.5328276406351313,-10,-1,-100,6485.431446499773,0.03582295192656241,0.03290347061907465,0.9988163383407815,191.74177280095702,20.228027340770875,113.82325902988937,-7.382990322880216,-126.30476379394531,4381.2578125,True
1599564960.0508718,0.0,10,0.5,0.5,0.21921512660980227,-0.001,-0.00825,-0.001,0.23757522087392505,10,1,100,-0.5269167553234202,-10,-1,-100,6485.120435509831,0.03711133580851903,0.03173111829615752,0.9988072310942601,193.23721943576825,20.389020402200195,120.6976256892522,-7.766254600944394,-129.9256591796875,4381.2578125,True
1599564960.1097145,0.0,10,0.5,0.5,0.252804240989685,-0.001,-0.00825,-0.001,0.222151701249746,10,1,100,-0.5175918357286287,-10,-1,-100,6484.810875414405,0.038176301000629326,0.03053464774592691,0.9988043879203482,194.05758112990222,20.476205069153806,127.22612646124249,-8.149510242462796,-133.50643920898438,4381.2578125,True
1599564960.1735442,0.0,10,0.5,0.5,0.286356537437439,-0.001,-0.00825,-0.001,0.22464239314380835,10,1,100,-0.5043119312465272,-10,-1,-100,6484.437826120993,0.03900438644519923,0.029479625255164933,0.9988040896656604,194.2135194437578,20.490323711895893,133.3532923750653,-8.532751904645655,-137.03472900390625,4381.2578125,True
1599564960.230393,0.0,10,0.5,0.5,0.31978773937225347,-0.001,-0.00825,-0.001,0.21643997005071136,10,1,100,-0.49256958442180043,-10,-1,-100,6484.1282410089625,0.03963318337842937,0.02845623350068054,0.9988090175555318,193.73732032639856,20.43460942878368,139.04054414376193,-8.915980656455297,-140.50262451171875,4381.2578125,True
1599564960.2892692,0.0,10,0.5,0.5,0.3499854486465454,-0.001,-0.00825,-0.001,0.21433479728496926,10,1,100,-0.4783111191139976,-10,-1,-100,6483.754191601882,0.04006258339114126,0.02751614325970483,0.9988182273427628,192.66382466104128,20.31286716501562,144.2552897912999,-9.299203435471416,-143.89939880371094,4381.2578125,True
1599564960.348119,0.0,10,0.5,0.5,0.38137863101959235,-0.001,-0.00825,-0.001,0.21437797577355291,10,1,100,-0.46266401644085275,-10,-1,-100,6483.319584778626,0.04029887911059738,0.026671655018239707,0.9988316290351529,191.04237000275472,20.130719156205995,148.9806273535548,-9.682431872066594,-147.21484375,4381.2578125,True
1599564960.3999794,0.0,10,0.5,0.5,0.41236731338500976,-0.001,-0.00825,-0.001,0.2169120893916573,10,1,100,-0.4465650929978542,-10,-1,-100,6482.946003150544,0.04035745576368957,0.025936459142238612,0.9988486250936349,188.9352679306255,19.895398607576894,153.21632995064914,-10.065680280526484,-150.4387664794922,4381.2578125,True
1599564960.4538748,0.0,10,0.5,0.5,0.44134389152526865,-0.001,-0.00825,-0.001,0.2210129006333657,10,1,100,-0.4292591276129075,-10,-1,-100,6482.508936129394,0.04024630441342017,0.025313858038734555,0.998869082298705,186.41024509518283,19.614849612279965,156.9744476821391,-10.448963367542328,-153.56167602539062,4381.2578125,True
1599564960.5256836,0.0,10,0.5,0.5,0.4726697334289551,-0.001,-0.00825,-0.001,0.20404651836642476,10,1,100,-0.39008405145612696,-10,-1,-100,6481.856493815896,0.0397837354478431,0.024601565940872133,0.9989054096094749,182.00164476463488,19.127979823725354,161.7757176020167,-11.02397710209421,-158.03607177734375,4381.2578125,True
1599564960.5845296,0.0,10,0.5,0.5,0.5057773601531983,-0.001,-0.00825,-0.001,0.22625058285875452,10,1,100,-0.3497073280836779,-10,-1,-100,6481.200619971263,0.03899119237453986,0.024164479084220803,0.9989473283751251,177.07856635698624,18.588440630630704,165.6973201339812,-11.59912176987146,-162.23141479492188,4381.2578125,True
1599564960.6517358,0.0,10,0.5,0.5,0.5312215042114258,-0.001,-0.00825,-0.001,0.26908536937040206,10,1,100,-0.4292784594587994,-10,-1,-100,6481.200619971263,0.03899119237453986,0.024164479084220803,0.9989473283751251,177.07856635698624,18.588440630630704,165.6973201339812,-11.59912176987146,-162.23141479492188,4381.2578125,True
1599564960.7205846,0.0,10,0.5,0.5,0.5656452980041504,-0.001,-0.00825,-0.001,0.24849838789860218,10,1,100,-0.31050295211176104,-10,-1,-100,6480.483211076935,0.03790970607450676,0.023984203470124383,0.9989932993615362,171.90128531020892,18.026048519765023,168.92269082820303,-12.17440748852615,-166.1171875,4381.2578125,True
1599564960.7887723,0.0,10,0.5,0.5,0.593469239807129,-0.001,-0.00825,-0.001,0.2704038909390745,10,1,100,-0.32056495190629275,-10,-1,-100,6479.984100940055,0.037018251795268894,0.02402541243429175,0.9990257397041301,168.8546813919009,17.69664100931546,171.22195079419433,-12.558001372206359,-168.52011108398438,4381.2578125,True
1599564961.3658834,0.0,10,0.5,0.5,0.621528267669678,-0.001,-0.00825,-0.001,0.2822919642935695,10,1,100,-0.2983663335641671,-10,-1,-100,6479.483523755451,0.03600783876980599,0.024175906898412834,0.9990590378314822,165.88536559778248,17.37817338080883,173.4177378789698,-12.941638629585356,-170.76336669921875,4381.2578125,True
1599564961.4167476,0.0,10,0.5,0.5,0.6503405174255372,-0.001,-0.00825,-0.001,0.31441226073235135,10,1,100,-0.20693539782546022,-10,-1,-100,6478.641591430758,0.03426138691685931,0.024608613948513897,0.9991098905956572,161.6946863194391,16.933752104970534,176.66177795808946,-13.517149150579577,-173.80856323242188,4381.2578125,True
1599564961.4696052,0.0,10,0.5,0.5,0.6738212726593018,-0.001,-0.00825,-0.001,0.2925577615217028,10,1,100,-0.31004050987666354,-10,-1,-100,6478.36127230851,0.03361629642962261,0.024805949936973687,0.9991269235998397,160.39733372605605,16.797573625583397,177.76879145552394,-13.70899376418005,-174.7340087890625,4381.2578125,True
1599564961.5244596,0.0,10,0.5,0.5,0.6990210132598877,-0.001,-0.00825,-0.001,0.32297180328709196,10,1,100,-0.22161670175967121,-10,-1,-100,6477.860205919715,0.03223207280623566,0.02526353367442364,0.9991610717741634,159.8339288840078,16.740193626256552,182.18019875422263,-14.09267501624025,-176.4449462890625,4381.2578125,True
1599564961.5813076,0.0,10,0.5,0.5,0.7231651985168457,-0.001,-0.00825,-0.001,0.37605131120514235,10,1,100,-0.10580370933005331,-10,-1,-100,6476.955777962459,0.029928229020121412,0.026162671621785705,0.9992095954910211,164.66607750945872,17.253967991772242,195.4818208655114,-14.668077979127862,-178.64495849609375,4381.2578125,True
1599564961.6381547,0.0,10,0.5,0.5,0.7440840652465821,-0.001,-0.00825,-0.001,0.36207370419964485,10,1,100,-0.1480565196543689,-10,-1,-100,6476.391242733342,0.028227322104232507,0.02685222895244392,0.9992407998511218,167.4213868718205,17.550766483035314,204.0435271258362,-15.05158802658795,-179.8575439453125,4381.2578125,True
1599564961.7010207,0.0,10,0.5,0.5,0.042876757812499944,-0.001,-0.00825,-0.001,0.3749017170671236,10,1,100,-0.11368619558013682,-10,-1,-100,6475.766164438217,0.026379091428516493,0.027593671494554314,0.9992711007673826,169.83249159887046,17.81361697981271,212.355423525121,-15.435022834803009,179.14117431640625,4381.2578125,True
1599564961.7568374,0.0,10,0.5,0.5,0.12024309005737305,-0.001,-0.00825,-0.001,0.30110038209711765,10,1,100,-0.29724805305713586,-10,-1,-100,6475.766164438217,0.026379091428516493,0.027593671494554314,0.9992711007673826,169.83249159887046,17.81361697981271,212.355423525121,-15.435022834803009,179.14117431640625,4381.2578125,True
1599564961.8106945,0.0,10,0.5,0.5,-0.15848869171142574,-0.001,-0.00825,-0.001,0.4905325716595208,10,1,100,0.1550900617575191,-10,-1,-100,6474.454015673255,0.022278392294697833,0.029312664861112222,0.9993219906093849,173.73933535119062,18.248446890415124,228.25454863746268,-16.20167146275641,177.6908721923828,4381.2578125,True
1599564961.8715334,0.0,10,0.5,0.5,-0.443580643081665,-0.001,-0.00825,-0.001,0.31916608114282885,10,1,100,-0.2534167202463661,-10,-1,-100,6474.454015673255,0.022278392294697833,0.029312664861112222,0.9993219906093849,173.73933535119062,18.248446890415124,228.25454863746268,-16.20167146275641,177.6908721923828,4381.2578125,True
1599564961.9333663,0.0,10,0.5,0.5,-0.7279552536010742,-0.001,-0.00825,-0.001,0.43213490118344633,10,1,100,-0.006596996084999196,-10,-1,-100,6473.82847721572,0.020047976492776835,0.030334847541093453,0.9993387191854439,175.4918371733465,18.446951859683722,236.12995811691218,-16.584887297268835,177.06614685058594,4381.2578125,True
1599564961.9862251,0.0,10,0.5,0.5,-1.014273946762085,-0.001,-0.00825,-0.001,0.4285495666203672,10,1,100,0.043510786673351204,-10,-1,-100,6473.140936823795,0.01757930943166095,0.031225911535373234,0.9993577489211213,177.2201499748651,18.644320517104745,244.0905304799923,-16.96802852585991,176.43345642089844,4381.2578125,True
1599564962.0437014,0.0,10,0.5,0.5,-1.300671580505371,-0.001,-0.00825,-0.001,0.5818504695767163,10,1,100,0.37695997964691735,-10,-1,-100,6471.763468204765,0.01231887587405518,0.0334235985592427,0.9993653527897344,181.0549730007427,19.083533668527032,260.90868034439086,-17.73406942997897,174.84109497070312,4381.2578125,True
1599564962.102575,0.0,10,0.5,0.5,-1.589604778289795,-0.001,-0.00825,-0.001,0.42304876388763746,10,1,100,0.00959204591396809,-10,-1,-100,6471.356734742527,0.010895733328854535,0.033970009757748526,0.9993634581233621,182.16691237268589,19.210644319417245,265.41751577210863,-17.925523548708846,174.31178283691406,4381.2578125,True
1599564962.1574888,0.0,10,0.5,0.5,-1.8783096004486084,-0.001,-0.00825,-0.001,0.43072953106673173,10,1,100,0.030287327225913624,-10,-1,-100,6471.012996292091,0.009433225129906608,0.034528657388851657,0.9993591877210976,183.36980600274242,19.347909652294295,270.09766777208097,-18.116952299633308,173.71238708496094,4381.2578125,True
1599564962.2173254,0.0,10,0.5,0.5,-2.163340103912353,-0.001,-0.00825,-0.001,0.6102399944006427,10,1,100,0.5874394918448859,-10,-1,-100,6469.510646935785,0.0030572843651362133,0.036660826733101816,0.9993230892937259,189.14817848215378,20.00579623702032,290.7066888751371,-18.882373505007177,170.58053588867188,4381.2578125,True
1599564962.2741854,0.0,10,0.5,0.5,-2.4536479766845702,-0.001,-0.00825,-0.001,0.45770341190441644,10,1,100,0.1395606028037183,-10,-1,-100,6469.166449680692,0.0013554826954820104,0.03720354938901749,0.9993067890190286,190.88971815967128,20.203603040198743,296.4400137426068,-19.073644478576384,169.6128387451172,4381.2578125,True
1599564962.333025,0.0,10,0.5,0.5,-2.4400535030364994,-0.001,-0.00825,-0.001,0.5619567782047175,10,1,100,0.5779359095561329,-10,-1,-100,6468.007931475993,-0.004154091057650093,0.03863595524449405,0.9992447180194799,196.96180481005885,20.892023361630415,315.3412594724933,-19.647210949161153,166.26219177246094,4381.2578125,True
1599564962.3858838,0.0,10,0.5,0.5,-2.42757424697876,-0.001,-0.00825,-0.001,0.5374087009068977,10,1,100,0.45279605985393967,-10,-1,-100,6467.194617353729,-0.007997402033671917,0.03970493960699262,0.9991794430088705,201.38382583992794,21.395028283458252,328.88472322698135,-20.02936014510788,163.65982055664062,4381.2578125,True
1599564962.440737,0.0,10,0.5,0.5,-2.4157726619720457,-0.001,-0.00825,-0.001,0.4768400470822182,10,1,100,0.299079086555588,-10,-1,-100,6466.787975508836,-0.010066370623408222,0.04011667192472525,0.9991442942919487,203.85969581219805,21.675903791250764,336.2016616517463,-20.220358112699596,162.2456512451172,4381.2578125,True
1599564962.514541,0.0,10,0.5,0.5,-2.4014682056427006,-0.001,-0.00825,-0.001,0.4822365834241925,10,1,100,0.329138647463618,-10,-1,-100,6466.380368749378,-0.012191115565134131,0.0405302116284423,0.999103937859636,206.37540032529554,21.961764931072118,343.66561688823714,-20.411301852057612,160.7574920654297,4381.2578125,True
1599564962.5693967,0.0,10,0.5,0.5,-2.3796862033843995,-0.001,-0.00825,-0.001,0.5845859454385702,10,1,100,0.8517353826146272,-10,-1,-100,6465.096106906887,-0.018844273020750577,0.041827337046418195,0.9989471293566666,214.05873359680507,22.837123529980428,366.78207953924687,-20.98379410811337,155.8497314453125,4381.2578125,True
1599564962.625244,0.0,10,0.5,0.5,-2.356463587188721,-0.001,-0.00825,-0.001,0.5931653476605471,10,1,100,0.979006405858627,-10,-1,-100,6463.812488729716,-0.02601649493493606,0.043074898877949665,0.9987330449514298,221.54118943388798,23.692265319085728,390.2936363238371,-21.55576604894241,150.27532958984375,4381.2578125,True
1599564962.6920662,0.0,10,0.5,0.5,-2.3417712326049807,-0.001,-0.00825,-0.001,0.46937429453927076,10,1,100,0.2656177515209778,-10,-1,-100,6463.812488729716,-0.02601649493493606,0.043074898877949665,0.9987330449514298,221.54118943388798,23.692265319085728,390.2936363238371,-21.55576604894241,150.27532958984375,4381.2578125,True
1599564962.7474349,0.0,10,0.5,0.5,-2.3049960903167728,-0.001,-0.00825,-0.001,0.614783316532202,10,1,100,1.4553775207279807,-10,-1,-100,6462.059136640164,-0.036798936265669005,0.04438852190595795,0.9983363648654293,230.1885952997284,24.680956945044958,420.35119490418646,-22.317637684338195,141.80279541015625,4381.2578125,True
1599564962.8032844,0.0,10,0.5,0.5,-2.282539848327637,-0.001,-0.00825,-0.001,0.529654070997454,10,1,100,0.6871069660957974,-10,-1,-100,6461.652724122279,-0.03957484865022858,0.04479985891336131,0.9982118031738828,231.95811353298745,24.882547463437476,427.3199927244404,-22.50799241851838,139.50111389160156,4381.2578125,True
1599564962.8691094,0.0,10,0.5,0.5,-2.2495467708587644,-0.001,-0.00825,-0.001,0.5620664591605888,10,1,100,1.0702449396042848,-10,-1,-100,6460.711575868423,-0.045542721365345935,0.04546106060141081,0.9979274284734504,234.81844729460948,25.20667070033628,440.16272309819755,-22.888609957833573,134.6739959716797,4381.2578125,True
1599564962.9229636,0.0,10,0.5,0.5,-2.220500149154663,-0.001,-0.00825,-0.001,0.530275120962536,10,1,100,0.8264830461597759,-10,-1,-100,6460.2422753365245,-0.04870940825317451,0.045765634051280424,0.997763950184366,235.8411183670273,25.321464632687587,445.8870189696605,-23.07888869424508,132.14939880371094,4381.2578125,True
1599564962.9758227,0.0,10,0.5,0.5,-2.17885309715271,-0.001,-0.00825,-0.001,0.6178722822055005,10,1,100,1.5958165773097495,-10,-1,-100,6458.833150482154,-0.05854165087329523,0.046832375309000855,0.9971858421257024,236.8752843902878,25.432271389837446,459.3393434468138,-23.64972664347514,124.13510131835938,4381.2578125,True
1599564963.043641,0.0,10,0.5,0.5,-2.1486220195770267,-0.001,-0.00825,-0.001,0.5518019086684934,10,1,100,1.0028693024661701,-10,-1,-100,6458.363534817356,-0.062043674166790956,0.04719502084231754,0.996956976255033,236.43056074173916,25.37959912164311,462.3130320448525,-23.840041794934965,121.31636047363281,4381.2578125,True
1599564963.1044781,0.0,10,0.5,0.5,-2.093658653640747,-0.001,-0.00825,-0.001,0.7103556765840646,10,1,100,2.292564442917382,-10,-1,-100,6456.423122023116,-0.07690458088903138,0.04895966162736736,0.9958356475702282,231.82826185937915,24.849629714352048,468.43400290539347,-24.60172845223154,109.30863952636719,4381.2578125,True
1599564963.1713,0.0,10,0.5,0.5,-2.056851106643677,-0.001,-0.00825,-0.001,0.5918492994646277,10,1,100,1.2488465263098933,-10,-1,-100,6455.951361088664,-0.08086732097161468,0.04947888668541875,0.9954960151458395,229.46411841941904,24.585877451858007,467.42054720175963,-24.792298617093444,106.1236572265625,4381.2578125,True
1599564963.2281477,0.0,10,0.5,0.5,-2.012496055984497,-0.001,-0.00825,-0.001,0.6032675177579125,10,1,100,1.3053569507894927,-10,-1,-100,6455.41863725835,-0.08492715849836781,0.0500477554957326,0.9951294387762993,226.49507288870848,24.2585279693197,465.09716559542784,-24.98294204810863,102.86564636230469,4381.2578125,True
1599564963.2849956,0.0,10,0.5,0.5,-1.9491212417602537,-0.001,-0.00825,-0.001,0.8761489332277683,10,1,100,2.796773723017039,-10,-1,-100,6453.415505504701,-0.10212269903060886,0.053039310139727715,0.9933568270881342,208.0155861637976,22.274612491538647,440.91932997380377,-25.746254359645775,89.10572814941406,4381.2578125,True
1599564963.3438382,0.0,10,0.5,0.5,-1.905172250747681,-0.001,-0.00825,-0.001,0.681259313863498,10,1,100,1.5818430669027395,-10,-1,-100,6452.883693311247,-0.10664099700061103,0.05397812290253738,0.992831335125274,207.80213399572875,22.263489459241914,443.92275629087027,-25.937173880995754,85.48373413085938,4381.2578125,True
1599564963.3986912,0.0,10,0.5,0.5,-1.847407587814331,-0.001,-0.00825,-0.001,0.8326750825540548,10,1,100,2.155079427004008,-10,-1,-100,6451.820360702113,-0.11589628746450185,0.05619937821955434,0.9916701469942921,224.9730699146129,24.14680909921334,488.09764358019095,-26.318648425108464,78.02201843261719,4381.2578125,True
1599564963.4535449,0.0,10,0.5,0.5,-1.7964693927764894,-0.001,-0.00825,-0.001,0.7536781461224615,10,1,100,1.7562757612233881,-10,-1,-100,6451.287871215842,-0.12061531688929308,0.0574901840680951,0.9910332103756725,233.6519891430491,25.108258831611803,510.82001629700915,-26.509171735834435,74.18218994140625,4381.2578125,True
1599564963.5123873,0.0,10,0.5,0.5,-1.718228768157959,-0.001,-0.00825,-0.001,1.3202299701153275,10,1,100,3.4257026427853003,-10,-1,-100,6449.160930927261,-0.14001370383918982,0.06380317949082485,0.988091755366926,263.81251353710985,28.501030181151016,594.3243705408433,-27.269777716652065,58.09483337402344,4381.2578125,True
1599564963.5662436,0.0,10,0.5,0.5,-1.6648138511657717,-0.001,-0.00825,-0.001,0.9015695482916193,10,1,100,2.037440147990794,-10,-1,-100,6448.567944952985,-0.14494502902679496,0.06571986463541861,0.9872546976098537,270.1942170160243,29.22481120840108,613.1947840501191,-27.459591047816122,53.891204833984375,4381.2578125,True
1599564963.624089,0.0,10,0.5,0.5,-1.6025135307312013,-0.001,-0.00825,-0.001,0.93873577126112,10,1,100,2.0968525078026206,-10,-1,-100,6448.036593429744,-0.14988961576094942,0.06778300998538438,0.9863764832174153,275.70201705896415,29.85057342214331,630.2798544866489,-27.649303408279295,49.614837646484375,4381.2578125,True
1599564963.6804478,0.0,10,0.5,0.5,-1.5211058071136476,-0.001,-0.00825,-0.001,1.5244866519126532,10,1,100,3.227201233597003,-10,-1,-100,6446.382628539926,-0.16458073217049862,0.07496488831932804,0.9835107768181767,286.04084775820075,31.021639256227957,668.2158384035524,-28.218137667381363,36.34967041015625,4381.2578125,True
1599564963.737295,0.0,10,0.5,0.5,-1.455764419555664,-0.001,-0.00825,-0.001,1.4182586400228225,10,1,100,2.8275393984644706,-10,-1,-100,6445.194881682051,-0.17422329754044627,0.08050451830874022,0.9814098354540832,287.28282075449835,31.1542945836246,680.7536325910422,-28.597464626426945,27.1419677734375,4381.2578125,True
1599564963.7891574,0.0,10,0.5,0.5,-1.3903858978271486,-0.001,-0.00825,-0.001,1.1975610124361542,10,1,100,2.392790552292802,-10,-1,-100,6444.658766571898,-0.1789521347510482,0.08350599838321493,0.9803075444482028,286.2931590290344,31.037820946143658,683.2400097875335,-28.78725668503267,22.428802490234375,4381.2578125,True
1599564963.8528512,0.0,10,0.5,0.5,-1.2995843090057373,-0.001,-0.00825,-0.001,1.988112344303906,10,1,100,3.432647199382081,-10,-1,-100,6442.885390338954,-0.19261884266490462,0.09339103033800106,0.9768193778293095,275.5056201045562,29.836907370770316,671.5884823249951,-29.35742412569593,7.85162353515625,4381.2578125,True
1599564963.9097018,0.0,10,0.5,0.5,-1.216657430267334,-0.001,-0.00825,-0.001,2.222462581769732,10,1,100,3.4719086695466195,-10,-1,-100,6441.105786914937,-0.2053177758211478,0.10447119634640661,0.9731034786012264,251.21682641431548,27.237427000900013,625.415505357372,-29.928832824628223,-7.383087158203125,4381.2578125,True
1599564963.9725325,0.0,10,0.5,0.5,-1.1448276115417482,-0.001,-0.00825,-0.001,1.5512897256414566,10,1,100,2.648692831148863,-10,-1,-100,6440.513989274157,-0.20928877399700696,0.10839660032247837,0.9718273437794178,254.55366615281142,27.639072914063686,638.1452510454028,-30.11931496599619,-12.6077880859375,4381.2578125,True
1599564964.0243924,0.0,10,0.5,0.5,-1.0646865306854247,-0.001,-0.00825,-0.001,1.606774212578648,10,1,100,2.681873928513937,-10,-1,-100,6439.923205295927,-0.2131155164178955,0.11242210179824269,0.9705375045247862,268.1202475304974,29.16861929947426,676.8119278195212,-30.309538856202636,-17.9058837890625,4381.2578125,True
1599564964.083788,0.0,10,0.5,0.5,-0.9723787258148194,-0.001,-0.00825,-0.001,2.1234083007983933,10,1,100,3.0997761856157435,-10,-1,-100,6438.673352647107,-0.2203093935018755,0.12072838401663508,0.9679299708282452,292.2830310601451,31.94890693564435,747.9313243015403,-30.68917101663203,-28.722503662109375,4381.2578125,True
1599564964.149612,0.0,10,0.5,0.5,-0.889350156402588,-0.001,-0.00825,-0.001,2.2408745172001243,10,1,100,3.108838797551393,-10,-1,-100,6437.424027140136,-0.2268586730597608,0.1292956741783477,0.9653070864218966,311.3787015077814,34.20286968979034,807.5346533196599,-31.067823176793873,-39.83294677734375,4381.2578125,True
1599564964.2024727,0.0,10,0.5,0.5,-0.800330435180664,-0.001,-0.00825,-0.001,2.350037374703847,10,1,100,3.108959823826803,-10,-1,-100,6436.177594941109,-0.2327391968566757,0.13801871320308126,0.962695850750524,324.2604315889324,35.75847893180494,852.0957231483973,-31.445779170582476,-51.23681640625,4381.2578125,True
1599564964.2558446,0.0,10,0.5,0.5,-0.7051466804504395,-0.001,-0.00825,-0.001,2.449150958643942,10,1,100,3.102424292878749,-10,-1,-100,6434.937401676085,-0.23795039586243813,0.14678593062209655,0.9601216067146463,328.3369871940386,36.29350845742596,874.1324195676368,-31.82355962942992,-62.9293212890625,4381.2578125,True
1599564964.3126903,0.0,10,0.5,0.5,-0.5865819664001465,-0.001,-0.00825,-0.001,3.4740632813633967,10,1,100,3.5269378311375057,-10,-1,-100,6432.310456437175,-0.24648036379394545,0.16400822117110297,0.9551694790205009,309.81921725766995,34.29496400868165,846.5646321445976,-32.580620664136056,-87.1053466796875,4381.2578125,True
1599564964.3684232,0.0,10,0.5,0.5,-0.5165039573669433,-0.001,-0.00825,-0.001,1.7601845967489904,10,1,100,2.681166744612124,-10,-1,-100,6432.310456437175,-0.24648036379394545,0.16400822117110297,0.9551694790205009,309.81921725766995,34.29496400868165,846.5646321445976,-32.580620664136056,-87.1053466796875,4381.2578125,True
1599564964.4202855,0.0,10,0.5,0.5,-0.40127636108398435,-0.001,-0.00825,-0.001,2.6764979935077804,10,1,100,3.066180611773322,-10,-1,-100,6430.99686713994,-0.24991910055991734,0.17226515912092116,0.9528195831994457,286.43217545680585,31.75835821780815,792.9067541990071,-32.96036960240119,-99.53630828857422,4381.2578125,True
1599564964.4831154,0.0,10,0.5,0.5,-0.2743151750564576,-0.001,-0.00825,-0.001,3.557003356931723,10,1,100,3.3522243597873294,-10,-1,-100,6428.324007668765,-0.2555935314582964,0.18770435680753453,0.9483875901297669,316.15557274098853,35.442567209478206,897.7912557916261,-33.7186023786046,-124.93486022949219,4381.2578125,True
1599564964.538968,0.0,10,0.5,0.5,-0.17691011943817136,-0.001,-0.00825,-0.001,2.8011817410427917,10,1,100,3.060150193927642,-10,-1,-100,6426.947199795162,-0.2580511800802464,0.19479321895959173,0.9462902251986717,339.9598965344439,38.356080926286715,977.4142763292236,-34.09571645181308,-137.8465576171875,4381.2578125,True
1599564964.5903466,0.0,10,0.5,0.5,-0.06048417644500731,-0.001,-0.00825,-0.001,2.832191196302383,10,1,100,3.07908891465818,-10,-1,-100,6425.574621656444,-0.26041324682858474,0.20144100085596992,0.9442491535873039,353.80769211271394,40.108595409061415,1029.737707460936,-34.47219122835541,-150.85438537597656,4381.2578125,True
1599564964.6471953,0.0,10,0.5,0.5,0.03619050960540772,-0.001,-0.00825,-0.001,2.176314896570337,10,1,100,2.847612012865416,-10,-1,-100,6425.574621656444,-0.26041324682858474,0.20144100085596992,0.9442491535873039,353.80769211271394,40.108595409061415,1029.737707460936,-34.47219122835541,-150.85438537597656,4381.2578125,True
1599564964.7050407,0.0,10,0.5,0.5,0.17618640308380126,-0.001,-0.00825,-0.001,3.1946032243649434,10,1,100,3.250217615261879,-10,-1,-100,6423.485820918111,-0.26403683971098285,0.21062479236606693,0.9412341600878009,352.0214827936928,40.04465399926135,1043.495385443782,-35.03746901832302,-170.47293090820312,4381.2578125,True
1599564965.3154092,0.0,10,0.5,0.5,-0.4294488637924194,-0.001,-0.00825,-0.001,2.9082821709052022,10,1,100,3.1807206494834857,-10,-1,-100,6422.112697107135,-0.2666654261273128,0.21629683950907774,0.9392045718195386,334.69774031615304,38.13702576826419,1004.4569093133513,-35.415482651991574,176.42442321777344,4381.2578125,True
1599564965.3872192,0.0,10,0.5,0.5,-0.25727751941680915,-0.001,-0.00825,-0.001,2.649293485735563,10,1,100,3.076624108291723,-10,-1,-100,6421.394695967319,-0.26807787592289617,0.21902764147726722,0.9381690384517996,322.14330157093895,36.75834206536637,972.7790636401436,-35.60485933470793,169.87716674804688,4381.2578125,True
1599564965.450049,0.0,10,0.5,0.5,-0.40357689609527586,-0.001,-0.00825,-0.001,3.541850315112147,10,1,100,3.6519545195878713,-10,-1,-100,6418.461881880532,-0.27456480903970015,0.2295586674328128,0.9337649510682355,335.13301800469054,38.77005473192553,1036.896118916658,-36.36141856286177,143.72055053710938,4381.2578125,True
1599564965.5084054,0.0,10,0.5,0.5,-0.607006247138977,-0.001,-0.00825,-0.001,2.7820320189326844,10,1,100,3.2097129340836323,-10,-1,-100,6417.74772558338,-0.2764161116001691,0.2321652970214394,0.9325735403209711,349.5998846511466,40.62499154614782,1088.0520856524101,-36.54952569509671,137.1412353515625,4381.2578125,True
1599564965.5782237,0.0,10,0.5,0.5,-0.7588544038772583,-0.001,-0.00825,-0.001,3.407982418138032,10,1,100,3.6985311795931013,-10,-1,-100,6415.52694337233,-0.28251570184358493,0.24016345748037551,0.9287122223287999,378.1465393792671,44.43937846176971,1197.5325580387535,-37.11230005664717,117.27394104003906,4381.2578125,True
1599564965.6360695,0.0,10,0.5,0.5,-0.9575901538848877,-0.001,-0.00825,-0.001,2.614956202080366,10,1,100,3.091831815379885,-10,-1,-100,6415.52694337233,-0.28251570184358493,0.24016345748037551,0.9287122223287999,378.1465393792671,44.43937846176971,1197.5325580387535,-37.11230005664717,117.27394104003906,4381.2578125,True
1599564965.693957,0.0,10,0.5,0.5,-1.1305936893463135,-0.001,-0.00825,-0.001,3.2386959127813264,10,1,100,3.586357432161539,-10,-1,-100,6414.034471888095,-0.28698691456852243,0.24578612839522712,0.9258659135938231,380.52401126620236,44.918178540904385,1219.0442391037468,-37.487395767896,103.86457824707031,4381.2578125,True
1599564965.7607775,0.0,10,0.5,0.5,-1.30244232711792,-0.001,-0.00825,-0.001,3.6851770033718685,10,1,100,3.9279502981192103,-10,-1,-100,6411.7540379865095,-0.29413073788672783,0.2549102092237011,0.9211448823413926,356.3897889516701,42.24977125354993,1161.9387273293382,-38.051863888510496,83.37837219238281,4381.2578125,True
1599564965.817626,0.0,10,0.5,0.5,-1.5022634536743165,-0.001,-0.00825,-0.001,3.1378466116865154,10,1,100,3.486547226792931,-10,-1,-100,6410.971939724986,-0.29658171526298643,0.25818048895393086,0.919446638633898,341.64778944192227,40.581482938828714,1120.4684490612312,-38.24062199519506,76.42481994628906,4381.2578125,True
1599564965.8794649,0.0,10,0.5,0.5,-1.6684862968444822,-0.001,-0.00825,-0.001,3.5799654255693816,10,1,100,3.786291597342406,-10,-1,-100,6409.485896993661,-0.3015019449114582,0.26512115111844037,0.9158642652949406,316.9199340059593,37.90179072374246,1051.6078359765952,-38.6184370295825,62.306793212890625,4381.2578125,True
1599564965.9373116,0.0,10,0.5,0.5,-1.8458356452941895,-0.001,-0.00825,-0.001,3.7175275222792328,10,1,100,3.829961817200771,-10,-1,-100,6407.9262967556715,-0.30633782376769,0.27263186636649095,0.9120466014249489,361.75939804813214,43.69896055380305,1214.142544323119,-38.99426574845095,47.90081787109375,4381.2578125,True
1599564965.9906778,0.0,10,0.5,0.5,-1.7248178005218509,-0.001,-0.00825,-0.001,3.8626034590838483,10,1,100,3.8579141429173314,-10,-1,-100,6406.368258178583,-0.31095212350928725,0.28072744781125397,0.9080203064526942,394.38647957769814,48.106862471653855,1338.453224739262,-39.36829553449455,33.20489501953125,4381.2578125,True
1599564966.0485244,0.0,10,0.5,0.5,-1.5815868579864503,-0.001,-0.00825,-0.001,4.509849684930722,10,1,100,4.083391922904475,-10,-1,-100,6403.973692473024,-0.3171577628673621,0.29391503317207013,0.9016789377203124,413.81928203160487,50.97044591069802,1427.9784566604885,-39.92855630968554,10.6187744140625,4381.2578125,True
1599564966.1059182,0.0,10,0.5,0.5,-1.4635300289154054,-0.001,-0.00825,-0.001,4.231165922870238,10,1,100,3.8499800165026694,-10,-1,-100,6402.360898865154,-0.320638605903934,0.30331175260340837,0.8973253953481037,402.02005596094654,49.71560010123247,1403.1199961508719,-40.30324760082481,-4.7982177734375,4381.2578125,True
1599564966.1672692,0.0,10,0.5,0.5,-1.3462152584075928,-0.001,-0.00825,-0.001,3.831773467550252,10,1,100,3.671948965917731,-10,-1,-100,6401.511334322044,-0.32214434230067834,0.3081587057148233,0.8951319650285249,387.59571427266394,48.04172328821854,1360.5985125276354,-40.491157985718345,-12.61407470703125,4381.2578125,True
1599564966.235087,0.0,10,0.5,0.5,-1.2151814857482912,-0.001,-0.00825,-0.001,4.44592519832235,10,1,100,3.7994542315547006,-10,-1,-100,6399.894713176996,-0.32463630631218465,0.3180864104156428,0.8907481709960862,345.9393701937547,43.204180287393015,1228.4171955200904,-40.867752928759515,-28.4600830078125,4381.2578125,True
1599564966.2958934,0.0,10,0.5,0.5,-1.0621868167877198,-0.001,-0.00825,-0.001,5.137277437572772,10,1,100,3.813795700910027,-10,-1,-100,6397.442354395869,-0.32699381367635827,0.3333257778159959,0.8842900947430951,406.92131394861224,51.784897705099134,1468.9959290594195,-41.42878937687546,-52.76513671875,4381.2578125,True
1599564966.3547344,0.0,10,0.5,0.5,-0.9073843551635742,-0.001,-0.00825,-0.001,5.2963893079147155,10,1,100,3.6588486432163014,-10,-1,-100,6394.9300258142175,-0.327692022665566,0.348546638229043,0.8781418901638747,440.90410887071056,57.001631866958746,1617.3064138644654,-41.986110923282126,-77.70913696289062,4381.2578125,True
1599564966.4110901,0.0,10,0.5,0.5,-0.7994311603546143,-0.001,-0.00825,-0.001,3.78366690951054,10,1,100,3.5923838727734108,-10,-1,-100,6394.9300258142175,-0.327692022665566,0.348546638229043,0.8781418901638747,440.90410887071056,57.001631866958746,1617.3064138644654,-41.986110923282126,-77.70913696289062,4381.2578125,True
1599564966.4799058,0.0,10,0.5,0.5,-0.621130707550049,-0.001,-0.00825,-0.001,5.411297273891302,10,1,100,3.5102802013024674,-10,-1,-100,6392.402701944578,-0.3269173435545551,0.3632611268604362,0.8724485109135778,417.9714504514945,54.5465399227448,1558.6121622658231,-42.54534630834101,-103.27910614013672,4381.2578125,True
1599564966.547724,0.0,10,0.5,0.5,-0.49278513507843014,-0.001,-0.00825,-0.001,4.469072332539337,10,1,100,3.532786531386151,-10,-1,-100,6391.499711094308,-0.32639458791017584,0.36798303526237397,0.8706635737999133,395.98549884935494,51.85846139383376,1484.9210241740432,-42.73267427471385,-111.93269348144531,4381.2578125,True
1599564966.6040907,0.0,10,0.5,0.5,-0.29926897716522216,-0.001,-0.00825,-0.001,5.960674771533508,10,1,100,3.263771204989604,-10,-1,-100,6388.077163743903,-0.32345552820791473,0.3857490185559954,0.86404526267715,420.8035817170316,56.507506745252584,1612.209972641229,-43.4793236042107,-147.08624267578125,4381.2578125,True
1599564966.6609385,0.0,10,0.5,0.5,-0.1856823377609253,-0.001,-0.00825,-0.001,4.194578599245838,10,1,100,3.558927515685577,-10,-1,-100,6388.077163743903,-0.32345552820791473,0.3857490185559954,0.86404526267715,420.8035817170316,56.507506745252584,1612.209972641229,-43.4793236042107,-147.08624267578125,4381.2578125,True
1599564966.7217758,0.0,10,0.5,0.5,-0.0020196073532104605,-0.001,-0.00825,-0.001,5.534638064306428,10,1,100,3.2800233260091822,-10,-1,-100,6385.431787233334,-0.3209143103332743,0.3978478918880154,0.8594946540517753,461.40867589097024,63.01967276017354,1795.3449289500124,-44.034262097187366,-173.86428833007812,4381.2578125,True
1599564966.7806184,0.0,10,0.5,0.5,-0.5734013051986694,-0.001,-0.00825,-0.001,5.166130389122305,10,1,100,3.35937428615079,-10,-1,-100,6383.686982346,-0.3193252339899527,0.4054108559251919,0.8565473908869639,450.77544382105043,62.03472649176672,1772.9515842035735,-44.40551403185587,168.1772918701172,4381.2578125,True
1599564966.838465,0.0,10,0.5,0.5,-0.32653506336212157,-0.001,-0.00825,-0.001,5.614583755933601,10,1,100,3.2990883418252244,-10,-1,-100,6380.9793650978245,-0.31733512791880136,0.4162747155207183,0.8520644211601041,375.6160930106793,52.49487701987155,1501.8722973878416,-44.965709980794315,141.1885223388672,4381.2578125,True
1599564966.9022934,0.0,10,0.5,0.5,-0.4573495328903198,-0.001,-0.00825,-0.001,5.323484606714866,10,1,100,3.385007719799007,-10,-1,-100,6379.141870317864,-0.31631366327060123,0.42341533351911287,0.8489199737132065,430.78648980981444,61.18048065346525,1740.2619224646633,-45.336514105500186,123.12132263183594,4381.2578125,True
1599564966.959141,0.0,10,0.5,0.5,-0.5841814172744751,-0.001,-0.00825,-0.001,5.413291715855872,10,1,100,3.3976018540136548,-10,-1,-100,6377.305930066039,-0.3155092604018304,0.4306413330955688,0.8455778786311534,469.25921212356434,67.64576313225395,1914.5519971971241,-45.70469461724372,104.95050048828125,4381.2578125,True
1599564967.0169857,0.0,10,0.5,0.5,-0.7164987413406372,-0.001,-0.00825,-0.001,5.517526222939249,10,1,100,3.402469784123006,-10,-1,-100,6375.4067074706545,-0.3148333142150908,0.4380833785068626,0.8419993692018746,478.10553505347247,69.67605775254931,1970.4651487811268,-46.072965878802584,86.67665100097656,4381.2578125,True
1599564967.0738347,0.0,10,0.5,0.5,-0.852020168876648,-0.001,-0.00825,-0.001,5.203857755020684,10,1,100,3.4329471855943607,-10,-1,-100,6374.49276652257,-0.31450757470274937,0.44191594577216287,0.8401162314387751,469.1169105392565,68.66679386949731,1943.5952159976512,-46.257804018471916,77.49130249023438,4381.2578125,True
1599564967.1406918,0.0,10,0.5,0.5,-0.9918967990875245,-0.001,-0.00825,-0.001,5.259739576896086,10,1,100,3.426769366188936,-10,-1,-100,6373.528715288849,-0.3141665674868004,0.4458366100132016,0.8381700812159179,450.64165041915584,66.25593522643517,1877.0819518816575,-46.44325002214496,68.26914978027344,4381.2578125,True
1599564967.1875298,0.0,10,0.5,0.5,-1.0750477710723878,-0.001,-0.00825,-0.001,6.71061500078205,10,1,100,3.2489680429793166,-10,-1,-100,6369.79532499623,-0.31225130164350784,0.46251985083606295,0.829803899848947,438.3676551962298,66.29148169584569,1864.0671740663824,-47.18506852227472,30.900299072265625,4381.2578125,True
1599564967.248368,0.0,10,0.5,0.5,-1.2211994274139406,-0.001,-0.00825,-0.001,6.0323787353655085,10,1,100,3.267609303998161,-10,-1,-100,6367.867432817351,-0.31068980254665357,0.47145085750553195,0.8253520070556684,485.656953528856,74.58191169594194,2085.10016137313,-47.551601149934854,11.87225341796875,4381.2578125,True
1599564967.3062134,0.0,10,0.5,0.5,-1.3713682323455814,-0.001,-0.00825,-0.001,5.147848252313562,10,1,100,3.422482641117462,-10,-1,-100,6367.867432817351,-0.31068980254665357,0.47145085750553195,0.8253520070556684,485.656953528856,74.58191169594194,2085.10016137313,-47.551601149934854,11.87225341796875,4381.2578125,True
1599564967.3670566,0.0,10,0.5,0.5,-1.4468807865142823,-0.001,-0.00825,-0.001,7.209452042247486,10,1,100,2.8719674695280917,-10,-1,-100,6364.076096253819,-0.30569441417564713,0.49012579835436987,0.8162889359346356,472.061711028803,74.11181656477876,2068.896960519544,-48.28714095895161,-26.98779296875,4381.2578125,True
1599564967.41792,0.0,10,0.5,0.5,-1.2850558097839357,-0.001,-0.00825,-0.001,6.395404749872155,10,1,100,2.974266724750676,-10,-1,-100,6362.087126357714,-0.3020955369038596,0.49962557379314754,0.8118574829332035,405.3616610419283,64.5634656533418,1795.4035249141139,-48.65779788706237,-46.82470703125,4381.2578125,True
1599564967.485741,0.0,10,0.5,0.5,-1.1095639141082765,-0.001,-0.00825,-0.001,6.489816188135628,10,1,100,2.8524179265456047,-10,-1,-100,6360.160634913715,-0.2977299681194748,0.5090442455778202,0.8076080869627821,472.4565633013356,76.66240841362325,2112.7022009366074,-49.024441172677776,-66.93365478515625,4381.2578125,True
1599564967.5445828,0.0,10,0.5,0.5,-0.9321185943603516,-0.001,-0.00825,-0.001,6.565268200051454,10,1,100,2.7291105986139645,-10,-1,-100,6358.16991251579,-0.29265718778442923,0.5182147573885223,0.8036200816697306,512.7716949230767,84.58256039725867,2314.3302645168324,-49.388383129361614,-87.3131103515625,4381.2578125,True
1599564967.6204586,0.0,10,0.5,0.5,-0.7525878158569336,-0.001,-0.00825,-0.001,6.622112096478769,10,1,100,2.6097209998491078,-10,-1,-100,6356.1811705419095,-0.28698098392072313,0.5269887367982334,0.7999529899660953,511.45696239210804,85.42281036477895,2331.226495078341,-49.75341198367102,-107.95948791503906,4381.2578125,True
1599564967.6927767,0.0,10,0.5,0.5,-0.5708584144592287,-0.001,-0.00825,-0.001,6.662166116086752,10,1,100,2.501081025398843,-10,-1,-100,6354.190416154219,-0.2808584827589828,0.5352483861141422,0.7966352225608206,457.92195974979296,77.4381987922273,2109.0804315697615,-50.12134033067574,-128.85997009277344,4381.2578125,True
1599564967.762559,0.0,10,0.5,0.5,-0.4215190967559815,-0.001,-0.00825,-0.001,5.845534428530078,10,1,100,3.1099662323785013,-10,-1,-100,6354.190416154219,-0.2808584827589828,0.5352483861141422,0.7966352225608206,457.92195974979296,77.4381987922273,2109.0804315697615,-50.12134033067574,-128.85997009277344,4381.2578125,True
1599564967.8742983,0.0,10,0.5,0.5,-0.19533090171813966,-0.001,-0.00825,-0.001,7.101562150759104,10,1,100,2.0466403836813396,-10,-1,-100,6351.1700475026155,-0.2712221642114884,0.5465855365197688,0.7922643428224148,478.08048560903103,83.02242636498103,2233.5651298017506,-50.67116272404562,-160.6383056640625,4381.2578125,True
1599564967.945073,0.0,10,0.5,0.5,-0.7248578937530518,-0.001,-0.00825,-0.001,7.090766469550127,10,1,100,1.948711426068713,-10,-1,-100,6348.087085866253,-0.2616089105876806,0.5567174709814535,0.7884328984797258,531.5447250017162,94.46306542605645,2517.836484840044,-51.21498666467886,167.24569702148438,4381.2578125,True
1599564968.0118935,0.0,10,0.5,0.5,-0.5036443477630616,-0.001,-0.00825,-0.001,6.4335712183424345,10,1,100,2.562372642890196,-10,-1,-100,6347.058420332265,-0.2584929464389224,0.5598763031052097,0.7872229175161045,523.5570861045624,93.6386812104571,2492.5286076616735,-51.39721555392513,156.4893798828125,4381.2578125,True
1599564968.0807085,0.0,10,0.5,0.5,-0.6121702434539795,-0.001,-0.00825,-0.001,6.465137616020936,10,1,100,2.5326886832781357,-10,-1,-100,6346.030700271134,-0.25543784926731233,0.5629545491551566,0.7860239695754858,500.9602738301966,90.20217768309844,2397.3920122363147,-51.58022676723768,145.7196044921875,4381.2578125,True
1599564968.1565065,0.0,10,0.5,0.5,-0.722243690109253,-0.001,-0.00825,-0.001,6.82480252650953,10,1,100,2.1810176888710116,-10,-1,-100,6343.972904958762,-0.2495091669484278,0.5689564277042767,0.7836030621320274,424.40923277427953,77.73300499284467,2051.5749929213107,-51.94753455316014,124.129638671875,4381.2578125,True
1599564968.2133534,0.0,10,0.5,0.5,-0.819627430343628,-0.001,-0.00825,-0.001,7.2119224225849345,10,1,100,1.830435718875377,-10,-1,-100,6340.827178836684,-0.24098015272216833,0.577868924664243,0.7797410287405632,527.6846121684291,99.45298318852076,2584.2730132335146,-52.4898124061666,91.50785827636719,4381.2578125,True
1599564968.2751884,0.0,10,0.5,0.5,-0.9391042366027833,-0.001,-0.00825,-0.001,6.994332545093866,10,1,100,2.061874674364181,-10,-1,-100,6338.708151783794,-0.23538208467128274,0.5839305369423968,0.7769301141299423,538.5797263110398,103.00913819571285,2661.8786457439364,-52.850729570258835,69.5782470703125,4381.2578125,True
1599564968.3340323,0.0,10,0.5,0.5,-1.0684106849670412,-0.001,-0.00825,-0.001,6.735284113692165,10,1,100,2.304394330425379,-10,-1,-100,6337.679881911376,-0.2325497243193187,0.5870263662011086,0.7754486901811949,521.1659970668079,100.35596979436279,2588.6357527233254,-53.03240971487466,58.548980712890625,4381.2578125,True
1599564968.3878877,0.0,10,0.5,0.5,-1.1275291034698485,-0.001,-0.00825,-0.001,7.848320912018077,10,1,100,1.2527388264015409,-10,-1,-100,6333.384123027441,-0.22046382965331776,0.599904693121625,0.7690969113091288,494.71746181987874,98.66864641101749,2503.4453082035966,-53.76008399248657,13.9088134765625,4381.2578125,True
1599564968.4507554,0.0,10,0.5,0.5,-1.2445832778930666,-0.001,-0.00825,-0.001,7.297995291622966,10,1,100,1.7117015633148318,-10,-1,-100,6331.206719771959,-0.21370394543171561,0.6065505244030411,0.7657852734633347,547.1796587831757,110.99987959245175,2792.3018259761934,-54.11870523492867,-8.77630615234375,4381.2578125,True
1599564968.5105586,0.0,10,0.5,0.5,-1.34345863609314,-0.001,-0.00825,-0.001,7.006656890997531,10,1,100,1.9840573211829404,-10,-1,-100,6330.11751442973,-0.21009560715390307,0.6098788381638347,0.764138494393892,554.2424504029586,113.26197112366502,2841.398589942303,-54.29848655032609,-20.2156982421875,4381.2578125,True
1599564968.5704355,0.0,10,0.5,0.5,-1.4477391109466553,-0.001,-0.00825,-0.001,7.044061952964754,10,1,100,1.9238058913185834,-10,-1,-100,6329.028726921068,-0.20632312895444987,0.6131870845991272,0.7625171248826272,543.337289333135,111.8416422221228,2799.2252547816747,-54.47912515054703,-31.719482421875,4381.2578125,True
1599564968.6262503,0.0,10,0.5,0.5,-1.2486954380035402,-0.001,-0.00825,-0.001,7.4318453149429065,10,1,100,1.4096051261006122,-10,-1,-100,6326.849304134259,-0.19826931070899562,0.6196685486368148,0.7594077760079385,471.65991195545246,98.7430371866823,2454.371415155798,-54.84270275753975,-54.920074462890625,4381.2578125,True
1599564968.6841345,0.0,10,0.5,0.5,-1.0269065547943117,-0.001,-0.00825,-0.001,7.791023783890211,10,1,100,0.7463151252152405,-10,-1,-100,6323.5198358534835,-0.1849724974193792,0.6287716908928411,0.7552690487039669,540.4077404928279,116.54095844167173,2846.9087728313293,-55.38112448624711,-90.20841217041016,4381.2578125,True
1599564968.7479644,0.0,10,0.5,0.5,-0.8198550142288209,-0.001,-0.00825,-0.001,7.4847846887154335,10,1,100,1.0259425357908611,-10,-1,-100,6321.2784337085905,-0.17549061211754988,0.6342034492224238,0.7529867396262621,564.0691342389009,123.61040815413631,2996.724502281654,-55.7378493225063,-114.05804443359375,4381.2578125,True
1599564968.8137865,0.0,10,0.5,0.5,-0.5746912324905395,-0.001,-0.00825,-0.001,7.720234041323693,10,1,100,0.3561148100841409,-10,-1,-100,6317.943969667191,-0.16084866302294473,0.6412225445261939,0.7503075076227642,462.58849248084664,103.90722838948004,2493.0229734902064,-56.27970915324846,-150.3123321533203,4381.2578125,True
1599564968.8726325,0.0,10,0.5,0.5,-0.41144386310577397,-0.001,-0.00825,-0.001,7.0246598729328795,10,1,100,1.8122965705747331,-10,-1,-100,6317.943969667191,-0.16084866302294473,0.6412225445261939,0.7503075076227642,462.58849248084664,103.90722838948004,2493.0229734902064,-56.27970915324846,-150.3123321533203,4381.2578125,True
1599564968.9304757,0.0,10,0.5,0.5,-0.8518262495040894,-0.001,-0.00825,-0.001,7.839582239349669,10,1,100,-0.33604513982240736,-10,-1,-100,6313.390605313587,-0.14138604149356013,0.6485788460321794,0.7479007071465755,568.9976641485171,132.49044718541236,3115.0218687730635,-56.992627440205766,160.58372497558594,4381.2578125,True
1599564969.3903794,0.0,10,0.5,0.5,-0.6251088563919067,-0.001,-0.00825,-0.001,7.110107336734222,10,1,100,1.6011006448334775,-10,-1,-100,6313.390605313587,-0.14138604149356013,0.6485788460321794,0.7479007071465755,568.9976641485171,132.49044718541236,3115.0218687730635,-56.992627440205766,160.58372497558594,4381.2578125,True
1599564969.4452684,0.0,10,0.5,0.5,-0.696613918876648,-0.001,-0.00825,-0.001,7.435476605611397,10,1,100,0.5788618627710291,-10,-1,-100,6311.0816905106185,-0.13216485055495583,0.6514924992465987,0.7470541986383631,546.3754488851353,129.26164458375058,3019.214873680755,-57.350365657758985,135.83285522460938,4381.2578125,True
1599564969.4957058,0.0,10,0.5,0.5,-0.7908846624374389,-0.001,-0.00825,-0.001,7.465126694370082,10,1,100,0.4800186326651621,-10,-1,-100,6308.834379229229,-0.12295750133242292,0.6543699648167465,0.7461108510213595,454.2290988942317,109.54448628307695,2532.95414196689,-57.71098224183736,110.94151306152344,4381.2578125,True
1599564969.5545485,0.0,10,0.5,0.5,-0.8989697481155395,-0.001,-0.00825,-0.001,7.332500424574373,10,1,100,0.8981695649741862,-10,-1,-100,6307.618295227876,-0.11846777242913092,0.6557397027672354,0.7456345144307749,507.9574808891585,123.73488104584052,2843.029825206009,-57.88879630815018,98.43603515625,4381.2578125,True
1599564969.6054134,0.0,10,0.5,0.5,-0.9433000001907349,-0.001,-0.00825,-0.001,7.645327037013372,10,1,100,-0.14879191986521767,-10,-1,-100,6304.154195506824,-0.10494823752443937,0.659790113182427,0.744085259891119,575.2642031500959,143.7132093718279,3256.126603403931,-58.418572024242735,60.659271240234375,4381.2578125,True
1599564969.662262,0.0,10,0.5,0.5,-1.0510512453079224,-0.001,-0.00825,-0.001,7.395567576753083,10,1,100,0.6999400585582118,-10,-1,-100,6303.000000947504,-0.10045833384510054,0.6611652897715571,0.7434840837316956,558.6367311561937,140.65686149920944,3176.3105492520613,-58.59669123869228,47.97003173828125,4381.2578125,True
