Timestamp,Input Throttle,horizon,dT,dt,Input Roll,Roll P,Roll I,Roll D,Input Pitch,Pitch P,Pitch I,Pitch D,Input Yaw,Yaw P,Yaw I,Yaw D,Altitude,Direction X,Direction Y,Direction Z,Drag X,Drag Y,Drag Z,Vertical Velocity,Roll,Mass,Has Fuel
1599566244.2516778,0.0,10,0.5,0.5,-0.054864105224609376,-0.001,-0.03,-0.5,-0.06856430923685201,10,1,100,0.6815791859878315,-10,-1,-100,6483.617967202212,-0.06725748352832855,-0.007002634642188284,0.9977110774254763,205.0733253635879,21.49878845815046,-156.76531416099797,9.590823713292528,-35.944610595703125,4381.2578125,True
1599566244.3145099,0.0,10,0.5,0.5,-0.2178880920410156,-0.001,-0.03,-0.5,-0.0673543625816529,10,1,100,0.6998738387354041,-10,-1,-100,6483.9978827434825,-0.06744451312014024,-0.006971977848511477,0.9976986665195395,204.6121710661722,21.456744501622026,-150.26673152457195,9.210801336818632,-35.9412841796875,4381.2578125,True
1599566244.3800275,0.0,10,0.5,0.5,-0.37971591186523435,-0.001,-0.03,-0.5,-0.05215403360560556,10,1,100,0.7007105335656293,-10,-1,-100,6484.316760555259,-0.06756083314468006,-0.0067995850655243936,0.9976919862701782,204.1496689756805,21.414377316732985,-143.78948906273402,8.830797605461848,-35.93865966796875,4381.2578125,True
1599566244.4368417,0.0,10,0.5,0.5,-0.5393492431640625,-0.001,-0.03,-0.5,-0.052974017720745455,10,1,100,0.6982397709792548,-10,-1,-100,6484.538936496247,-0.06758269820425405,-0.006644137313796022,0.9976915527069417,203.93211451792027,21.39455199901425,-140.56872925564716,8.640800749934833,-35.941131591796875,4381.2578125,True
1599566244.4977205,0.0,10,0.5,0.5,-0.6209334411621094,-0.001,-0.03,-0.5,0.03686199976649707,10,1,100,0.6919501376094059,-10,-1,-100,6485.175625267555,-0.06748395822940974,-0.005680089982964574,0.9977041906093592,203.13833739705635,21.322596323111767,-127.7860382244491,7.8808250213618285,-36.104461669921875,4381.2578125,True
1599566244.5655766,0.0,10,0.5,0.5,-0.8102679748535155,-0.001,-0.03,-0.5,-0.018985205642265933,10,1,100,0.6976888458305146,-10,-1,-100,6485.335757831228,-0.06738501563771643,-0.005306221467758407,0.9977129365109184,202.96285720915046,21.306789081617598,-124.61614799397557,7.69082938649562,-36.2122802734375,4381.2578125,True
1599566244.6253812,0.0,10,0.5,0.5,-0.9529468078613281,-0.001,-0.03,-0.5,-0.00963303029890828,10,1,100,0.6998431743955594,-10,-1,-100,6485.49393116578,-0.06725339352709772,-0.004876497385842497,0.9977240103517281,202.7978695753374,21.29196207573307,-121.45654456166915,7.500831136264937,-36.357177734375,4381.2578125,True
1599566244.687216,0.0,10,0.5,0.5,-0.9768146362304686,-0.001,-0.03,-0.5,0.05688163937249554,10,1,100,0.6764790159429497,-10,-1,-100,6485.7501996645005,-0.06686019617375963,-0.003876727134919051,0.9977548221654094,202.49822236604248,21.265063346734287,-115.16568498759173,7.120822650796158,-36.775360107421875,4381.2578125,True
1599566244.7480543,0.0,10,0.5,0.5,-0.8287553100585936,-0.001,-0.03,-0.5,0.16817917524983889,10,1,100,0.6307951702588901,-10,-1,-100,6486.165073901764,-0.06602665434980286,-0.001952525010526507,0.9978159492418704,202.10754611249044,21.22956808575628,-105.78463829248832,6.550764399238574,-37.80694580078125,4381.2578125,True
1599566244.8138773,0.0,10,0.5,0.5,-0.6825531311035156,-0.001,-0.03,-0.5,0.23480704116512224,10,1,100,0.588313354005807,-10,-1,-100,6486.517887817929,-0.06482266649449613,0.00040423254270613326,0.9978967173533514,201.72167431330485,21.192574133357517,-96.43013308758522,5.980624236843163,-39.440826416015625,4381.2578125,True
1599566244.8737173,0.0,10,0.5,0.5,-1.651170959472656,-0.001,-0.03,-0.5,-0.0008282909038711756,10,1,100,0.7151944061859298,-10,-1,-100,6486.517887817929,-0.06482266649449613,0.00040423254270613326,0.9978967173533514,201.72167431330485,21.192574133357517,-96.43013308758522,5.980624236843163,-39.440826416015625,4381.2578125,True
1599566244.9335577,0.0,10,0.5,0.5,-0.9272679748535155,-0.001,-0.03,-0.5,0.19347121140740248,10,1,100,0.6009119808630565,-10,-1,-100,6486.772113083396,-0.06378594882522803,0.0021638581390041717,0.9979612569886768,201.38722285626974,21.158473635759734,-90.17256612873305,5.600469531915719,-40.86480712890625,4381.2578125,True
1599566244.9924004,0.0,10,0.5,0.5,-0.798330078125,-0.001,-0.03,-0.5,0.22625601669549478,10,1,100,0.5688918931629352,-10,-1,-100,6486.965282156016,-0.06255571247797859,0.004053256150996395,0.9980332429087455,200.9120942195093,21.10847995227364,-83.87166872389211,5.220252814552001,-42.513824462890625,4381.2578125,True
1599566245.0552654,0.0,10,0.5,0.5,-0.1226802673339844,-0.001,-0.03,-0.5,0.3890774924002149,10,1,100,0.4505934417832639,-10,-1,-100,6487.254518791917,-0.06036642544126999,0.007241219721744489,0.9981500184924033,199.77700488083659,20.98715259048556,-74.30808588458684,4.649781232908321,-45.468780517578125,4381.2578125,True
1599566245.1170657,0.0,10,0.5,0.5,-1.0087759704589843,-0.001,-0.03,-0.5,0.19215018356596034,10,1,100,0.5762539272357194,-10,-1,-100,6487.352064355859,-0.05952509279634175,0.008336497108444496,0.9981919986373102,199.239480690087,20.929503686493046,-71.08393687835722,4.459576531134671,-46.592132568359375,4381.2578125,True
1599566245.1808977,0.0,10,0.5,0.5,-0.32038537597656247,-0.001,-0.03,-0.5,0.3340707759042053,10,1,100,0.45773767365888496,-10,-1,-100,6487.5442176871,-0.05769005978246583,0.010609648674799995,0.9982781638187288,197.84227474806002,20.779672090624892,-64.5757210741747,4.07908309599676,-49.02447509765625,4381.2578125,True
1599566245.24177,0.0,10,0.5,0.5,0.46236657714843776,-0.001,-0.03,-0.5,0.4903485959324859,10,1,100,0.2920871311455261,-10,-1,-100,6487.77090845257,-0.05452474752505287,0.014082388580705218,0.9984131100096751,194.8353678246683,20.457890877137906,-54.707318008555646,3.508094235451208,-52.9376220703125,4381.2578125,True
1599566245.3005762,0.0,10,0.5,0.5,-0.7387417602539064,-0.001,-0.03,-0.5,0.2774911685206579,10,1,100,0.4790920826090222,-10,-1,-100,6487.8054552136455,-0.053358807437074725,0.015287121985996487,0.9984583824928701,193.56337378347402,20.32211961456824,-51.40463243345884,3.317687364343075,-54.34625244140625,4381.2578125,True
1599566245.3614137,0.0,10,0.5,0.5,0.07687875366210939,-0.001,-0.03,-0.5,0.41485642425372493,10,1,100,0.32001668222748914,-10,-1,-100,6487.935094069457,-0.05086499588884128,0.01761368754372469,0.9985502041481642,190.5207729113595,19.99819914774319,-44.79427529656398,2.936740137561264,-57.27484130859375,4381.2578125,True
1599566245.439205,0.0,10,0.5,0.5,0.13316555786132822,-0.001,-0.03,-0.5,0.43057325747910286,10,1,100,0.2726486621444139,-10,-1,-100,6488.004187672283,-0.04818105944283834,0.0198538399777499,0.9986412822175454,187.00890687287438,19.625298709663905,-38.26809113670601,2.5556014182798514,-60.193359375,4381.2578125,True
1599566245.5070555,0.0,10,0.5,0.5,0.9945170288085938,-0.001,-0.03,-0.5,0.5810375201894153,10,1,100,0.05112191134263483,-10,-1,-100,6488.167409590329,-0.043742366400139183,0.02324051766292562,0.998772488467957,180.82187106302436,18.97104024585384,-28.72498758872812,1.9835107318216467,-64.7010498046875,4381.2578125,True
1599566245.5917978,0.0,10,0.5,0.5,0.3450009155273437,-0.001,-0.03,-0.5,0.47512261168495384,10,1,100,0.14377187961380306,-10,-1,-100,6488.23408227216,-0.0405686272547818,0.025335692494753696,0.998855489632246,175.924524940641,18.456002571833015,-22.57228079240299,1.6018314680972843,-67.75204467773438,4381.2578125,True
1599566245.6616113,0.0,10,0.5,0.5,1.0991802978515626,-0.001,-0.03,-0.5,0.5808707098187795,10,1,100,-0.09204721024122364,-10,-1,-100,6488.27381509915,-0.03556070659811162,0.028180677930036046,0.9989701124346247,167.9108529655929,17.61609433504744,-13.841477101846385,1.0289385951343264,-72.14129638671875,4381.2578125,True
1599566245.7304306,0.0,10,0.5,0.5,0.34545495605468757,-0.001,-0.03,-0.5,0.4896607815912577,10,1,100,0.019551407754696437,-10,-1,-100,6488.341502663097,-0.032047125260992425,0.029915913140243403,0.9990385477565376,162.5755264626458,17.057497248882527,-8.425997169501894,0.6468444958516386,-74.83993530273438,4381.2578125,True
1599566246.3713691,0.0,10,0.5,0.5,-0.9157510375976562,-0.001,-0.03,-0.5,0.31840472991237195,10,1,100,0.36807761144858825,-10,-1,-100,6488.341502663097,-0.032047125260992425,0.029915913140243403,0.9990385477565376,162.5755264626458,17.057497248882527,-8.425997169501894,0.6468444958516386,-74.83993530273438,4381.2578125,True
1599566246.4411848,0.0,10,0.5,0.5,0.41575888061523436,-0.001,-0.03,-0.5,0.4813719434780134,10,1,100,-0.020934559784446582,-10,-1,-100,6488.345732268412,-0.028535630947542426,0.031377815612629416,0.9991001703802306,157.26053942801892,16.50080670581435,-3.33556397755468,0.2646872067387873,-77.3284912109375,4381.2578125,True
1599566246.5090024,0.0,10,0.5,0.5,1.6049680786132812,-0.001,-0.03,-0.5,0.6144543690254993,10,1,100,-0.4886794291141286,-10,-1,-100,6488.355713277939,-0.021117641331258884,0.033897777940741274,0.9992021746750176,147.1659271099609,15.442167125305392,5.893653084976318,-0.49964848375952453,-82.01626586914062,4381.2578125,True
1599566246.579812,0.0,10,0.5,0.5,-0.04006518554687499,-0.001,-0.03,-0.5,0.41704159454501577,10,1,100,0.048343621123977165,-10,-1,-100,6488.328314056853,-0.019286412233341894,0.034375977207965806,0.9992228612747823,144.90209302012215,15.204518846494766,8.022510861961747,-0.6907163168571402,-83.237060546875,4381.2578125,True
1599566246.6516213,0.0,10,0.5,0.5,0.6168501586914064,-0.001,-0.03,-0.5,0.46132049524024415,10,1,100,-0.17225724071808096,-10,-1,-100,6488.269138369011,-0.01564717103231113,0.03519588577065203,0.9992579324996648,143.2556106971746,15.031507480860423,12.320277213301356,-1.0728200404287218,-85.5936279296875,4381.2578125,True
1599566246.7184439,0.0,10,0.5,0.5,1.1314992065429688,-0.001,-0.03,-0.5,0.4844545376359698,10,1,100,-0.4243396081532007,-10,-1,-100,6488.1840759051265,-0.010079128259106195,0.03613558285103072,0.9992960676524013,149.0222845730487,15.636026379360215,19.665761531963867,-1.6459092443328476,-88.80316162109375,4381.2578125,True
1599566246.7822723,0.0,10,0.5,0.5,0.12730685424804694,-0.001,-0.03,-0.5,0.41451239831754755,10,1,100,-0.06842647939783153,-10,-1,-100,6488.154754180345,-0.008287483209590274,0.03633921370950452,0.9993051481749835,150.77100725138592,15.819245518734366,22.206962946627097,-1.836931510587984,-89.83059692382812,4381.2578125,True
1599566246.8411174,0.0,10,0.5,0.5,0.6493985748291016,-0.001,-0.03,-0.5,0.4252395482364568,10,1,100,-0.2782151508404236,-10,-1,-100,6488.096614153357,-0.0047837769543618265,0.0366099443109739,0.9993181812894221,153.89752124801737,16.14674462279217,27.385171382386282,-2.2189870006722083,-91.74760437011719,4381.2578125,True
1599566246.9009535,0.0,10,0.5,0.5,0.6089306030273438,-0.001,-0.03,-0.5,0.41084919967202704,10,1,100,-0.3137266215123488,-10,-1,-100,6487.975990899256,-0.0013082895801370265,0.03671499236916377,0.9993249209910191,156.4545945116987,16.414723343926926,32.63807217180826,-2.601084156712395,-93.43632507324219,4381.2578125,True
1599566246.9617927,0.0,10,0.5,0.5,0.621981819152832,-0.001,-0.03,-0.5,0.3940131827095518,10,1,100,-0.34115472957525317,-10,-1,-100,6487.855382213369,0.002069452272441036,0.03664967743655104,0.9993260321392057,158.66984734754388,16.647411634263445,37.968338676585454,-2.983254727681235,-95.02021026611328,4381.2578125,True
1599566247.0381672,0.0,10,0.5,0.5,0.25691565704345704,-0.001,-0.03,-0.5,0.390949647283228,10,1,100,-0.18588140932037941,-10,-1,-100,6487.763589703478,0.0036975359747100285,0.03655632829912169,0.9993247535656277,159.79721509886332,16.766147015943265,40.6905103414533,-3.1743766543248864,-95.75141906738281,4381.2578125,True
1599566247.0990038,0.0,10,0.5,0.5,0.9200852584838867,-0.001,-0.03,-0.5,0.34639945859269883,10,1,100,-0.5455410041946832,-10,-1,-100,6487.551703282632,0.008414749601779417,0.03606042699049122,0.9993141836251513,162.65147700322197,17.06864101181315,48.91078996219257,-3.7479195891395785,-97.67964172363281,4381.2578125,True
1599566247.16064,0.0,10,0.5,0.5,0.5561359786987304,-0.001,-0.03,-0.5,0.34021224497648417,10,1,100,-0.40845085246930907,-10,-1,-100,6487.430640036822,0.011423260264748804,0.03554910330306352,0.9993026420355708,164.21147372806684,17.23590904599201,54.427918933215516,-4.130441533031447,-98.75570678710938,4381.2578125,True
1599566247.2195535,0.0,10,0.5,0.5,0.3191581344604492,-0.001,-0.03,-0.5,0.3574642713928353,10,1,100,-0.2721562659673362,-10,-1,-100,6487.338861652301,0.012889645625070304,0.03523959898613032,0.999295765876628,164.97409073780386,17.318209092305132,57.21783477100577,-4.321750595143431,-99.25637817382812,4381.2578125,True
1599566247.2973142,0.0,10,0.5,0.5,0.5380663909912109,-0.001,-0.03,-0.5,0.31517209067912233,10,1,100,-0.4226637245734034,-10,-1,-100,6487.1548198784,0.015561721887364632,0.03457297194444987,0.9992810127400744,166.33238233585584,17.46620982852949,62.80786453746673,-4.704458065380321,-100.0970687866211,4381.2578125,True
1599566247.3661282,0.0,10,0.5,0.5,0.48143917846679685,-0.001,-0.03,-0.5,0.29413627350468596,10,1,100,-0.44385071914374263,-10,-1,-100,6486.909257919877,0.01815511944652649,0.033776278944814775,0.9992645068341637,167.44317973847143,17.589289763980574,68.3841327624071,-5.087265845373482,-100.7362060546875,4381.2578125,True
1599566247.4269662,0.0,10,0.5,0.5,0.4511396255493164,-0.001,-0.03,-0.5,0.2729716789795684,10,1,100,-0.45700604295955527,-10,-1,-100,6486.724732709001,0.0206066799461759,0.03286175199846927,0.9992474518342226,168.53818658990605,17.71164699030941,74.02554259803951,-5.4701569941457375,-101.24213409423828,4381.2578125,True
1599566247.4868073,0.0,10,0.5,0.5,0.48518067932128905,-0.001,-0.03,-0.5,0.19860344595976676,10,1,100,-0.5740888990407739,-10,-1,-100,6486.386419020593,0.0238734934891812,0.03135745034862155,0.9992230815069555,169.8501477072764,17.86213796001515,82.4608126689232,-6.044633715697703,-101.74666595458984,4381.2578125,True
1599566247.5471594,0.0,10,0.5,0.5,0.31100827026367184,-0.001,-0.03,-0.5,0.28845994714077194,10,1,100,-0.3610634325966561,-10,-1,-100,6486.231166478246,0.02488067676929082,0.030811555672189447,0.999215492254079,170.19031033682984,17.90251532936883,85.25279362778618,-6.2361588959610925,-101.84266662597656,4381.2578125,True
1599566247.6055129,0.0,10,0.5,0.5,0.33335717010498045,-0.001,-0.03,-0.5,0.21698915709466282,10,1,100,-0.46888700478232426,-10,-1,-100,6485.983645188389,0.026752704074397067,0.029670920090192884,0.9992016459782826,170.73125841133853,17.969208193804615,90.79705669388906,-6.6192525018689174,-101.93274688720703,4381.2578125,True
1599566247.6683447,0.0,10,0.5,0.5,0.2023773345947265,-0.001,-0.03,-0.5,0.061259894729123854,10,1,100,-0.6315808664715843,-10,-1,-100,6485.42705674551,0.02991114286548515,0.02722460240991507,0.9991817375012929,171.29127497476034,18.04981949590162,101.68806263722502,-7.385591527395254,-101.71981811523438,4381.2578125,True
1599566247.7303727,0.0,10,0.5,0.5,0.26694661712646484,-0.001,-0.03,-0.5,0.23531608898715337,10,1,100,-0.39088685506947374,-10,-1,-100,6485.272767834831,0.030570492929281698,0.026591489671907515,0.9991788316608241,171.34405010619363,18.06118023296899,104.37107832247784,-7.5772039760064125,-101.60045623779297,4381.2578125,True
1599566247.798157,0.0,10,0.5,0.5,0.2663276748657227,-0.001,-0.03,-0.5,0.2262542928143737,10,1,100,-0.3948509541315279,-10,-1,-100,6485.1174999749055,0.03118579775754496,0.02594216079698318,0.9991768863977034,171.3670313611227,18.069539690019255,107.03817456885065,-7.768826272904885,-101.45661926269531,4381.2578125,True
1599566247.8595371,0.0,10,0.5,0.5,0.07603013610839843,-0.001,-0.03,-0.5,0.07535566735081001,10,1,100,-0.5039774920958944,-10,-1,-100,6484.589668050758,0.03271925927610326,0.023988789717843278,0.9991766550717127,171.27829165692316,18.07872219327267,114.94440604004036,-8.343747414689538,-100.91706085205078,4381.2578125,True
1599566247.9203427,0.0,10,0.5,0.5,0.12436822509765627,-0.001,-0.03,-0.5,0.11753776716429556,10,1,100,-0.44273424432856306,-10,-1,-100,6484.279595648521,0.03353853148267958,0.02260669947080986,0.9991817172291643,171.11528748109583,18.074396436952174,120.14329551999764,-8.727068640737343,-100.46511840820312,4381.2578125,True
1599566247.9911516,0.0,10,0.5,0.5,0.08985502624511721,-0.001,-0.03,-0.5,0.10357229732950066,10,1,100,-0.42989263878899486,-10,-1,-100,6483.906523422338,0.034150239975029875,0.02123417340453011,0.9991911083418797,170.91676985186515,18.066627090808122,125.31062749403796,-9.110417925037572,-99.94298553466797,4381.2578125,True
1599566248.0529864,0.0,10,0.5,0.5,0.21101448822021485,-0.001,-0.03,-0.5,0.16394602241688805,10,1,100,-0.3960972525912657,-10,-1,-100,6483.751721947221,0.03438456680216124,0.02054667639556139,0.9991974457808246,170.8272395706775,18.063859971710205,127.89871838219769,-9.302101909987547,-99.6684799194336,4381.2578125,True
1599566248.1188102,0.0,10,0.5,0.5,-0.09419033813476563,-0.001,-0.03,-0.5,-0.003397487084816825,10,1,100,-0.4263192540607953,-10,-1,-100,6483.160345469834,0.03485981130668003,0.018411570006122424,0.9992226016486877,170.50891813197867,18.050545993408683,135.6140022399824,-9.877186438675007,-98.79475402832031,4381.2578125,True
1599566248.1697078,0.0,10,0.5,0.5,-0.1454188003540039,-0.001,-0.03,-0.5,-0.031681563549281255,10,1,100,-0.3898853935359776,-10,-1,-100,6482.506444867118,0.03495064728981923,0.016225205211812324,0.9992573216993995,170.2820208167599,18.047077006514638,143.38781015726227,-10.452311010418903,-97.83819580078125,4381.2578125,True
1599566248.2325056,0.0,10,0.5,0.5,-0.028628425598144547,-0.001,-0.03,-0.5,0.02985176370953027,10,1,100,-0.36555704676277684,-10,-1,-100,6482.070335770608,0.03480290414880711,0.014810255056119954,0.9992844510988759,170.09133208795683,18.040538416378222,148.5306490080137,-10.835745467566248,-97.14064025878906,4381.2578125,True
1599566248.323266,0.0,10,0.5,0.5,0.13350840759277344,-0.001,-0.03,-0.5,0.0914684735156013,10,1,100,-0.36737803396729174,-10,-1,-100,6481.852033800911,0.034677828267860394,0.014097598335576693,0.9992991073486424,169.985844422138,18.036143580821555,151.0906041002902,-11.027467348382913,-96.79679870605469,4381.2578125,True
1599566248.3960702,0.0,10,0.5,0.5,0.12278353881835935,-0.001,-0.03,-0.5,0.08308447953285397,10,1,100,-0.36218448090997124,-10,-1,-100,6481.634219431202,0.03451257545247649,0.013385444102579969,0.9993146211388151,169.88950147241468,18.032675806775668,153.65690633119576,-11.219191995492936,-96.46171569824219,4381.2578125,True
1599566248.4729486,0.0,10,0.5,0.5,-0.2203768005371094,-0.001,-0.03,-0.5,-0.08511212465548773,10,1,100,-0.30036529499580444,-10,-1,-100,6480.979298125021,0.033796769309704884,0.01122097662138832,0.9993657328865588,169.6775287229334,18.030138960908655,161.41942767124826,-11.794377220232093,-95.4731216430664,4381.2578125,True
1599566248.559675,0.0,10,0.5,0.5,0.08597557830810543,-0.001,-0.03,-0.5,0.05023508638572821,10,1,100,-0.3378745047273617,-10,-1,-100,6480.699464447796,0.03348465565787925,0.010497090997202961,0.9993841047945828,169.61572254154214,18.030103558123454,164.01391335054757,-11.986107681779432,-95.1338119506836,4381.2578125,True
1599566248.6354713,0.0,10,0.5,0.5,-0.4602953872680664,-0.001,-0.03,-0.5,-0.19148290991097278,10,1,100,-0.19703772434075012,-10,-1,-100,6479.700233423035,0.03191988579235787,0.0076538420077195725,0.9994611246034153,169.33059954553613,18.024986543370655,174.34805123363088,-12.753028203794372,-93.73944854736328,4381.2578125,True
1599566248.704286,0.0,10,0.5,0.5,0.05473056793212888,-0.001,-0.03,-0.5,0.010587861197905307,10,1,100,-0.3013926853777632,-10,-1,-100,6479.481429149164,0.03144752069284793,0.006919670715963647,0.9994814513533782,169.2819011470013,18.025834247974046,176.95330752187965,-12.944755324546662,-93.4161376953125,4381.2578125,True
1599566248.7740998,0.0,10,0.5,0.5,-0.25139292907714844,-0.001,-0.03,-0.5,-0.1444459776117854,10,1,100,-0.17785796738116622,-10,-1,-100,6478.6394710494205,0.029897512001762726,0.004855856918541587,0.9995411744544048,169.26236007571418,18.04116362065337,184.90719622504702,-13.519918955884636,-92.52153015136719,4381.2578125,True
1599566248.8359356,0.0,10,0.5,0.5,0.1744699935913086,-0.001,-0.03,-0.5,0.06036632018271862,10,1,100,-0.3324101310096469,-10,-1,-100,6478.6394710494205,0.029897512001762726,0.004855856918541587,0.9995411744544048,169.26236007571418,18.04116362065337,184.90719622504702,-13.519918955884636,-92.52153015136719,4381.2578125,True
1599566248.9077418,0.0,10,0.5,0.5,-0.10654599761962891,-0.001,-0.03,-0.5,-0.09643365597304482,10,1,100,-0.1996488209747561,-10,-1,-100,6478.139363842085,0.028695102182631826,0.0034427259653869928,0.9995822821302184,169.40249749452602,18.06717238305035,190.38853942116452,-13.903339517844897,-91.99818420410156,4381.2578125,True
1599566248.9750714,0.0,10,0.5,0.5,-0.10533631896972656,-0.001,-0.03,-0.5,-0.09943746747834206,10,1,100,-0.18340843449596017,-10,-1,-100,6477.51425946923,0.02746004932916667,0.0021423745208768645,0.9996206059912192,169.59865061617677,18.098741354324876,195.9496463362095,-14.286737291444132,-91.51326751708984,4381.2578125,True
1599566249.5353832,0.0,10,0.5,0.5,-0.24154331207275392,-0.001,-0.03,-0.5,-0.19193978702918238,10,1,100,-0.07365429603321891,-10,-1,-100,6476.671820619609,0.02534618443528219,0.00013082292134660226,0.9996787253012519,170.00694819372757,18.157507096000135,204.4635874766636,-14.861782748115356,-90.79114532470703,4381.2578125,True
1599566249.5922318,0.0,10,0.5,0.5,-0.24546705627441406,-0.001,-0.03,-0.5,-0.20244662409704653,10,1,100,-0.03398705892734505,-10,-1,-100,6475.763962445431,0.023072361143363425,-0.001780679983012192,0.9997322118097768,170.47137613536168,18.221255240219893,213.1010408198425,-15.436758669395118,-90.09859466552734,4381.2578125,True
1599566249.6501095,0.0,10,0.5,0.5,0.08171891021728515,-0.001,-0.03,-0.5,-0.012812946069726326,10,1,100,-0.2602253666883102,-10,-1,-100,6475.763962445431,0.023072361143363425,-0.001780679983012192,0.9997322118097768,170.47137613536168,18.221255240219893,213.1010408198425,-15.436758669395118,-90.09859466552734,4381.2578125,True
1599566249.7059274,0.0,10,0.5,0.5,-0.22610552978515625,-0.001,-0.03,-0.5,-0.21034507436929833,10,1,100,0.0020664291794423306,-10,-1,-100,6474.795572999399,0.020697639733807803,-0.00356460691609521,0.9997794263171168,171.1017684497389,18.301751274106312,222.01301867505504,-16.011654659214216,-89.516357421875,4381.2578125,True
1599566249.7627745,0.0,10,0.5,0.5,-0.18911402130126953,-0.001,-0.03,-0.5,-0.22514043321428123,10,1,100,0.04859749466936489,-10,-1,-100,6473.82573659753,0.01812741696241619,-0.005308078573931163,0.9998215946138208,171.96663907421984,18.406533068296614,231.3158660658757,-16.58645780685341,-89.04275512695312,4381.2578125,True
1599566249.8186269,0.0,10,0.5,0.5,-0.04161105346679688,-0.001,-0.03,-0.5,-0.10896516124317307,10,1,100,-0.11574441123994647,-10,-1,-100,6473.48146514548,0.017297406741081135,-0.005825130408061364,0.9998334199134188,172.2710601922707,18.443028330110035,234.46060246442187,-16.778036360596968,-88.89263916015625,4381.2578125,True
1599566249.8764713,0.0,10,0.5,0.5,-0.048527923583984375,-0.001,-0.03,-0.5,-0.1148268140457022,10,1,100,-0.10373224987359951,-10,-1,-100,6473.137197063887,0.016446514267402266,-0.006336879099908152,0.9998446660015372,172.592871622365,18.481309765435025,237.64075974400936,-16.96960344183478,-88.756103515625,4381.2578125,True
1599566249.937309,0.0,10,0.5,0.5,-0.20713560485839844,-0.001,-0.03,-0.5,-0.28126330096222907,10,1,100,0.2020933985816774,-10,-1,-100,6471.762097527855,0.012904970666950195,-0.008304988940811431,0.9998822375113872,174.1169382378563,18.65921575903869,250.82323089216155,-17.735744540117203,-88.3258056640625,4381.2578125,True
1599566249.998146,0.0,10,0.5,0.5,-0.051282684326171876,-0.001,-0.03,-0.5,-0.13626145374736706,10,1,100,-0.050792498963942,-10,-1,-100,6471.354851384414,0.011999796045440136,-0.008764016688898073,0.9998895923582486,174.53394465949725,18.70743530854567,254.2062833419995,-17.927246117500506,-88.23257446289062,4381.2578125,True
1599566250.0670047,0.0,10,0.5,0.5,-0.10088072204589843,-0.001,-0.03,-0.5,-0.18412831234734867,10,1,100,0.05507028244406072,-10,-1,-100,6470.667318762862,0.010229698655028414,-0.009605370862927322,0.9999015402108415,175.3970275519822,18.806874206345412,261.0613187635978,-18.310206690928368,-88.06307983398438,4381.2578125,True
1599566250.1243193,0.0,10,0.5,0.5,-0.08906310272216797,-0.001,-0.03,-0.5,-0.18840374286570472,10,1,100,0.07782627079792001,-10,-1,-100,6469.915830587037,0.008429310542959163,-0.010398426075499144,0.9999104057158935,176.32926864504827,18.913614206205096,268.08445130077075,-18.693108678839504,-87.93817138671875,4381.2578125,True
1599566250.1871521,0.0,10,0.5,0.5,-0.08569895935058594,-0.001,-0.03,-0.5,-0.1911632525348557,10,1,100,0.09877037623139519,-10,-1,-100,6469.164839084609,0.006617572095221271,-0.011134899766650495,0.9999161073543875,177.3171585153029,19.02626861901136,275.2615636235168,-19.07594855962241,-87.83731079101562,4381.2578125,True
1599566250.247993,0.0,10,0.5,0.5,-0.07937371063232421,-0.001,-0.03,-0.5,-0.19057905786185259,10,1,100,0.1150540885080378,-10,-1,-100,6468.351844026591,0.004837462293897476,-0.011790606607230206,0.999918786979417,178.34517344406498,19.14321392124401,282.5736908871214,-19.458724644045013,-87.7628173828125,4381.2578125,True
1599566250.3138137,0.0,10,0.5,0.5,-0.0812724609375,-0.001,-0.03,-0.5,-0.2206501377155829,10,1,100,0.23025730800362287,-10,-1,-100,6467.194621443166,0.0021884558416882206,-0.01265097725495093,0.9999175783210952,179.97168671788097,19.32777259606615,293.8191690285167,-20.032763552652206,-87.69866943359375,4381.2578125,True
1599566250.3921218,0.0,10,0.5,0.5,-0.06124124145507813,-0.001,-0.03,-0.5,-0.1889058357645943,10,1,100,0.15774953640850256,-10,-1,-100,6466.380667645019,0.0004562562486282823,-0.013136287489380003,0.9999136111591002,181.10263442876,19.455929826539975,301.49157792773036,-20.4153696065797,-87.68551635742188,4381.2578125,True
1599566250.4768963,0.0,10,0.5,0.5,-0.057819061279296875,-0.001,-0.03,-0.5,-0.16406044151758573,10,1,100,0.07762763625297969,-10,-1,-100,6465.974424956366,-0.0003740250520907375,-0.013344494837601403,0.9999108883109482,181.68059915638807,19.521401039670963,305.379359182817,-20.606645786956364,-87.68734741210938,4381.2578125,True
1599566250.5586772,0.0,10,0.5,0.5,-0.058558715820312496,-0.001,-0.03,-0.5,-0.16489892384352117,10,1,100,0.08688787771941126,-10,-1,-100,6465.567207502201,-0.001196945309899977,-0.01353456102582978,0.9999076872290579,182.2649944111772,19.587604516956578,309.2988934350609,-20.797903689558858,-87.69491577148438,4381.2578125,True
1599566250.6208968,0.0,10,0.5,0.5,-0.040069763183593746,-0.001,-0.03,-0.5,-0.20001286267470025,10,1,100,0.2768251786566224,-10,-1,-100,6464.284525985364,-0.0036557178622672938,-0.014020022748206367,0.9998950318353678,184.05437439726722,19.790407002251502,321.2473146107124,-21.37156542543998,-87.7457275390625,4381.2578125,True
1599566250.6966963,0.0,10,0.5,0.5,-0.023045074462890613,-0.001,-0.03,-0.5,-0.18829627654577172,10,1,100,0.29407979004059664,-10,-1,-100,6462.938377742423,-0.00603277056924715,-0.014349641682097191,0.9998788393914805,185.88036623593882,19.99769989663193,333.45567365095354,-21.945053901270494,-87.83389282226562,4381.2578125,True
1599566250.7670233,0.0,10,0.5,0.5,-0.030192230224609373,-0.001,-0.03,-0.5,-0.1691234565015986,10,1,100,0.21915795656485168,-10,-1,-100,6462.0629221033305,-0.007496226756163259,-0.014469919053420731,0.999867205196274,187.11937394163365,20.13859842503526,341.7446097200891,-22.327280805819917,-87.91000366210938,4381.2578125,True
1599566250.8377988,0.0,10,0.5,0.5,-0.025254669189453113,-0.001,-0.03,-0.5,-0.16382691774765998,10,1,100,0.2306313444611291,-10,-1,-100,6461.186491081491,-0.008914830520224796,-0.014526689449414968,0.9998547399949834,188.36613999830806,20.280666023059062,350.13806967057656,-22.70942612886139,-87.99673461914062,4381.2578125,True
1599566250.911602,0.0,10,0.5,0.5,-0.0452047119140625,-0.001,-0.03,-0.5,-0.15926567416885562,10,1,100,0.1668550440678583,-10,-1,-100,6460.717269501998,-0.009608918355739019,-0.014533080082898856,0.9998482176167224,188.98584573734104,20.351437486977325,354.36197864660414,-22.900467855382008,-88.04312133789062,4381.2578125,True
1599566250.9903915,0.0,10,0.5,0.5,-0.043547088623046876,-0.001,-0.03,-0.5,-0.15757219056940067,10,1,100,0.172863936865349,-10,-1,-100,6460.248048878391,-0.010279782240319174,-0.014520405189419848,0.9998417294303268,189.60360457207986,20.422091887654798,358.604846175209,-23.091488566742143,-88.09149169921875,4381.2578125,True
1599566251.1030898,0.0,10,0.5,0.5,0.011596160888671866,-0.001,-0.03,-0.5,-0.14410811041942237,10,1,100,0.3159096529014852,-10,-1,-100,6458.838920022594,-0.012176331149780355,-0.014384000195273501,0.9998224029787057,191.43868030334815,20.632678529162213,371.43399424489075,-23.66442308890705,-88.24786376953125,4381.2578125,True
1599566251.1868656,0.0,10,0.5,0.5,-0.006047882080078115,-0.001,-0.03,-0.5,-0.13934558638424338,10,1,100,0.25872264748922924,-10,-1,-100,6457.900477547315,-0.013367525757368676,-0.014215124506693084,0.999809601619421,192.65430979605213,20.77275122400108,380.0840550771132,-24.046271156293894,-88.36541748046875,4381.2578125,True
1599566251.2961366,0.0,10,0.5,0.5,0.0021333618164062484,-0.001,-0.03,-0.5,-0.13112501619577502,10,1,100,0.2653990479103423,-10,-1,-100,6456.898069383809,-0.014498557420817272,-0.013985887936254526,0.9997970727959498,193.86868405259884,20.913139452436475,388.8215245946754,-24.42803104156248,-88.4949951171875,4381.2578125,True
1599566251.3998597,0.0,10,0.5,0.5,0.0069792785644531286,-0.001,-0.03,-0.5,-0.12289633281933017,10,1,100,0.26638439357577703,-10,-1,-100,6455.896148365224,-0.015522885227848377,-0.01370210175688938,0.9997856232421263,195.0775505454072,21.05341577861413,397.6379135078428,-24.809701275251676,-88.629150390625,4381.2578125,True
1599566251.4936085,0.0,10,0.5,0.5,0.010558288574218748,-0.001,-0.03,-0.5,-0.11385663434119098,10,1,100,0.27218140130539337,-10,-1,-100,6454.895689105848,-0.016493768813675033,-0.013361782934273383,0.9997746837898719,196.2677225920961,21.192170108418175,406.5056449735007,-25.191280382537983,-88.76458740234375,4381.2578125,True
1599566251.5699728,0.0,10,0.5,0.5,0.013704437255859382,-0.001,-0.03,-0.5,-0.10482662288352906,10,1,100,0.2732608670072673,-10,-1,-100,6453.893273683963,-0.017374532624487748,-0.012970909573020035,0.9997649129274987,197.42929270002136,21.328341096863692,415.4023215741617,-25.572767541126197,-88.89993286132812,4381.2578125,True
1599566251.6387887,0.0,10,0.5,0.5,-0.017148986816406246,-0.001,-0.03,-0.5,-0.12029330202760376,10,1,100,0.2312227336998165,-10,-1,-100,6453.36252439511,-0.01778275145692681,-0.012757429720562286,0.9997604821843811,197.99906201527193,21.395427289411007,419.8601145126713,-25.763476430714874,-88.967041015625,4381.2578125,True
1599566251.7275505,0.0,10,0.5,0.5,0.051114654541015624,-0.001,-0.03,-0.5,-0.06358409867263227,10,1,100,0.311454726627055,-10,-1,-100,6451.828374676756,-0.018873889854209246,-0.012049375723585371,0.9997492629786946,199.65772077759217,21.591976111860802,433.2531177257764,-26.335463594970964,-89.1639404296875,4381.2578125,True
1599566251.7943754,0.0,10,0.5,0.5,0.020014709472656253,-0.001,-0.03,-0.5,-0.0759427921679876,10,1,100,0.27222119651305055,-10,-1,-100,6450.763448072015,-0.019500111705853255,-0.01152029413422398,0.9997434813323467,200.71846226682698,21.718771555712113,442.18811492582506,-26.71667171038814,-89.2913818359375,4381.2578125,True
1599566251.8631892,0.0,10,0.5,0.5,-0.007593750000000003,-0.001,-0.03,-0.5,-0.09755856209533739,10,1,100,0.24185926936326652,-10,-1,-100,6450.231716656475,-0.019784394784758758,-0.011238556766824689,0.9997411027685117,201.23688735428786,21.78106553797809,446.65974750563475,-26.90724050708035,-89.35598754882812,4381.2578125,True
1599566251.9310079,0.0,10,0.5,0.5,0.08177743530273437,-0.001,-0.03,-0.5,0.004544487711501274,10,1,100,0.31013289420708173,-10,-1,-100,6448.03983585618,-0.0206548627073035,-0.010057205842238251,0.9997360798016591,203.21328496936803,22.020959045681916,464.52507464101785,-27.66928074790015,-89.59127807617188,4381.2578125,True
1599566251.9978292,0.0,10,0.5,0.5,-0.03183758544921875,-0.001,-0.03,-0.5,-0.113157925311839,10,1,100,0.22393395510835987,-10,-1,-100,6448.03983585618,-0.0206548627073035,-0.010057205842238251,0.9997360798016591,203.21328496936803,22.020959045681916,464.52507464101785,-27.66928074790015,-89.59127807617188,4381.2578125,True
1599566252.069637,0.0,10,0.5,0.5,0.05307208251953125,-0.001,-0.03,-0.5,-0.007038448435205555,10,1,100,0.27199127314868904,-10,-1,-100,6446.318643552135,-0.02108512256498837,-0.009096263251236542,0.9997363030325965,204.5815373068545,22.189772603496593,477.8613835411103,-28.240563257254482,-89.75341796875,4381.2578125,True
1599566252.1444361,0.0,10,0.5,0.5,-0.0007993774414062488,-0.001,-0.03,-0.5,-0.06740449448132813,10,1,100,0.23957739300540704,-10,-1,-100,6445.789833002724,-0.021175608465995532,-0.008775906427731574,0.9997372540185078,205.01515912300923,22.243838046795506,482.2904230552475,-28.430943632354364,-89.8001708984375,4381.2578125,True
1599566252.2062707,0.0,10,0.5,0.5,0.025709686279296876,-0.001,-0.03,-0.5,-0.020829504828601103,10,1,100,0.24819849361806073,-10,-1,-100,6444.59597785573,-0.021331103178627853,-0.008065742314365137,0.9997399301008744,205.84670647933748,22.348414353149018,491.1159165022113,-28.811633402539808,-89.89273071289062,4381.2578125,True
1599566252.272096,0.0,10,0.5,0.5,0.026648651123046877,-0.001,-0.03,-0.5,-0.01709116417799174,10,1,100,0.23777734781382398,-10,-1,-100,6443.473896466428,-0.02137332674246876,-0.0073909682423172985,0.999744244540773,206.63725075683286,22.448962829016683,499.91012612765013,-29.19222839803691,-89.980224609375,4381.2578125,True
1599566252.3449075,0.0,10,0.5,0.5,0.026663063049316406,-0.001,-0.03,-0.5,-0.003923134839215164,10,1,100,0.23166665748458976,-10,-1,-100,6442.285892992513,-0.021352524802860203,-0.006662900584040115,0.9997498064217619,207.38667691046075,22.545446443930047,508.66886770678553,-29.572728713226915,-90.06110382080078,4381.2578125,True
1599566252.9004183,0.0,10,0.5,0.5,0.027793891906738283,-0.001,-0.03,-0.5,0.002834261050759429,10,1,100,0.2223004292069956,-10,-1,-100,6441.097398256999,-0.02124522117037799,-0.005945130504003381,0.9997566183830504,208.09419552236082,22.637761298557734,517.3862445151689,-29.953134505723913,-90.13752746582031,4381.2578125,True
1599566252.9574707,0.0,10,0.5,0.5,0.042991943359375,-0.001,-0.03,-0.5,0.05253241338602964,10,1,100,0.2006461955294473,-10,-1,-100,6439.256057017716,-0.020948659988038115,-0.0048463601783944234,0.9997688064936449,209.0792886431323,22.76862890765457,530.381975012571,-30.523565524896778,-90.2383041381836,4381.2578125,True
1599566253.0153153,0.0,10,0.5,0.5,0.01035144805908203,-0.001,-0.03,-0.5,-0.01623283337928117,10,1,100,0.2155097941459998,-10,-1,-100,6438.65741214389,-0.02081286567489581,-0.00447868388384895,0.9997733573230821,209.38617099027982,22.810083457509954,534.6875191920435,-30.71366185883536,-90.26805877685547,4381.2578125,True
1599566253.070677,0.0,10,0.5,0.5,0.03669734954833984,-0.001,-0.03,-0.5,0.06745898319318944,10,1,100,0.1737508485334333,-10,-1,-100,6436.801415491151,-0.020308854547479348,-0.003389743349860584,0.999788007563099,210.24480357557903,22.92815738887349,547.5240621083464,-31.283809302412216,-90.34487915039062,4381.2578125,True
1599566253.1350155,0.0,10,0.5,0.5,0.01073064422607422,-0.001,-0.03,-0.5,-0.0017495917336507252,10,1,100,0.202190172140531,-10,-1,-100,6436.154429335613,-0.02010951647185602,-0.003035027602380959,0.9997931765893988,210.5103458002045,22.965406519588424,551.7745346528019,-31.473811289600544,-90.36520385742188,4381.2578125,True
1599566253.225774,0.0,10,0.5,0.5,0.028843666076660154,-0.001,-0.03,-0.5,0.08178458032086686,10,1,100,0.1458668837249038,-10,-1,-100,6434.232999014901,-0.01941676591408861,-0.0019595409753037376,0.999809556565951,211.39292822399327,23.086926879666187,564.8290665771111,-32.043672799904904,-90.41700744628906,4381.2578125,True
1599566253.3175302,0.0,10,0.5,0.5,0.02298931121826172,-0.001,-0.03,-0.5,0.09022636626363069,10,1,100,0.12467435650464247,-10,-1,-100,6432.2710397923365,-0.01859585002925304,-0.0009115702805501677,0.9998266666784363,212.233964361628,23.20446001556015,577.8896812921874,-32.613315867867676,-90.45304870605469,4381.2578125,True
1599566253.3943243,0.0,10,0.5,0.5,0.015565773010253907,-0.001,-0.03,-0.5,0.057769874997759145,10,1,100,0.14149552567689538,-10,-1,-100,6430.947767004254,-0.018004827815910954,-0.000261078056961374,0.9998378658630446,212.7547065982742,23.278718278750937,586.550685177349,-32.9929565278926,-90.47029113769531,4381.2578125,True
1599566253.4741092,0.0,10,0.5,0.5,0.01168158721923828,-0.001,-0.03,-0.5,0.028729491166636735,10,1,100,0.16610807199272257,-10,-1,-100,6430.282712810324,-0.01769430920243723,5.917987123877666e-05,0.9998434417045458,213.00559781493928,23.31488346869534,590.8731260078529,-33.18274034325851,-90.47628784179688,4381.2578125,True
1599566253.5409312,0.0,10,0.5,0.5,0.01238072967529297,-0.001,-0.03,-0.5,0.0319936977147718,10,1,100,0.16150008980302522,-10,-1,-100,6429.631331503624,-0.017373473368045712,0.0003732251853914542,0.99984900016257,213.2513385444584,23.350529248966073,595.1930443269576,-33.37249980478737,-90.48069763183594,4381.2578125,True
1599566253.613736,0.0,10,0.5,0.5,0.01454981231689453,-0.001,-0.03,-0.5,0.1026599724974746,10,1,100,0.08001478370904916,-10,-1,-100,6427.601502007572,-0.016344646237230746,0.001294745127400794,0.9998655790527218,213.95557626451819,23.454097918750744,608.1292478747433,-33.94163208364376,-90.4869155883789,4381.2578125,True
1599566253.676571,0.0,10,0.5,0.5,0.012466064453125,-0.001,-0.03,-0.5,0.07576175534846771,10,1,100,0.10195069574861927,-10,-1,-100,6426.219149645767,-0.01561322129587973,0.0018813795772988549,0.9998763362194608,214.39600784112696,23.520139351756622,616.7265194936933,-34.32093177274214,-90.48686981201172,4381.2578125,True
1599566253.7473786,0.0,10,0.5,0.5,0.011705718994140624,-0.001,-0.03,-0.5,0.0785072155741566,10,1,100,0.09205892658230624,-10,-1,-100,6424.844121775939,-0.014863214755587014,0.0024335262249345424,0.9998865749660018,214.81246322407847,23.58367747346683,625.2974552488887,-34.70013359638324,-90.48381805419922,4381.2578125,True
1599566253.8092134,0.0,10,0.5,0.5,0.010652832031249998,-0.001,-0.03,-0.5,0.08186976681928013,10,1,100,0.0812722010821223,-10,-1,-100,6423.46860742534,-0.014088738260700426,0.0029597625430964874,0.9998963682601862,215.2134799015105,23.6456324065954,633.8647877021062,-35.0792374515026,-90.47737884521484,4381.2578125,True
1599566253.8740404,0.0,10,0.5,0.5,0.012052986145019531,-0.001,-0.03,-0.5,0.05800865179163704,10,1,100,0.11431901259547347,-10,-1,-100,6422.74154485343,-0.01369074893027652,0.0032154676903624483,0.9999011071907363,215.40976398301893,23.67618337386401,638.1512758020514,-35.26875268941957,-90.47295379638672,4381.2578125,True
1599566253.9368722,0.0,10,0.5,0.5,0.0059426574707031245,-0.001,-0.03,-0.5,0.11126274792438917,10,1,100,0.02092565169392273,-10,-1,-100,6420.590142155183,-0.012485745137642125,0.00392637279336312,0.9999143412138088,215.9789376597441,23.765803644552754,651.0119867370948,-35.83715092179319,-90.45569610595703,4381.2578125,True
1599566253.9957156,0.0,10,0.5,0.5,0.0073257675170898436,-0.001,-0.03,-0.5,0.08905699168529016,10,1,100,0.04998812857819754,-10,-1,-100,6419.145296560135,-0.011660792407628306,0.0043654288177640424,0.9999224814712704,216.34633121633104,23.82431667489319,659.5984652744072,-36.215960124450355,-90.44100189208984,4381.2578125,True
1599566254.0595465,0.0,10,0.5,0.5,0.01042835235595703,-0.001,-0.03,-0.5,0.06878259682487833,10,1,100,0.08560709610415995,-10,-1,-100,6418.428490041872,-0.011240948773871424,0.0045754607056717606,0.9999263504028654,216.5257621437738,23.85312650641723,663.8931647647418,-36.40532773655073,-90.43260192871094,4381.2578125,True
1599566254.1318634,0.0,10,0.5,0.5,-0.003778388977050783,-0.001,-0.03,-0.5,0.12812010650172165,10,1,100,-0.05259927671125779,-10,-1,-100,6415.480211747694,-0.009609000153081406,0.0053014338383204134,0.9999397791443823,217.22990904570253,23.9669931599017,681.1250315919168,-37.16255099692899,-90.39608764648438,4381.2578125,True
1599566254.1936984,0.0,10,0.5,0.5,0.014238151550292968,-0.001,-0.03,-0.5,0.056047018633564524,10,1,100,0.10978705446280841,-10,-1,-100,6415.480211747694,-0.009609000153081406,0.0053014338383204134,0.9999397791443823,217.22990904570253,23.9669931599017,681.1250315919168,-37.16255099692899,-90.39608764648438,4381.2578125,True
1599566254.253113,0.0,10,0.5,0.5,0.003587593078613281,-0.001,-0.03,-0.5,0.0920169295007604,10,1,100,0.017240832030426173,-10,-1,-100,6413.980684566428,-0.008774729470255172,0.005623952838337713,0.9999456861636017,217.58060932827416,24.02383642784462,689.7934571747535,-37.54101407265262,-90.37533569335938,4381.2578125,True
1599566254.3119538,0.0,10,0.5,0.5,-0.001832481384277343,-0.001,-0.03,-0.5,0.10377350644565934,10,1,100,-0.030776362212186922,-10,-1,-100,6411.69404376531,-0.00758666337163209,0.006020094258115306,0.9999530994021716,218.1099551243449,24.109521636764125,702.8777632926045,-38.108521953011646,-90.34447479248047,4381.2578125,True
1599566254.378775,0.0,10,0.5,0.5,0.007567253112792967,-0.001,-0.03,-0.5,0.07816442936285282,10,1,100,0.041799684913465654,-10,-1,-100,6410.970405368949,-0.00717368239941181,0.006143650561995953,0.9999553959245405,218.29009109286332,24.13850479079986,707.2702174178547,-38.29764118238077,-90.33329010009766,4381.2578125,True
1599566254.4426074,0.0,10,0.5,0.5,-0.004274581909179688,-0.001,-0.03,-0.5,0.0980201508813427,10,1,100,-0.04337737014643317,-10,-1,-100,6408.621268809191,-0.0060308987717180886,0.006433108193567302,0.9999611209336967,218.82606177374674,24.224987554956712,720.4909491907573,-38.864847986113,-90.29939270019531,4381.2578125,True
1599566254.505436,0.0,10,0.5,0.5,0.006666587829589843,-0.001,-0.03,-0.5,0.07812485301609462,10,1,100,0.0292479175705056,-10,-1,-100,6407.849292152794,-0.005659559761685951,0.0065122275638112995,0.9999627794450456,219.00952578670172,24.254353443990677,724.9330074149867,-39.05386621187311,-90.28846740722656,4381.2578125,True
1599566254.5692668,0.0,10,0.5,0.5,0.0003992919921875001,-0.001,-0.03,-0.5,0.08607495187507909,10,1,100,-0.017837561553821962,-10,-1,-100,6406.2794597953325,-0.0049012301143161125,0.006653430835593476,0.9999658543177774,219.38622800585696,24.31417790103063,733.8792589186493,-39.43182649624362,-90.26615905761719,4381.2578125,True
1599566254.6400173,0.0,10,0.5,0.5,0.0002785186767578114,-0.001,-0.03,-0.5,0.08260144780368645,10,1,100,-0.01868302190626643,-10,-1,-100,6404.714511918486,-0.004211048536251606,0.006747740992889857,0.9999683670305368,219.77125430747506,24.374934527404836,742.8936158559839,-39.80968437994086,-90.24478912353516,4381.2578125,True
1599566254.743385,0.0,10,0.5,0.5,-0.0001977081298828124,-0.001,-0.03,-0.5,0.08094065969148474,10,1,100,-0.02759088067571802,-10,-1,-100,6403.078764046775,-0.003509402698171928,0.0068162136874346186,0.9999706112299848,220.17278371901926,24.437532732355788,752.0049807962529,-40.18743928402096,-90.22368621826172,4381.2578125,True
1599566254.8108304,0.0,10,0.5,0.5,-0.0006926651000976562,-0.001,-0.03,-0.5,0.07745449964027185,10,1,100,-0.029338883423955027,-10,-1,-100,6401.451317929546,-0.0028626805895479745,0.006844732179299046,0.9999724769718594,220.5848497380789,24.50131020374155,761.1945975099444,-40.56509063911496,-90.20288848876953,4381.2578125,True
1599566254.9007723,0.0,10,0.5,0.5,-0.010374908447265624,-0.001,-0.03,-0.5,0.07034596613085084,10,1,100,-0.09819905418332849,-10,-1,-100,6398.197892059223,-0.001654882865316925,0.006804632050598354,0.9999754788720361,221.45753889014648,24.634291296408236,779.873120368778,-41.32007995310044,-90.1639633178711,4381.2578125,True
1599566254.969554,0.0,10,0.5,0.5,0.0038542022705078133,-0.001,-0.03,-0.5,0.07116645679470121,10,1,100,-0.008926407657831648,-10,-1,-100,6397.356093315524,-0.0013756854637820917,0.006774269850348839,0.999976108093338,221.68695854490596,24.668795609897398,784.6104543659553,-41.50876152209842,-90.1549072265625,4381.2578125,True
1599566255.0498862,0.0,10,0.5,0.5,-0.004732177734375001,-0.001,-0.03,-0.5,0.05911789718622883,10,1,100,-0.0656774530583362,-10,-1,-100,6394.813608735218,-0.0006126774532971775,0.006636089747306794,0.9999777932230316,222.40616777390602,24.775780821914005,799.0032810043673,-42.07464688233175,-90.13005065917969,4381.2578125,True
1599566255.1207018,0.0,10,0.5,0.5,0.007052833557128906,-0.001,-0.03,-0.5,0.0729975070393525,10,1,100,0.00992594939832174,-10,-1,-100,6394.813608735218,-0.0006126774532971775,0.006636089747306794,0.9999777932230316,222.40616777390602,24.775780821914005,799.0032810043673,-42.07464688233175,-90.13005065917969,4381.2578125,True
1599566255.1845276,0.0,10,0.5,0.5,-0.0075810012817382815,-0.001,-0.03,-0.5,0.04168794706292893,10,1,100,-0.08783094814167848,-10,-1,-100,6391.435674439534,0.00027005706529726573,0.0063510097118981155,0.999979795668303,223.44518083462862,24.927440323554904,818.6555376151101,-42.82878558137084,-90.10205841064453,4381.2578125,True
1599566255.2473934,0.0,10,0.5,0.5,-0.0005334091186523435,-0.001,-0.03,-0.5,0.04933450831828097,10,1,100,-0.04395468758513037,-10,-1,-100,6389.679812394665,0.0006679397536535809,0.00616143487155858,0.9999807951039905,223.99819857124388,25.007059862657137,828.6825865495209,-43.205692465428456,-90.08937072753906,4381.2578125,True
1599566255.3092294,0.0,10,0.5,0.5,0.002159103393554687,-0.001,-0.03,-0.5,0.05752790779438565,10,1,100,-0.022190250412097132,-10,-1,-100,6388.830689576105,0.0008260404964814385,0.00606389845984382,0.9999812732209374,224.28130586767156,25.04762092883225,833.7408745190947,-43.394105130359044,-90.0832748413086,4381.2578125,True
1599566255.374055,0.0,10,0.5,0.5,-0.0028218994140625005,-0.001,-0.03,-0.5,0.030220559768865313,10,1,100,-0.055201890301548096,-10,-1,-100,6386.236447936506,0.001264667652037411,0.005727516314758171,0.9999827979383415,225.16966993196885,25.173732101250142,849.1456467501104,-43.95917805809049,-90.06834411621094,4381.2578125,True
1599566255.4338639,0.0,10,0.5,0.5,0.004114128112792968,-0.001,-0.03,-0.5,0.06375675180961703,10,1,100,-0.011886746364779752,-10,-1,-100,6386.236447936506,0.001264667652037411,0.005727516314758171,0.9999827979383415,225.16966993196885,25.173732101250142,849.1456467501104,-43.95917805809049,-90.06834411621094,4381.2578125,True
1599566255.5026789,0.0,10,0.5,0.5,-0.002670204162597656,-0.001,-0.03,-0.5,0.02113000985450423,10,1,100,-0.049794223956433084,-10,-1,-100,6383.572380813654,0.0016049410207340691,0.0053409902036868516,0.9999844488730634,226.1128233217651,25.30609362608652,864.8890360209914,-44.524001930517585,-90.05573272705078,4381.2578125,True
1599566255.5655437,0.0,10,0.5,0.5,0.001393707275390625,-0.001,-0.03,-0.5,0.04465096173968943,10,1,100,-0.02566552010638465,-10,-1,-100,6382.661246903124,0.0016908671194485162,0.005204796703465165,0.999985025417711,226.43907303376912,25.351572221055065,870.212582099969,-44.71222079503298,-90.05213928222656,4381.2578125,True
1599566255.624352,0.0,10,0.5,0.5,-0.0020911331176757812,-0.001,-0.03,-0.5,0.008472094314904206,10,1,100,-0.04056555819224225,-10,-1,-100,6379.935167811927,0.0019013950554378413,0.004753540031535705,0.9999868941911247,227.4514005891104,25.491873656756404,886.4076779113977,-45.27670854005739,-90.04226684570312,4381.2578125,True
1599566256.1977432,0.0,10,0.5,0.5,0.001092903137207031,-0.001,-0.03,-0.5,0.03644390351894844,10,1,100,-0.02447864890403828,-10,-1,-100,6379.0240334681,0.0019435602941542645,0.004599432895108247,0.9999875338175102,227.80074052411186,25.54001036963626,891.8847600566993,-45.464814533838585,-90.03944396972656,4381.2578125,True
1599566256.2489285,0.0,10,0.5,0.5,-0.00014878845214843714,-0.001,-0.03,-0.5,0.014795087626487707,10,1,100,-0.027565697550411897,-10,-1,-100,6377.215924224933,0.0020076325554567263,0.004264379587381095,0.9999888921774368,228.51574667532452,25.638174463336238,902.9532002654302,-45.84094086124594,-90.0346908569336,4381.2578125,True
1599566256.3137553,0.0,10,0.5,0.5,0.001941688537597656,-0.001,-0.03,-0.5,0.048063247383210335,10,1,100,-0.021420502421041116,-10,-1,-100,6377.215924224933,0.0020076325554567263,0.004264379587381095,0.9999888921774368,228.51574667532452,25.638174463336238,902.9532002654302,-45.84094086124594,-90.0346908569336,4381.2578125,True
1599566256.3740072,0.0,10,0.5,0.5,-0.00022509002685546886,-0.001,-0.03,-0.5,0.010493267142467531,10,1,100,-0.023119247921802005,-10,-1,-100,6375.393655366963,0.002021496082290771,0.003924731248942085,0.9999902549716237,229.25470878392898,25.739111617856597,914.1850239180023,-46.216952638235156,-90.03076934814453,4381.2578125,True
1599566256.429857,0.0,10,0.5,0.5,-0.0010202102661132813,-0.001,-0.03,-0.5,-0.03636368044721964,10,1,100,-0.011224431897330871,-10,-1,-100,6371.631441342295,0.001924734091618677,0.003192021148293662,0.9999930531757035,230.7984449063173,25.94865930185627,937.1262285723001,-46.968628619414474,-90.02561950683594,4381.2578125,True
1599566256.4946845,0.0,10,0.5,0.5,0.001381744384765625,-0.001,-0.03,-0.5,0.036620141886467644,10,1,100,-0.02101050032405401,-10,-1,-100,6371.631441342295,0.001924734091618677,0.003192021148293662,0.9999930531757035,230.7984449063173,25.94865930185627,937.1262285723001,-46.968628619414474,-90.02561950683594,4381.2578125,True
1599566256.5595105,0.0,10,0.5,0.5,0.00043941497802734374,-0.001,-0.03,-0.5,-0.005031070349285495,10,1,100,-0.00874577880421526,-10,-1,-100,6369.753996186308,0.0018126365628568872,0.0028156787599381465,0.9999943931351875,231.60584127761027,26.05758084784573,948.8519848773757,-47.34429122339903,-90.02399444580078,4381.2578125,True
1599566256.6203494,0.0,10,0.5,0.5,0.0008169326782226562,-0.001,-0.03,-0.5,-0.031048959964645406,10,1,100,0.0064707267353257825,-10,-1,-100,6366.86776074057,0.0015718996964314148,0.002239670171797879,0.999996256497426,232.85076954335705,26.224978558561745,966.7241989723734,-47.90756333755142,-90.02339172363281,4381.2578125,True
1599566256.6813252,0.0,10,0.5,0.5,0.001311767578125,-0.001,-0.03,-0.5,-0.01744337062388743,10,1,100,0.0055779353027616725,-10,-1,-100,6364.896566476207,0.001361194322999116,0.0018425325584335162,0.9999973761084507,233.7059832575139,26.33957302939488,978.8429719065681,-48.282929222225356,-90.02397155761719,4381.2578125,True
1599566256.7401652,0.0,10,0.5,0.5,0.0018585281372070312,-0.001,-0.03,-0.5,-0.04233445681649615,10,1,100,0.026399154154432093,-10,-1,-100,6361.949785907054,0.0009806598783149763,0.001258272366483136,0.9999987275276179,235.0256717334858,26.515863467008735,997.3295472158222,-48.84575226251611,-90.02581024169922,4381.2578125,True
1599566256.7995574,0.0,10,0.5,0.5,0.0018797988891601563,-0.001,-0.03,-0.5,-0.02770059743262385,10,1,100,0.021275841448837304,-10,-1,-100,6359.94587797299,0.0006821320760867319,0.0008633393388044046,0.9999993946703253,235.922865219537,26.635524898012196,1009.8327317486915,-49.220816101496396,-90.02778625488281,4381.2578125,True
1599566256.866338,0.0,10,0.5,0.5,0.0013613662719726563,-0.001,-0.03,-0.5,-0.00945166212066347,10,1,100,0.008821140100805052,-10,-1,-100,6358.974685819121,0.000525114475605046,0.000673605174256383,0.9999996352553617,236.37687032380495,26.696020092345996,1016.1395468676711,-49.408302297508584,-90.02879333496094,4381.2578125,True
1599566256.9261777,0.0,10,0.5,0.5,0.0013790817260742189,-0.001,-0.03,-0.5,-0.011595687925589907,10,1,100,0.011417800697099665,-10,-1,-100,6358.003494261997,0.00036011294072797306,0.0004848927668162363,0.9999998175988207,236.83391313781692,26.756895073246653,1022.4810815892365,-49.59575784493998,-90.02986907958984,4381.2578125,True
1599566256.9850209,0.0,10,0.5,0.5,0.002042243957519531,-0.001,-0.03,-0.5,-0.034914570547486375,10,1,100,0.03418724842752032,-10,-1,-100,6355.997634340893,4.614311122017804e-06,0.00010478208787210316,0.9999999944997111,237.7540530341959,26.87944317834769,1035.2559190700772,-49.970576781788125,-90.03229522705078,4381.2578125,True
1599566257.0458574,0.0,10,0.5,0.5,0.0022327194213867187,-0.001,-0.03,-0.5,-0.03902516060858158,10,1,100,0.04156876859453674,-10,-1,-100,6353.993240316049,-0.0003838374611552101,-0.00027466939430427424,0.9999998886127575,238.68633411565622,27.003521294663454,1048.172183925587,-50.345272192330334,-90.03508758544922,4381.2578125,True
1599566257.128638,0.0,10,0.5,0.5,0.0024588546752929686,-0.001,-0.03,-0.5,-0.04255650395396446,10,1,100,0.04876361385788674,-10,-1,-100,6351.925370558281,-0.0008002844187533501,-0.0006485768716566455,0.9999994694463046,239.6342108510466,27.12952840799917,1061.247102423765,-50.71984305153349,-90.03826904296875,4381.2578125,True
1599566257.1884801,0.0,10,0.5,0.5,0.002599365234375,-0.001,-0.03,-0.5,-0.04551068353948588,10,1,100,0.05557721894584182,-10,-1,-100,6349.919513233472,-0.001238337136905458,-0.0010118574854635866,0.9999987213319648,240.59659965567903,27.257350363233428,1074.4781960574223,-51.09428865640699,-90.0416488647461,4381.2578125,True
1599566257.2682643,0.0,10,0.5,0.5,0.004612739562988281,-0.001,-0.03,-0.5,-0.08742967334037059,10,1,100,0.11659225057350994,-10,-1,-100,6345.784754759632,-0.002188475373931846,-0.0017197147359821197,0.9999961265708804,242.547796354197,27.51652767174875,1101.34011252181,-51.8428008114362,-90.04893493652344,4381.2578125,True
1599566257.3391058,0.0,10,0.5,0.5,0.0029001617431640625,-0.001,-0.03,-0.5,-0.05420517910763245,10,1,100,0.07738190889290879,-10,-1,-100,6343.717377366265,-0.0026923612331591308,-0.002057581029876094,0.9999942587591668,243.53311371852686,27.647501000368937,1114.9581501462267,-52.216865929310686,-90.0526351928711,4381.2578125,True
1599566257.4088874,0.0,10,0.5,0.5,0.002798736572265625,-0.001,-0.03,-0.5,-0.05457300324200446,10,1,100,0.08180488875584949,-10,-1,-100,6341.58701199037,-0.003186963144341434,-0.0023645305041028073,0.9999921260997067,244.5206133822011,27.778918073705324,1128.6828681631046,-52.59080290614304,-90.05595397949219,4381.2578125,True
1599566257.5046318,0.0,10,0.5,0.5,0.0012297744750976562,-0.001,-0.03,-0.5,-0.024240336106391716,10,1,100,0.03276145993988481,-10,-1,-100,6341.58701199037,-0.003186963144341434,-0.0023645305041028073,0.9999921260997067,244.5206133822011,27.778918073705324,1128.6828681631046,-52.59080290614304,-90.05595397949219,4381.2578125,True
1599566257.5724506,0.0,10,0.5,0.5,0.003729988098144531,-0.001,-0.03,-0.5,-0.07409465999417868,10,1,100,0.1194972260402618,-10,-1,-100,6338.421983762295,-0.003971952749599017,-0.0028148172032255005,0.999988150127524,245.9888362921589,27.974938764670433,1149.3916904421435,-53.15146702459724,-90.06077575683594,4381.2578125,True
1599566257.649245,0.0,10,0.5,0.5,0.0029210433959960935,-0.001,-0.03,-0.5,-0.059641727279211576,10,1,100,0.09943452404816754,-10,-1,-100,6336.291620603995,-0.004499103220609414,-0.0030896071574032643,0.9999851060879973,246.96628864944338,28.105721646984662,1163.3128885319372,-53.525081204082746,-90.06378173828125,4381.2578125,True
1599566257.724045,0.0,10,0.5,0.5,0.0030716552734374996,-0.001,-0.03,-0.5,-0.06134447968256983,10,1,100,0.10644764930543857,-10,-1,-100,6334.098759061075,-0.005037669136447387,-0.0033516462285733796,0.9999816940110605,247.94462492293314,28.236817707951207,1177.3362619244763,-53.898565331785456,-90.06687927246094,4381.2578125,True
1599566257.791941,0.0,10,0.5,0.5,0.0023261260986328124,-0.001,-0.03,-0.5,-0.04869256177511579,10,1,100,0.08207778239954513,-10,-1,-100,6333.064584340085,-0.005301146375839632,-0.003471703922918043,0.9999799223579309,248.43410747129474,28.302483509576287,1184.3864240609132,-54.08525836887863,-90.06827545166016,4381.2578125,True
1599566257.8537402,0.0,10,0.5,0.5,0.004491142272949219,-0.001,-0.03,-0.5,-0.08690684291735391,10,1,100,0.1757576807890498,-10,-1,-100,6328.678863544948,-0.006387836297996547,-0.003925343442225707,0.9999718932181498,250.37356020125281,28.563598428068723,1212.745807120853,-54.83170270443216,-90.07379150390625,4381.2578125,True
1599566257.9205616,0.0,10,0.5,0.5,0.0025238800048828125,-0.001,-0.03,-0.5,-0.05342956089962002,10,1,100,0.09816811617406782,-10,-1,-100,6327.581701358082,-0.006665296956294594,-0.0040304251990982125,0.9999696642844718,250.85486233982417,28.62861350899317,1219.8803107980336,-55.01823139754377,-90.07515716552734,4381.2578125,True
1599566257.9923692,0.0,10,0.5,0.5,0.0032335205078124997,-0.001,-0.03,-0.5,-0.06390647347511606,10,1,100,0.1297415036970673,-10,-1,-100,6325.389330811333,-0.007199631114211551,-0.004218454576292605,0.9999651843703394,251.81671248599338,28.758733592128632,1234.2200983172672,-55.391189523210485,-90.0777359008789,4381.2578125,True
1599566258.0520356,0.0,10,0.5,0.5,0.0025847930908203124,-0.001,-0.03,-0.5,-0.05457032127071965,10,1,100,0.10528883907599967,-10,-1,-100,6324.229669436696,-0.007458536892362462,-0.004302244681119984,0.9999629297719635,252.2943608149002,28.823508881721075,1241.411256566683,-55.57761888837639,-90.07884216308594,4381.2578125,True
1599566258.1198883,0.0,10,0.5,0.5,0.003857086181640625,-0.001,-0.03,-0.5,-0.07321580563510387,10,1,100,0.16937719829820827,-10,-1,-100,6320.877150164219,-0.008272194342102274,-0.004545881303683601,0.9999554518897027,253.7049106975608,29.015635244920173,1263.022670513604,-56.136707687662835,-90.08232879638672,4381.2578125,True
1599566258.193332,0.0,10,0.5,0.5,0.003309013366699219,-0.001,-0.03,-0.5,-0.06412616196217305,10,1,100,0.14677946373785805,-10,-1,-100,6318.622769475216,-0.008801826044773682,-0.004682752971896989,0.9999502986063266,254.63613047657554,29.142980084169963,1277.5081911821694,-56.50926663326489,-90.08455657958984,4381.2578125,True
1599566258.2526813,0.0,10,0.5,0.5,0.0033970489501953124,-0.001,-0.03,-0.5,-0.06364322162745165,10,1,100,0.1513766987223349,-10,-1,-100,6316.366924338741,-0.00931999803533345,-0.00480068391953188,0.9999450440251836,255.5600545456458,29.269741266004882,1292.0558040040341,-56.88169153826439,-90.08678436279297,4381.2578125,True
1599566258.315514,0.0,10,0.5,0.5,0.0028657302856445314,-0.001,-0.03,-0.5,-0.05763467682056844,10,1,100,0.1277424366894212,-10,-1,-100,6315.206287111971,-0.009571344694374264,-0.004851465403940746,0.9999424246646282,256.0182600286008,29.33278775293731,1299.3476456220185,-57.06785361701837,-90.0877914428711,4381.2578125,True
1599566258.3795023,0.0,10,0.5,0.5,0.004402717590332031,-0.001,-0.03,-0.5,-0.0710303988676323,10,1,100,0.21313901294818544,-10,-1,-100,6310.632586119347,-0.010571563039969438,-0.005017807991788898,0.999931529484819,257.810645788778,29.580984694230423,1328.5537895997836,-57.81216546153566,-90.09172058105469,4381.2578125,True
1599566258.4393432,0.0,10,0.5,0.5,0.002512672424316406,-0.001,-0.03,-0.5,-0.05456275625913865,10,1,100,0.11367056777902017,-10,-1,-100,6310.632586119347,-0.010571563039969438,-0.005017807991788898,0.999931529484819,257.810645788778,29.580984694230423,1328.5537895997836,-57.81216546153566,-90.09172058105469,4381.2578125,True
1599566258.5036824,0.0,10,0.5,0.5,0.0035538787841796877,-0.001,-0.03,-0.5,-0.061075670705090956,10,1,100,0.1680809672992754,-10,-1,-100,6308.31424166041,-0.01106141174773164,-0.0050756107557804,0.9999259389302805,258.6863425775989,29.70312493932576,1343.1971889160343,-58.18411879156773,-90.09365844726562,4381.2578125,True
1599566258.5635219,0.0,10,0.5,0.5,0.003496925354003906,-0.001,-0.03,-0.5,-0.059199062859003865,10,1,100,0.16798618147067718,-10,-1,-100,6305.933396899491,-0.01150161836048299,-0.005110052954159561,0.9999207969303846,259.54984806293027,29.824132873200625,1357.87371384786,-58.55593677954545,-90.0953598022461,4381.2578125,True
1599566258.620371,0.0,10,0.5,0.5,0.003624214172363281,-0.001,-0.03,-0.5,-0.05865696650422092,10,1,100,0.1765015683082246,-10,-1,-100,6303.615052040317,-0.011974822142049023,-0.005135454415137988,0.9999151117683023,260.39191762483,29.94294517369965,1372.53356449036,-58.9276191208289,-90.0971908569336,4381.2578125,True
