Timestamp,Input Throttle,horizon,dT,dt,Input Roll,Roll P,Roll I,Roll D,Input Pitch,Pitch P,Pitch I,Pitch D,Input Yaw,Yaw P,Yaw I,Yaw D,Altitude,Direction X,Direction Y,Direction Z,Drag X,Drag Y,Drag Z,Vertical Velocity,Roll,Mass,Has Fuel
1599572872.017164,0.0,10,0.5,0.5,-10.811880493164063,-0.2,-0.00825,-0.5,-0.06859142558196152,10,1,100,0.6815892624301231,-10,-1,-100,6483.617967132479,-0.06725810734055862,-0.0070023816824480445,0.9977110371484016,205.07319176926092,21.49877347387304,-156.76522052033272,9.590824345090532,-35.94464111328125,4381.2578125,True
1599572872.0983763,0.0,10,0.5,0.5,-10.856821012878418,-0.2,-0.00825,-0.5,-0.06905513775240557,10,1,100,0.6894772355245609,-10,-1,-100,6483.776675120927,-0.06735056508042152,-0.006987209707536047,0.9977049064146428,204.842822622967,21.477795231829624,-153.51330658798395,9.40081042933623,-35.9429931640625,4381.2578125,True
1599572872.1756818,0.0,10,0.5,0.5,-10.902965284729005,-0.2,-0.00825,-0.5,-0.0677545695205017,10,1,100,0.7080771078216884,-10,-1,-100,6484.1565918165725,-0.06754247953292493,-0.0069552416466828,0.997692155964043,204.38108768065788,21.435600847604093,-147.02543690759856,9.020798162359362,-35.939605712890625,4381.2578125,True
1599572872.2514815,0.0,10,0.5,0.5,-10.84472087173462,-0.2,-0.00825,-0.5,-0.03742053733718132,10,1,100,0.700122769362836,-10,-1,-100,6484.53893594793,-0.06758323279509035,-0.006644092897289042,0.9976915167899028,203.94215501789137,21.395577505183077,-140.57565323409094,8.640801216559385,-36.0841064453125,4381.2578125,True
1599572872.3262794,0.0,10,0.5,0.5,-10.447709784698487,-0.2,-0.00825,-0.5,0.0015456094544040039,10,1,100,0.6995492612297934,-10,-1,-100,6485.016950447345,-0.06755362820239935,-0.0060009526152827695,0.9976975974133652,203.44562389914373,21.35156952420712,-131.044737582998,8.070816597897728,-36.818023681640625,4381.2578125,True
1599572872.41305,0.0,10,0.5,0.5,-10.260890335083008,-0.2,-0.00825,-0.5,0.012291469106658133,10,1,100,0.6900427616142643,-10,-1,-100,6485.335757213645,-0.06737887982326418,-0.005313134586969954,0.9977133141111342,203.19779107031533,21.32991452070074,-124.76017920043884,7.690822571983692,-37.67181396484375,4381.2578125,True
1599572872.4888444,0.0,10,0.5,0.5,-9.927754936218262,-0.2,-0.00825,-0.5,0.041752067435673834,10,1,100,0.6791247003104024,-10,-1,-100,6485.590084651252,-0.06705950903053959,-0.004415191726797279,0.9977392085763686,202.97070954756242,21.309321848389242,-118.49745652213663,7.310816008640218,-38.819244384765625,4381.2578125,True
1599572872.564643,0.0,10,0.5,0.5,-9.534773981475832,-0.2,-0.00825,-0.5,0.07290038074830002,10,1,100,0.6658015330116036,-10,-1,-100,6485.909325970337,-0.06658708905350039,-0.0033116997404102483,0.9977751210649676,202.7075543395676,21.283645691645408,-112.2233000939302,6.9307885718142135,-40.26055908203125,4381.2578125,True
1599572872.6444292,0.0,10,0.5,0.5,-9.714834899139404,-0.2,-0.00825,-0.5,0.031151023711965188,10,1,100,0.6871332357569055,-10,-1,-100,6486.005460376618,-0.06629100720019158,-0.0026850541806247093,0.9977967192010762,202.54066693129877,21.266565839659712,-109.07124474873282,6.740764202990045,-41.091461181640625,4381.2578125,True
1599572872.7252152,0.0,10,0.5,0.5,-8.852944453430176,-0.2,-0.00825,-0.5,0.12048772283486403,10,1,100,0.6434366551611099,-10,-1,-100,6486.261185328476,-0.06556433568522163,-0.0013007836304472983,0.9978474962879359,202.08302771346763,21.21825121616039,-102.71548775995181,6.3606881977916805,-42.973876953125,4381.2578125,True
1599572872.8089902,0.0,10,0.5,0.5,-7.470363441467285,-0.2,-0.00825,-0.5,0.24569868057788494,10,1,100,0.5649267066230244,-10,-1,-100,6486.675487564062,-0.06413039447064342,0.0010971081070418537,0.9979409245335322,200.8952066862706,21.090180311829638,-92.99211813153961,5.790481777001538,-46.3489990234375,4381.2578125,True
1599572872.8927646,0.0,10,0.5,0.5,-8.258874572753907,-0.2,-0.00825,-0.5,0.10410100547649727,10,1,100,0.6449515925471565,-10,-1,-100,6486.772073717904,-0.06355715388658253,0.0019823949222107498,0.9979762313302906,200.30716936626672,21.026554810193193,-89.68637732435552,5.600380163943987,-47.62109375,4381.2578125,True
1599572872.978538,0.0,10,0.5,0.5,-5.904071072387696,-0.2,-0.00825,-0.5,0.3214303001049246,10,1,100,0.47665028817077393,-10,-1,-100,6487.061797716538,-0.06150946278055447,0.004754767792050225,0.9980951749065273,197.74081617757994,20.749353979186434,-79.54545132332893,5.029942961629623,-51.879974365234375,4381.2578125,True
1599572873.0603166,0.0,10,0.5,0.5,-6.923384867858887,-0.2,-0.00825,-0.5,0.1515951104338033,10,1,100,0.5939464779554697,-10,-1,-100,6487.157874656143,-0.06071973897016471,0.005720505031767979,0.998138461898737,196.55725377300226,20.62188722474627,-76.08734643957212,4.839744357408586,-53.44708251953125,4381.2578125,True
1599572873.1386836,0.0,10,0.5,0.5,-4.092254382324219,-0.2,-0.00825,-0.5,0.3912840835295052,10,1,100,0.37569687507213045,-10,-1,-100,6487.44852095528,-0.05802396047434814,0.008766198097900448,0.9982767020129137,191.74991753255028,20.106469327667085,-65.49107948088567,4.268939533789625,-58.5904541015625,4381.2578125,True
1599572873.2204676,0.0,10,0.5,0.5,-3.9872041145324717,-0.2,-0.00825,-0.5,0.3149045025347988,10,1,100,0.41564367233560384,-10,-1,-100,6487.578629134106,-0.05594506878757197,0.010827225466511558,0.9983751401487575,187.29243537703164,19.63129767928453,-58.2734571256008,3.8881872982135572,-62.388702392578125,4381.2578125,True
1599572873.2982578,0.0,10,0.5,0.5,-4.459143614196778,-0.2,-0.00825,-0.5,0.22656466709357004,10,1,100,0.49815935244143045,-10,-1,-100,6487.675174210686,-0.0548157041742245,0.011883124243007323,0.9984257758762588,184.63021729692574,19.348473913236393,-54.63585785548903,3.697734376895897,-64.39840698242188,4381.2578125,True
1599572873.3800385,0.0,10,0.5,0.5,-0.910196566772461,-0.2,-0.00825,-0.5,0.4468742379417226,10,1,100,0.20775783992889119,-10,-1,-100,6487.839798995177,-0.05116012605275492,0.014831029851195946,0.9985803333011416,174.75600745296833,18.304306118270425,-43.727995507348,3.1260051595714304,-70.87368774414062,4381.2578125,True
1599572873.4618201,0.0,10,0.5,0.5,-2.5081249397277836,-0.2,-0.00825,-0.5,0.2608608227986794,10,1,100,0.42593552402306256,-10,-1,-100,6487.934874910046,-0.04983433121863935,0.01580341960316557,0.9986324605984112,170.7584910019902,17.883350247953164,-40.12347067790184,2.9352745189002936,-73.1800537109375,4381.2578125,True
1599572873.5366607,0.0,10,0.5,0.5,1.5174326217651366,-0.2,-0.00825,-0.5,0.4694177146745678,10,1,100,0.08935753276456426,-10,-1,-100,6488.100473917206,-0.04558422388162208,0.018566574327660765,0.9987879458878373,156.61752713497688,16.398276915868454,-29.62675342402905,2.362631347377013,-80.54043579101562,4381.2578125,True
1599572873.6230597,0.0,10,0.5,0.5,1.5499203941345214,-0.2,-0.00825,-0.5,0.3810932174458375,10,1,100,0.17844258191121531,-10,-1,-100,6488.167098322767,-0.04254851776003375,0.020257521958796935,0.9988890110720574,145.37433618896478,15.220032337003333,-23.055882210599506,1.980610366003965,-85.79998779296875,4381.2578125,True
1599572873.6974533,0.0,10,0.5,0.5,2.7774732582092287,-0.2,-0.00825,-0.5,0.38210129061078646,10,1,100,0.13385985106438952,-10,-1,-100,6488.23470853921,-0.039403107256991955,0.02178649282146412,0.9989858576922069,151.99269181851406,15.912889396458063,-19.457189997722267,1.5985089549844438,-91.26396179199219,4381.2578125,True
1599572873.7812266,0.0,10,0.5,0.5,3.7806203479766847,-0.2,-0.00825,-0.5,0.38074081969176266,10,1,100,0.09218435336595437,-10,-1,-100,6488.30135804601,-0.03618673322663145,0.023146094690171114,0.9990769633211339,159.5327918347376,16.701383105242385,-15.542857440388625,1.2164352727279408,-96.54843139648438,4381.2578125,True
1599572873.8585303,0.0,10,0.5,0.5,2.953275047683716,-0.2,-0.00825,-0.5,0.3150921633483232,10,1,100,0.22981518856640243,-10,-1,-100,6488.273409525049,-0.03453696690953863,0.023768571034147912,0.9991207399247021,163.30708567727936,17.09554544212473,-13.413057338646313,1.0254282107860284,-99.08848571777344,4381.2578125,True
1599572873.929733,0.0,10,0.5,0.5,5.124905187988281,-0.2,-0.00825,-0.5,0.3759689465749728,10,1,100,0.028746499503897627,-10,-1,-100,6488.341061473126,-0.03123308469530477,0.02487147658891238,0.9992026341401943,169.57749769742676,17.74963151945483,-8.741072317789817,0.6434670580732305,-103.95134735107422,4381.2578125,True
1599572874.0254755,0.0,10,0.5,0.5,7.451437727165223,-0.2,-0.00825,-0.5,0.41387867745697926,10,1,100,-0.19469810274785349,-10,-1,-100,6488.31781905645,-0.02622259618532993,0.026204110757179218,0.9993126237713235,177.8521839662499,18.613726353759887,-1.00518029274507,0.07053941598766933,-110.69497680664062,4381.2578125,True
1599572874.0973253,0.0,10,0.5,0.5,7.008754087638855,-0.2,-0.00825,-0.5,0.3567799664701722,10,1,100,-0.0635114598408934,-10,-1,-100,6488.322041747626,-0.022887232905054476,0.02688253818727749,0.9993765575150138,181.9540310491575,19.042382922428338,4.542006210483735,-0.31151273989186556,-114.82251739501953,4381.2578125,True
1599572874.1790662,0.0,10,0.5,0.5,6.353829930877686,-0.2,-0.00825,-0.5,0.32147874574331303,10,1,100,0.08564884139329193,-10,-1,-100,6488.355167412548,-0.021240113089904995,0.027164734377173316,0.9994052905614146,183.65258830252642,19.21980522314805,7.396848767850399,-0.5025858048105869,-116.77572631835938,4381.2578125,True
1599572874.2648654,0.0,10,0.5,0.5,9.207085312652588,-0.2,-0.00825,-0.5,0.36487537926581604,10,1,100,-0.2851828318918462,-10,-1,-100,6488.268542475416,-0.01639873442168862,0.027804578759532298,0.9994788576600167,188.24147518789852,19.69931656788833,16.234757160091284,-1.0759708331398223,-122.19285583496094,4381.2578125,True
1599572874.353599,0.0,10,0.5,0.5,7.6996876224517825,-0.2,-0.00825,-0.5,0.31814274817132926,10,1,100,0.021042621040013754,-10,-1,-100,6488.241632433608,-0.014811744837960597,0.02795050322522116,0.9994995655748491,189.2979702984374,19.809737480694718,19.228152164726126,-1.2671571811935864,-123.85104370117188,4381.2578125,True
1599572874.453333,0.0,10,0.5,0.5,9.07310884590149,-0.2,-0.00825,-0.5,0.32370922798350205,10,1,100,-0.17028835618867236,-10,-1,-100,6488.182942786603,-0.011657629495259485,0.028125235347869367,0.9995364279560691,190.8306956786712,19.96986160011333,25.23805786949458,-1.6496160668989317,-126.94644927978516,4381.2578125,True
1599572874.539104,0.0,10,0.5,0.5,9.518547596549988,-0.2,-0.00825,-0.5,0.3236070302202281,10,1,100,-0.17873697772820155,-10,-1,-100,6488.1242762042675,-0.008741528886321641,0.028276001194802454,0.9995619307622521,191.73484035376288,20.06411029526536,31.243124402487027,-2.032183227181402,-129.74530029296875,4381.2578125,True
1599572874.634847,0.0,10,0.5,0.5,10.702746025276184,-0.2,-0.00825,-0.5,0.30546392707187836,10,1,100,-0.3664964662834383,-10,-1,-100,6487.974785893923,-0.004411498053485694,0.02824222420123541,0.9995913742410403,192.2531056879702,20.11747528736774,40.18617765336837,-2.60621445984817,-133.39083862304688,4381.2578125,True
1599572874.7345812,0.0,10,0.5,0.5,9.657315510749816,-0.2,-0.00825,-0.5,0.30609174646907467,10,1,100,-0.08609533541296831,-10,-1,-100,6487.882972826017,-0.0030530941544328746,0.02821259244750255,0.9995972830312592,192.25104640038515,20.116805249334575,43.14027911816364,-2.7976007400435208,-134.45790100097656,4381.2578125,True
1599572874.833659,0.0,10,0.5,0.5,11.082856057167053,-0.2,-0.00825,-0.5,0.2923567965362941,10,1,100,-0.3798734974287989,-10,-1,-100,6487.732557158568,0.0008239073423453255,0.028056751288889806,0.9996059923208768,191.9837787509696,20.08677092088656,51.93654201907252,-3.371867922166663,-137.2148895263672,4381.2578125,True
1599572874.9368927,0.0,10,0.5,0.5,10.759373796844484,-0.2,-0.00825,-0.5,0.29057590869786554,10,1,100,-0.2619262810506929,-10,-1,-100,6487.549942746409,0.003247064015944861,0.0278959919146198,0.9996055573126712,191.70656929051495,20.055701090912656,57.76128655525882,-3.7547921485975904,-138.68284606933594,4381.2578125,True
1599572875.0386174,0.0,10,0.5,0.5,10.484693098068238,-0.2,-0.00825,-0.5,0.2949975229868475,10,1,100,-0.15136123158036333,-10,-1,-100,6487.518698436674,0.004418006305667557,0.0277885054486765,0.9996040617090409,191.56567274254968,20.0396928522598,60.667770084951435,-3.946275430926411,-139.30599975585938,4381.2578125,True
1599572875.1383572,0.0,10,0.5,0.5,10.908845523262025,-0.2,-0.00825,-0.5,0.2933410975536535,10,1,100,-0.2728627686768852,-10,-1,-100,6487.336589520215,0.0065622357797377314,0.02767490846000683,0.9995954364158038,191.37644007319827,20.016856365256878,66.5023850972209,-4.329280863669007,-140.32818603515625,4381.2578125,True
1599572875.964147,0.0,10,0.5,0.5,10.925755550575257,-0.2,-0.00825,-0.5,0.28544235937920337,10,1,100,-0.2857800538397469,-10,-1,-100,6487.152049241122,0.008603690304127868,0.02749936796500955,0.9995847944395091,191.2829254044157,20.00334604297675,72.36493846382733,-4.71233381755242,-141.05471801757812,4381.2578125,True
1599572876.0369523,0.0,10,0.5,0.5,10.754631406211853,-0.2,-0.00825,-0.5,0.29186276356404156,10,1,100,-0.19110688856319966,-10,-1,-100,6487.060269373236,0.009576163437672274,0.02739843047196012,0.9995787228135101,191.27523187309188,20.000423804702812,75.31072914624106,-4.90387671754247,-141.30697631835938,4381.2578125,True
1599572876.1237488,0.0,10,0.5,0.5,10.840034747886659,-0.2,-0.00825,-0.5,0.2828841031612521,10,1,100,-0.29557277881954747,-10,-1,-100,6486.813237123657,0.011387749008428866,0.0272255468134837,0.9995644495345098,191.36168126548736,20.00475405588393,81.24749045223236,-5.286992650423667,-141.58859252929688,4381.2578125,True
1599572876.196563,0.0,10,0.5,0.5,10.617974501419068,-0.2,-0.00825,-0.5,0.2701173878759396,10,1,100,-0.3868115616479287,-10,-1,-100,6486.474433538271,0.013843138118007699,0.026953136701851736,0.9995408425617119,191.77006424714529,20.03936450273843,90.30072483588987,-5.861733978005985,-141.45526123046875,4381.2578125,True
1599572876.2792113,0.0,10,0.5,0.5,10.694300868606568,-0.2,-0.00825,-0.5,0.297226112589841,10,1,100,-0.14353111739047833,-10,-1,-100,6486.474433538271,0.013843138118007699,0.026953136701851736,0.9995408425617119,191.77006424714529,20.03936450273843,90.30072483588987,-5.861733978005985,-141.45526123046875,4381.2578125,True
1599572876.3689704,0.0,10,0.5,0.5,10.379237708663942,-0.2,-0.00825,-0.5,0.2779191999091305,10,1,100,-0.30479013886089806,-10,-1,-100,6486.226918757078,0.015292534098491975,0.02677879121157199,0.9995244042754001,192.23511714927972,20.082094777243938,96.45870977019166,-6.244932385609459,-140.99566650390625,4381.2578125,True
1599572876.453748,0.0,10,0.5,0.5,10.084664934539795,-0.2,-0.00825,-0.5,0.2811741545267388,10,1,100,-0.3019392424431219,-10,-1,-100,6485.979892777745,0.01656757172399524,0.026651189263510414,0.9995074935577076,192.83539518086764,20.13875742479669,102.72138733152326,-6.628153577666566,-140.23886108398438,4381.2578125,True
1599572876.5395215,0.0,10,0.5,0.5,9.729289227676391,-0.2,-0.00825,-0.5,0.2707228426639018,10,1,100,-0.3060664697133711,-10,-1,-100,6485.73286418838,0.017749904663835334,0.02644145335017899,0.9994927665717022,193.5504323646101,20.207426400966614,109.08989020321938,-7.011390519311764,-139.18704223632812,4381.2578125,True
1599572876.6322744,0.0,10,0.5,0.5,8.760958241271972,-0.2,-0.00825,-0.5,0.2694903199811357,10,1,100,-0.345705307634597,-10,-1,-100,6485.268563942518,0.019171921462384847,0.02624090189418386,0.9994717867429876,194.72103784224544,20.321274512219954,118.79319399940763,-7.586259099571118,-137.05181884765625,4381.2578125,True
1599572876.7138357,0.0,10,0.5,0.5,9.224859345245362,-0.2,-0.00825,-0.5,0.2814476357891716,10,1,100,-0.24920255122869286,-10,-1,-100,6485.112818625057,0.01957395357087008,0.02616869217203815,0.999465887307621,195.11054899212792,20.359485796335306,122.05345890159464,-7.777880730236388,-136.19203186035156,4381.2578125,True
1599572876.7946203,0.0,10,0.5,0.5,7.5345070156097425,-0.2,-0.00825,-0.5,0.26729469797068844,10,1,100,-0.31654821936855004,-10,-1,-100,6484.5855127391405,0.020539841818227052,0.025975753186544905,0.9994515371664972,196.14186259366807,20.461540071309933,131.8208017244062,-8.352724555391571,-133.16798400878906,4381.2578125,True
1599572876.8761265,0.0,10,0.5,0.5,8.230692110443115,-0.2,-0.00825,-0.5,0.2800558818329483,10,1,100,-0.2473690637098001,-10,-1,-100,6484.429272417445,0.020778169581186483,0.02591774997555201,0.9994481166649224,196.40145175237092,20.487546519188854,135.04214804390034,-8.544328524797463,-132.0117950439453,4381.2578125,True
1599572876.9584174,0.0,10,0.5,0.5,6.062609462356567,-0.2,-0.00825,-0.5,0.26294049779446704,10,1,100,-0.2805186264486843,-10,-1,-100,6483.902431910392,0.02128600720319081,0.025710771456569012,0.9994427758148308,196.74901397463628,20.523708694712358,144.44443682007184,-9.119097414465841,-128.09963989257812,4381.2578125,True
1599572877.049176,0.0,10,0.5,0.5,5.923024960708618,-0.2,-0.00825,-0.5,0.26717397383440056,10,1,100,-0.24646549588781763,-10,-1,-100,6483.528895214549,0.0214291054379189,0.025562472380908332,0.999443521889009,196.47214389618156,20.497968732091827,150.3469176428297,-9.502235391414304,-125.12173461914062,4381.2578125,True
1599572877.1283612,0.0,10,0.5,0.5,6.278701107406617,-0.2,-0.00825,-0.5,0.2722998972873081,10,1,100,-0.23518495073120638,-10,-1,-100,6483.310629307991,0.021449747997775322,0.02547551858380773,0.9994452992854176,196.13438886774404,20.465426089205735,153.13776023798007,-9.693791673220638,-123.52201843261719,4381.2578125,True
1599572877.2061164,0.0,10,0.5,0.5,4.668873680877685,-0.2,-0.00825,-0.5,0.26117467203526645,10,1,100,-0.22517928429946277,-10,-1,-100,6482.937077966402,0.021370638257465522,0.025296674555168663,0.9994515366324264,194.9658667856987,20.351310012753537,158.29116701430306,-10.076882769627446,-120.10074615478516,4381.2578125,True
1599572877.289894,0.0,10,0.5,0.5,3.7608928789138805,-0.2,-0.00825,-0.5,0.25377607589335566,10,1,100,-0.2109759486888611,-10,-1,-100,6482.501504380489,0.021164073529670258,0.02506817648843978,0.9994616893704207,193.33061839491265,20.191728639864973,162.9833836525574,-10.45995662948733,-116.38449096679688,4381.2578125,True
1599572877.3676865,0.0,10,0.5,0.5,1.31009958972931,-0.2,-0.00825,-0.5,0.22853136842875177,10,1,100,-0.17128128306436308,-10,-1,-100,6481.848124144133,0.02061124817890124,0.024632392735167187,0.9994840777504403,189.5946750413373,19.82378790675742,168.6995633329678,-11.0345769524041,-110.25700378417969,4381.2578125,True
1599572877.4504633,0.0,10,0.5,0.5,1.23255875453949,-0.2,-0.00825,-0.5,0.23167021017847717,10,1,100,-0.17032439920025633,-10,-1,-100,6481.410571765271,0.020097379512605647,0.024266405212294163,0.9995034951988907,185.74159659988737,19.43835736472251,171.06936071285702,-11.417709262801928,-105.80355072021484,4381.2578125,True
1599572877.5262613,0.0,10,0.5,0.5,1.7974626796722415,-0.2,-0.00825,-0.5,0.24498357263296014,10,1,100,-0.18911645760960002,-10,-1,-100,6481.193746190984,0.01980022174873985,0.024056514847161158,0.9995144998008326,183.3525323858524,19.19740403317407,171.73347529000304,-11.609304057203481,-103.46634674072266,4381.2578125,True
1599572877.618016,0.0,10,0.5,0.5,-2.278399230766296,-0.2,-0.00825,-0.5,0.18448967738372068,10,1,100,-0.10754189937241343,-10,-1,-100,6480.475872508949,0.018788285735634822,0.023317681083251593,0.999551542476933,175.54612948366753,18.405630293151578,172.66038676841782,-12.184241355297443,-96.01282501220703,4381.2578125,True
1599572877.6948109,0.0,10,0.5,0.5,-0.42446437683105465,-0.2,-0.00825,-0.5,0.2263577374102501,10,1,100,-0.16679362600689543,-10,-1,-100,6480.195562533685,0.01840858828956426,0.023029049181850704,0.9995652989029608,172.18935013515502,18.061011055885263,172.05630690873951,-12.375950012133647,-93.38114929199219,4381.2578125,True
1599572877.7745993,0.0,10,0.5,0.5,-4.913627597808838,-0.2,-0.00825,-0.5,0.1451290077967612,10,1,100,-0.06871137203209031,-10,-1,-100,6479.476692545228,0.017173906103630635,0.022030839639357907,0.99960977338856,160.63259405734453,16.86178858204081,168.068242262764,-12.951275571708337,-85.13381958007812,4381.2578125,True
1599572877.8543837,0.0,10,0.5,0.5,-4.594852292633057,-0.2,-0.00825,-0.5,0.15877776332319882,10,1,100,-0.09398732060778194,-10,-1,-100,6478.914107877645,0.01628498737719686,0.021250801407165898,0.999641537065001,161.0159125518323,16.901088542640572,173.52823227795534,-13.33490658049531,-79.7489013671875,4381.2578125,True
1599572877.9337513,0.0,10,0.5,0.5,-3.7859988693237305,-0.2,-0.00825,-0.5,0.1888256738387883,10,1,100,-0.13126392876018497,-10,-1,-100,6478.635255479952,0.01582043417097048,0.020818758265291015,0.999658088131604,166.27467908573036,17.44963198078357,181.80924596529852,-13.526666269018268,-77.11151123046875,4381.2578125,True
1599572878.0175607,0.0,10,0.5,0.5,-7.774775819015503,-0.2,-0.00825,-0.5,0.08048013689790837,10,1,100,-0.02407946573849215,-10,-1,-100,6477.791374076391,0.014428826423137291,0.01944526576441359,0.9997068023212619,179.9038002647317,18.860268326976218,205.19964823789618,-14.101642754700258,-69.5841064453125,4381.2578125,True
1599572878.0953186,0.0,10,0.5,0.5,-7.310757466697693,-0.2,-0.00825,-0.5,0.10281553812801895,10,1,100,-0.05706325149039122,-10,-1,-100,6477.229762962088,0.013469891806337411,0.018405004782790352,0.9997398750743469,187.61735059376633,19.651421513807122,219.901990947864,-14.48468008208301,-64.9298095703125,4381.2578125,True
1599572878.1741087,0.0,10,0.5,0.5,-8.075720396232605,-0.2,-0.00825,-0.5,0.08590469300264107,10,1,100,-0.04714584005125122,-10,-1,-100,6476.6666889031185,0.012514969488639277,0.017311635454452745,0.9997718153741836,193.9432394056237,20.295566052971346,233.42200311450154,-14.867493640216715,-60.573150634765625,4381.2578125,True
1599572878.2598794,0.0,10,0.5,0.5,-8.77916074695587,-0.2,-0.00825,-0.5,0.06783444959968322,10,1,100,-0.03675420608635485,-10,-1,-100,6476.041606563376,0.01155974914440579,0.016160043631646862,0.9998025931100307,199.00375758590602,20.80760000363758,245.78018213728393,-15.250098869670015,-56.514892578125,4381.2578125,True
1599572878.3377156,0.0,10,0.5,0.5,-8.132632117462158,-0.2,-0.00825,-0.5,0.11587665102764347,10,1,100,-0.0789422780183836,-10,-1,-100,6475.7598288395675,0.011082656422092154,0.015557258679878104,0.9998175565716962,201.1142763734297,21.02033885635923,251.55493192667993,-15.441329278007927,-54.59783935546875,4381.2578125,True
1599572878.4203935,0.0,10,0.5,0.5,-9.741839016914367,-0.2,-0.00825,-0.5,0.04003853662884996,10,1,100,-0.021693165940401535,-10,-1,-100,6475.072741685086,0.010136414351395055,0.014327561552978641,0.9998459751801986,204.59060463164772,21.3699754318385,262.3516356356816,-15.823659206533858,-50.98724365234375,4381.2578125,True
1599572878.496191,0.0,10,0.5,0.5,-11.373284437942505,-0.2,-0.00825,-0.5,-0.04991211037804574,10,1,100,0.03897717429651733,-10,-1,-100,6474.104864210356,0.008732511077138648,0.012400094755307598,0.9998849838358146,208.2504922912207,21.738662102597754,276.8989833321485,-16.396876809536266,-46.13067626953125,4381.2578125,True
1599572878.5759768,0.0,10,0.5,0.5,-10.012705531311035,-0.2,-0.00825,-0.5,0.06806620036971636,10,1,100,-0.049588470364883154,-10,-1,-100,6473.822117923875,0.008270174031293214,0.011730044995519526,0.99989699982843,209.13309562778332,21.828336453300377,281.37390352331937,-16.58788865817195,-44.66107177734375,4381.2578125,True
1599572878.6647415,0.0,10,0.5,0.5,-11.212730680084228,-0.2,-0.00825,-0.5,-0.011852631864803245,10,1,100,0.006678414606686944,-10,-1,-100,6473.1345593599835,0.0073464447917579445,0.010403738370529136,0.9999188926992225,210.65670460579915,21.985519319035518,290.07945312096024,-16.969837966571433,-41.944732666015625,4381.2578125,True
1599572878.7455237,0.0,10,0.5,0.5,-11.579054006958009,-0.2,-0.00825,-0.5,-0.025240371659404848,10,1,100,0.01736966405283652,-10,-1,-100,6472.4470078223385,0.006417623708656738,0.0090861593160748,0.9999381259932122,212.02460556981234,22.130375174247803,298.6689922649895,-17.35169905405613,-39.525726318359375,4381.2578125,True
1599572878.8282692,0.0,10,0.5,0.5,-11.884812035369873,-0.2,-0.00825,-0.5,-0.04786726034684401,10,1,100,0.025539295170349863,-10,-1,-100,6471.6979392372305,0.005507519541553078,0.00769332718663888,0.9999552389708745,213.07294452062848,22.245500487756576,306.8924957790867,-17.73348495262584,-37.405364990234375,4381.2578125,True
1599572878.905066,0.0,10,0.5,0.5,-12.1278115234375,-0.2,-0.00825,-0.5,-0.05776233873958672,10,1,100,0.037131314416146935,-10,-1,-100,6471.009425021592,0.004582880402753036,0.00634784448228836,0.9999693505691275,213.90843746700364,22.341596937089843,314.87729185937394,-18.11520490509272,-35.58160400390625,4381.2578125,True
1599572878.989838,0.0,10,0.5,0.5,-12.764856434631348,-0.2,-0.00825,-0.5,-0.1469113576959587,10,1,100,0.098970288527717,-10,-1,-100,6469.914655140601,0.003188205976832892,0.004325193815366781,0.9999855639163542,214.96018362010906,22.469598599646563,326.66377029139085,-18.68767060290677,-33.4034423828125,4381.2578125,True
1599572879.06863,0.0,10,0.5,0.5,-12.454843465423584,-0.2,-0.00825,-0.5,-0.0920626180327452,10,1,100,0.06429605407709338,-10,-1,-100,6469.16414704721,0.0022440193241946176,0.002996851243866455,0.9999929916053887,215.63452184786388,22.554658732497636,334.54648069155013,-19.069238818263315,-32.322509765625,4381.2578125,True
1599572879.15141,0.0,10,0.5,0.5,-12.23475396347046,-0.2,-0.00825,-0.5,-0.032720230187105154,10,1,100,0.023305306400052402,-10,-1,-100,6468.757401520736,0.0017667798277876603,0.0023407098796335954,0.9999956997739038,215.98624271177056,22.5992860597157,338.5300446664634,-19.259999162995292,-31.893341064453125,4381.2578125,True
1599572879.2282007,0.0,10,0.5,0.5,-12.484497137451173,-0.2,-0.00825,-0.5,-0.10586866913864959,10,1,100,0.08512602769567838,-10,-1,-100,6467.943916555843,0.0007793881616341032,0.0010912469660444505,0.999999100866672,216.74667268652635,22.69536531053713,346.6284863895409,-19.641469085754828,-31.25677490234375,4381.2578125,True
1599572879.3099823,0.0,10,0.5,0.5,-12.420296868896484,-0.2,-0.00825,-0.5,-0.11866133348458026,10,1,100,0.09694887634418506,-10,-1,-100,6467.1944026034325,-0.00021721468059213573,-0.00014889234528420156,0.9999999653244255,217.6091780853006,22.80292348270013,354.9505432613755,-20.02286565859611,-30.91705322265625,4381.2578125,True
1599572879.3907695,0.0,10,0.5,0.5,-12.23083699951172,-0.2,-0.00825,-0.5,-0.19265339888400407,10,1,100,0.16719028525373236,-10,-1,-100,6465.973219936481,-0.0017536394129230276,-0.0019375386891226545,0.9999965853404889,219.13615447408282,22.98927078073388,367.94413203876485,-20.59480537028454,-30.962982177734375,4381.2578125,True
1599572879.4685595,0.0,10,0.5,0.5,-11.984786238861085,-0.2,-0.00825,-0.5,-0.13835239634146526,10,1,100,0.1312949376311428,-10,-1,-100,6465.097257614136,-0.0028149552698873734,-0.0030575102661484933,0.9999913637916084,220.31156444092676,23.129760767491653,376.9672290681943,-20.975982534582577,-31.363433837890625,4381.2578125,True
1599572879.5458667,0.0,10,0.5,0.5,-11.975867494964602,-0.2,-0.00825,-0.5,-0.08751246387067768,10,1,100,0.08551541298329687,-10,-1,-100,6464.690040583024,-0.0033543727339094107,-0.003601247542222389,0.9999878895265191,220.94172910644076,23.204216990518635,381.5831908565728,-21.166533295950025,-31.6746826171875,4381.2578125,True
1599572879.6346722,0.0,10,0.5,0.5,-11.174486329650879,-0.2,-0.00825,-0.5,-0.19833368631957726,10,1,100,0.21627606968109997,-10,-1,-100,6463.4073620704,-0.005024601856234412,-0.005091485809226566,0.999974414746918,222.9619521074721,23.439462815853634,395.7934713067971,-21.738023674872732,-33.05108642578125,4381.2578125,True
1599572880.354976,0.0,10,0.5,0.5,-11.44166198348999,-0.2,-0.00825,-0.5,-0.1020697544230853,10,1,100,0.11282942820295931,-10,-1,-100,6462.938138758414,-0.005592993298185147,-0.005559498659266013,0.9999689047168538,223.66175784465645,23.519839237590357,400.62423894828015,-21.9284642316575,-33.657684326171875,4381.2578125,True
1599572880.426782,0.0,10,0.5,0.5,-11.27012604827881,-0.2,-0.00825,-0.5,-0.10721470867528754,10,1,100,0.11999108521334187,-10,-1,-100,6462.530927706393,-0.006165567969415712,-0.006020912340556845,0.9999628665036527,224.36430834724342,23.599969629846086,405.4841493635158,-22.118876037825636,-34.338287353515625,4381.2578125,True
1599572880.5045736,0.0,10,0.5,0.5,-10.502277164459228,-0.2,-0.00825,-0.5,-0.15274666008743312,10,1,100,0.19236199393772807,-10,-1,-100,6461.593463450321,-0.007335504318986784,-0.006844900603517176,0.9999496675893812,225.74571397779772,23.75579769256139,415.2331925482431,-22.499612943219912,-35.920257568359375,4381.2578125,True
1599572880.591344,0.0,10,0.5,0.5,-9.97597833404541,-0.2,-0.00825,-0.5,-0.15755363629217617,10,1,100,0.20654735833390814,-10,-1,-100,6460.717038692441,-0.008519332018886503,-0.007628733579117519,0.9999346095650109,227.03340519907817,23.898574726827505,424.9025254318046,-22.88023642370407,-37.7978515625,4381.2578125,True
1599572880.671644,0.0,10,0.5,0.5,-10.17533990097046,-0.2,-0.00825,-0.5,-0.11981134567006779,10,1,100,0.15512172853539105,-10,-1,-100,6460.247822589008,-0.00911868228258457,-0.007989134148136163,0.9999265089840313,227.61543685541662,23.96203563268403,429.6542514619915,-23.070507706020035,-38.84722900390625,4381.2578125,True
1599572880.7534225,0.0,10,0.5,0.5,-9.070231340789796,-0.2,-0.00825,-0.5,-0.15370356521259063,10,1,100,0.22856547116440418,-10,-1,-100,6459.309391368413,-0.010322218300351824,-0.008616627223890429,0.9999095986861234,228.59448098363478,24.06618947724708,438.86444501578615,-23.45097635772534,-41.16656494140625,4381.2578125,True
1599572880.832212,0.0,10,0.5,0.5,-7.399333477020264,-0.2,-0.00825,-0.5,-0.17947432440153288,10,1,100,0.3090050665249831,-10,-1,-100,6457.900773707661,-0.012138424634672991,-0.009413657162767776,0.9998820138927443,229.3918188924401,24.142414015092754,451.4933147365324,-24.021528433100727,-45.198150634765625,4381.2578125,True
1599572880.9110017,0.0,10,0.5,0.5,-8.359577378082275,-0.2,-0.00825,-0.5,-0.12544564241063816,10,1,100,0.19520751292247562,-10,-1,-100,6457.368085064576,-0.012745557373831484,-0.009640263526853916,0.9998722998895225,229.41814543692783,24.139884581212854,455.2499979295643,-24.21168356835383,-46.689300537109375,4381.2578125,True
1599572880.9908335,0.0,10,0.5,0.5,-6.850855046844483,-0.2,-0.00825,-0.5,-0.14187695053252272,10,1,100,0.26706485053618123,-10,-1,-100,6456.428684304585,-0.013941716931278398,-0.009989660519621444,0.9998529067876487,229.1037323299952,24.091881778811665,462.03461040260225,-24.591970536181307,-49.89166259765625,4381.2578125,True
1599572881.0685794,0.0,10,0.5,0.5,-5.989826892852784,-0.2,-0.00825,-0.5,-0.13289500268700746,10,1,100,0.2763592721354289,-10,-1,-100,6455.427759799291,-0.01510400459422569,-0.010219832429925968,0.9998336982070178,228.38635562516004,23.99580491133135,467.98701285818464,-24.972249736650998,-53.38763427734375,4381.2578125,True
1599572881.1403875,0.0,10,0.5,0.5,-5.06779411392212,-0.2,-0.00825,-0.5,-0.1296818753980335,10,1,100,0.28879239367654685,-10,-1,-100,6454.424394129659,-0.016264495026607945,-0.010395207239738772,0.9998136855774541,226.83896563113012,23.807403797520116,472.1816632680248,-25.352557602290382,-57.177978515625,4381.2578125,True
1599572881.236132,0.0,10,0.5,0.5,-2.578986795043945,-0.2,-0.00825,-0.5,-0.1158195890958619,10,1,100,0.3527803057912945,-10,-1,-100,6452.891754952143,-0.017891493255518226,-0.010424222001748423,0.9997855920469878,222.62986598828405,23.320242944637474,474.30018742031564,-25.923165505134413,-63.4130859375,4381.2578125,True
1599572881.320906,0.0,10,0.5,0.5,-2.5061261848449705,-0.2,-0.00825,-0.5,-0.10329040298610953,10,1,100,0.30314315787901114,-10,-1,-100,6451.826860918547,-0.01890867582324672,-0.010332694357431092,0.9997678217495937,218.57215497371004,22.86349528640046,472.8053534792123,-26.30372737017548,-67.93655395507812,4381.2578125,True
1599572881.4026873,0.0,10,0.5,0.5,-1.3698342002868653,-0.2,-0.00825,-0.5,-0.09278834778200523,10,1,100,0.3052036373178029,-10,-1,-100,6450.76245160331,-0.019841597814712314,-0.010150843457329011,0.9997516048365533,213.2349261260874,22.27606428520847,468.2607226631014,-26.684454425199913,-72.75314331054688,4381.2578125,True
1599572881.4894555,0.0,10,0.5,0.5,-0.1724719146728515,-0.2,-0.00825,-0.5,-0.08301356992993776,10,1,100,0.30643555950187434,-10,-1,-100,6449.698525897111,-0.020690615039721843,-0.009894370013237223,0.9997369653520465,206.38847393395918,21.538130660493007,460.0273772681035,-27.06537071213209,-77.86288452148438,4381.2578125,True
1599572881.5812101,0.0,10,0.5,0.5,1.0868919044494627,-0.2,-0.00825,-0.5,-0.07338473626191414,10,1,100,0.3061706829964136,-10,-1,-100,6448.571606116253,-0.02144952097353801,-0.009571945452658019,0.9997241098974542,197.9079046414796,20.640927567856448,447.6697917106002,-27.446480281709725,-83.26580810546875,4381.2578125,True
1599572881.6679769,0.0,10,0.5,0.5,0.38816430740356433,-0.2,-0.00825,-0.5,-0.08557970604129751,10,1,100,0.2688050462914734,-10,-1,-100,6448.03793035727,-0.02178963212271399,-0.00938882710628153,0.9997184913051899,193.0623891835183,20.134542116540537,439.9088675732241,-27.637101177410713,-86.07723999023438,4381.2578125,True
1599572881.7472727,0.0,10,0.5,0.5,3.018598998260498,-0.2,-0.00825,-0.5,-0.06029783952865571,10,1,100,0.30207694757860776,-10,-1,-100,6446.912468217313,-0.02239252208140425,-0.008992543304966601,0.9997088121646933,203.41629949703187,21.22334117003371,470.2540009874513,-28.018113693639766,-91.79499053955078,4381.2578125,True
1599572881.834556,0.0,10,0.5,0.5,4.12259051990509,-0.2,-0.00825,-0.5,-0.05290967828792056,10,1,100,0.2976009516932563,-10,-1,-100,6445.789929918828,-0.022891143022430768,-0.008565709038148062,0.9997012674793406,213.41048174521947,22.28788591163968,500.4494166373762,-28.398755000835344,-97.40306854248047,4381.2578125,True
1599572881.9183314,0.0,10,0.5,0.5,7.008382431030274,-0.2,-0.00825,-0.5,-0.02054749314929359,10,1,100,0.31079336599410823,-10,-1,-100,6444.062410883722,-0.023456229984197937,-0.007884770704763212,0.9996937709448136,225.90535779850518,23.64054077050125,541.0057033922877,-28.968951694968283,-105.47540283203125,4381.2578125,True
1599572882.0001125,0.0,10,0.5,0.5,6.566094067382813,-0.2,-0.00825,-0.5,-0.03888713991257081,10,1,100,0.2819337551979664,-10,-1,-100,6442.874916994362,-0.023699992373666826,-0.0074345827011023805,0.9996914710757258,232.87976348291923,24.404816556530353,565.4356970180335,-29.348590065115268,-110.54812622070312,4381.2578125,True
1599572882.0808973,0.0,10,0.5,0.5,7.419494861602784,-0.2,-0.00825,-0.5,-0.03633596105313362,10,1,100,0.2742771906046925,-10,-1,-100,6441.685953293112,-0.023845229870202364,-0.007004819821360047,0.9996911210527516,238.6087338312518,25.036716523410355,587.2566908862267,-29.727873999108894,-115.32774353027344,4381.2578125,True
1599572882.159686,0.0,10,0.5,0.5,6.667441489028931,-0.2,-0.00825,-0.5,-0.05678741850033958,10,1,100,0.2642602026509654,-10,-1,-100,6441.0922023267485,-0.02388078794327835,-0.006803157182187423,0.9996916649745373,240.91133701400037,25.291847967352595,596.9157707541327,-29.91740258462876,-117.60620880126953,4381.2578125,True
1599572882.2494457,0.0,10,0.5,0.5,8.602703011894226,-0.2,-0.00825,-0.5,-0.03391473299588507,10,1,100,0.2619583463159637,-10,-1,-100,6439.898348157876,-0.02388766739564738,-0.006415102675785673,0.9996940661042528,244.50947827685926,25.69096557540544,613.9333885064018,-30.29627415567753,-121.93980407714844,4381.2578125,True
1599572882.3292348,0.0,10,0.5,0.5,10.636264489936828,-0.2,-0.00825,-0.5,-0.018065653545938753,10,1,100,0.24485352035971736,-10,-1,-100,6438.050673263031,-0.023734744780397957,-0.005921639439313246,0.9997007532639757,248.28432540756003,26.103184995963513,635.7594156489874,-30.86422128250616,-127.8823471069336,4381.2578125,True
1599572882.4100163,0.0,10,0.5,0.5,8.98875033416748,-0.2,-0.00825,-0.5,-0.05150325350738451,10,1,100,0.25032302185850364,-10,-1,-100,6437.395880840137,-0.023642679571305013,-0.005780626251782295,0.9997037601523893,249.07522047874534,26.186931633125095,641.917569352548,-31.053465751424227,-129.7144775390625,4381.2578125,True
1599572882.4888086,0.0,10,0.5,0.5,11.646530783081056,-0.2,-0.00825,-0.5,-0.0293341076897319,10,1,100,0.21903481032324795,-10,-1,-100,6435.546730332775,-0.023272551859447498,-0.005454341409503567,0.9997142784264602,250.33249500851983,26.307856958269415,657.6377359845187,-31.62105725407909,-134.76522827148438,4381.2578125,True
1599572882.5715842,0.0,10,0.5,0.5,10.235857614135742,-0.2,-0.00825,-0.5,-0.05290909457895063,10,1,100,0.23929689826794576,-10,-1,-100,6434.892911561532,-0.02311892481204089,-0.005375613693421964,0.9997182693604004,250.44859789558467,26.312326177808952,662.1121265596785,-31.81022036489317,-136.30027770996094,4381.2578125,True
1599572882.6523693,0.0,10,0.5,0.5,13.283624891090394,-0.2,-0.00825,-0.5,-0.042477843829520384,10,1,100,0.17071218953314501,-10,-1,-100,6432.316202524467,-0.02235510614159975,-0.0052125016079998185,0.9997365048133355,249.8925440809172,26.206979321435025,677.3282566384471,-32.56677664188879,-141.6982421875,4381.2578125,True
1599572882.7371426,0.0,10,0.5,0.5,12.19899531364441,-0.2,-0.00825,-0.5,-0.06067850348659434,10,1,100,0.1959873201075241,-10,-1,-100,6431.007582027698,-0.02189098675267564,-0.005232726806707766,0.9997466695464209,249.23193260363078,26.10675211205668,683.8888862889614,-32.9450180080953,-143.95225524902344,4381.2578125,True
1599572882.8288975,0.0,10,0.5,0.5,11.814701729583742,-0.2,-0.00825,-0.5,-0.06110118608313071,10,1,100,0.21625167107238602,-10,-1,-100,6430.355712455814,-0.021654704356272036,-0.0052573668690453716,0.9997516861065284,248.85565848211834,26.05049019749707,687.0336523977896,-33.134131823863434,-144.96792602539062,4381.2578125,True
1599572882.9106786,0.0,10,0.5,0.5,12.601641460418701,-0.2,-0.00825,-0.5,-0.06970196225362213,10,1,100,0.18316576981942234,-10,-1,-100,6428.973359969095,-0.021140980609984903,-0.005359935087113169,0.9997621367278869,248.07720699771494,25.93322775732413,693.2289453180865,-33.51234487287237,-146.77703857421875,4381.2578125,True
1599572882.9944544,0.0,10,0.5,0.5,12.782035065841676,-0.2,-0.00825,-0.5,-0.077886876802219,10,1,100,0.1730481194639079,-10,-1,-100,6427.660832003108,-0.02058443879127394,-0.005529082585556817,0.9997728292594324,247.33515542370606,25.817775709896214,699.4959974404775,-33.890533645662934,-148.28990173339844,4381.2578125,True
1599572883.0792272,0.0,10,0.5,0.5,12.902557852745057,-0.2,-0.00825,-0.5,-0.08552542925341187,10,1,100,0.16344740487314935,-10,-1,-100,6426.27506100235,-0.019994209140849806,-0.005753452674240642,0.9997835412643865,246.6996643687145,25.712115658905955,706.0385487159793,-34.26868951852979,-149.50653076171875,4381.2578125,True
1599572883.1573863,0.0,10,0.5,0.5,12.961369127845765,-0.2,-0.00825,-0.5,-0.09351531675940494,10,1,100,0.15330587605935947,-10,-1,-100,6424.899544627755,-0.019368980522388685,-0.006030662323100006,0.9997942156791407,246.23006782277497,25.62287044865515,713.0381796161843,-34.64680078470275,-150.4270782470703,4381.2578125,True
1599572883.2371724,0.0,10,0.5,0.5,12.764218408966064,-0.2,-0.00825,-0.5,-0.08333198265979669,10,1,100,0.17949985696300197,-10,-1,-100,6424.175409635645,-0.019042686844964424,-0.00618999621853591,0.9997995099141322,246.07293944671838,25.586098768192254,716.7593161413815,-34.83583553860606,-150.77639770507812,4381.2578125,True
1599572883.3154736,0.0,10,0.5,0.5,13.029897715759278,-0.2,-0.00825,-0.5,-0.1277429088986361,10,1,100,0.09832845787856276,-10,-1,-100,6422.086989383679,-0.01801231623083505,-0.0067382087529518605,0.9998150594018886,245.96212888696581,25.512551094872432,728.9854689432988,-35.40283423809478,-151.38063049316406,4381.2578125,True
1599572883.4022877,0.0,10,0.5,0.5,12.764880752182007,-0.2,-0.00825,-0.5,-0.12024941243764703,10,1,100,0.12058656960399432,-10,-1,-100,6420.645556703792,-0.01728274417515646,-0.0071672939370087795,0.999824953004973,246.21695310138924,25.497099601964397,738.1352794803163,-35.78072546293255,-151.41404724121094,4381.2578125,True
1599572883.4830668,0.0,10,0.5,0.5,12.57709631614685,-0.2,-0.00825,-0.5,-0.12786019913941565,10,1,100,0.10884573293363642,-10,-1,-100,6419.208519901498,-0.01651806759175166,-0.00762493154685516,0.9998344932347254,246.7447453103417,25.509489949284315,748.1442505565291,-36.1585115660618,-151.15184020996094,4381.2578125,True
1599572883.5608613,0.0,10,0.5,0.5,12.325731105804444,-0.2,-0.00825,-0.5,-0.13601498109697685,10,1,100,0.09675548636589328,-10,-1,-100,6417.759765617317,-0.01571830212763131,-0.008112907000930739,0.9998435456201229,247.5423778393609,25.549329868912437,759.029158240526,-36.536176504693344,-150.5943145751953,4381.2578125,True
1599572883.6411583,0.0,10,0.5,0.5,11.637230397033694,-0.2,-0.00825,-0.5,-0.17363906617627017,10,1,100,0.03659972295257463,-10,-1,-100,6415.539518332458,-0.014449983569787224,-0.008895939841543729,0.9998560197494281,249.20926253743238,25.656909419515525,776.945049738192,-37.1024116791431,-149.20468139648438,4381.2578125,True
1599572883.7169554,0.0,10,0.5,0.5,11.90802918701172,-0.2,-0.00825,-0.5,-0.12504162490259754,10,1,100,0.11416277905457536,-10,-1,-100,6414.822222597431,-0.014008635137025776,-0.009162685164183516,0.9998598918559439,249.87477136069106,25.70397040484475,783.3038490817354,-37.29107927582948,-148.5939483642578,4381.2578125,True
1599572883.800761,0.0,10,0.5,0.5,11.735791565322877,-0.2,-0.00825,-0.5,-0.1286365388673507,10,1,100,0.10800682170326667,-10,-1,-100,6414.032662818441,-0.013557929990842526,-0.00943440490255647,0.9998635779637631,250.5876509095651,25.755902501940497,789.8365605202741,-37.47970516053546,-147.90951538085938,4381.2578125,True
1599572883.8805182,0.0,10,0.5,0.5,10.964440454101563,-0.2,-0.00825,-0.5,-0.15898832579667946,10,1,100,0.05021307052415161,-10,-1,-100,6412.536061883322,-0.012629188037048008,-0.009953797889237597,0.9998707043998765,252.12873435786065,25.871831875069716,803.3473089192265,-37.85682609417256,-146.31915283203125,4381.2578125,True
1599572883.9613025,0.0,10,0.5,0.5,9.701094619750979,-0.2,-0.00825,-0.5,-0.1995616781835582,10,1,100,-0.018957782411273355,-10,-1,-100,6410.243069663411,-0.011162746707916222,-0.010791003494087523,0.9998794664005884,254.6165365696918,26.06554523954761,824.3906507957395,-38.42216181020481,-143.3821563720703,4381.2578125,True
1599572884.720154,0.0,10,0.5,0.5,9.535503201293945,-0.2,-0.00825,-0.5,-0.1753701111909664,10,1,100,0.014329499342582791,-10,-1,-100,6408.680556610227,-0.010139690091753719,-0.011327848579317542,0.9998844265870966,256.2819669972332,26.197824492446298,838.5884567576504,-38.798813254047,-141.05604553222656,4381.2578125,True
1599572884.7932649,0.0,10,0.5,0.5,9.799186486434937,-0.2,-0.00825,-0.5,-0.1511075047558606,10,1,100,0.05809696588397651,-10,-1,-100,6407.893930424587,-0.009615618315394306,-0.011590649641606795,0.9998865919319542,257.08550644941573,26.26212019631337,845.6352664046885,-38.987066901230904,-139.78268432617188,4381.2578125,True
1599572884.8682597,0.0,10,0.5,0.5,7.443223832702637,-0.2,-0.00825,-0.5,-0.20516647291801726,10,1,100,-0.06794799718502183,-10,-1,-100,6405.552119838307,-0.008000959488908891,-0.012316593553445127,0.9998921372680636,259.23333234486427,26.434745609494637,866.0677552242818,-39.55154736094521,-135.52114868164062,4381.2578125,True
1599572884.9401846,0.0,10,0.5,0.5,7.315231820297241,-0.2,-0.00825,-0.5,-0.18346322551099487,10,1,100,-0.030318869420758343,-10,-1,-100,6403.983753230539,-0.006883608794221134,-0.01277455913358301,0.9998947077412255,260.30720146610025,26.520636321223407,878.6094589160176,-39.92765005421298,-132.31307983398438,4381.2578125,True
1599572885.0319397,0.0,10,0.5,0.5,5.149406029510498,-0.2,-0.00825,-0.5,-0.19965308778671415,10,1,100,-0.10640919575174071,-10,-1,-100,6401.572125546867,-0.005184863794948362,-0.013333390565681509,0.9998976637053669,261.0659345109902,26.577219830934975,894.6559685093675,-40.49153365011578,-126.94976806640625,4381.2578125,True
1599572885.0981932,0.0,10,0.5,0.5,6.457473436355591,-0.2,-0.00825,-0.5,-0.162506565351279,10,1,100,-0.0009838580941972028,-10,-1,-100,6400.727397190873,-0.004608538172798676,-0.013498977587662778,0.9998982643149239,261.02616138616395,26.570740848487038,899.0205647542563,-40.67943913137353,-125.01536560058594,4381.2578125,True
1599572885.1742852,0.0,10,0.5,0.5,5.99927643661499,-0.2,-0.00825,-0.5,-0.16269758392568037,10,1,100,-0.00789059756103002,-10,-1,-100,6399.878763232497,-0.00403076401696138,-0.013647063196734746,0.9998987501780089,260.81055011345177,26.548753268246905,902.7795611694721,-40.8673252751803,-123.0075912475586,4381.2578125,True
1599572885.25108,0.0,10,0.5,0.5,4.01703640537262,-0.2,-0.00825,-0.5,-0.17343088960969447,10,1,100,-0.07668928000831476,-10,-1,-100,6398.256691061659,-0.002889143008606763,-0.013875185276625252,0.9998995609991111,259.7746835706483,26.45044741220761,908.1781199166272,-41.24306412888165,-118.7718505859375,4381.2578125,True
1599572885.3318672,0.0,10,0.5,0.5,1.2791047044754027,-0.2,-0.00825,-0.5,-0.17778460812238422,10,1,100,-0.15415384755631384,-10,-1,-100,6395.780127453967,-0.0011567812841955158,-0.014118111171755557,0.9998996653634816,256.42959243781064,26.13715274405155,909.8417040274314,-41.806693667570734,-111.86933135986328,4381.2578125,True
1599572885.4076605,0.0,10,0.5,0.5,1.224485786819458,-0.2,-0.00825,-0.5,-0.16068061715883086,10,1,100,-0.1056082880874387,-10,-1,-100,6394.0862802135525,-3.365971785947614e-05,-0.01417967632831215,0.9998994627692565,252.78145131521347,25.79187135859271,905.7235238073191,-42.18254948108644,-106.90153503417969,4381.2578125,True
1599572885.4844563,0.0,10,0.5,0.5,1.8627532268524174,-0.2,-0.00825,-0.5,-0.15526727293813067,10,1,100,-0.054831894971677245,-10,-1,-100,6393.241066480521,0.0005156389623117677,-0.014183351820598848,0.9998992782513616,250.47883820179854,25.57159255770007,901.8622043415262,-42.370531759957736,-104.30791473388672,4381.2578125,True
1599572885.5602534,0.0,10,0.5,0.5,-0.6553744974136353,-0.2,-0.00825,-0.5,-0.14939768534599518,10,1,100,-0.11565133119233759,-10,-1,-100,6391.546731574577,0.001558218701697024,-0.014130737377984358,0.9998989420014567,245.1501317353222,25.056738015726978,891.3011063209801,-42.74663665562144,-98.90131378173828,4381.2578125,True
1599572885.6410365,0.0,10,0.5,0.5,-4.0459879196166995,-0.2,-0.00825,-0.5,-0.13310587875909324,10,1,100,-0.17731829251099424,-10,-1,-100,6388.94907612598,0.0030564691703831434,-0.013932489563239007,0.9998982666905573,235.50360435313962,24.105230619838462,868.7365986433905,-43.311188267244404,-90.24390411376953,4381.2578125,True
1599572885.7188578,0.0,10,0.5,0.5,-3.998498964500427,-0.2,-0.00825,-0.5,-0.1294025155455235,10,1,100,-0.12834493907071845,-10,-1,-100,6387.196146896225,0.003963250539132298,-0.01371712834242915,0.9998980613218537,227.3042304789129,23.275832408406675,846.5789246256812,-43.68786064525009,-84.18124389648438,4381.2578125,True
1599572885.7986617,0.0,10,0.5,0.5,-3.107368953514099,-0.2,-0.00825,-0.5,-0.13704823564065627,10,1,100,-0.08515394262278521,-10,-1,-100,6386.285014348221,0.004385091034529087,-0.013589995079640626,0.9998980363068798,223.08532644387319,22.843145631127385,834.84166052967,-43.87628191666528,-81.1805419921875,4381.2578125,True
1599572885.8764536,0.0,10,0.5,0.5,-7.679372339439392,-0.2,-0.00825,-0.5,-0.10214740998319762,10,1,100,-0.16762331963289193,-10,-1,-100,6383.683451006189,0.005509604044227613,-0.013156905876116018,0.9998982648705033,229.73739104148103,23.497372597770106,872.0166321973076,-44.441285071011556,-72.5596923828125,4381.2578125,True
1599572885.9502892,0.0,10,0.5,0.5,-7.179316360664368,-0.2,-0.00825,-0.5,-0.10810468021264902,10,1,100,-0.12784131082401523,-10,-1,-100,6381.8719265678665,0.006161035661857371,-0.01281765639473552,0.9998988695483758,238.52699523029872,24.362556449563293,913.8625933170999,-44.81733213361591,-67.17813110351562,4381.2578125,True
1599572886.0380216,0.0,10,0.5,0.5,-8.090991510009767,-0.2,-0.00825,-0.5,-0.10317227422233644,10,1,100,-0.12380969667712416,-10,-1,-100,6380.056494827499,0.006707329913204669,-0.012465161727024953,0.9998998107153309,245.7698618142343,25.061854997470427,950.3314796098932,-45.1929158889573,-62.097564697265625,4381.2578125,True
1599572886.116807,0.0,10,0.5,0.5,-8.94263060836792,-0.2,-0.00825,-0.5,-0.09844040397136486,10,1,100,-0.11998630245611837,-10,-1,-100,6378.234225796768,0.007160478855218695,-0.012102976866415241,0.9999011178579285,251.60931146471484,25.61521460226566,981.816609687501,-45.56808343602154,-57.318756103515625,4381.2578125,True
1599572886.1976678,0.0,10,0.5,0.5,-9.732251532173159,-0.2,-0.00825,-0.5,-0.09339737769428819,10,1,100,-0.11553462977438803,-10,-1,-100,6376.41928017803,0.00752440154163443,-0.011729704149074207,0.9999028939962199,256.20223979795935,26.043241337790636,1008.789903107142,-45.942890365843525,-52.841583251953125,4381.2578125,True
1599572886.2764597,0.0,10,0.5,0.5,-9.026085001182556,-0.2,-0.00825,-0.5,-0.11010734812462601,10,1,100,-0.09595304703136923,-10,-1,-100,6375.5149807644775,0.00767035499411266,-0.011544501384657463,0.999903940457304,258.0815212888055,26.216526514422018,1020.7439345163518,-46.13017657354174,-50.71612548828125,4381.2578125,True
1599572886.3602035,0.0,10,0.5,0.5,-12.154334482192994,-0.2,-0.00825,-0.5,-0.06788601207779957,10,1,100,-0.11558904609803121,-10,-1,-100,6372.722978357691,0.007975044746033614,-0.010994703862431038,0.9999077533194131,262.2913431901116,26.60169618529238,1051.2749338734452,-46.691649885615995,-44.79217529296875,4381.2578125,True
1599572886.4390292,0.0,10,0.5,0.5,-10.513760288047791,-0.2,-0.00825,-0.5,-0.10281311971812201,10,1,100,-0.09206026931287423,-10,-1,-100,6371.753247985849,0.008032303980601839,-0.01081525803306045,0.9999092520256233,263.2848560352761,26.69254586067029,1059.902934034712,-46.87870070730612,-42.968231201171875,4381.2578125,True
1599572886.51722,0.0,10,0.5,0.5,-12.036316795349121,-0.2,-0.00825,-0.5,-0.08042809091164535,10,1,100,-0.09210187753786536,-10,-1,-100,6369.842594712973,0.008080212600609036,-0.010451459045873926,0.999912734776461,264.77081845635433,26.82993950368161,1075.2373352758366,-47.25267558160149,-39.546051025390625,4381.2578125,True
1599572886.5954044,0.0,10,0.5,0.5,-13.560115927124023,-0.2,-0.00825,-0.5,-0.060678067431982924,10,1,100,-0.07898948900301964,-10,-1,-100,6366.9451178871095,0.008000819666606549,-0.009944155816158842,0.9999185470075883,266.0146166410169,26.95201689318445,1094.4149752312278,-47.8133892116423,-34.977386474609375,4381.2578125,True
1599572886.679712,0.0,10,0.5,0.5,-13.182910654449463,-0.2,-0.00825,-0.5,-0.07480618211515613,10,1,100,-0.06995557413187631,-10,-1,-100,6364.97733277129,0.007843230747201096,-0.009614722867413505,0.9999230174546583,266.37874669661437,26.995809866252767,1105.3723423889749,-48.18707244497143,-32.307373046875,4381.2578125,True
1599572886.7575042,0.0,10,0.5,0.5,-12.736736493682862,-0.2,-0.00825,-0.5,-0.09002740585147623,10,1,100,-0.07413806744936435,-10,-1,-100,6364.0061355057405,0.007735869280897872,-0.009456833296164929,0.9999253595296388,266.46661876166326,27.01065661639182,1110.4781561275738,-48.37388365607633,-31.085052490234375,4381.2578125,True
1599572886.8397934,0.0,10,0.5,0.5,-14.407132180023195,-0.2,-0.00825,-0.5,-0.05507257501053386,10,1,100,-0.037803884001826174,-10,-1,-100,6361.092052862048,0.0073065255223545575,-0.008998581426565448,0.99993281785183,266.50510338935555,27.04073590075134,1124.9072499794286,-48.934212273022666,-27.86822509765625,4381.2578125,True
1599572886.918584,0.0,10,0.5,0.5,-13.472590623474122,-0.2,-0.00825,-0.5,-0.08434849731577063,10,1,100,-0.06077465658547626,-10,-1,-100,6360.119878350524,0.007124493496612773,-0.008851285002704854,0.9999354460895051,266.48210171827645,27.049475810543285,1129.580851155789,-49.120955870693045,-26.945892333984375,4381.2578125,True
1599572886.999367,0.0,10,0.5,0.5,-14.658927532958984,-0.2,-0.00825,-0.5,-0.05180855556617186,10,1,100,-0.007163581272086411,-10,-1,-100,6357.143782194005,0.006471669138869975,-0.008424517594074971,0.999943570908811,266.4493811414951,27.084765766507733,1143.7975488913835,-49.68108869934305,-24.62811279296875,4381.2578125,True
1599572887.0731702,0.0,10,0.5,0.5,-14.343177767181396,-0.2,-0.00825,-0.5,-0.06404594635020577,10,1,100,-0.014816789749594932,-10,-1,-100,6355.137907921919,0.005948724101992749,-0.00815080094477084,0.9999490872667053,266.53999718470607,27.123229629367312,1153.797048945087,-50.05442293508466,-23.456878662109375,4381.2578125,True
1599572887.148967,0.0,10,0.5,0.5,-14.390861958312989,-0.2,-0.00825,-0.5,-0.06106273378914987,10,1,100,-0.0022381037056424247,-10,-1,-100,6353.132033860777,0.00536053295069763,-0.00787793269524829,0.999954600400905,266.78427681872995,27.179405644625867,1164.5022193171837,-50.42767712454988,-22.58428955078125,4381.2578125,True
1599572887.250696,0.0,10,0.5,0.5,-14.199970207214356,-0.2,-0.00825,-0.5,-0.07282520196360442,10,1,100,-0.02622379016063149,-10,-1,-100,6352.097847669502,0.005046242246197728,-0.007739635607420271,0.9999573158289593,266.9776219284026,27.215374167240853,1170.1837690737152,-50.614270706038845,-22.2598876953125,4381.2578125,True
1599572887.327491,0.0,10,0.5,0.5,-14.352473291778564,-0.2,-0.00825,-0.5,-0.056348239457889776,10,1,100,0.018154439839532327,-10,-1,-100,6350.092950631166,0.004359799570954877,-0.007466916434275248,0.9999626179546237,267.5203397850958,27.30424284694859,1182.2769096602074,-50.98738293409008,-21.834716796875,4381.2578125,True
1599572887.4112663,0.0,10,0.5,0.5,-14.210169859313964,-0.2,-0.00825,-0.5,-0.037143027110117785,10,1,100,0.0756521691525949,-10,-1,-100,6346.9903918305645,0.0032164363388241294,-0.007047110294265117,0.9999699959367675,268.77290295003644,27.484327256818215,1202.4976983350207,-51.54683696941888,-21.75518798828125,4381.2578125,True
1599572887.4900568,0.0,10,0.5,0.5,-14.095779100799561,-0.2,-0.00825,-0.5,-0.06337880814945761,10,1,100,0.0073937670640725,-10,-1,-100,6345.956694843131,0.0028018955861716373,-0.006906609126906172,0.9999722236799841,269.3140879031012,27.557411636167163,1209.835059554365,-51.73325708751787,-21.87738037109375,4381.2578125,True
1599572887.5708394,0.0,10,0.5,0.5,-13.83863677444458,-0.2,-0.00825,-0.5,-0.043874462285531254,10,1,100,0.06127270026049991,-10,-1,-100,6343.887836514623,0.0019398149048482402,-0.006604030479399172,0.9999763116692125,270.5850471622747,27.723325524310816,1225.4383732509496,-52.1059886948136,-22.34429931640625,4381.2578125,True
1599572887.6504688,0.0,10,0.5,0.5,-13.545036128234864,-0.2,-0.00825,-0.5,-0.037393329347224495,10,1,100,0.07539216568318852,-10,-1,-100,6341.818491585087,0.0010330155583262097,-0.006272633048423442,0.999979793272592,272.09220704436774,27.91380066775595,1242.2315822835947,-52.47856288294713,-23.1075439453125,4381.2578125,True
1599572887.7283144,0.0,10,0.5,0.5,-13.188715887451174,-0.2,-0.00825,-0.5,-0.034207076543188386,10,1,100,0.09344640294374944,-10,-1,-100,6339.689090065425,5.022627726838126e-05,-0.005944874856934398,0.9999823278139751,273.8096542344525,28.125864011279187,1260.119407740194,-52.85096543260456,-24.1673583984375,4381.2578125,True
1599572887.8130875,0.0,10,0.5,0.5,-12.220448485565186,-0.2,-0.00825,-0.5,-0.0038395186853525387,10,1,100,0.1646219905474492,-10,-1,-100,6336.460568970302,-0.0014838381680729656,-0.005373486347914732,0.9999844618136623,276.7266820331424,28.47791719586465,1288.8012005209173,-53.409219079448235,-26.310882568359375,4381.2578125,True
1599572887.9008539,0.0,10,0.5,0.5,-12.032304829406739,-0.2,-0.00825,-0.5,-0.014446315467921043,10,1,100,0.13053643861216901,-10,-1,-100,6334.32970957784,-0.0025613412759653313,-0.004953241338871259,0.9999844523446887,278.8256050730322,28.726762835215563,1308.8398784085916,-53.78114025062331,-28.1087646484375,4381.2578125,True
1599572887.978427,0.0,10,0.5,0.5,-11.462829816436768,-0.2,-0.00825,-0.5,-0.0045805716672378885,10,1,100,0.1444785550947224,-10,-1,-100,6332.198365726275,-0.003659899646274369,-0.0044844187139218,0.9999832474213642,280.9778592731313,28.978640341927097,1329.2955286992446,-54.15285582552514,-30.201019287109375,4381.2578125,True
1599572888.0592108,0.0,10,0.5,0.5,-10.832290643310547,-0.2,-0.00825,-0.5,0.005398543233758747,10,1,100,0.15887461229919275,-10,-1,-100,6330.005013191956,-0.004781261927871432,-0.00397058211394171,0.9999806868195273,283.1025573538516,29.224046793876212,1349.7879303480722,-54.52436473570894,-32.5872802734375,4381.2578125,True
1599572888.1389968,0.0,10,0.5,0.5,-11.104602453613282,-0.2,-0.00825,-0.5,-0.01555079060126411,10,1,100,0.11040977765900806,-10,-1,-100,6328.908338744426,-0.0053511586833452016,-0.003697332833817725,0.9999788471916101,284.1274733415507,29.34111338063468,1359.9173762398384,-54.71004288978347,-33.89056396484375,4381.2578125,True
1599572888.225276,0.0,10,0.5,0.5,-8.701742561340334,-0.2,-0.00825,-0.5,0.05691111335949891,10,1,100,0.24218181243748343,-10,-1,-100,6325.616855307366,-0.0070583460878944956,-0.0027936067100621277,0.9999711873409419,286.91502660809914,29.653385829041685,1389.1595568803164,-55.26678819429617,-38.23992919921875,4381.2578125,True
1599572888.9243724,0.0,10,0.5,0.5,-9.74549128265381,-0.2,-0.00825,-0.5,0.0028725948691048497,10,1,100,0.13522539694887356,-10,-1,-100,6324.519208426122,-0.007628662876291293,-0.002467163587091715,0.9999678577867164,287.70343529662296,29.739233107777494,1398.29867198388,-55.45228084901893,-39.83612060546875,4381.2578125,True
1599572888.9862375,0.0,10,0.5,0.5,-9.360188871765137,-0.2,-0.00825,-0.5,0.007246409412748584,10,1,100,0.1431844516078438,-10,-1,-100,6323.361015275936,-0.008210005400404053,-0.0021346710208489557,0.9999640188481572,288.3962947511429,29.813070392233218,1407.0055097397358,-55.6377338831606,-41.505523681640625,4381.2578125,True
1599572889.0600102,0.0,10,0.5,0.5,-8.959401613616944,-0.2,-0.00825,-0.5,0.01246227325504307,10,1,100,0.14990254493297622,-10,-1,-100,6322.26337058947,-0.008790345070457537,-0.0017890511615697247,0.9999597637552641,288.98097875117213,29.87344619591662,1415.2138300241509,-55.82315098047699,-43.2479248046875,4381.2578125,True
1599572889.1438224,0.0,10,0.5,0.5,-7.221435701751709,-0.2,-0.00825,-0.5,0.05914968910718692,10,1,100,0.2160458323089967,-10,-1,-100,6320.007536393707,-0.009910298873352905,-0.0010544962198298922,0.999950335773714,289.7563624231739,29.946185660901598,1429.772685930913,-56.19389594965453,-46.951568603515625,4381.2578125,True
1599572889.2186198,0.0,10,0.5,0.5,-4.78296099395752,-0.2,-0.00825,-0.5,0.11450292837314523,10,1,100,0.2913142997307244,-10,-1,-100,6316.653091153246,-0.011603642466045654,0.00011204646722675424,0.9999326691968361,289.6586245159219,29.906323476340066,1445.5008715657566,-56.74987410776571,-53.0537109375,4381.2578125,True
1599572889.295379,0.0,10,0.5,0.5,-6.286252164459229,-0.2,-0.00825,-0.5,0.04316934535308095,10,1,100,0.1841158073838792,-10,-1,-100,6315.493929806631,-0.012159314161433222,0.0005190658527184472,0.9999259380822983,289.21912501316393,29.846322522830732,1448.7289543965912,-56.93518938161618,-55.233306884765625,4381.2578125,True
1599572889.3692265,0.0,10,0.5,0.5,-2.471424465942383,-0.2,-0.00825,-0.5,0.1413957071772055,10,1,100,0.301693268893131,-10,-1,-100,6312.015472830972,-0.013724630831973783,0.001777075576846946,0.9999042336698651,286.39353452545043,29.50028364339601,1450.7829641732071,-57.491211268424976,-62.20794677734375,4381.2578125,True
1599572889.451515,0.0,10,0.5,0.5,-2.4235587898254396,-0.2,-0.00825,-0.5,0.11102205417462803,10,1,100,0.25638298770491785,-10,-1,-100,6309.759167908691,-0.01472658458422172,0.0026389043948578145,0.9998880756815128,283.0337660419956,29.113301857258705,1444.5432492878513,-57.86204152025069,-67.22048950195312,4381.2578125,True
1599572889.5268993,0.0,10,0.5,0.5,-1.1896214019775395,-0.2,-0.00825,-0.5,0.12072067209120477,10,1,100,0.25951104053074525,-10,-1,-100,6307.377377290861,-0.01565684727317614,0.003504545768192211,0.9998712823620963,278.3166035611757,28.589334355539233,1431.1599119064954,-58.233073411474805,-72.5228271484375,4381.2578125,True
