Timestamp,Input Throttle,horizon,dT,dt,Input Roll,Roll P,Roll I,Roll D,Input Pitch,Pitch P,Pitch I,Pitch D,Input Yaw,Yaw P,Yaw I,Yaw D,Altitude,Direction X,Direction Y,Direction Z,Drag X,Drag Y,Drag Z,Vertical Velocity,Roll,Mass,Has Fuel
1599566756.7652557,0.0,10,0.5,0.5,-2.743711669921875,-0.05075,-0.00825,-0.12575,-0.06719672311332918,10,1,100,0.690368807693069,-10,-1,-100,6483.6179675441235,-0.06725825581444246,-0.007002411564239584,0.9977110269296836,205.07317212473046,21.49877202098233,-156.76520502324814,9.590824310478151,-35.944580078125,4381.2578125,True
1599566756.8250961,0.0,10,0.5,0.5,-2.7885007812500007,-0.05075,-0.00825,-0.12575,-0.06731109278418607,10,1,100,0.6999113868312578,-10,-1,-100,6483.997883132892,-0.06744555584267327,-0.006971381891379277,0.9976986001952681,204.61204296150888,21.456730659789127,-150.26664606990738,9.210801982842032,-35.94122314453125,4381.2578125,True
1599566756.8969045,0.0,10,0.5,0.5,-2.832978773498535,-0.05075,-0.00825,-0.12575,-0.06933408080338277,10,1,100,0.6985976692953801,-10,-1,-100,6484.156591988984,-0.06754257156724541,-0.006955226278143169,0.9976921498405725,204.38121731019442,21.43561516330269,-147.02553127773066,9.020798231354949,-35.93951416015625,4381.2578125,True
1599566756.9617352,0.0,10,0.5,0.5,-2.8214103393554693,-0.05075,-0.00825,-0.12575,-0.018295321675052323,10,1,100,0.7012940708505206,-10,-1,-100,6484.697140545817,-0.06759387808411478,-0.006470227704690846,0.9976919383251521,203.7566524363931,21.378974680356066,-137.38155445166282,8.450806029532181,-36.25653076171875,4381.2578125,True
1599566757.0225692,0.0,10,0.5,0.5,-2.8065423568725585,-0.05075,-0.00825,-0.12575,-0.01507761296335372,10,1,100,0.6977891139506768,-10,-1,-100,6485.016949544777,-0.06754720814755734,-0.005994185988078118,0.9976980727684156,203.44694168254807,21.351708086948648,-131.04558866881362,8.070816720990736,-36.817840576171875,4381.2578125,True
1599566757.084402,0.0,10,0.5,0.5,-2.7703083625793457,-0.05075,-0.00825,-0.12575,0.012395203333103254,10,1,100,0.6893168371864996,-10,-1,-100,6485.3357558673015,-0.06736635368178755,-0.005306218655745959,0.9977141967693943,203.19927389183675,21.33006997806471,-124.76109265816932,7.690822745171676,-37.671630859375,4381.2578125,True
1599566757.1452398,0.0,10,0.5,0.5,-2.7183273124694827,-0.05075,-0.00825,-0.12575,0.04211363882072921,10,1,100,0.6785622534352863,-10,-1,-100,6485.590081306524,-0.06704292944818417,-0.004405802377687627,0.997740364281417,202.9727209184506,21.309531925449864,-118.49863299796404,7.310816126046395,-38.81903076171875,4381.2578125,True
1599566757.212724,0.0,10,0.5,0.5,-2.6504504920959477,-0.05075,-0.00825,-0.12575,0.07324840576243319,10,1,100,0.6653091658935986,-10,-1,-100,6485.909322091145,-0.06656747668594014,-0.003300193514184846,0.9977764678375792,202.70999247585405,21.283899004558943,-112.22464952430794,6.930788525627022,-40.26031494140625,4381.2578125,True
1599566757.26957,0.0,10,0.5,0.5,-2.56644305343628,-0.05075,-0.00825,-0.12575,0.10489973045085539,10,1,100,0.6488490006919974,-10,-1,-100,6486.165059430525,-0.06592509314871652,-0.002004355056092857,0.9978225617083141,202.33901257243753,21.245453127361454,-105.90475957302978,6.55073106730234,-41.995635986328125,4381.2578125,True
1599566757.3363907,0.0,10,0.5,0.5,-2.46606005859375,-0.05075,-0.00825,-0.12575,0.13690956641500227,10,1,100,0.6294387147312699,-10,-1,-100,6486.420283341198,-0.06510471906691687,-0.0005334994444659929,0.9978782946499841,201.770438105315,21.184702753374182,-99.50476427266847,6.170633320246871,-44.025115966796875,4381.2578125,True
1599566757.4022558,0.0,10,0.5,0.5,-2.56062317276001,-0.05075,-0.00825,-0.12575,0.07744696165574906,10,1,100,0.6651416084035714,-10,-1,-100,6486.517856414546,-0.06462431009951364,0.00026355788596927823,0.9979096297167409,201.37936302763185,21.142520522615882,-96.2647064787832,5.980565223543687,-45.150177001953125,4381.2578125,True
1599566757.4630907,0.0,10,0.5,0.5,-2.0208015502929686,-0.05075,-0.00825,-0.12575,0.2834177302192934,10,1,100,0.5213111259905334,-10,-1,-100,6486.869134548586,-0.06288241933058757,0.0028540115647151926,0.9980168615595232,199.5994560459435,20.95000433613846,-86.34536172384662,5.410257672638916,-48.967193603515625,4381.2578125,True
1599566757.5319061,0.0,10,0.5,0.5,-2.239482614898682,-0.05075,-0.00825,-0.12575,0.12715066003476327,10,1,100,0.6198061503867802,-10,-1,-100,6486.965220663114,-0.06219843988654073,0.003779427549664755,0.9980566466904958,198.75012187326487,20.858241130737973,-82.96536516970318,5.220112691300521,-50.386810302734375,4381.2578125,True
1599566757.593741,0.0,10,0.5,0.5,-1.5763558776855473,-0.05075,-0.00825,-0.12575,0.3574155240804513,10,1,100,0.4264079221362629,-10,-1,-100,6487.254425935447,-0.05982333298211227,0.006704272978372604,0.9981864663251765,195.1810748354003,20.473971793253774,-72.59213920381399,4.649512817742302,-55.087799072265625,4381.2578125,True
1599566757.6545777,0.0,10,0.5,0.5,-1.8493048835754393,-0.05075,-0.00825,-0.12575,0.17464793536859208,10,1,100,0.5638983822526977,-10,-1,-100,6487.35195846518,-0.058921122292873995,0.007689723015560053,0.9982330236511373,193.58747547845624,20.30306692839965,-69.05976976750178,4.459245880608394,-56.8026123046875,4381.2578125,True
1599566757.7363608,0.0,10,0.5,0.5,-1.0624349014282228,-0.05075,-0.00825,-0.12575,0.41717957451428483,10,1,100,0.3190991831124512,-10,-1,-100,6487.578618472675,-0.05588332538852303,0.010777979851597088,0.9983791309386626,187.29673141444042,19.631758148637626,-58.274772761470786,3.8881859804781578,-62.389129638671875,4381.2578125,True
1599566757.8251228,0.0,10,0.5,0.5,-1.0219360084533693,-0.05075,-0.00825,-0.12575,0.3352244627116827,10,1,100,0.36853615354331526,-10,-1,-100,6487.770728975767,-0.05358155795966025,0.012825817596600425,0.9984811040022712,181.66449346217374,19.034104040501436,-50.99261594905447,3.5072247323923658,-66.48324584960938,4381.2578125,True
1599566757.9238656,0.0,10,0.5,0.5,-1.1331114746093751,-0.05075,-0.00825,-0.12575,0.2463379273602454,10,1,100,0.4608059709670289,-10,-1,-100,6487.805258876411,-0.05234009624771741,0.013863763752522858,0.9985330792614703,178.3837589876021,18.687115740655457,-47.354550539381954,3.3166521353211667,-68.64096069335938,4381.2578125,True
1599566758.0216043,0.0,10,0.5,0.5,0.27361971206665037,-0.05075,-0.00825,-0.12575,0.5584310653221443,10,1,100,-0.0065074094634042234,-10,-1,-100,6488.003922131495,-0.046976125215163825,0.01762895791459078,0.998740438503726,161.68888855481654,16.930380405141513,-33.05607285757556,2.5535758073324892,-78.0157470703125,4381.2578125,True
1599566758.104702,0.0,10,0.5,0.5,-0.4291545028686523,-0.05075,-0.00825,-0.12575,0.28143359407116697,10,1,100,0.36747560368393306,-10,-1,-100,6488.10046367161,-0.04551685982139413,0.018515854402397565,0.9987919596230983,156.61688923300264,16.398227155856343,-29.626594474142113,2.362628467336291,-80.54486083984375,4381.2578125,True
1599566758.171522,0.0,10,0.5,0.5,0.20516258010864258,-0.05075,-0.00825,-0.12575,0.374491691017431,10,1,100,0.18401756214521897,-10,-1,-100,6488.167088995455,-0.04254026168511112,0.020150789041872622,0.9988915215561459,145.3583547254722,15.218377834481396,-23.05330653917002,1.9806070115766397,-85.76992797851562,4381.2578125,True
1599566758.241844,0.0,10,0.5,0.5,0.502911499786377,-0.05075,-0.00825,-0.12575,0.3705360487224526,10,1,100,0.14733754650919456,-10,-1,-100,6488.23470522603,-0.03952088509944853,0.021583053574026595,0.9989856212375516,151.71810752125504,15.884156517837413,-19.42198439268808,1.5985048149388814,-90.98970031738281,4381.2578125,True
1599566758.3221378,0.0,10,0.5,0.5,0.3429077960968018,-0.05075,-0.00825,-0.12575,0.3071365693636465,10,1,100,0.26789039284950567,-10,-1,-100,6488.26925050735,-0.037893170019422766,0.022291726934532595,0.9990331258652815,155.29330473693147,16.25819678969174,-17.50469129008663,1.4074567569186613,-93.60564422607422,4381.2578125,True
1599566758.387964,0.0,10,0.5,0.5,1.425072758293152,-0.05075,-0.00825,-0.12575,0.4286613467731363,10,1,100,-0.09775972806987215,-10,-1,-100,6488.306988585624,-0.03311143272910238,0.024023916784728986,0.9991628918474437,166.30466302139374,17.4082466789126,-11.115609342823173,0.834421890851424,-101.39864349365234,4381.2578125,True
1599566758.4537892,0.0,10,0.5,0.5,1.815968574142456,-0.05075,-0.00825,-0.12575,0.4053083510790896,10,1,100,-0.16496876612038486,-10,-1,-100,6488.345250062412,-0.028177691119491012,0.025370589738774048,0.9992809169094952,175.56417905559263,18.37472817245212,-3.678297020141306,0.26150888449217646,-108.9491195678711,4381.2578125,True
1599566758.5196097,0.0,10,0.5,0.5,0.9095170763015749,-0.05075,-0.00825,-0.12575,0.27240914234690483,10,1,100,0.32533105172341353,-10,-1,-100,6488.345250062412,-0.028177691119491012,0.025370589738774048,0.9992809169094952,175.56417905559263,18.37472817245212,-3.678297020141306,0.26150888449217646,-108.9491195678711,4381.2578125,True
1599566758.5984004,0.0,10,0.5,0.5,2.594471056365967,-0.05075,-0.00825,-0.12575,0.4115739048843154,10,1,100,-0.37168320989777687,-10,-1,-100,6488.355160017381,-0.02186638477227022,0.026622457934671256,0.9994063767809909,184.78938305013816,19.338856427613972,7.442738998565334,-0.5025926550286393,-118.27796936035156,4381.2578125,True
1599566758.6702101,0.0,10,0.5,0.5,1.8448197052001953,-0.05075,-0.00825,-0.12575,0.3092227769847853,10,1,100,0.07419336074130153,-10,-1,-100,6488.327742769849,-0.02021108889259511,0.02681751273154747,0.9994360074045106,186.65101190511618,19.533387512609433,10.376867936786924,-0.6936915634680219,-120.43502807617188,4381.2578125,True
1599566758.7340374,0.0,10,0.5,0.5,2.6841413749694825,-0.05075,-0.00825,-0.12575,0.3453875923415692,10,1,100,-0.2599725489471139,-10,-1,-100,6488.240151850274,-0.015697610738773165,0.02731183018742477,0.9995037013182628,190.41533816545544,19.92668536864402,19.341789017070255,-1.2671636216096505,-126.48512268066406,4381.2578125,True
1599566758.7998633,0.0,10,0.5,0.5,1.9633292133331302,-0.05075,-0.00825,-0.12575,0.29692413398112266,10,1,100,0.1882474149874416,-10,-1,-100,6488.240151850274,-0.015697610738773165,0.02731183018742477,0.9995037013182628,190.41533816545544,19.92668536864402,19.341789017070255,-1.2671636216096505,-126.48512268066406,4381.2578125,True
1599566758.8716707,0.0,10,0.5,0.5,2.9527587303161624,-0.05075,-0.00825,-0.12575,0.3254390984640506,10,1,100,-0.29110465850485134,-10,-1,-100,6488.153590611299,-0.011366973024372885,0.027563060795646816,0.9995554359833368,192.0132678982564,20.09313416908733,28.34120919312173,-1.8408926779650043,-131.876220703125,4381.2578125,True
1599566758.930515,0.0,10,0.5,0.5,3.14717414932251,-0.05075,-0.00825,-0.12575,0.3021109926629377,10,1,100,-0.3120840007425903,-10,-1,-100,6488.002128587919,-0.007267647707902947,0.027572640139698765,0.9995933827374611,192.0394533122807,20.094537201795617,37.191033280397,-2.41483960695409,-136.60317993164062,4381.2578125,True
1599566759.007307,0.0,10,0.5,0.5,3.0812511470794677,-0.05075,-0.00825,-0.12575,0.2961116792741854,10,1,100,-0.18578053438483716,-10,-1,-100,6487.881474976777,-0.004718522784720346,0.02752136434297036,0.9996100790045246,191.46481417115416,20.032948001206698,42.96338024428516,-2.7975667063524403,-139.38426208496094,4381.2578125,True
1599566759.0761232,0.0,10,0.5,0.5,3.2078192384719855,-0.05075,-0.00825,-0.12575,0.29394173733380097,10,1,100,-0.20022709492415297,-10,-1,-100,6487.761326405918,-0.002299962892592113,0.027450269021569735,0.9996205244498215,190.5750525841736,19.93779013952215,48.622992861922356,-3.180352544684402,-141.86880493164062,4381.2578125,True
1599566759.1519203,0.0,10,0.5,0.5,3.12851258354187,-0.05075,-0.00825,-0.12575,0.2926810453083217,10,1,100,-0.09187572169343575,-10,-1,-100,6487.732507116976,-0.001114294992606158,0.02737106120894041,0.9996247212604168,190.05925350018805,19.88252188957216,51.414175189180064,-3.3717635699550446,-143.00045776367188,4381.2578125,True
1599566759.2307093,0.0,10,0.5,0.5,3.534922884941101,-0.05075,-0.00825,-0.12575,0.27561003282523955,10,1,100,-0.3409150047959485,-10,-1,-100,6487.518141444889,0.0022029753118340215,0.027142044473549214,0.9996291593994102,188.45917949087394,19.70996401385311,59.68007859511675,-3.946057441261791,-145.95016479492188,4381.2578125,True
1599566759.2945385,0.0,10,0.5,0.5,3.1945230880737303,-0.05075,-0.00825,-0.12575,0.2986888518378365,10,1,100,-0.012226040995063006,-10,-1,-100,6487.518141444889,0.0022029753118340215,0.027142044473549214,0.9996291593994102,188.45917949087394,19.70996401385311,59.68007859511675,-3.946057441261791,-145.95016479492188,4381.2578125,True
1599566759.3633578,0.0,10,0.5,0.5,3.620219501113892,-0.05075,-0.00825,-0.12575,0.27091543591165407,10,1,100,-0.34610689563658,-10,-1,-100,6487.243249963154,0.00521637457213499,0.026889086522821303,0.9996248128484464,187.0663525752237,19.557052765459158,67.87990125537192,-4.520434407401896,-148.23269653320312,4381.2578125,True
1599566759.4291787,0.0,10,0.5,0.5,3.464160977554321,-0.05075,-0.00825,-0.12575,0.2897546170569906,10,1,100,-0.148794304477274,-10,-1,-100,6487.150973782409,0.006138961740537879,0.02683032496548874,0.9996211516424582,186.65206503853966,19.51084573885718,70.60498352923624,-4.711911809713706,-148.8448028564453,4381.2578125,True
1599566759.4899356,0.0,10,0.5,0.5,3.5828328762054444,-0.05075,-0.00825,-0.12575,0.26759436317676594,10,1,100,-0.2580565355939727,-10,-1,-100,6486.904900339316,0.00795111892880203,0.026575886246477037,0.9996151769446053,185.96932234476054,19.43299577397379,76.07887679799248,-5.094895917023635,-149.8487548828125,4381.2578125,True
1599566759.5667658,0.0,10,0.5,0.5,3.600272183227539,-0.05075,-0.00825,-0.12575,0.28196334006021573,10,1,100,-0.25586098895045123,-10,-1,-100,6486.720845042146,0.009557076194403267,0.026475874422625893,0.9996037666836654,185.49388378565126,19.375931825761917,81.60519103745835,-5.477921268387928,-150.5536346435547,4381.2578125,True
1599566759.6313515,0.0,10,0.5,0.5,3.6158283618927003,-0.05075,-0.00825,-0.12575,0.26365743577472306,10,1,100,-0.3409609270176902,-10,-1,-100,6486.381047599134,0.01177165128263495,0.02621952562232312,0.9995868970240759,185.29154309194553,19.342137667721616,90.09471308383787,-6.052541471414432,-151.05667114257812,4381.2578125,True
1599566759.6962097,0.0,10,0.5,0.5,3.5352827693939215,-0.05075,-0.00825,-0.12575,0.2705730849249744,10,1,100,-0.3284330294483881,-10,-1,-100,6485.979732583393,0.013653702931315062,0.026050580900247772,0.9995673782347158,185.75154999867672,19.375759248027027,98.92685661220477,-6.627259143337586,-150.8911590576172,4381.2578125,True
1599566759.761003,0.0,10,0.5,0.5,3.5296001895904543,-0.05075,-0.00825,-0.12575,0.28449470311423325,10,1,100,-0.2027506498027728,-10,-1,-100,6485.8235002183355,0.014205389864504083,0.026024892030484102,0.9995603593048292,186.05858357279578,19.402649979852683,101.96663130510774,-6.818851484614667,-150.687255859375,4381.2578125,True
1599566759.8318136,0.0,10,0.5,0.5,3.451247661209107,-0.05075,-0.00825,-0.12575,0.28339043369692973,10,1,100,-0.25860416674276065,-10,-1,-100,6485.577443502843,0.015199677818896633,0.025992795496897175,0.9995465693885695,186.8954059756212,19.479186637376262,108.20676367596236,-7.202060947694496,-150.0568389892578,4381.2578125,True
1599566759.896641,0.0,10,0.5,0.5,3.461048274993897,-0.05075,-0.00825,-0.12575,0.28638690717998655,10,1,100,-0.2093481307112412,-10,-1,-100,6485.4217005627,0.015640962929138316,0.02599211046685689,0.9995397793345336,187.42108868298234,19.528426336609026,111.41160830196785,-7.393675919596884,-149.63023376464844,4381.2578125,True
1599566759.9621644,0.0,10,0.5,0.5,3.213363315963745,-0.05075,-0.00825,-0.12575,0.28688226169984865,10,1,100,-0.2898263697356477,-10,-1,-100,6484.956906387117,0.016761535213564174,0.025997036329734186,0.9995214880328261,189.37581442416095,19.714868311513392,121.37234317090397,-7.968545705526632,-147.90577697753906,4381.2578125,True
1599566760.0379605,0.0,10,0.5,0.5,3.163438655853272,-0.05075,-0.00825,-0.12575,0.29085262388814354,10,1,100,-0.24102870745944605,-10,-1,-100,6484.584377050865,0.017323387124257003,0.026038649505101513,0.9995108248490827,190.92578778863532,19.86460024034575,128.28510266495383,-8.351798305244948,-146.38516235351562,4381.2578125,True
1599566760.103785,0.0,10,0.5,0.5,3.199329818725586,-0.05075,-0.00825,-0.12575,0.2889212741067392,10,1,100,-0.21132933193668754,-10,-1,-100,6484.429116522195,0.01755316089054166,0.026059695063802426,0.9995062675320913,191.7525137158715,19.94487123926721,131.81475924480492,-8.543421946762166,-145.51376342773438,4381.2578125,True
1599566760.166616,0.0,10,0.5,0.5,2.9592359317779544,-0.05075,-0.00825,-0.12575,0.2955593625272972,10,1,100,-0.22584017203827184,-10,-1,-100,6484.119078747113,0.01788358631613302,0.02613987422090077,0.9994983163148344,193.45358824884448,20.11061650065991,138.98860955050586,-8.926657217400276,-143.54818725585938,4381.2578125,True
1599566760.2334375,0.0,10,0.5,0.5,2.80206697807312,-0.05075,-0.00825,-0.12575,0.29466271886863976,10,1,100,-0.21543541387009285,-10,-1,-100,6483.7455582877155,0.018080354840244145,0.026205009432298358,0.999493070636062,195.15068884103445,20.27665993848813,146.2696079165081,-9.30986597114724,-141.28675842285156,4381.2578125,True
1599566760.8163857,0.0,10,0.5,0.5,2.6274120586395266,-0.05075,-0.00825,-0.12575,0.29511986964048587,10,1,100,-0.2026501151731721,-10,-1,-100,6483.309042631998,0.018135256893422397,0.02626862541784961,0.9994904060450336,196.7412141521927,20.43291812296588,153.5773492145685,-9.693035368075439,-138.72933959960938,4381.2578125,True
1599566760.8742433,0.0,10,0.5,0.5,2.435224237442017,-0.05075,-0.00825,-0.12575,0.29532594012279983,10,1,100,-0.18715565419139799,-10,-1,-100,6482.9369722373085,0.01803852401864942,0.026328286863830395,0.9994905867300825,198.1046449606097,20.567545150967064,160.804140116404,-10.076154973185954,-135.87600708007812,4381.2578125,True
1599566760.9560232,0.0,10,0.5,0.5,1.9284585250854493,-0.05075,-0.00825,-0.12575,0.2939790989818297,10,1,100,-0.15310196113496571,-10,-1,-100,6482.281683208537,0.01763701981280884,0.026370028071655397,0.9994966518961544,199.42867170542647,20.699818417422932,171.19299477082942,-10.650730179488399,-131.04209899902344,4381.2578125,True
1599566761.0218472,0.0,10,0.5,0.5,1.549718017959595,-0.05075,-0.00825,-0.12575,0.28534991925110087,10,1,100,-0.11641588196964069,-10,-1,-100,6481.6288163980935,0.016935386515134175,0.02632921377572498,0.9995098624753711,199.44552755956153,20.70474144013337,180.53315218543582,-11.2251820476207,-125.54409790039062,4381.2578125,True
1599566761.0826855,0.0,10,0.5,0.5,1.871394012451172,-0.05075,-0.00825,-0.12575,0.2849117834845154,10,1,100,-0.15465381081337848,-10,-1,-100,6481.409073654795,0.01664357768064915,0.026287820983111256,0.9995158536961523,199.06383506780801,20.66834474927739,183.29284220360137,-11.416643682418272,-123.56407165527344,4381.2578125,True
1599566761.1466498,0.0,10,0.5,0.5,1.3609339653015136,-0.05075,-0.00825,-0.12575,0.27493137153527397,10,1,100,-0.11060246825638545,-10,-1,-100,6480.973489258904,0.015976918703552365,0.026159191326181806,0.9995301069892295,197.85391487124508,20.55255579483843,188.35568977690275,-11.799547732308847,-119.38308715820312,4381.2578125,True
1599566761.212474,0.0,10,0.5,0.5,1.0732435207366944,-0.05075,-0.00825,-0.12575,0.2663213190275175,10,1,100,-0.09178294439268433,-10,-1,-100,6480.474419946782,0.015200491795167106,0.025963834656178658,0.9995473097053144,195.9913886450593,20.373237219055824,192.70763752367262,-12.182445870612334,-114.90763092041016,4381.2578125,True
1599566761.2748191,0.0,10,0.5,0.5,1.1956250955581664,-0.05075,-0.00825,-0.12575,0.2719502827644959,10,1,100,-0.12213691147598618,-10,-1,-100,6480.19265628478,0.014772524211327877,0.02583747809455644,0.9995570005027923,194.6148060930044,20.238662711807976,194.3977930755207,-12.373904018416999,-112.55953979492188,4381.2578125,True
1599566761.342637,0.0,10,0.5,0.5,0.14252961025238042,-0.05075,-0.00825,-0.12575,0.22816757945029054,10,1,100,-0.012938902272390418,-10,-1,-100,6479.475771790603,0.013393281448422448,0.025324785932924598,0.9995895533815342,188.45221174921,19.626612469655633,197.09596095646316,-12.948382578774513,-105.0740966796875,4381.2578125,True
1599566761.4144447,0.0,10,0.5,0.5,0.10640912151336679,-0.05075,-0.00825,-0.12575,0.22922257018367495,10,1,100,-0.03870541021719309,-10,-1,-100,6478.913206442376,0.012377747467886365,0.024869033963824578,0.9996140867941623,183.29893624239475,19.109890519354405,197.45844410081753,-13.331501491527533,-99.71617126464844,4381.2578125,True
1599566761.478275,0.0,10,0.5,0.5,-0.7470722513198852,-0.05075,-0.00825,-0.12575,0.1801866969060581,10,1,100,0.03453820210761001,-10,-1,-100,6478.07179143175,0.010793867925693859,0.024010147848908474,0.9996534425567073,172.63738599609727,18.022658586875867,194.1164545116508,-13.906451980510289,-91.25756072998047,4381.2578125,True
1599566761.5431,0.0,10,0.5,0.5,-0.7334431739807129,-0.05075,-0.00825,-0.12575,0.18939762102024005,10,1,100,-0.0027632843999335216,-10,-1,-100,6477.508729062974,0.009699755845558093,0.023315131125085434,0.9996811088527965,164.46056012725086,17.177497074342355,190.10396702962342,-14.289936172273407,-85.53021240234375,4381.2578125,True
1599566761.6129136,0.0,10,0.5,0.5,-0.05476440238952637,-0.05075,-0.00825,-0.12575,0.2585979778286695,10,1,100,-0.11134061559620097,-10,-1,-100,6477.508729062974,0.009699755845558093,0.023315131125085434,0.9996811088527965,164.46056012725086,17.177497074342355,190.10396702962342,-14.289936172273407,-85.53021240234375,4381.2578125,True
1599566761.676398,0.0,10,0.5,0.5,-1.5970646995544433,-0.05075,-0.00825,-0.12575,0.12704488463862423,10,1,100,0.06912337921988279,-10,-1,-100,6476.664866458625,0.008066389769018469,0.022121971093309177,0.9997227374382565,170.22039875616875,17.774946558396852,204.81748387941775,-14.86516944162366,-77.00469970703125,4381.2578125,True
1599566761.7382352,0.0,10,0.5,0.5,-1.0505038223266603,-0.05075,-0.00825,-0.12575,0.1971238132569743,10,1,100,-0.03374335445593399,-10,-1,-100,6476.321568326908,0.007524726366259068,0.021678186090663413,0.9997366827024663,175.44764536723494,18.315288897376867,213.87657447807436,-15.0568111567156,-74.25411987304688,4381.2578125,True
1599566761.8080466,0.0,10,0.5,0.5,-2.1762967838287355,-0.05075,-0.00825,-0.12575,0.07839333343418387,10,1,100,0.09060796988607966,-10,-1,-100,6475.4147186934715,0.005910128370927116,0.020199567757953212,0.9997784993912556,188.85891924448788,19.690472784448374,239.17149829297963,-15.631347548851497,-66.146484375,4381.2578125,True
1599566761.8668895,0.0,10,0.5,0.5,-2.5398691036224363,-0.05075,-0.00825,-0.12575,0.045010998048977985,10,1,100,0.1007092043181397,-10,-1,-100,6474.446351647843,0.004359634235181728,0.018557311337049548,0.9998182933839904,199.6467040239111,20.786277867910655,262.2932564564097,-16.20527274425648,-58.55902099609375,4381.2578125,True
1599566761.9297218,0.0,10,0.5,0.5,-2.052880388450623,-0.05075,-0.00825,-0.12575,0.1482520966638493,10,1,100,0.000704940629986571,-10,-1,-100,6474.102568328497,0.0038690791067236626,0.01800963959938062,0.9998303271597467,202.44601127594345,21.06893623756091,269.1693089582673,-16.39645390273281,-56.175750732421875,4381.2578125,True
1599566761.9955485,0.0,10,0.5,0.5,-2.207199893760681,-0.05075,-0.00825,-0.12575,0.1401805793062949,10,1,100,0.005912255642609304,-10,-1,-100,6473.820798529545,0.0033856928944694005,0.01744549498779035,0.9998420834253055,204.87924769822897,21.31416874254235,275.6418625737161,-16.58757781260479,-53.866973876953125,4381.2578125,True
1599566762.0573795,0.0,10,0.5,0.5,-3.4574495389938353,-0.05075,-0.00825,-0.12575,-0.06517941106440137,10,1,100,0.1614697256493202,-10,-1,-100,6472.445684869774,0.001541189872862657,0.01507289023837935,0.9998852097684201,211.43982245740366,21.97600420812,297.8413586256936,-17.351598333955074,-45.377838134765625,4381.2578125,True
1599566762.1421545,0.0,10,0.5,0.5,-2.7764423448562625,-0.05075,-0.00825,-0.12575,0.10395527500140585,10,1,100,0.025722134845304945,-10,-1,-100,6472.100932571222,0.0011082893674339595,0.014462470470172548,0.9998947987876411,212.4467274423578,22.079039384159486,302.6221451639294,-17.542512213782313,-43.4420166015625,4381.2578125,True
1599566762.216954,0.0,10,0.5,0.5,-3.2164960113525396,-0.05075,-0.00825,-0.12575,0.03383027806041855,10,1,100,0.07659842464825006,-10,-1,-100,6471.351862317068,0.00026103679934315143,0.013278723142683514,0.9999117997961067,214.27367688922646,22.270155512090284,312.01261905935246,-17.92426074700174,-39.7930908203125,4381.2578125,True
1599566762.2847738,0.0,10,0.5,0.5,-3.386782069396973,-0.05075,-0.00825,-0.12575,0.018573439230456845,10,1,100,0.08234447943854911,-10,-1,-100,6470.663345674635,-0.0005528490160637427,0.012073014681041468,0.9999269656702318,215.36827325539195,22.390999462267093,320.4376471022079,-18.305931588270358,-36.442352294921875,4381.2578125,True
1599566762.3585815,0.0,10,0.5,0.5,-3.544774892425537,-0.05075,-0.00825,-0.12575,0.005154080608260919,10,1,100,0.08757089361040997,-10,-1,-100,6469.912823349354,-0.0013309375181218162,0.010865142016114231,0.9999400868523537,215.89554171666782,22.45824109498593,328.0797258489454,-18.68755217301123,-33.389373779296875,4381.2578125,True
1599566762.4433548,0.0,10,0.5,0.5,-3.906761366271973,-0.05075,-0.00825,-0.12575,-0.0684421108367981,10,1,100,0.13522065091347407,-10,-1,-100,6468.756044263253,-0.00246292728885052,0.009108253152204565,0.9999554858660886,215.95365728109172,22.491263600096374,338.47755744421596,-19.2599312165555,-29.3671875,4381.2578125,True
1599566762.5201504,0.0,10,0.5,0.5,-3.4380031608581545,-0.05075,-0.00825,-0.12575,0.10598978226032259,10,1,100,0.023020439206114643,-10,-1,-100,6468.756044263253,-0.00246292728885052,0.009108253152204565,0.9999554858660886,215.95365728109172,22.491263600096374,338.47755744421596,-19.2599312165555,-29.3671875,4381.2578125,True
1599566762.6089134,0.0,10,0.5,0.5,-4.231403713226319,-0.05075,-0.00825,-0.12575,-0.14021709495278406,10,1,100,0.18570138930357633,-10,-1,-100,6467.191555900499,-0.003934233148227647,0.006880091827181549,0.9999685925797794,215.3469686987269,22.475323794400747,351.27516783421896,-20.023055716427375,-25.043914794921875,4381.2578125,True
1599566762.676733,0.0,10,0.5,0.5,-4.018158236694336,-0.05075,-0.00825,-0.12575,-0.04246047782012388,10,1,100,0.1144599411314882,-10,-1,-100,6466.378557584365,-0.004616594521202952,0.00575380279610287,0.999972790034014,214.99662319106378,22.465733343502645,357.5848097229115,-20.404597799950324,-23.328582763671875,4381.2578125,True
1599566762.7644966,0.0,10,0.5,0.5,-3.9613097167968747,-0.05075,-0.00825,-0.12575,0.009014620563308637,10,1,100,0.08454564825277161,-10,-1,-100,6465.972303828108,-0.004957260676257691,0.005209000786610983,0.9999741456044714,214.85123055478428,22.46462418126637,360.78572766273004,-20.595361493724727,-22.58209228515625,4381.2578125,True
1599566762.8432863,0.0,10,0.5,0.5,-4.117665558624267,-0.05075,-0.00825,-0.12575,-0.04713458577930446,10,1,100,0.13130256025895562,-10,-1,-100,6465.096812246484,-0.0056844355140266475,0.004214402987777493,0.9999749626867381,214.66443414250392,22.47414450197492,367.3603997594911,-20.976868499326315,-21.31060791015625,4381.2578125,True
1599566762.9509983,0.0,10,0.5,0.5,-4.070147854614258,-0.05075,-0.00825,-0.12575,-0.004352037826044472,10,1,100,0.09773907374796557,-10,-1,-100,6464.689586255699,-0.006033812193364981,0.0037090267768226863,0.9999749178008337,214.63406337617616,22.485850274478956,370.75647512767694,-21.16760922251301,-20.78643798828125,4381.2578125,True
1599566763.0387633,0.0,10,0.5,0.5,-4.168684425354003,-0.05075,-0.00825,-0.12575,-0.06384018863611178,10,1,100,0.13925911243157313,-10,-1,-100,6463.814589809044,-0.006722389433922808,0.002718568344675295,0.999973709087621,214.74386760063905,22.52766865962262,377.8542915756774,-21.549057542791203,-19.960601806640625,4381.2578125,True
1599566763.1085768,0.0,10,0.5,0.5,-4.215926165008545,-0.05075,-0.00825,-0.12575,-0.1649087146107957,10,1,100,0.2268210156002859,-10,-1,-100,6462.062656178838,-0.008138037475751616,0.0009089469473150928,0.9999664725186992,215.76223985558138,22.696730704470507,393.56059927082333,-22.31177381904784,-19.197265625,4381.2578125,True
1599566763.1903982,0.0,10,0.5,0.5,-4.134163836669922,-0.05075,-0.00825,-0.12575,0.01493701835185186,10,1,100,0.08601473026337389,-10,-1,-100,6462.062656178838,-0.008138037475751616,0.0009089469473150928,0.9999664725186992,215.76223985558138,22.696730704470507,393.56059927082333,-22.31177381904784,-19.197265625,4381.2578125,True
1599566763.2681904,0.0,10,0.5,0.5,-4.109816082000733,-0.05075,-0.00825,-0.12575,-0.11784880100733221,10,1,100,0.2078383025914389,-10,-1,-100,6460.716976834694,-0.009239336224227089,-0.0002891457786149451,0.9999572746176981,217.29965626068966,22.905950695306128,406.9016388955706,-22.883594665332204,-19.40155029296875,4381.2578125,True
1599566763.345983,0.0,10,0.5,0.5,-4.054383100128174,-0.05075,-0.00825,-0.12575,-0.08020341452576021,10,1,100,0.1799114015792402,-10,-1,-100,6459.778032791102,-0.009980475614607189,-0.0010275471078726708,0.9999496658599609,218.6953319372548,23.084887478126248,416.5961616175393,-23.264676549213455,-19.907745361328125,4381.2578125,True
1599566763.430758,0.0,10,0.5,0.5,-4.061560438537597,-0.05075,-0.00825,-0.12575,-0.04702026199304549,10,1,100,0.14699613469159065,-10,-1,-100,6459.307829755824,-0.010348174862950687,-0.0013879416566640356,0.9999454929619731,219.4964309813217,23.185340744114303,421.67887992140163,-23.45517237963212,-20.271942138671875,4381.2578125,True
1599566763.5065532,0.0,10,0.5,0.5,-3.8405015731811525,-0.05075,-0.00825,-0.12575,-0.10785916314192857,10,1,100,0.2408691928488177,-10,-1,-100,6457.900641714106,-0.011530007488588,-0.002261137590115263,0.9999309707095344,222.2886783736114,23.52785097228407,437.8605726036462,-24.026456843733428,-21.806182861328125,4381.2578125,True
1599566763.600303,0.0,10,0.5,0.5,-3.6465154418945316,-0.05075,-0.00825,-0.12575,-0.10363087643023748,10,1,100,0.2547021867463658,-10,-1,-100,6456.428518232075,-0.01272387035372019,-0.003009226795522625,0.9999145201852581,225.52486524262392,23.916580186960335,455.2255648934765,-24.59740265351642,-24.005462646484375,4381.2578125,True
1599566763.6701214,0.0,10,0.5,0.5,-3.7665312553405763,-0.05075,-0.00825,-0.12575,-0.050142457816528666,10,1,100,0.18101044079222234,-10,-1,-100,6455.896795641398,-0.013132214713641366,-0.0031955784243300252,0.9999086624363491,226.6692515048125,24.052663863179472,461.22054267405673,-24.78763638754134,-24.8857421875,4381.2578125,True
1599566763.747531,0.0,10,0.5,0.5,-3.524476415252686,-0.05075,-0.00825,-0.12575,-0.06717437566650397,10,1,100,0.23086820878738862,-10,-1,-100,6454.896828038618,-0.01394991858698066,-0.003513088266052794,0.9998965236374469,228.99876788670042,24.327957231903152,473.4102500947331,-25.16797587569047,-26.86761474609375,4381.2578125,True
1599566763.8153493,0.0,10,0.5,0.5,-3.3668149284362796,-0.05075,-0.00825,-0.12575,-0.06302860138267172,10,1,100,0.2398446888931339,-10,-1,-100,6453.892467665602,-0.01476769364880169,-0.003757479160454222,0.9998838915467405,231.30563266762945,24.5985276725941,485.70874845770044,-25.548142493080576,-29.14447021484375,4381.2578125,True
1599566763.8861606,0.0,10,0.5,0.5,-3.1917095199584966,-0.05075,-0.00825,-0.12575,-0.0555689786749052,10,1,100,0.24850382525789463,-10,-1,-100,6452.89201429463,-0.01558253103175965,-0.003905950633016616,0.9998709558119471,233.48809680437407,24.852542195941663,497.8967174047585,-25.928138372067544,-31.7158203125,4381.2578125,True
1599566763.9609644,0.0,10,0.5,0.5,-3.258324903869629,-0.05075,-0.00825,-0.12575,-0.04503552369151553,10,1,100,0.21215129438094804,-10,-1,-100,6452.359805888613,-0.01598604701415282,-0.003940788837696767,0.9998644490550697,234.4973852290173,24.96922832624077,503.8696900264403,-26.118074804100377,-33.11187744140625,4381.2578125,True
1599566764.0310795,0.0,10,0.5,0.5,-2.6052736938476566,-0.05075,-0.00825,-0.12575,-0.03928070526699738,10,1,100,0.30239424903574397,-10,-1,-100,6450.763178249705,-0.0171661356681553,-0.00391573455101491,0.9998449833894996,236.99589348283797,25.254801584743543,520.8307200955867,-26.687661049150762,-37.741485595703125,4381.2578125,True
1599566764.0998943,0.0,10,0.5,0.5,-2.8739825645446775,-0.05075,-0.00825,-0.12575,-0.03625264018034608,10,1,100,0.22696914180159808,-10,-1,-100,6450.231457487796,-0.01754605456107993,-0.003862133163450573,0.999838596922907,237.59292899243886,25.321732418039776,526.0199444896348,-26.87745878461294,-39.4317626953125,4381.2578125,True
1599566764.183683,0.0,10,0.5,0.5,-2.4347949050903326,-0.05075,-0.00825,-0.12575,-0.024491594423134668,10,1,100,0.2717091194657588,-10,-1,-100,6449.10404978029,-0.018291284643461535,-0.0037039091350941837,0.9998258398157205,238.40472238513485,25.40947809327122,535.604417918174,-27.256979110317324,-43.0330810546875,4381.2578125,True
1599566764.2465482,0.0,10,0.5,0.5,-1.4420918251037598,-0.05075,-0.00825,-0.12575,0.02450197613365066,10,1,100,0.3445983263448838,-10,-1,-100,6446.913194658235,-0.01962417468109094,-0.003112567588364481,0.9998025823586845,238.27153779369644,25.374101580343886,550.9063705422977,-28.01583943951575,-51.11688232421875,4381.2578125,True
1599566764.3123362,0.0,10,0.5,0.5,-2.0453384002685544,-0.05075,-0.00825,-0.12575,-0.013865539866913162,10,1,100,0.2454597577587431,-10,-1,-100,6446.317505531013,-0.01992727484888684,-0.0029230059367987412,0.9997971593045213,237.63625211132805,25.296215068588786,553.3375356597235,-28.205551093023992,-53.32147216796875,4381.2578125,True
1599566764.3801851,0.0,10,0.5,0.5,-1.4813348213195798,-0.05075,-0.00825,-0.12575,0.015610667337086468,10,1,100,0.2737601122055281,-10,-1,-100,6445.201320851687,-0.020453547855949192,-0.0024827900252105484,0.9997877215358243,235.4925442987713,25.04254743672578,556.0916666748586,-28.585018943730468,-57.95062255859375,4381.2578125,True
1599566764.4420261,0.0,10,0.5,0.5,-1.608220861053467,-0.05075,-0.00825,-0.12575,-0.0019499179031245428,10,1,100,0.24718912644736185,-10,-1,-100,6444.59586412285,-0.020683767688984084,-0.002242883415404218,0.9997835521892592,233.93967264171792,24.8626349248609,556.281354316077,-28.774789956398116,-60.375274658203125,4381.2578125,True
1599566764.521178,0.0,10,0.5,0.5,-0.523925621032715,-0.05075,-0.00825,-0.12575,0.06071043125705851,10,1,100,0.29321186658136233,-10,-1,-100,6442.8747021604795,-0.02130532531195944,-0.0014563016912610253,0.9997719551471403,227.10733300878755,24.08937190173993,551.3099262710921,-29.344336224888625,-68.08944702148438,4381.2578125,True
1599566764.5860038,0.0,10,0.5,0.5,-0.982117700958252,-0.05075,-0.00825,-0.12575,0.013212570951901452,10,1,100,0.24874298093172836,-10,-1,-100,6442.280472317594,-0.021460171798155677,-0.0011751181061497261,0.9997690133845067,224.04343118796547,23.749124103855078,547.5956008335544,-29.534283437947057,-70.8074951171875,4381.2578125,True
1599566764.6508322,0.0,10,0.5,0.5,-0.2933873558044433,-0.05075,-0.00825,-0.12575,0.05009698702107429,10,1,100,0.2626522661368389,-10,-1,-100,6441.092008646927,-0.0217220460685929,-0.0005866663668077619,0.9997638763914046,216.6352612655458,22.93822032588714,536.7136288186502,-29.914352168489224,-76.46343994140625,4381.2578125,True
1599566765.2382615,0.0,10,0.5,0.5,0.06853257522583,-0.05075,-0.00825,-0.12575,0.05567200663097569,10,1,100,0.25330162992511635,-10,-1,-100,6439.903052698588,-0.021869893258834316,-4.0774459258625e-06,0.999760825273836,207.53562242022707,21.95963438239456,521.1200785371503,-30.294661593611337,-82.34100341796875,4381.2578125,True
1599566765.2941115,0.0,10,0.5,0.5,0.4446144393920898,-0.05075,-0.00825,-0.12575,0.06445550749671593,10,1,100,0.24821210012569478,-10,-1,-100,6438.657451762236,-0.021953755199431154,0.0006018428017416034,0.9997588061216993,200.7413733122888,21.24060600002345,510.8060465370585,-30.67514253281715,-88.45086669921875,4381.2578125,True
1599566765.3549485,0.0,10,0.5,0.5,0.8261009422302247,-0.05075,-0.00825,-0.12575,0.06778219565876842,10,1,100,0.23843904612415123,-10,-1,-100,6437.3957340607885,-0.021937140381197564,0.001178863850216875,0.9997586569527259,211.66597132313123,22.413196040794382,545.7313483409707,-31.055338635097435,-94.73619842529297,4381.2578125,True
1599566765.4197774,0.0,10,0.5,0.5,1.750518871498108,-0.05075,-0.00825,-0.12575,0.10067145162712371,10,1,100,0.22174402672299248,-10,-1,-100,6435.547583004343,-0.02176694868303128,0.0019979827912837054,0.9997610754624308,226.97898001054855,24.083773291530278,596.6740685876262,-31.624780255950363,-104.21009826660156,4381.2578125,True
1599566765.4885938,0.0,10,0.5,0.5,1.1529944864273072,-0.05075,-0.00825,-0.12575,0.04709649197596172,10,1,100,0.228523459922123,-10,-1,-100,6434.8879114794545,-0.02167191219196135,0.0022509453314433076,0.9997626025547559,231.12714307287175,24.543237216061293,611.4640360487479,-31.81436114196389,-107.32633972167969,4381.2578125,True
1599566765.5504258,0.0,10,0.5,0.5,2.905386392784119,-0.05075,-0.00825,-0.12575,0.11775122637194615,10,1,100,0.18051067077689203,-10,-1,-100,6432.323434928898,-0.02114744944662925,0.00311852345221713,0.9997715039914772,244.94544829694664,26.084436646629495,664.4590671853422,-32.57163307993232,-119.22268676757812,4381.2578125,True
1599566765.61625,0.0,10,0.5,0.5,1.4599702047348024,-0.05075,-0.00825,-0.12575,0.0315535456423067,10,1,100,0.2330263354691702,-10,-1,-100,6432.323434928898,-0.02114744944662925,0.00311852345221713,0.9997715039914772,244.94544829694664,26.084436646629495,664.4590671853422,-32.57163307993232,-119.22268676757812,4381.2578125,True
1599566765.672679,0.0,10,0.5,0.5,3.4061016942977904,-0.05075,-0.00825,-0.12575,0.09909204435126033,10,1,100,0.15559604815255773,-10,-1,-100,6429.694006016478,-0.020443116214880368,0.003727635797873416,0.9997840685521965,251.95487818988533,26.86731589888296,700.3574214236183,-33.327694393577445,-129.97386169433594,4381.2578125,True
1599566765.7414942,0.0,10,0.5,0.5,2.5467504182815555,-0.05075,-0.00825,-0.12575,0.05076201150549434,10,1,100,0.2026857667513195,-10,-1,-100,6428.976710868534,-0.020231685454276564,0.003837297688518409,0.9997879545434266,252.7184514823866,26.94989979018298,706.7170499684787,-33.516605178331595,-132.4755859375,4381.2578125,True
1599566765.8018494,0.0,10,0.5,0.5,3.5288604074478154,-0.05075,-0.00825,-0.12575,0.06279053600386661,10,1,100,0.15699636379490717,-10,-1,-100,6426.936641336186,-0.019625234268981974,0.004041783797458452,0.9997992369289056,253.09008132262946,26.974851818336635,720.5104437857801,-34.08324074474017,-139.53408813476562,4381.2578125,True
1599566765.8598306,0.0,10,0.5,0.5,3.0822759553909305,-0.05075,-0.00825,-0.12575,0.04603101428030496,10,1,100,0.19501393340161782,-10,-1,-100,6426.28526316036,-0.019421435471320272,0.0040711132897676885,0.9998030975551213,252.67085929814246,26.919965436555458,723.5722661629566,-34.27211265955099,-141.7379913330078,4381.2578125,True
1599566765.9276488,0.0,10,0.5,0.5,3.942264344596863,-0.05075,-0.00825,-0.12575,0.04100572281953385,10,1,100,0.1460417482424584,-10,-1,-100,6424.1826922714245,-0.018793188024533197,0.004048387277918445,0.9998151962459475,250.1700494860965,26.611436521958098,729.0923825637715,-34.83878739621064,-147.90301513671875,4381.2578125,True
1599566766.0049548,0.0,10,0.5,0.5,3.21606062374115,-0.05075,-0.00825,-0.12575,0.043622978452075904,10,1,100,0.20855043620367608,-10,-1,-100,6424.1826922714245,-0.018793188024533197,0.004048387277918445,0.9998151962459475,250.1700494860965,26.611436521958098,729.0923825637715,-34.83878739621064,-147.90301513671875,4381.2578125,True
1599566766.082745,0.0,10,0.5,0.5,4.526925330352784,-0.05075,-0.00825,-0.12575,0.011394666484081502,10,1,100,0.11915591386671175,-10,-1,-100,6421.362825048505,-0.01798336868724867,0.0037527939660024034,0.9998312432546341,244.84293351778066,25.974605210264688,730.2270080975987,-35.59460842134801,-155.0814971923828,4381.2578125,True
1599566766.1745007,0.0,10,0.5,0.5,3.950168621826172,-0.05075,-0.00825,-0.12575,0.026723603015328216,10,1,100,0.17791771922515714,-10,-1,-100,6420.642110654386,-0.01778480713842659,0.003621831458931228,0.9998352779192841,243.3035929781277,25.793123572982008,729.7957689448606,-35.78361830597849,-156.6903839111328,4381.2578125,True
1599566766.2423177,0.0,10,0.5,0.5,4.561733496856689,-0.05075,-0.00825,-0.12575,-0.012816965163866323,10,1,100,0.13518499052180205,-10,-1,-100,6418.487295057392,-0.01721935101951559,0.00314206866348522,0.9998467989422083,238.49059765405494,25.231485066532972,727.6401900077822,-36.350773981978364,-161.0708770751953,4381.2578125,True
1599566766.3250966,0.0,10,0.5,0.5,4.045411238479614,-0.05075,-0.00825,-0.12575,0.03516166890186129,10,1,100,0.19133779257019048,-10,-1,-100,6418.487295057392,-0.01721935101951559,0.00314206866348522,0.9998467989422083,238.49059765405494,25.231485066532972,727.6401900077822,-36.350773981978364,-161.0708770751953,4381.2578125,True
1599566766.3939118,0.0,10,0.5,0.5,4.735150770568848,-0.05075,-0.00825,-0.12575,-0.03596828891423198,10,1,100,0.1323814729764225,-10,-1,-100,6416.260703172069,-0.016686955476324167,0.002495411278601401,0.9998576490878499,233.72554095626185,24.683437321684263,725.2056978954085,-36.91808809560134,-164.78314208984375,4381.2578125,True
1599566766.467716,0.0,10,0.5,0.5,4.834434028244019,-0.05075,-0.00825,-0.12575,-0.06061503193443068,10,1,100,0.13237088977631073,-10,-1,-100,6414.032650443027,-0.016206278008638726,0.0016845998326318248,0.999867250527044,229.3742533178151,24.189731523419358,723.6434337526103,-37.485505907616776,-167.8278045654297,4381.2578125,True
1599566766.5295491,0.0,10,0.5,0.5,4.480733302307129,-0.05075,-0.00825,-0.12575,0.02025084287693828,10,1,100,0.18003609580029106,-10,-1,-100,6414.032650443027,-0.016206278008638726,0.0016845998326318248,0.999867250527044,229.3742533178151,24.189731523419358,723.6434337526103,-37.485505907616776,-167.8278045654297,4381.2578125,True
1599566766.5974216,0.0,10,0.5,0.5,4.796842731094361,-0.05075,-0.00825,-0.12575,-0.045782459734084444,10,1,100,0.1449802632825565,-10,-1,-100,6412.536053239601,-0.015890696764168724,0.001086439976136006,0.9998731446561246,226.84477482684196,23.905746957900554,723.564765835137,-37.86381099902112,-169.48654174804688,4381.2578125,True
1599566766.664248,0.0,10,0.5,0.5,4.85162817993164,-0.05075,-0.00825,-0.12575,-0.059625610019168926,10,1,100,0.14281093196402989,-10,-1,-100,6411.029203251004,-0.015587293292397709,0.000419524807015068,0.9998784227528631,224.69423281334062,23.666065547637125,724.5534642232279,-38.242115361151676,-170.84902954101562,4381.2578125,True
1599566766.762023,0.0,10,0.5,0.5,4.962015169525147,-0.05075,-0.00825,-0.12575,-0.11812170409296795,10,1,100,0.12903070253007837,-10,-1,-100,6408.680553695071,-0.015189111591144623,-0.0007152454178831364,0.9998843829728834,222.28766484818374,23.399661131499048,728.4765941229529,-38.80952920067254,-172.33792114257812,4381.2578125,True
1599566766.843799,0.0,10,0.5,0.5,4.90483551940918,-0.05075,-0.00825,-0.12575,-0.0954340210379752,10,1,100,0.1394043324742523,-10,-1,-100,6407.111698364257,-0.01492471038625557,-0.0015362724739308414,0.9998874401085216,221.28751441025338,23.28909295484894,732.9759176372385,-39.18775045817133,-172.9605255126953,4381.2578125,True
1599566766.9201462,0.0,10,0.5,0.5,4.908318296051026,-0.05075,-0.00825,-0.12575,-0.1610793764765759,10,1,100,0.1215433188960231,-10,-1,-100,6404.76940629608,-0.014524753402282523,-0.0028746284230160945,0.9998903780165266,220.75703479927105,23.228229439089077,742.8890503655457,-39.7549562501969,-173.34027099609375,4381.2578125,True
1599566767.011073,0.0,10,0.5,0.5,4.853830625534058,-0.05075,-0.00825,-0.12575,-0.13345409176384931,10,1,100,0.13169147125440556,-10,-1,-100,6403.135127014015,-0.014256375759870633,-0.0038342708249034037,0.9998910211205192,221.06452693607065,23.257795427011597,751.7358871135551,-40.1329840040967,-173.2242889404297,4381.2578125,True
1599566767.0853498,0.0,10,0.5,0.5,4.805866219711303,-0.05075,-0.00825,-0.12575,-0.14827887229674874,10,1,100,0.12455239732228823,-10,-1,-100,6401.513057752047,-0.01395018902671298,-0.004835101613746963,0.9998910010688683,221.90358477801607,23.342596013641177,762.4471755045887,-40.51090319995191,-172.81309509277344,4381.2578125,True
1599566767.1601987,0.0,10,0.5,0.5,4.867261175918579,-0.05075,-0.00825,-0.12575,-0.04899351044011606,10,1,100,0.15484415443877325,-10,-1,-100,6401.513057752047,-0.01395018902671298,-0.004835101613746963,0.9998910010688683,221.90358477801607,23.342596013641177,762.4471755045887,-40.51090319995191,-172.81309509277344,4381.2578125,True
1599566767.243964,0.0,10,0.5,0.5,4.667470085144044,-0.05075,-0.00825,-0.12575,-0.22546753667130218,10,1,100,0.1016041213730152,-10,-1,-100,6399.09509481187,-0.013468676695614827,-0.006432746840491974,0.9998886010532149,224.13818556650142,23.568971403656388,782.0605056308315,-41.07753842354506,-171.6436004638672,4381.2578125,True
1599566767.309799,0.0,10,0.5,0.5,4.722879568481446,-0.05075,-0.00825,-0.12575,-0.12742396901100744,10,1,100,0.13011482192773685,-10,-1,-100,6398.246466250042,-0.013292615128125814,-0.0069864670254637384,0.9998872414735361,225.13507020902924,23.66949952370239,789.5424901301043,-41.266342166914654,-171.10647583007812,4381.2578125,True
1599566767.3925748,0.0,10,0.5,0.5,4.430841823196411,-0.05075,-0.00825,-0.12575,-0.26455069584364155,10,1,100,0.08790854760563616,-10,-1,-100,6395.7733392418595,-0.0127515145391899,-0.008728572831318292,0.9998805983182619,228.8389292411324,24.040039259292868,814.7611553937555,-41.83249389022971,-169.05386352539062,4381.2578125,True
1599566767.4743936,0.0,10,0.5,0.5,4.541860458755493,-0.05075,-0.00825,-0.12575,-0.15644358987200083,10,1,100,0.11829784921346059,-10,-1,-100,6394.92813208641,-0.01253872509316018,-0.009320590770709831,0.999877946031776,230.29578813797767,24.1845132380548,824.056858773669,-42.02111583147186,-168.22247314453125,4381.2578125,True
1599566767.5371895,0.0,10,0.5,0.5,3.927732116317749,-0.05075,-0.00825,-0.12575,-0.37092594766595205,10,1,100,0.039846125927797335,-10,-1,-100,6391.477978335577,-0.011634854083444621,-0.011799773863212855,0.999862688326369,237.06850012454922,24.8470687807875,865.2335906338129,-42.77505188615908,-164.16293334960938,4381.2578125,True
1599566767.6036956,0.0,10,0.5,0.5,4.431474880599976,-0.05075,-0.00825,-0.12575,-0.12411609126018265,10,1,100,0.12987780114858322,-10,-1,-100,6391.477978335577,-0.011634854083444621,-0.011799773863212855,0.999862688326369,237.06850012454922,24.8470687807875,865.2335906338129,-42.77505188615908,-164.16293334960938,4381.2578125,True
1599566767.66398,0.0,10,0.5,0.5,3.7508393112182623,-0.05075,-0.00825,-0.12575,-0.33597019138407647,10,1,100,0.03953541281613766,-10,-1,-100,6388.941886816756,-0.010816550422515853,-0.013716389772167088,0.9998474198039294,242.91094419117945,25.40694326984666,899.5912524516197,-43.33984619356576,-160.34776306152344,4381.2578125,True
1599566767.736751,0.0,10,0.5,0.5,3.9694908649444587,-0.05075,-0.00825,-0.12575,-0.21415710616044897,10,1,100,0.0850130865221956,-10,-1,-100,6388.0415117254015,-0.01048944249443547,-0.014341520040684185,0.9998421337386612,244.95064073610712,25.599892221259413,911.5265395357598,-43.52797149981973,-158.92913818359375,4381.2578125,True
1599566767.8105853,0.0,10,0.5,0.5,3.596751271057129,-0.05075,-0.00825,-0.12575,-0.29949890821442127,10,1,100,0.04976560856281205,-10,-1,-100,6386.288616354577,-0.009875064517700212,-0.01567610280417604,0.9998283567201143,249.09666910299947,25.988097231210983,935.8634373397581,-43.90399864502686,-155.87339782714844,4381.2578125,True
1599566767.869397,0.0,10,0.5,0.5,3.0608838966369634,-0.05075,-0.00825,-0.12575,-0.37546557793800645,10,1,100,-0.015296720290712093,-10,-1,-100,6383.621193054947,-0.00872876802609886,-0.017570110494664472,0.9998075313908932,255.28361023098054,26.55744353513119,972.7874016957535,-44.46745563111174,-150.73939514160156,4381.2578125,True
1599566767.9382102,0.0,10,0.5,0.5,3.360460516357422,-0.05075,-0.00825,-0.12575,-0.25804764262165636,10,1,100,0.0547228384582778,-10,-1,-100,6382.779417597223,-0.008327968495998098,-0.01821292261143176,0.9997994470846039,257.2767529258151,26.73828304133244,984.9721029695044,-44.65511497750168,-148.88209533691406,4381.2578125,True
1599566767.999048,0.0,10,0.5,0.5,2.5142690132141117,-0.05075,-0.00825,-0.12575,-0.396061879858569,10,1,100,-0.053115690773045815,-10,-1,-100,6380.046575843822,-0.006987928392166842,-0.02004126289630946,0.9997747329465307,262.8076321652748,27.2331121612619,1020.1903275994897,-45.217617407597444,-142.87094116210938,4381.2578125,True
1599566768.0609167,0.0,10,0.5,0.5,2.475136901855469,-0.05075,-0.00825,-0.12575,-0.3430897033718201,10,1,100,-0.026550327369922716,-10,-1,-100,6378.234611726017,-0.0060169449530176914,-0.021209957190981614,0.9997569375050063,265.92816202268835,27.507043063046332,1041.7599403190825,-45.59224108109269,-138.49847412109375,4381.2578125,True
1599566768.1277483,0.0,10,0.5,0.5,2.176443598175049,-0.05075,-0.00825,-0.12575,-0.34650695532183656,10,1,100,-0.04472434172335352,-10,-1,-100,6376.419719204772,-0.004975136759292885,-0.022292125763538572,0.9997391205425388,268.39885834409796,27.71983652287601,1060.972343905977,-45.966595386350534,-133.83375549316406,4381.2578125,True
1599566768.208522,0.0,10,0.5,0.5,1.8597802692413332,-0.05075,-0.00825,-0.12575,-0.3475121405641942,10,1,100,-0.06210935604881535,-10,-1,-100,6374.5389074634295,-0.0038768688059787424,-0.02327326111807285,0.9997216238559569,270.0410915890265,27.856331995809583,1077.0526638992526,-46.34072572030789,-128.87692260742188,4381.2578125,True
1599566768.2733643,0.0,10,0.5,0.5,1.9972579753875732,-0.05075,-0.00825,-0.12575,-0.30110211987307517,10,1,100,-0.0154702996900372,-10,-1,-100,6373.631216370268,-0.003309487529207019,-0.023732862627498512,0.9997128580366456,270.49242528499275,27.89076069175969,1083.6570448579898,-46.527725251736356,-126.28919982910156,4381.2578125,True
1599566768.3471167,0.0,10,0.5,0.5,0.3357252456665041,-0.05075,-0.00825,-0.12575,-0.42317175220653364,10,1,100,-0.21759075005211653,-10,-1,-100,6369.856889022514,-0.0009637962438994927,-0.02524955784931302,0.9996807144909892,269.272515170335,27.74945272967048,1097.9520635686695,-47.27550732495867,-115.20878601074219,4381.2578125,True
1599566768.4099836,0.0,10,0.5,0.5,1.691847627258301,-0.05075,-0.00825,-0.12575,-0.27265554683279725,10,1,100,0.015993103060774456,-10,-1,-100,6369.856889022514,-0.0009637962438994927,-0.02524955784931302,0.9996807144909892,269.272515170335,27.74945272967048,1097.9520635686695,-47.27550732495867,-115.20878601074219,4381.2578125,True
1599566768.4717858,0.0,10,0.5,0.5,0.6008584987640382,-0.05075,-0.00825,-0.12575,-0.3390562510586235,10,1,100,-0.11771016902056067,-10,-1,-100,6367.886224431102,0.00024302836933943038,-0.025843284216994507,0.9996659770133678,266.5163911301644,27.47603871467435,1096.2638967648074,-47.64942325833619,-109.23190307617188,4381.2578125,True
1599566768.5396028,0.0,10,0.5,0.5,-0.331773860168457,-0.05075,-0.00825,-0.12575,-0.3442710573162818,10,1,100,-0.1881551542140586,-10,-1,-100,6364.990274100448,0.001971352344145669,-0.026421199897762915,0.9996489553667814,259.30550932241846,26.761712192938944,1080.6449111197574,-48.21058856155784,-99.90756225585938,4381.2578125,True
1599566768.5984795,0.0,10,0.5,0.5,0.23017637901306148,-0.05075,-0.00825,-0.12575,-0.30371405659659956,10,1,100,-0.08097844813527774,-10,-1,-100,6364.009818812832,0.0025584948838258377,-0.026569831337916086,0.9996436856033274,256.3637255568494,26.46854409872004,1073.0429681856228,-48.397756222660995,-96.68575286865234,4381.2578125,True
1599566768.6643064,0.0,10,0.5,0.5,-1.1586187101364136,-0.05075,-0.00825,-0.12575,-0.31048542567765663,10,1,100,-0.19593651225207623,-10,-1,-100,6361.0962727874285,0.004127437354251592,-0.026758911539949956,0.9996333952575233,245.6743285120935,25.386214822582534,1041.772929985875,-48.95966058880473,-86.76577758789062,4381.2578125,True
1599566768.7265182,0.0,10,0.5,0.5,-1.7130801660537718,-0.05075,-0.00825,-0.12575,-0.2862375268156899,10,1,100,-0.1963773735908066,-10,-1,-100,6358.12069969601,0.005547651643403082,-0.026704260235195922,0.9996279838252501,232.10213213365793,23.9751492716264,997.0205180865958,-49.52223024280592,-76.8189697265625,4381.2578125,True
1599566768.7882068,0.0,10,0.5,0.5,-1.0925376794815065,-0.05075,-0.00825,-0.12575,-0.2847700354506345,10,1,100,-0.09926002456540836,-10,-1,-100,6357.087497096392,0.005945357281858616,-0.026636241579333374,0.9996275123071185,230.6182690873847,23.809746603227065,994.8871893292256,-49.709819043800884,-73.53634643554688,4381.2578125,True
1599566768.860943,0.0,10,0.5,0.5,-1.2979418783187866,-0.05075,-0.00825,-0.12575,-0.2820719832210182,10,1,100,-0.1014490904394569,-10,-1,-100,6356.1163057793165,0.006316880739272133,-0.026545929493902005,0.9996276359950391,236.30236865455643,24.379698031170733,1023.7488878659959,-49.897255539673964,-70.315673828125,4381.2578125,True
1599566768.9287267,0.0,10,0.5,0.5,-2.0403351774215697,-0.05075,-0.00825,-0.12575,-0.26602751613243064,10,1,100,-0.13763417305088232,-10,-1,-100,6354.111418680404,0.00697431758834715,-0.02631499365327194,0.9996293713187929,246.2927878700433,25.365236533004758,1076.0567583882607,-50.271684549180435,-64.08859252929688,4381.2578125,True
1599566769.650635,0.0,10,0.5,0.5,-2.858135717201233,-0.05075,-0.00825,-0.12575,-0.234652293127187,10,1,100,-0.15770118785588016,-10,-1,-100,6351.072336344514,0.007745065944717552,-0.025817475288082595,0.9996366699572706,257.9200719610337,26.480484719281552,1140.9662220936527,-50.83231475808364,-55.309326171875,4381.2578125,True
1599566769.7174273,0.0,10,0.5,0.5,-2.293357222557068,-0.05075,-0.00825,-0.12575,-0.26327988744759345,10,1,100,-0.10190363926062931,-10,-1,-100,6350.038148188847,0.00793057867947144,-0.025624920434060734,0.9996401699484454,260.9616096972872,26.76546999087117,1159.1630227964536,-51.018955490220044,-52.534271240234375,4381.2578125,True
1599566769.7842493,0.0,10,0.5,0.5,-3.3851708368301394,-0.05075,-0.00825,-0.12575,-0.2146356038922747,10,1,100,-0.122600580376889,-10,-1,-100,6346.93850328878,0.008279294834919725,-0.02500730856846092,0.9996529836874386,267.8672173759365,27.400194980133172,1204.4058721405318,-51.578309529636506,-44.6641845703125,4381.2578125,True
1599566769.8535383,0.0,10,0.5,0.5,-3.7175203737258915,-0.05075,-0.00825,-0.12575,-0.1997243642607892,10,1,100,-0.09369580491553932,-10,-1,-100,6343.836896390887,0.008326233138891732,-0.02431104649003716,0.9996697689038495,271.9167819172329,27.763521900863402,1237.390842420759,-52.13702332738728,-37.475830078125,4381.2578125,True
1599566769.9163718,0.0,10,0.5,0.5,-3.2612356592178346,-0.05075,-0.00825,-0.12575,-0.2437409228818142,10,1,100,-0.0842599045166395,-10,-1,-100,6342.802211852628,0.008277346247244698,-0.024080149818395537,0.9996757633972262,272.7366940326504,27.836280811414024,1246.0685499026454,-52.32316269649411,-35.23138427734375,4381.2578125,True
1599566769.9772084,0.0,10,0.5,0.5,-3.7819221313476565,-0.05075,-0.00825,-0.12575,-0.2141710758252422,10,1,100,-0.06825714979757998,-10,-1,-100,6340.67131752253,0.008082225074334655,-0.023603690308679336,0.99968872327423,273.7141591498572,27.92304897242618,1260.4823625781771,-52.69534176077266,-30.969482421875,4381.2578125,True
1599566770.037049,0.0,10,0.5,0.5,-3.9908560676574707,-0.05075,-0.00825,-0.12575,-0.20769058671297946,10,1,100,-0.05176922022436614,-10,-1,-100,6338.602920605801,0.007751356659459869,-0.023114500145399737,0.999702774004837,273.9486639274574,27.945025494784655,1271.5539305181592,-53.06743175453145,-27.01007080078125,4381.2578125,True
1599566770.1098552,0.0,10,0.5,0.5,-4.179515181732178,-0.05075,-0.00825,-0.12575,-0.202259758749875,10,1,100,-0.03464696338936728,-10,-1,-100,6336.472999054822,0.0072929069428772945,-0.022623674070108058,0.9997174515231251,273.60588371311354,27.917525567778636,1279.9857019693723,-53.43947456646218,-23.353057861328125,4381.2578125,True
1599566770.1816638,0.0,10,0.5,0.5,-4.063786962127686,-0.05075,-0.00825,-0.12575,-0.22396206490288972,10,1,100,-0.05039139719163178,-10,-1,-100,6335.375811100355,0.0070180406444946145,-0.022378410028060507,0.9997249391058163,273.2669466054977,27.889599124778574,1283.4235630250314,-53.625487982163165,-21.6378173828125,4381.2578125,True
1599566770.236516,0.0,10,0.5,0.5,-4.716589542388916,-0.05075,-0.00825,-0.12575,-0.16627505241885093,10,1,100,0.0330962032088605,-10,-1,-100,6332.148698529811,0.006008546587864773,-0.02163480398494951,0.9997478845311123,271.78473157145515,27.766879210977592,1291.5289500503548,-54.183526919940405,-16.9447021484375,4381.2578125,True
1599566770.3033383,0.0,10,0.5,0.5,-4.414836019897462,-0.05075,-0.00825,-0.12575,-0.21284384282314467,10,1,100,-0.023966857910658987,-10,-1,-100,6331.051022316096,0.0056104577929246245,-0.021386405849131564,0.9997555423243275,271.18986876698585,27.717715610328487,1293.7400545343787,-54.36954448994499,-15.531036376953125,4381.2578125,True
1599566770.3661685,0.0,10,0.5,0.5,-4.729022714996338,-0.05075,-0.00825,-0.12575,-0.18315135520125714,10,1,100,0.034708761124340876,-10,-1,-100,6328.858110897709,0.0047170847227988475,-0.02089468590131532,0.9997705542837333,269.9362325760825,27.614604923934746,1297.828637016717,-54.741590318577,-12.9296875,4381.2578125,True
1599566770.4290001,0.0,10,0.5,0.5,-4.84070247039795,-0.05075,-0.00825,-0.12575,-0.17487590699148514,10,1,100,0.05416711501127705,-10,-1,-100,6326.664224052336,0.003730954618218424,-0.02037673663278694,0.9997854112667551,268.68849397551946,27.513245083085025,1301.9045132959739,-55.113648450221824,-10.628692626953125,4381.2578125,True
1599566770.4852798,0.0,10,0.5,0.5,-5.0891475730896,-0.05075,-0.00825,-0.12575,-0.14293632848674842,10,1,100,0.14641707296945033,-10,-1,-100,6323.311630484066,0.00199997157826801,-0.0196197234676596,0.9998055143700393,267.01446012343416,27.38128061012487,1308.9052164204966,-55.67174261444639,-7.74078369140625,4381.2578125,True
1599566770.5491092,0.0,10,0.5,0.5,-4.893979164886474,-0.05075,-0.00825,-0.12575,-0.18930792529937282,10,1,100,0.04313251634240329,-10,-1,-100,6322.213958023698,0.0013710522945231739,-0.01935735449131531,0.9998116887907958,266.55378970345555,27.346883542175767,1311.6997656828892,-55.857770008740665,-6.928009033203125,4381.2578125,True
1599566770.610798,0.0,10,0.5,0.5,-5.06239432220459,-0.05075,-0.00825,-0.12575,-0.15628916130791154,10,1,100,0.1287363585196771,-10,-1,-100,6319.957580646733,2.736919310058039e-05,-0.01882296010865002,0.9998228320175906,265.8218698349609,27.296684210235128,1318.2104349482534,-56.22980722260076,-5.52703857421875,4381.2578125,True
1599566770.669641,0.0,10,0.5,0.5,-5.179255424499512,-0.05075,-0.00825,-0.12575,-0.11400220091873847,10,1,100,0.23853561083880043,-10,-1,-100,6316.542017027154,-0.0021850133239290494,-0.01795706623923457,0.9998363713572606,265.4866380983543,27.297615450556147,1331.7811515492,-56.78777830387343,-3.9857177734375,4381.2578125,True
1599566770.7484305,0.0,10,0.5,0.5,-5.157988949584961,-0.05075,-0.00825,-0.12575,-0.09773668986951523,10,1,100,0.28833709640181987,-10,-1,-100,6313.1254924651,-0.004639977871816718,-0.0170267102883241,0.9998442687449414,265.99037678766695,27.383125813564703,1349.6670223595338,-57.34558411290584,-3.115692138671875,4381.2578125,True
1599566770.811925,0.0,10,0.5,0.5,-5.090255569458008,-0.05075,-0.00825,-0.12575,-0.15124307203377818,10,1,100,0.13867417714517505,-10,-1,-100,6311.96630882367,-0.005500343754095378,-0.01667244195606405,0.9998458760718115,266.40677068167537,27.437114474606783,1356.928647543323,-57.53146852296413,-2.97418212890625,4381.2578125,True
1599566770.8737605,0.0,10,0.5,0.5,-5.098485458374023,-0.05075,-0.00825,-0.12575,-0.10349167306441928,10,1,100,0.251333302866927,-10,-1,-100,6309.646971727372,-0.007295288076911368,-0.015921463452535284,0.9998466311256965,267.4739944934798,27.569607002958925,1372.734804724241,-57.903145079085846,-2.913970947265625,4381.2578125,True
