Timestamp,Input Throttle,horizon,dT,dt,Input Roll,Roll P,Roll I,Roll D,Input Pitch,Pitch P,Pitch I,Pitch D,Input Yaw,Yaw P,Yaw I,Yaw D,Altitude,Direction X,Direction Y,Direction Z,Drag X,Drag Y,Drag Z,Vertical Velocity,Roll,Mass,Has Fuel
1599567780.5290506,0.0,10,0.5,0.5,-2.7433141860961916,-0.05075,-0.03,-0.001,-0.06719871940150035,10,1,100,0.6903720462260441,-10,-1,-100,6483.617967403843,-0.06725771827084503,-0.007002456490024139,0.9977110628514174,205.07319520088853,21.498774454317875,-156.76522295993598,9.590824286863999,-35.944610595703125,4381.2578125,True
1599567780.5848663,0.0,10,0.5,0.5,-2.905650901794434,-0.05075,-0.03,-0.001,-0.06733121123255936,10,1,100,0.6998994139379675,-10,-1,-100,6483.997882766998,-0.06744495881086715,-0.00697160558714519,0.9976986389920244,204.61217792609904,21.456744866116956,-150.26674357753134,9.210801824552021,-35.941253662109375,4381.2578125,True
1599567780.641049,0.0,10,0.5,0.5,-3.0657849273681643,-0.05075,-0.03,-0.001,-0.05203715773446446,10,1,100,0.7004988702313335,-10,-1,-100,6484.316760115791,-0.06755931348736252,-0.006798184638556968,0.9976920987192072,204.14957214907812,21.414366836297397,-143.7894272003727,8.830798040918317,-35.98065185546875,4381.2578125,True
1599567780.6968992,0.0,10,0.5,0.5,-3.2136040573120117,-0.05075,-0.03,-0.001,-0.034000206322792895,10,1,100,0.6995329050421677,-10,-1,-100,6484.697140453849,-0.06759307322474102,-0.00647037677733561,0.9976919918874733,203.75674853891013,21.37898502597994,-137.38161459680995,8.4508056724004,-36.256561279296875,4381.2578125,True
1599567780.7537475,0.0,10,0.5,0.5,-3.3624681091308597,-0.05075,-0.03,-0.001,-0.04412754617056622,10,1,100,0.7019106801652167,-10,-1,-100,6484.856804031413,-0.06758393178418125,-0.006258554195952918,0.9976939624273405,203.59235353026804,21.364444895091133,-134.2056752292492,8.260811160753999,-36.5008544921875,4381.2578125,True
1599567780.8096013,0.0,10,0.5,0.5,-3.4866083374023438,-0.05075,-0.03,-0.001,-0.002150417312101492,10,1,100,0.6970564119085638,-10,-1,-100,6485.175622960902,-0.06747005173426263,-0.005678688355804471,0.9977051391155273,203.31791396731293,21.340471035155804,-127.8988573901338,7.8808202863491195,-37.2081298828125,4381.2578125,True
1599567780.865451,0.0,10,0.5,0.5,-3.5939143753051757,-0.05075,-0.03,-0.001,0.026689127568568845,10,1,100,0.687556141537307,-10,-1,-100,6485.493927260046,-0.06721882191120312,-0.004884197467339967,0.9977263024477053,203.08721608749994,21.32008293872021,-121.62952544533523,7.500820909180836,-38.208648681640625,4381.2578125,True
1599567780.9248052,0.0,10,0.5,0.5,-3.6441199569702154,-0.05075,-0.03,-0.001,0.12212625753985243,10,1,100,0.6481627530438664,-10,-1,-100,6485.909322065185,-0.0665712014294712,-0.0032898825712993486,0.9977762533819412,202.71037598751508,21.283941669152355,-112.22485625769399,6.930788093959211,-40.260223388671875,4381.2578125,True
1599567780.9828463,0.0,10,0.5,0.5,-3.752394836425781,-0.05075,-0.03,-0.001,0.03188029799907282,10,1,100,0.6869930203756536,-10,-1,-100,6486.0054568151245,-0.06627493869324982,-0.002657932404750147,0.9977978592362972,202.54346681712286,21.26685883263215,-109.0727468889404,6.740763767520615,-41.091064453125,4381.2578125,True
1599567781.0426834,0.0,10,0.5,0.5,-3.802550102233887,-0.05075,-0.03,-0.001,0.12261358199192257,10,1,100,0.6439428657232157,-10,-1,-100,6486.26118315151,-0.06555399394648709,-0.0012561679148570114,0.9978482329091102,202.08546903321374,21.2185053249009,-102.7167206006613,6.360687636682151,-42.973236083984375,4381.2578125,True
1599567781.1030312,0.0,10,0.5,0.5,-3.7708515777587888,-0.05075,-0.03,-0.001,0.24646476697337014,10,1,100,0.564733197541659,-10,-1,-100,6486.674997768016,-0.06411890719873728,0.001145225273890687,0.9979416086118025,200.89652607168173,21.09031134278474,-92.9927172667268,5.790480992819393,-46.34832763671875,4381.2578125,True
1599567781.1618733,0.0,10,0.5,0.5,-3.6771877746582033,-0.05075,-0.03,-0.001,0.10520688193204622,10,1,100,0.645047593243705,-10,-1,-100,6486.7720726404805,-0.0635472672172307,0.0020367404162275455,0.997976751491586,200.3077929042851,21.026610872291204,-89.68664363874184,5.600379310627291,-47.620361328125,4381.2578125,True
1599567781.220716,0.0,10,0.5,0.5,-3.423030151367188,-0.05075,-0.03,-0.001,0.32269163583027316,10,1,100,0.4764590795018345,-10,-1,-100,6487.061797280214,-0.06149851501056556,0.004816153448332777,0.9980955552037377,197.74130109755825,20.749390711438416,-79.54562921236284,5.029941853852897,-51.879150390625,4381.2578125,True
1599567781.2785618,0.0,10,0.5,0.5,-3.2136074676513675,-0.05075,-0.03,-0.001,0.2651650699949941,10,1,100,0.5011124154766402,-10,-1,-100,6487.25443435146,-0.05986564405743803,0.0068093652989378245,0.9981832182549524,195.17709764498886,20.473531040839184,-72.59065222398803,4.649512284090811,-55.08660888671875,4381.2578125,True
1599567781.3364067,0.0,10,0.5,0.5,-2.979046592712402,-0.05075,-0.03,-0.001,0.2897369410200886,10,1,100,0.4594419250607953,-10,-1,-100,6487.447543845512,-0.05800941821369378,0.008832684225101205,0.9982769611124401,191.7497708532635,20.106431632413372,-65.49100659348471,4.268938112262064,-58.589569091796875,4381.2578125,True
1599567781.3942523,0.0,10,0.5,0.5,-2.8198996658325193,-0.05075,-0.03,-0.001,0.19909086528145803,10,1,100,0.5330635361479804,-10,-1,-100,6487.544094204204,-0.05699993165069204,0.00983429052542486,0.9983257456971035,189.66067908209845,19.883447664429664,-61.89461657202081,4.078586250529907,-60.452056884765625,4381.2578125,True
1599567781.449107,0.0,10,0.5,0.5,-2.5478114929199216,-0.05075,-0.03,-0.001,0.32618442405673165,10,1,100,0.39242391961789747,-10,-1,-100,6487.675174042117,-0.054813192915947495,0.011886134988329553,0.9984258779085197,184.6296670666602,19.348392528630924,-54.63566968604813,3.6977327608279036,-64.3983154296875,4381.2578125,True
1599567781.5073898,0.0,10,0.5,0.5,-2.1381340332031247,-0.05075,-0.03,-0.001,0.453685643612879,10,1,100,0.2043256735837219,-10,-1,-100,6487.839797976776,-0.05112654240131927,0.014895304375611823,0.9985810966414514,174.75593727636803,18.304277788108926,-43.727949348149814,3.126003216224548,-70.872802734375,4381.2578125,True
1599567781.566232,0.0,10,0.5,0.5,-1.8102289810180665,-0.05075,-0.03,-0.001,0.3668428712216657,10,1,100,0.2728159533656076,-10,-1,-100,6487.969401092036,-0.04841172143969999,0.01682490117236021,0.9986857503378053,166.40057389028806,17.425142825921785,-36.56011400498502,2.7444612897680587,-75.55960083007812,4381.2578125,True
1599567781.6265836,0.0,10,0.5,0.5,-1.5844772491455081,-0.05075,-0.03,-0.001,0.27749942227915114,10,1,100,0.3858772044364438,-10,-1,-100,6488.003929932485,-0.046987771227284196,0.017749155239402147,0.998737761799052,161.6887500403346,16.93032983459721,-33.05605311341828,2.5535764005545762,-78.01434326171875,4381.2578125,True
1599567781.6838853,0.0,10,0.5,0.5,-1.0776160278320313,-0.05075,-0.03,-0.001,0.46731678807913424,10,1,100,0.03668903599336043,-10,-1,-100,6488.167097627185,-0.04253571152353199,0.020297721059299882,0.9988887404335809,145.35418789523317,15.21790775524729,-23.052654300417785,1.9806076976857323,-85.8248291015625,4381.2578125,True
1599567781.7417305,0.0,10,0.5,0.5,-0.8245771179199219,-0.05075,-0.03,-0.001,0.3010737661186822,10,1,100,0.30769088719076143,-10,-1,-100,6488.200658537098,-0.040971658799802003,0.021085887517943342,0.9989377901164682,148.01132552689546,15.496076601433298,-21.210921831544606,1.789559970488627,-88.576904296875,4381.2578125,True
1599567781.798578,0.0,10,0.5,0.5,-0.25407639884948724,-0.05075,-0.03,-0.001,0.45635131133221385,10,1,100,-0.07098324878122864,-10,-1,-100,6488.301356495125,-0.036127823822499766,0.023196699121286125,0.9990779216336065,160.30985921809966,16.7827026649425,-15.61861170757749,1.2164384485419695,-97.27996063232422,4381.2578125,True
1599567781.8534312,0.0,10,0.5,0.5,0.031273662567138705,-0.05075,-0.03,-0.001,0.3133249301262514,10,1,100,0.2333366435605924,-10,-1,-100,6488.273408338544,-0.03451394622004889,0.02379866934456813,0.9991208189472118,164.76911561276853,17.248555053563685,-13.53332283204254,1.025441099262352,-100.33021545410156,4381.2578125,True
1599567781.9092836,0.0,10,0.5,0.5,0.6563293876647949,-0.05075,-0.03,-0.001,0.42993883889980183,10,1,100,-0.16215039981201157,-10,-1,-100,6488.311656054808,-0.029474495003376597,0.025390596623633473,0.9992429993487029,176.4996305224916,18.47391175634034,-6.399355088084327,0.452577487448945,-109.84471130371094,4381.2578125,True
1599567781.9651322,0.0,10,0.5,0.5,0.9684499874114991,-0.05075,-0.03,-0.001,0.32024117288282894,10,1,100,0.15952971433511265,-10,-1,-100,6488.345249864971,-0.027843481228839565,0.025825499084085365,0.9992786318890831,180.21950606088308,18.862957461644907,-3.7775931238160876,0.2616287393355363,-113.08856964111328,4381.2578125,True
1599567782.0229795,0.0,10,0.5,0.5,1.4599640579223632,-0.05075,-0.03,-0.001,0.3591837208409009,10,1,100,-0.05650029336968143,-10,-1,-100,6488.35043886106,-0.024423338136873092,0.026560350658152595,0.9993488121407701,186.06809936236834,19.474346579221496,1.7941785378893553,-0.12033928924351533,-119.59771728515625,4381.2578125,True
1599567782.0808232,0.0,10,0.5,0.5,1.9510459957122805,-0.05075,-0.03,-0.001,0.353600388998947,10,1,100,-0.06766702519693146,-10,-1,-100,6488.35516363522,-0.021240228541000456,0.027164299785405202,0.999405299920255,189.64671007291668,19.848201025617417,7.636270526563159,-0.5024463614111756,-126.0130386352539,4381.2578125,True
1599567782.1406636,0.0,10,0.5,0.5,2.585271167755127,-0.05075,-0.03,-0.001,0.35762622518553067,10,1,100,-0.2851256405449014,-10,-1,-100,6488.268539349432,-0.016396765417825896,0.027738789325140338,0.9994807179984055,192.07107027367437,20.100688734288212,16.563513335292036,-1.075849509675293,-135.19602966308594,4381.2578125,True
1599567782.1987565,0.0,10,0.5,0.5,2.9060410385131834,-0.05075,-0.03,-0.001,0.31683519991440645,10,1,100,0.02659973660328724,-10,-1,-100,6488.241629130207,-0.014856588694488805,0.027880303324114078,0.9995008606594185,191.85006336187752,20.077036963728006,19.486024294203013,-1.2670415408129112,-138.11474609375,4381.2578125,True
1599567782.2575998,0.0,10,0.5,0.5,3.5136838455200197,-0.05075,-0.03,-0.001,0.33615042435208126,10,1,100,-0.31308765730218713,-10,-1,-100,6488.15360633377,-0.010397570985526043,0.028175335228901147,0.9995489187640293,188.6522601906155,19.74054478605456,27.843208884790222,-1.8407356148577905,-146.428955078125,4381.2578125,True
1599567782.3125968,0.0,10,0.5,0.5,3.9549015617370604,-0.05075,-0.03,-0.001,0.3176707541913816,10,1,100,-0.18186048120530862,-10,-1,-100,6488.033430327894,-0.007566109342384251,0.02826838758254703,0.9995717344207479,184.75680724199478,19.331298174539754,32.93947557280403,-2.223240994869468,-151.60227966308594,4381.2578125,True
1599567782.3704019,0.0,10,0.5,0.5,4.266934097290039,-0.05075,-0.03,-0.001,0.3095624379360853,10,1,100,-0.05354121722795796,-10,-1,-100,6488.003134237137,-0.006188960747919825,0.0282727391198455,0.9995810867496052,182.420568701798,19.086058441892714,35.32318528993208,-2.4144853402351054,-154.07821655273438,4381.2578125,True
1599567782.8518522,0.0,10,0.5,0.5,4.679492809295654,-0.05075,-0.03,-0.001,0.32391627685991786,10,1,100,-0.20189289739848615,-10,-1,-100,6487.882988229045,-0.003615572990560619,0.02840256992578935,0.9995900267877629,177.0845772083453,18.52652417977015,39.72691337157765,-2.7969175760053027,-158.80555725097656,4381.2578125,True
1599567782.8987164,0.0,10,0.5,0.5,5.079529685974122,-0.05075,-0.03,-0.001,0.3166885941191548,10,1,100,-0.2203787227153027,-10,-1,-100,6487.76139579236,-0.0011361660475625425,0.028450706360293895,0.9995945510227198,171.18847749112342,17.908338526575193,43.66030457572745,-3.179261469984413,-163.23721313476562,4381.2578125,True
1599567782.9517086,0.0,10,0.5,0.5,5.344197219848633,-0.05075,-0.03,-0.001,0.31301161170078295,10,1,100,-0.1063243934287684,-10,-1,-100,6487.732587717939,5.5220608052838674e-05,0.028458257724461318,0.9995949802384826,168.03503591458605,17.57757652526571,45.43583258045158,-3.370407893375446,-165.34197998046875,4381.2578125,True
1599567783.0045302,0.0,10,0.5,0.5,5.705104103088379,-0.05075,-0.03,-0.001,0.32386757245215003,10,1,100,-0.2381327947807091,-10,-1,-100,6487.549495562678,0.002311195123778198,0.028561419736316516,0.9995893675303604,161.38053690230743,16.87946768016715,48.59245005787145,-3.7526842370604743,-169.3275146484375,4381.2578125,True
1599567783.0583882,0.0,10,0.5,0.5,5.947670860290527,-0.05075,-0.03,-0.001,0.32012508949461094,10,1,100,-0.13417201273480692,-10,-1,-100,6487.5187462623,0.0033926789074197315,0.02861936165740892,0.9995846246657426,157.9185179062051,16.516397787259034,49.975423866268606,-3.943831679293277,-171.20892333984375,4381.2578125,True
1599567783.1132803,0.0,10,0.5,0.5,6.264602554321289,-0.05075,-0.03,-0.001,0.32447242503275986,10,1,100,-0.2563880715521106,-10,-1,-100,6487.336650532088,0.0054645075113889585,0.02871023457977427,0.9995728395609957,150.84813065569944,15.77579039340682,52.373273681254844,-4.326190995797084,-174.74951171875,4381.2578125,True
1599567783.1710846,0.0,10,0.5,0.5,6.6256454620361325,-0.05075,-0.03,-0.001,0.3467099546625063,10,1,100,-0.36555925905593634,-10,-1,-100,6487.058891037712,0.008320579516914658,0.028994122555599893,0.9995449508720122,154.32937793386066,16.141734191297928,60.70167817351733,-4.899962431694551,-179.50164794921875,4381.2578125,True
1599567783.2269685,0.0,10,0.5,0.5,-11.7402487487793,-0.05075,-0.03,-0.001,0.3463786753862268,10,1,100,-0.2747652853738314,-10,-1,-100,6486.813346596784,0.010070538699181246,0.029248178340901113,0.9995214496518057,158.51649995280786,16.58349817037868,67.22917795527097,-5.282661495631774,177.7022705078125,4381.2578125,True
1599567783.2838483,0.0,10,0.5,0.5,-12.226196166992189,-0.05075,-0.03,-0.001,0.36173443277987144,10,1,100,-0.28084081978115194,-10,-1,-100,6486.628361281706,0.011698035441594961,0.02961776062828808,0.9994928435072322,162.37458729388732,16.992942055520455,73.86949609070544,-5.665507723025373,175.204833984375,4381.2578125,True
1599567783.3396723,0.0,10,0.5,0.5,-13.090703338623047,-0.05075,-0.03,-0.001,0.3755732777545694,10,1,100,-0.2858561864702279,-10,-1,-100,6486.38137696567,0.013205659318431776,0.030078325504731905,0.9994603068140309,165.62795672066085,17.340980099818335,80.45831606384006,-6.0484663240407,172.91668701171875,4381.2578125,True
1599567783.3985493,0.0,10,0.5,0.5,-13.94634077835083,-0.05075,-0.03,-0.001,0.3924655466847722,10,1,100,-0.2896475671675455,-10,-1,-100,6486.134404639248,0.014593062103653265,0.030648945485969147,0.9994236762649947,169.07810464327673,17.711395281418138,87.3539541218591,-6.43151577858822,170.45030212402344,4381.2578125,True
1599567783.4543707,0.0,10,0.5,0.5,-14.794684700012208,-0.05075,-0.03,-0.001,0.4130388786836068,10,1,100,-0.2925258224680801,-10,-1,-100,6485.8259194608545,0.015863950015592012,0.03135267905475588,0.9993824816385328,172.74111759228168,18.10592060111876,94.5838301567733,-6.8146441745052435,167.70846557617188,4381.2578125,True
1599567783.5122619,0.0,10,0.5,0.5,-15.633315052032474,-0.05075,-0.03,-0.001,0.4348400530696126,10,1,100,-0.29428456523375096,-10,-1,-100,6485.578481238335,0.01701983658243956,0.03218799118198527,0.9993369093485818,176.58079397940838,18.52075054120118,102.14706410153097,-7.197836054720489,164.67564392089844,4381.2578125,True
1599567783.5693574,0.0,10,0.5,0.5,-16.542235137939453,-0.05075,-0.03,-0.001,0.40330770271849997,10,1,100,-0.23939047100779426,-10,-1,-100,6485.423760868958,0.01755618295390646,0.032657317445858675,0.9993124036342835,178.66806381849813,18.746360082691332,106.11898627922874,-7.38944904250745,163.04925537109375,4381.2578125,True
1599567783.6311944,0.0,10,0.5,0.5,-17.36127397918701,-0.05075,-0.03,-0.001,0.472253713153939,10,1,100,-0.2959503917935414,-10,-1,-100,6485.111888122046,0.018544092582537593,0.03370703605542072,0.9992597021548746,182.75919570699284,19.189889131287835,114.20807576802575,-7.772694966754106,159.57644653320312,4381.2578125,True
1599567783.6892138,0.0,10,0.5,0.5,-18.059050819396973,-0.05075,-0.03,-0.001,0.5718324598267863,10,1,100,-0.34024950285995814,-10,-1,-100,6484.586244283593,0.019831137424010485,0.035561961875323,0.9991706925526028,188.412409020775,19.805784343762042,126.50104693124163,-8.34757462556916,153.81698608398438,4381.2578125,True
1599567783.7460635,0.0,10,0.5,0.5,-18.832844863891605,-0.05075,-0.03,-0.001,0.5456549278080036,10,1,100,-0.2940830984215835,-10,-1,-100,6484.275385825662,0.020568423030534598,0.03700405166843109,0.9991034181375607,191.97956662597005,20.19491459561732,134.85251697230063,-8.730809237264628,149.61090087890625,4381.2578125,True
1599567783.804181,0.0,10,0.5,0.5,-19.591594139099122,-0.05075,-0.03,-0.001,0.5832737567537483,10,1,100,-0.292103246371733,-10,-1,-100,6483.90351271024,0.021209549614636405,0.038649749989751736,0.9990277032349373,194.96762776969902,20.521587077689457,143.00494063685335,-9.114008902473474,145.11245727539062,4381.2578125,True
1599567783.8625455,0.0,10,0.5,0.5,-19.250390453338625,-0.05075,-0.03,-0.001,0.6219309809626203,10,1,100,-0.29087960496062487,-10,-1,-100,6483.5302007464925,0.021771141577432106,0.04048872180044311,0.9989427815452603,197.03997354261597,20.749034878720796,150.64694784128767,-9.497163329140195,140.3214874267578,4381.2578125,True
1599567783.9213758,0.0,10,0.5,0.5,-18.887483360290528,-0.05075,-0.03,-0.001,0.6646862571632537,10,1,100,-0.2894554345837456,-10,-1,-100,6483.1578947015805,0.022259575352787626,0.04253931599273907,0.9988467940079618,197.97791687314376,20.853023654873354,157.51918423125016,-9.880271126702938,135.23843383789062,4381.2578125,True
1599567783.9782248,0.0,10,0.5,0.5,-18.501398303985596,-0.05075,-0.03,-0.001,0.7125908875455981,10,1,100,-0.2886769911453146,-10,-1,-100,6482.722147374065,0.022688298466366583,0.04482766099785852,0.998737063456725,197.55778996962619,20.809016137133163,163.33101165822433,-10.263340573414197,129.86387634277344,4381.2578125,True
1599567784.0386271,0.0,10,0.5,0.5,-18.091808330535887,-0.05075,-0.03,-0.001,0.7639455627872717,10,1,100,-0.2891789184837955,-10,-1,-100,6482.285464876797,0.02307525042145845,0.047361945581516976,0.9986112251165216,195.54807213356074,20.59234402548962,167.75753568384857,-10.646399020353918,124.19807434082031,4381.2578125,True
1599567784.099466,0.0,10,0.5,0.5,-17.658685543060304,-0.05075,-0.03,-0.001,0.8196236279528428,10,1,100,-0.2913736398895479,-10,-1,-100,6481.850786746829,0.02344042121122529,0.05015745100768734,0.9984662121283082,191.74994216233492,20.18296010591793,170.47441694417927,-11.029491998303076,118.24140930175781,4381.2578125,True
1599567784.1573088,0.0,10,0.5,0.5,-17.2020520362854,-0.05075,-0.03,-0.001,0.8800357446067135,10,1,100,-0.2960464430283349,-10,-1,-100,6481.413726569037,0.02380903778988522,0.05323168476485404,0.9982983108553349,185.99550771364008,19.565362357946146,171.16095983514018,-11.412672623585784,111.99430847167969,4381.2578125,True
1599567784.2171497,0.0,10,0.5,0.5,-16.887858043670654,-0.05075,-0.03,-0.001,0.7554192455481955,10,1,100,-0.28132645450325117,-10,-1,-100,6481.195710838074,0.024004641279497144,0.05487486149145634,0.998204651748997,182.34709321560663,19.175413001361832,170.65068298280988,-11.604310771985443,108.76191711425781,4381.2578125,True
1599567784.274994,0.0,10,0.5,0.5,-16.21434328842163,-0.05075,-0.03,-0.001,1.1878235806489417,10,1,100,-0.3368157597620483,-10,-1,-100,6480.480262757395,0.024681946728136176,0.060280363538886994,0.997876284555019,168.30873488617917,17.685708448489045,165.40848505656126,-12.179467681048711,98.63044738769531,4381.2578125,True
1599567784.3328402,0.0,10,0.5,0.5,-15.690621219635013,-0.05075,-0.03,-0.001,1.0854143095410824,10,1,100,-0.33326108535592736,-10,-1,-100,6479.982419682783,0.025260953905657718,0.06424099166133108,0.9976146446389732,157.2009097621857,16.518050051596212,159.41769521013802,-12.563093714771792,91.51365661621094,4381.2578125,True
1599567784.3876932,0.0,10,0.5,0.5,-15.33366679763794,-0.05075,-0.03,-0.001,0.9209743150208216,10,1,100,-0.31317358058783396,-10,-1,-100,6479.702530817594,0.025600444450171796,0.06632189278610252,0.9974698109623279,157.36935187663784,16.53939804905425,162.05619233202748,-12.75490876063845,87.84642028808594,4381.2578125,True
1599567784.4425464,0.0,10,0.5,0.5,-14.573826915740966,-0.05075,-0.03,-0.001,1.4656529708379664,10,1,100,-0.4292290946137357,-10,-1,-100,6478.923112955759,0.026960130622842304,0.07314008873169028,0.9969572101033825,175.9318276272766,18.516705515974124,189.45352048252482,-13.329988580621325,76.41242980957031,4381.2578125,True
1599567784.5073736,0.0,10,0.5,0.5,-13.980285472869872,-0.05075,-0.03,-0.001,1.322497018544863,10,1,100,-0.4265943119895347,-10,-1,-100,6478.363635888789,0.028167539129554203,0.0780073478732589,0.9965547869621446,185.98932640216273,19.60025405316115,206.12322633379623,-13.71301227442671,68.42695617675781,4381.2578125,True
1599567784.5659347,0.0,10,0.5,0.5,-13.575583812713623,-0.05075,-0.03,-0.001,1.1175152898029563,10,1,100,-0.38477854339282275,-10,-1,-100,6478.083952963003,0.028879668999525123,0.08053641498441257,0.996333202588339,190.02604407498265,20.03856273060707,213.58007624086397,-13.904415119451635,64.32545471191406,4381.2578125,True
1599567784.6237788,0.0,10,0.5,0.5,-12.94730750656128,-0.05075,-0.03,-0.001,1.4436232295201403,10,1,100,-0.5057477980475054,-10,-1,-100,6477.522750484175,0.03062115176860202,0.08576772203381161,0.9958444873179221,197.40951269793598,20.84139551146894,228.07698135123795,-14.287014603623842,55.90492248535156,4381.2578125,True
1599567784.6826227,0.0,10,0.5,0.5,-12.300033088684083,-0.05075,-0.03,-0.001,1.518062688980817,10,1,100,-0.5650136670932225,-10,-1,-100,6476.96415011643,0.032736238639681045,0.09116526373158754,0.9952975602142689,201.6495263715549,21.30649537930174,239.30821329449125,-14.669406837455764,47.193511962890625,4381.2578125,True
1599567784.741465,0.0,10,0.5,0.5,-11.391092971801758,-0.05075,-0.03,-0.001,1.8929946653029162,10,1,100,-0.7939006354204765,-10,-1,-100,6476.0603916127,0.0367313847641566,0.09944331250274482,0.9943650400993536,202.36772881421697,21.389515817544172,249.7029956567946,-15.24289073396113,33.579833984375,4381.2578125,True
1599567784.8042965,0.0,10,0.5,0.5,-10.927052505493164,-0.05075,-0.03,-0.001,1.3732623646435034,10,1,100,-0.568334202459604,-10,-1,-100,6475.719015852199,0.03830098426224074,0.10220196171804052,0.9940260527901307,200.70781533867057,21.211786885537496,250.81473805175736,-15.434103939484176,28.89556884765625,4381.2578125,True
1599567784.8621418,0.0,10,0.5,0.5,-9.94203673171997,-0.05075,-0.03,-0.001,1.9908526873542147,10,1,100,-1.0114965772135003,-10,-1,-100,6474.8166734679835,0.043743645082822885,0.11028125748365528,0.9929373282149743,189.53200728288232,20.018852291451182,245.8232720609539,-16.00813054321631,14.400863647460938,4381.2578125,True
1599567784.919988,0.0,10,0.5,0.5,-9.184663116455079,-0.05075,-0.03,-0.001,1.754072092072248,10,1,100,-0.9324495675310869,-10,-1,-100,6474.133706949535,0.04795558056046227,0.11542806559170102,0.9921575600512588,178.16194010047064,18.81488702873178,236.71952551203418,-16.39118002254173,4.368408203125,4381.2578125,True
1599567784.9768355,0.0,10,0.5,0.5,-8.667924209594727,-0.05075,-0.03,-0.001,1.5178531291517932,10,1,100,-0.7640989420221607,-10,-1,-100,6473.791039029253,0.05023352110218529,0.11791300323252904,0.991752548283271,171.13568246107502,18.075732310589665,230.09876959695046,-16.5827860810821,-0.75885009765625,4381.2578125,True
1599567785.0376735,0.0,10,0.5,0.5,-7.864776641845704,-0.05075,-0.03,-0.001,1.7693393521990668,10,1,100,-1.0708440345183647,-10,-1,-100,6473.107195982942,0.055070574184033515,0.1224113748333057,0.9909503959182119,168.84948872140194,17.85246546153848,232.3854571897586,-16.96593605367191,-11.24114990234375,4381.2578125,True
1599567785.0955207,0.0,10,0.5,0.5,-7.054344825744629,-0.05075,-0.03,-0.001,1.776607461073289,10,1,100,-1.1587238168232794,-10,-1,-100,6472.424825925613,0.06024124733070277,0.12652208520004868,0.9901328971792993,183.25970898890293,19.40931944307836,258.03246441150105,-17.348570405783622,-22.022857666015625,4381.2578125,True
1599567785.1523702,0.0,10,0.5,0.5,-5.927520500183105,-0.05075,-0.03,-0.001,1.9395239185366249,10,1,100,-1.5498098502960669,-10,-1,-100,6471.398782408796,0.06846802894269911,0.1316960490219119,0.9889227875242433,196.00406764869152,20.81517628818383,285.28707502487913,-17.921520033073335,-38.762115478515625,4381.2578125,True
1599567785.2102144,0.0,10,0.5,0.5,-5.338374221801757,-0.05075,-0.03,-0.001,1.5830393216016367,10,1,100,-1.0379904471554573,-10,-1,-100,6470.99455718277,0.07125802823419645,0.13311237467507175,0.9885359827141031,198.40948736369577,21.08558815084747,291.92575349301495,-18.112303053410635,-44.49395751953125,4381.2578125,True
1599567785.2690573,0.0,10,0.5,0.5,-4.1294827575683595,-0.05075,-0.03,-0.001,1.818450850786181,10,1,100,-1.6857913216592877,-10,-1,-100,6469.906698941137,0.07964654747062377,0.13649700766812997,0.9874335392185422,197.02159186098243,20.963111270314386,299.23339460332056,-18.684503173713118,-62.14471435546875,4381.2578125,True
1599567785.3269024,0.0,10,0.5,0.5,-3.190505104064941,-0.05075,-0.03,-0.001,1.6523335819717904,10,1,100,-1.4504388237318442,-10,-1,-100,6469.159457980422,0.08509026015091645,0.13802257908720067,0.9867671535319601,189.47457493749198,20.16351710744087,293.7813163877778,-19.06619897717318,-74.29183959960938,4381.2578125,True
1599567785.8483212,0.0,10,0.5,0.5,-2.234730125427246,-0.05075,-0.03,-0.001,1.6127760011002703,10,1,100,-1.4825518222742267,-10,-1,-100,6468.349534527399,0.09028706359667076,0.13901477576335616,0.9861658776628577,177.49380243326448,18.891094720208645,280.8539245538877,-19.44825026047784,-86.74221801757812,4381.2578125,True
1599567785.9011798,0.0,10,0.5,0.5,-1.2403267211914062,-0.05075,-0.03,-0.001,1.575877080436169,10,1,100,-1.5020043405066148,-10,-1,-100,6467.603382518399,0.09514101136825599,0.13954786181378268,0.9856341015909641,160.4122795719962,17.08510414330576,258.9427915710375,-19.83058236725277,-99.49468994140625,4381.2578125,True
1599567785.9553285,0.0,10,0.5,0.5,-0.5755837059020995,-0.05075,-0.03,-0.001,1.5390993703118379,10,1,100,-1.2718502283680515,-10,-1,-100,6467.197274063714,0.09741465617181433,0.13967153667274002,0.9853944624394856,162.2061697142321,17.288390439341672,264.4258479710088,-20.021677979212466,-105.98374938964844,4381.2578125,True
1599567786.008089,0.0,10,0.5,0.5,0.7796023769378664,-0.05075,-0.03,-0.001,1.5248721158973275,10,1,100,-1.7223966393614947,-10,-1,-100,6465.981596741127,0.10353251966079743,0.1396325901670411,0.9847759933791694,184.61923227091145,19.730421541112086,309.77855483545886,-20.593968100033404,-125.89908599853516,4381.2578125,True
1599567786.0664432,0.0,10,0.5,0.5,1.8403653488159182,-0.05075,-0.03,-0.001,1.5071389788770837,10,1,100,-1.495709567604715,-10,-1,-100,6465.10746012372,0.10698496854521261,0.13941622883719032,0.9844375712264318,191.0357989254163,20.445587298967627,326.6124695472221,-20.974904958928125,-139.52725219726562,4381.2578125,True
1599567786.121297,0.0,10,0.5,0.5,2.923639671325684,-0.05075,-0.03,-0.001,1.506023952465959,10,1,100,-1.4797197739835513,-10,-1,-100,6464.296671256307,0.1099310017759784,0.1391939411572213,0.9841444109446794,191.94371262721555,20.55907418341637,334.26482015150754,-21.355757589345096,-153.28656005859375,4381.2578125,True
1599567786.1826448,0.0,10,0.5,0.5,3.657056945800782,-0.05075,-0.03,-0.001,1.521361644575972,10,1,100,-1.3321195580578356,-10,-1,-100,6463.828743392136,0.1112222211551269,0.13911977514374307,0.9840098097505302,190.1955233508105,20.375679231835115,334.2489464426566,-21.546256028480563,-160.11526489257812,4381.2578125,True
1599567786.2454772,0.0,10,0.5,0.5,-13.23785592651367,-0.05075,-0.03,-0.001,1.5602094192549867,10,1,100,-1.6592361876799504,-10,-1,-100,6462.080001979251,0.11533097704890619,0.1393987642411886,0.9834972039924538,168.12417485124033,18.02589443962672,306.2219130141486,-22.309170235142787,173.25949096679688,4381.2578125,True
1599567786.3063147,0.0,10,0.5,0.5,-13.557741516113282,-0.05075,-0.03,-0.001,1.5329391484670454,10,1,100,-1.252767893183492,-10,-1,-100,6462.080001979251,0.11533097704890619,0.1393987642411886,0.9834972039924538,168.12417485124033,18.02589443962672,306.2219130141486,-22.309170235142787,173.25949096679688,4381.2578125,True
1599567786.370144,0.0,10,0.5,0.5,-13.267305480957033,-0.05075,-0.03,-0.001,1.6581981181524539,10,1,100,-1.5055770829575978,-10,-1,-100,6460.734881427954,0.11759680201996325,0.14053484418689863,0.9830671135400888,172.49466397882162,18.537656372239933,322.4811076688012,-22.88143978464689,154.00057983398438,4381.2578125,True
1599567786.4349713,0.0,10,0.5,0.5,-13.300912124633792,-0.05075,-0.03,-0.001,1.6892255815020096,10,1,100,-1.4278122591524975,-10,-1,-100,6459.798751995084,0.11892013855736054,0.14184742810881307,0.9827193433449923,184.10645539176966,19.824346581499274,350.0771746945761,-23.262213177133983,141.04348754882812,4381.2578125,True
1599567786.500794,0.0,10,0.5,0.5,-13.656958396911623,-0.05075,-0.03,-0.001,1.6498434146975773,10,1,100,-1.3699190055097237,-10,-1,-100,6459.329537188518,0.11957083939918678,0.1426800913829264,0.9825198246795501,187.7770932878688,20.23742458943473,360.05458664176,-23.452429880639016,134.46826171875,4381.2578125,True
1599567786.5686135,0.0,10,0.5,0.5,-12.968543609619141,-0.05075,-0.03,-0.001,2.05840011727258,10,1,100,-1.62607945290131,-10,-1,-100,6457.392735639936,0.12246890802437875,0.14714836235592113,0.9815032990384122,190.346846393855,20.55892355942786,377.142705475584,-24.212999176826973,107.47543334960938,4381.2578125,True
1599567786.638427,0.0,10,0.5,0.5,-13.635913986206054,-0.05075,-0.03,-0.001,1.6123207025414246,10,1,100,-1.3387780155673692,-10,-1,-100,6457.392735639936,0.12246890802437875,0.14714836235592113,0.9815032990384122,190.346846393855,20.55892355942786,377.142705475584,-24.212999176826973,107.47543334960938,4381.2578125,True
1599567786.7092373,0.0,10,0.5,0.5,-13.615855308532717,-0.05075,-0.03,-0.001,1.9249511809311348,10,1,100,-1.542808346248277,-10,-1,-100,6456.393018680625,0.12430651431387466,0.1499836250938377,0.9808429041915151,182.79014508115318,19.75335410031158,368.0359624030178,-24.593582849158093,93.55886840820312,4381.2578125,True
1599567786.778053,0.0,10,0.5,0.5,-13.594237247467042,-0.05075,-0.03,-0.001,1.9869906634350185,10,1,100,-1.6070232668169226,-10,-1,-100,6455.394585243426,0.12654509063152347,0.15311552524538202,0.9800724340404082,169.51429335067556,18.333726678766055,346.7658953493092,-24.97451883614863,79.35997009277344,4381.2578125,True
1599567786.8497217,0.0,10,0.5,0.5,-13.55685828781128,-0.05075,-0.03,-0.001,2.040457421959652,10,1,100,-1.6842738644818702,-10,-1,-100,6454.395482992986,0.12926733445465324,0.15643611265692975,0.9791923707320115,163.94513908150924,17.759504385865654,340.65709182263373,-25.355508195961573,64.87654113769531,4381.2578125,True
1599567786.9195359,0.0,10,0.5,0.5,-13.09412315750122,-0.05075,-0.03,-0.001,2.265413804031468,10,1,100,-1.9746413238212703,-10,-1,-100,6452.867327161715,0.134365401093948,0.1614841443794322,0.9776854351492126,185.08156465660085,20.110867934809043,393.49150222343775,-25.92584788235212,42.61192321777344,4381.2578125,True
1599567786.9893482,0.0,10,0.5,0.5,-12.332859859466552,-0.05075,-0.03,-0.001,1.9420287645195908,10,1,100,-1.6842735565727778,-10,-1,-100,6452.336089298362,0.1363429961328251,0.1631133225132917,0.9771410499125494,188.80588554869112,20.533755027210113,404.4345112592962,-26.11573198173841,35.04505920410156,4381.2578125,True
1599567787.0581675,0.0,10,0.5,0.5,-11.131214515686036,-0.05075,-0.03,-0.001,2.119246953901455,10,1,100,-1.9677110094884473,-10,-1,-100,6451.277651388315,0.1406984120864159,0.1661839093036608,0.9760055661341864,191.58252025696984,20.863819212276624,416.5245386039592,-26.495426234771273,19.691070556640625,4381.2578125,True
1599567787.1279774,0.0,10,0.5,0.5,-9.933746475219728,-0.05075,-0.03,-0.001,2.112603810979439,10,1,100,-2.0667942147499874,-10,-1,-100,6450.2173740279395,0.14553763608290657,0.1688916423000537,0.9748304517425531,188.03580569404699,20.49677606109015,414.86271842342245,-26.875289514556787,4.04095458984375,4381.2578125,True
1599567787.1958356,0.0,10,0.5,0.5,-8.294487533569336,-0.05075,-0.03,-0.001,2.1895898019214215,10,1,100,-2.461072164947183,-10,-1,-100,6448.565948073054,0.15349707790194028,0.17202850474698234,0.9730595257383194,170.54758589047503,18.623581973754842,384.5499276443622,-27.44570191951246,-19.99578857421875,4381.2578125,True
1599567787.271634,0.0,10,0.5,0.5,-6.575990509033203,-0.05075,-0.03,-0.001,2.0775037529122065,10,1,100,-2.5943078515846043,-10,-1,-100,6446.921609230456,0.16191332558094498,0.17383455342286636,0.9713730606906861,175.56461464932977,19.233192516590673,404.36257216074733,-28.01585281524248,-44.7135009765625,4381.2578125,True
1599567787.3374553,0.0,10,0.5,0.5,-5.7098886718749995,-0.05075,-0.03,-0.001,1.9311975590522263,10,1,100,-2.066869992363581,-10,-1,-100,6446.3234255785355,0.16473371164388853,0.17412209937397297,0.9708472067002246,181.03285160752372,19.85449752708061,419.86579003055493,-28.20557451923885,-53.1048583984375,4381.2578125,True
1599567787.404152,0.0,10,0.5,0.5,-4.356215873718262,-0.05075,-0.03,-0.001,1.917835650600337,10,1,100,-2.3992559922169914,-10,-1,-100,6445.203510138439,0.17028096733285047,0.1742375113099454,0.9698688992934589,186.01353175466528,20.43880750913838,437.3858715805185,-28.584775360134206,-70.11593627929688,4381.2578125,True
1599567787.471171,0.0,10,0.5,0.5,-2.9861811676025387,-0.05075,-0.03,-0.001,1.859725387557198,10,1,100,-2.4321843014894036,-10,-1,-100,6444.0730174693745,0.17558148035891147,0.17379210714569532,0.9690033267480728,183.45912561056306,20.184878136312015,437.2752224599753,-28.96401106130788,-87.43035888671875,4381.2578125,True
1599567787.537992,0.0,10,0.5,0.5,-2.0492622737884525,-0.05075,-0.03,-0.001,1.8619156450232284,10,1,100,-2.1839137302357026,-10,-1,-100,6443.485178925563,0.1780985448350902,0.17338830880797707,0.9686162308656266,179.65887717898548,19.77817568947018,431.1128526176392,-29.15373499232932,-96.20064544677734,4381.2578125,True
1599567787.601273,0.0,10,0.5,0.5,-0.6554693889617917,-0.05075,-0.03,-0.001,1.7839080251850312,10,1,100,-2.4543699092288054,-10,-1,-100,6442.299467290286,0.1828010857948441,0.1722966481422941,0.9679347230423943,167.49589155298045,18.46412092036933,407.3388113185242,-29.533432768779274,-113.96550750732422,4381.2578125,True
1599567787.6630738,0.0,10,0.5,0.5,0.731138053894043,-0.05075,-0.03,-0.001,1.7461223364366514,10,1,100,-2.451488834594989,-10,-1,-100,6441.112440862693,0.1870058990027667,0.17095089354508533,0.9673699322049987,160.77848244832174,17.757266736472044,396.19305803756646,-29.91318263640511,-132.02618408203125,4381.2578125,True
1599567787.7249105,0.0,10,0.5,0.5,2.6436432266235355,-0.05075,-0.03,-0.001,1.645759170589391,10,1,100,-2.6224187179429315,-10,-1,-100,6439.265955811832,0.19233630731052315,0.16880796279352792,0.9667008930313714,178.53158668347766,19.7755518365924,448.5440829258053,-30.481745962165675,-159.64651489257812,4381.2578125,True
1599567787.7897413,0.0,10,0.5,0.5,3.6362402191162118,-0.05075,-0.03,-0.001,1.7868796817225308,10,1,100,-2.2630853329429996,-10,-1,-100,6438.667779123643,0.19386852236737134,0.1681403721628771,0.9665111542470791,180.21298481449782,19.976625017123922,455.6615794426348,-30.671145017642424,-168.9644775390625,4381.2578125,True
1599567787.8505805,0.0,10,0.5,0.5,-13.047301692962646,-0.05075,-0.03,-0.001,1.6748888444377616,10,1,100,-2.555705352006184,-10,-1,-100,6436.8257762158755,0.19787768996845823,0.16651605604163955,0.9659797217815104,173.59502386975137,19.278946764578418,447.32144435839194,-31.23964451947426,163.2720489501953,4381.2578125,True
1599567787.9144082,0.0,10,0.5,0.5,-12.324323326110841,-0.05075,-0.03,-0.001,1.765956845200246,10,1,100,-2.416814507274582,-10,-1,-100,6435.576180955628,0.200219397733644,0.16587230725536012,0.9656078761365612,162.22535631741718,18.044281023533685,423.2714199467307,-31.618957834505572,145.09725952148438,4381.2578125,True
1599567787.9742434,0.0,10,0.5,0.5,-12.447684665679931,-0.05075,-0.03,-0.001,1.8110483179551244,10,1,100,-2.310517641751027,-10,-1,-100,6434.921901209862,0.20134706413164175,0.1657042419712118,0.9654022291036596,158.43995537943982,17.640231409315923,415.95302161901344,-31.808611993689432,136.12632751464844,4381.2578125,True
1599567788.0350814,0.0,10,0.5,0.5,-12.09248907852173,-0.05075,-0.03,-0.001,1.8239381273019077,10,1,100,-2.4510975362329708,-10,-1,-100,6433.607658523717,0.20361692957739577,0.16567628803186843,0.9649308335696685,171.94113851926855,19.181870965096856,456.93225167503584,-32.18743459342003,118.11936950683594,4381.2578125,True
1599567788.0959182,0.0,10,0.5,0.5,-11.25447509765625,-0.05075,-0.03,-0.001,1.8958744802305012,10,1,100,-2.638085923415099,-10,-1,-100,6431.704742942238,0.20735003262769647,0.16631262513479628,0.9640259719997516,178.8315004219094,19.998737514611513,483.8618435979697,-32.755084398013835,90.66571044921875,4381.2578125,True
1599567788.1557584,0.0,10,0.5,0.5,-11.335625637054445,-0.05075,-0.03,-0.001,1.869654482056509,10,1,100,-2.4218787266729986,-10,-1,-100,6431.0367607655935,0.20874936220097912,0.16665954931952248,0.9636639966302041,177.42950194160886,19.854799642596983,482.92583016338926,-32.944329641747125,81.37892150878906,4381.2578125,True
1599567788.2136042,0.0,10,0.5,0.5,-10.90562589263916,-0.05075,-0.03,-0.001,1.9218473508311873,10,1,100,-2.6268891389482363,-10,-1,-100,6429.667376463534,0.21185734663613287,0.1674555326213056,0.9628473966682427,170.99705577605388,19.160685158410704,470.94122650421156,-33.323001190502914,62.5958251953125,4381.2578125,True
1599567788.2720082,0.0,10,0.5,0.5,-9.968482009887696,-0.05075,-0.03,-0.001,1.9678762747269691,10,1,100,-2.9272409637614416,-10,-1,-100,6427.631251351326,0.2173868433838097,0.16860199958154373,0.9614137122283664,161.1054926571617,18.100471721242762,451.5048599471747,-33.89123402711256,33.88836669921875,4381.2578125,True
1599567788.3313224,0.0,10,0.5,0.5,-9.99224760055542,-0.05075,-0.03,-0.001,1.8841937488562046,10,1,100,-2.6055866636375997,-10,-1,-100,6426.977414213587,0.21946190956749823,0.1688856273956292,0.9608923535486023,168.11011130076488,18.905913596727192,473.83983800520326,-34.080432961730985,24.174636840820312,4381.2578125,True
1599567788.3901677,0.0,10,0.5,0.5,-9.536642623901368,-0.05075,-0.03,-0.001,1.8883752830432383,10,1,100,-2.891039271727913,-10,-1,-100,6425.605401515844,0.22391869744234794,0.16918141420595076,0.959811474208866,176.79637796056122,19.917561565925936,504.0020837746529,-34.4585342918288,4.52667236328125,4381.2578125,True
1599567788.4519663,0.0,10,0.5,0.5,-8.522650009155274,-0.05075,-0.03,-0.001,1.8062519084882669,10,1,100,-3.2443291233125966,-10,-1,-100,6423.517154221307,0.23115473036564027,0.16870278877206782,0.9581789288489467,176.4121080848621,19.91721412625377,511.4272135609124,-35.025623771745174,-25.5045166015625,4381.2578125,True
1599567788.5138025,0.0,10,0.5,0.5,-7.460512878417968,-0.05075,-0.03,-0.001,1.8047852917552645,10,1,100,-2.7972970478572163,-10,-1,-100,6422.791554275784,0.23363876230049604,0.16825235392302837,0.9576555091211308,173.07658781953418,19.555400805424828,504.552949837961,-35.21474083587076,-35.6656494140625,4381.2578125,True
1599567788.574187,0.0,10,0.5,0.5,-5.327338073730468,-0.05075,-0.03,-0.001,1.6007295125048335,10,1,100,-3.362110968200078,-10,-1,-100,6420.703211753629,0.24100126391296653,0.1659856514791998,0.9562254725196241,160.53597450329804,18.187959257835296,475.76329049305593,-35.78225480482367,-66.603759765625,4381.2578125,True
1599567789.1028044,0.0,10,0.5,0.5,-4.2085728988647455,-0.05075,-0.03,-0.001,1.7125075079394736,10,1,100,-2.8883278915115738,-10,-1,-100,6419.983641212457,0.24335127904551573,0.16494092066193602,0.9558109895152411,166.83458959288228,18.919480180040715,497.10864117885046,-35.97125207740939,-77.06777954101562,4381.2578125,True
1599567789.1566603,0.0,10,0.5,0.5,-2.5387871971130367,-0.05075,-0.03,-0.001,1.5468145072032002,10,1,100,-3.1439567293809123,-10,-1,-100,6418.478737050085,0.24777543282894707,0.16248553388261186,0.9550946477524155,173.96113729562072,19.760458941721932,523.9206229994464,-36.34898367757232,-98.22117614746094,4381.2578125,True
1599567789.2135413,0.0,10,0.5,0.5,-0.32255705261230483,-0.05075,-0.03,-0.001,1.3170206756228668,10,1,100,-3.335581467665737,-10,-1,-100,6416.319624268683,0.2535026835253819,0.1581678084245434,0.9543161603072677,171.77662677491864,19.552789706745962,525.6213895437647,-36.91556175371357,-130.50567626953125,4381.2578125,True
1599567789.2763395,0.0,10,0.5,0.5,0.8452177848815918,-0.05075,-0.03,-0.001,1.580781354497002,10,1,100,-2.94719125809022,-10,-1,-100,6415.54761518829,0.2551377701429776,0.15664814758051418,0.9541310581393222,167.59243734709332,19.090400764616234,515.5171118944553,-37.104514520677,-141.4120635986328,4381.2578125,True
1599567789.340169,0.0,10,0.5,0.5,3.1598794593811044,-0.05075,-0.03,-0.001,1.2395734700401182,10,1,100,-3.2395699251920513,-10,-1,-100,6413.320428180043,0.2592428545658023,0.1521745727590985,0.9537484163877601,161.70443050452045,18.463963519380346,505.19877429662193,-37.67146581846534,-174.52403259277344,4381.2578125,True
1599567789.4040859,0.0,10,0.5,0.5,-14.302865634918215,-0.05075,-0.03,-0.001,1.5320029319591852,10,1,100,-2.958092453242873,-10,-1,-100,6412.53494666086,0.2603778124677577,0.15078107023600523,0.9536605599651221,167.0356686559002,19.086848255171702,524.5292422578366,-37.86025464870251,174.3623504638672,4381.2578125,True
1599567789.4629283,0.0,10,0.5,0.5,-13.260217990875246,-0.05075,-0.03,-0.001,1.3898955087432026,10,1,100,-3.0702791389211406,-10,-1,-100,6411.034722927492,0.2623922750639739,0.148238822783193,0.9535069718710005,172.34262869769478,19.718731980626746,546.716496541889,-38.237686260686566,152.2498016357422,4381.2578125,True
1599567789.5242765,0.0,10,0.5,0.5,-12.595123767852783,-0.05075,-0.03,-0.001,1.4047935904551725,10,1,100,-3.0721150058940516,-10,-1,-100,6409.466192912194,0.2642053184169954,0.14608216456112957,0.953339158388718,170.52544442052326,19.534919485182428,546.4310394007673,-38.61515538407718,130.4067840576172,4381.2578125,True
1599567789.5861094,0.0,10,0.5,0.5,-11.95499019622803,-0.05075,-0.03,-0.001,1.4244854352726297,10,1,100,-3.0912760801325394,-10,-1,-100,6407.896884874208,0.2659976852418636,0.14432114715233146,0.9531089328773524,162.65704839432283,18.659602630804926,526.4489081990722,-38.99277474540099,108.57662963867188,4381.2578125,True
1599567789.6440096,0.0,10,0.5,0.5,-11.26825106430054,-0.05075,-0.03,-0.001,1.4409255488452524,10,1,100,-3.129350728008439,-10,-1,-100,6406.33569834393,0.26794382558794166,0.14289143345569402,0.9527791688393883,163.66953469232215,18.803471267711945,534.9737630786302,-39.370356403566475,86.52259826660156,4381.2578125,True
1599567789.7028537,0.0,10,0.5,0.5,-10.01181484222412,-0.05075,-0.03,-0.001,1.3820857311258958,10,1,100,-3.3213386892231602,-10,-1,-100,6403.981676692725,0.2714338959484419,0.14107778104132357,0.9520612899528615,173.9462517206958,20.02180985216087,576.9173969122594,-39.936062725176,52.940582275390625,4381.2578125,True
1599567789.7606976,0.0,10,0.5,0.5,-9.848948265075684,-0.05075,-0.03,-0.001,1.4946706067895805,10,1,100,-3.123807754442746,-10,-1,-100,6403.137777291355,0.27278542176279935,0.14047419875212994,0.9517642109044858,174.18922116645444,20.061400231501658,580.5173154498113,-40.12459837907796,41.607757568359375,4381.2578125,True
1599567789.8165085,0.0,10,0.5,0.5,-9.09577975463867,-0.05075,-0.03,-0.001,1.404463583698535,10,1,100,-3.3196436190286187,-10,-1,-100,6401.577148848213,0.2757716712821469,0.13912543403851757,0.9511015187254439,169.92052241147397,19.594467837126867,571.7499511860103,-40.50175094647549,18.728759765625,4381.2578125,True
1599567789.8793745,0.0,10,0.5,0.5,-8.367381774902345,-0.05075,-0.03,-0.001,1.3521103499693587,10,1,100,-3.3867595117778695,-10,-1,-100,6399.888776628417,0.2790763435176772,0.13744065705986475,0.9503822706026014,160.78084216127945,18.566623768893475,546.1541365442648,-40.879043560148894,-4.43994140625,4381.2578125,True
1599567789.9402184,0.0,10,0.5,0.5,-6.974340293884278,-0.05075,-0.03,-0.001,1.1395574315286752,10,1,100,-3.6369618274451248,-10,-1,-100,6397.414800592349,0.2843333951711573,0.13399420372119292,0.9493155817532787,175.1066710594465,20.25930944646709,603.2141922994905,-41.44437008292839,-39.746734619140625,4381.2578125,True
1599567790.0000465,0.0,10,0.5,0.5,-6.797225677490234,-0.05075,-0.03,-0.001,1.3254389456485502,10,1,100,-3.305401565790154,-10,-1,-100,6396.632529155351,0.28607553925872553,0.13256742387716094,0.9489924467372766,177.2454629811136,20.51829093121706,613.4177445831413,-41.63270088354045,-51.6646728515625,4381.2578125,True
1599567790.057896,0.0,10,0.5,0.5,-4.257716651916504,-0.05075,-0.03,-0.001,0.9086796688669764,10,1,100,-3.667734829554274,-10,-1,-100,6394.095696361503,0.2909298838027423,0.12749818845398925,0.9482109547202425,173.72358138218834,20.147502769170845,609.581457111389,-42.19773605811478,-87.86459350585938,4381.2578125,True
1599567790.1157446,0.0,10,0.5,0.5,-2.3056885166168213,-0.05075,-0.03,-0.001,0.9848329882797006,10,1,100,-3.484111680326148,-10,-1,-100,6392.406147631118,0.2936476796600121,0.12360095064061175,0.9478891523965385,165.16586016384448,19.180465436204134,584.8348306249749,-42.574563350881846,-112.36478424072266,4381.2578125,True
1599567790.174589,0.0,10,0.5,0.5,-0.9623545207977294,-0.05075,-0.03,-0.001,1.1477438045633837,10,1,100,-3.34262013500409,-10,-1,-100,6391.561172688147,0.2948053506080177,0.12155945206186615,0.9477938092577428,170.37889073771055,19.79762164736369,606.0101820828266,-42.76286973579446,-124.72264862060547,4381.2578125,True
1599567790.23442,0.0,10,0.5,0.5,1.0150697555541994,-0.05075,-0.03,-0.001,0.8965831095971338,10,1,100,-3.440334859618098,-10,-1,-100,6389.8083537254715,0.29671990563418094,0.11744095766794103,0.9477156319606002,177.6548772215045,20.664106898472472,637.5549405923298,-43.13925945857406,-149.64794921875,4381.2578125,True
1599567790.2942321,0.0,10,0.5,0.5,3.0027377777099615,-0.05075,-0.03,-0.001,0.8611478615901251,10,1,100,-3.398982570056827,-10,-1,-100,6388.04827434686,0.29805832022554846,0.11339787003320699,0.94778803580561,178.05904899922496,20.731332843735828,644.6961760216045,-43.51558806698874,-174.84759521484375,4381.2578125,True
1599567790.3531106,0.0,10,0.5,0.5,-12.9924125289917,-0.05075,-0.03,-0.001,0.6566326569350338,10,1,100,-3.403905092096701,-10,-1,-100,6385.449193950859,0.2992956069414477,0.10788827024204622,0.9480412758998047,165.97949760814677,19.356156660634305,608.9144384644392,-44.08032597586333,146.95559692382812,4381.2578125,True
1599567790.4139526,0.0,10,0.5,0.5,-12.330553253173829,-0.05075,-0.03,-0.001,1.0224290832471177,10,1,100,-3.314808477789454,-10,-1,-100,6384.538213339751,0.2995863436574914,0.10623458878792819,0.948136190027042,170.38676723438635,19.879559546157697,627.7971990178577,-44.268520906677736,134.27734375,4381.2578125,True
1599567790.4717941,0.0,10,0.5,0.5,-11.389310276031495,-0.05075,-0.03,-0.001,0.8525082850165383,10,1,100,-3.346445946817278,-10,-1,-100,6382.781296045054,0.30011661341562473,0.10321640825049797,0.9483018461543786,178.7850474358891,20.876435802572924,664.4395606123198,-44.644660825225365,109.14561462402344,4381.2578125,True
1599567790.5286405,0.0,10,0.5,0.5,-10.455482925415039,-0.05075,-0.03,-0.001,0.8457354948801384,10,1,100,-3.363127054282373,-10,-1,-100,6380.968961556442,0.3007311957455214,0.10044214989596628,0.9484050413350539,180.35937295929998,21.07797584459285,676.0519198436047,-45.02069107961342,84.03033447265625,4381.2578125,True
1599567790.5864885,0.0,10,0.5,0.5,-8.880450717926026,-0.05075,-0.03,-0.001,0.7118410481251198,10,1,100,-3.457199728973558,-10,-1,-100,6378.239620628185,0.3021302059966433,0.09673337647027842,0.9483459244922632,170.37876206181403,19.940386451805583,646.7967641776888,-45.584882163327904,45.93412780761719,4381.2578125,True
1599567790.647918,0.0,10,0.5,0.5,-7.879518352508545,-0.05075,-0.03,-0.001,0.7950130499805106,10,1,100,-3.4584081052220803,-10,-1,-100,6376.414434440318,0.30339842358470626,0.09415044977961745,0.9482009752012549,181.03994399166984,21.204544139534597,693.0298238027225,-45.96075133019777,20.198379516601562,4381.2578125,True
1599567790.7077522,0.0,10,0.5,0.5,-6.8831178436279306,-0.05075,-0.03,-0.001,0.7389210891147173,10,1,100,-3.4942276439239706,-10,-1,-100,6374.530840181629,0.30486564579861525,0.09132272381539515,0.948006908269518,186.27164276421442,21.83281808631124,718.994342433178,-46.33636837664577,-5.81756591796875,4381.2578125,True
1599567790.7656004,0.0,10,0.5,0.5,-6.550099967956543,-0.05075,-0.03,-0.001,0.8487987479168427,10,1,100,-3.4326552465957394,-10,-1,-100,6373.6337310130475,0.30562953695724077,0.08978029549778076,0.947908268072198,186.05246874883431,21.816039673821745,721.1170943124622,-46.524158266931096,-18.93206787109375,4381.2578125,True
1599567790.8233814,0.0,10,0.5,0.5,-4.822252388000488,-0.05075,-0.03,-0.001,0.41876854448318646,10,1,100,-3.6016883903636785,-10,-1,-100,6370.839159925119,0.30785080823901867,0.0844976125928836,0.9476750673794715,175.87783243700386,20.64996608550242,690.081226377425,-47.08769196805031,-58.706634521484375,4381.2578125,True
1599567790.884219,0.0,10,0.5,0.5,-4.441347518920899,-0.05075,-0.03,-0.001,0.7285125620836248,10,1,100,-3.4486659125509904,-10,-1,-100,6369.872496929485,0.30846891333087884,0.08254097678941295,0.9476465146135009,182.32108074830285,21.413618555799214,718.2564717062521,-47.275438005202524,-72.107666015625,4381.2578125,True
1599567790.943095,0.0,10,0.5,0.5,-2.660690128326416,-0.05075,-0.03,-0.001,0.2308921704643493,10,1,100,-3.5260438494934903,-10,-1,-100,6366.990406386438,0.3097247986655878,0.07626644694721331,0.9477626169888792,192.7369479130953,22.657577761494487,768.4844389581226,-47.83821293022285,-112.73139953613281,4381.2578125,True
1599567791.0042655,0.0,10,0.5,0.5,-1.2144636783599851,-0.05075,-0.03,-0.001,0.6220762690441004,10,1,100,-3.42501587644636,-10,-1,-100,6366.006211175467,0.3099385954042364,0.07414729509893395,0.9478608788785201,192.0037066777026,22.57984604105784,768.6167494982881,-48.02575991076587,-126.40848541259766,4381.2578125,True
1599567791.0601168,0.0,10,0.5,0.5,0.9800625000000003,-0.05075,-0.03,-0.001,0.3575326937986733,10,1,100,-3.3998276534376424,-10,-1,-100,6364.027715936536,0.3098945610922498,0.06984502209252973,0.9482020005749492,184.12478336348389,21.669609810779747,742.9231931200511,-48.40095734100344,-153.96685791015625,4381.2578125,True
1599567791.1169639,0.0,10,0.5,0.5,-15.448751029968262,-0.05075,-0.03,-0.001,0.3440149814919534,10,1,100,-3.3750951892543597,-10,-1,-100,6362.055779503542,0.3096208002727079,0.06584131414406295,0.948577820418689,190.39307700299335,22.417806367543324,774.2472665109301,-48.776040757136656,178.218505859375,4381.2578125,True
1599567791.1738124,0.0,10,0.5,0.5,-13.219835784912112,-0.05075,-0.03,-0.001,0.14552590348953398,10,1,100,-3.2835150590150772,-10,-1,-100,6359.132800053107,0.30853129870319707,0.06042858878702744,0.9492928017096343,195.88214058177138,23.079165842405978,805.9050995295571,-49.338197109882316,136.10653686523438,4381.2578125,True
1599567791.228666,0.0,10,0.5,0.5,-12.084393600463867,-0.05075,-0.03,-0.001,0.32842937515160203,10,1,100,-3.3109413599337496,-10,-1,-100,6357.123705291189,0.3077843535640783,0.05720369255727146,0.9497349784329077,187.46385074750793,22.09954855723019,777.2198523453651,-49.71307743778617,108.12448120117188,4381.2578125,True
1599567791.28352,0.0,10,0.5,0.5,-11.649439014434815,-0.05075,-0.03,-0.001,0.48093371765687354,10,1,100,-3.347412115879422,-10,-1,-100,6356.150486592436,0.30743287764622246,0.05569195978683426,0.9499386461015598,186.25801031479324,21.9612741547879,775.1700084290258,-49.90055328248703,94.08168029785156,4381.2578125,True
1599567791.3413641,0.0,10,0.5,0.5,-9.764262546539308,-0.05075,-0.03,-0.001,0.13759043585405595,10,1,100,-3.290602885051921,-10,-1,-100,6353.10716447758,0.30659457268442386,0.051228746310073514,0.9504606165180932,200.94311310115225,23.701916522109375,845.852723370133,-50.46232571467942,51.59053039550781,4381.2578125,True
1599567791.4181585,0.0,10,0.5,0.5,-7.7888145294189455,-0.05075,-0.03,-0.001,0.07240724714903213,10,1,100,-3.3264972213069375,-10,-1,-100,6350.063800113392,0.3061579121071733,0.046613751933143266,0.9508388354421015,192.94908777197114,22.77390316874262,821.3798180098098,-51.02395658153979,8.508270263671875,4381.2578125,True
1599567791.477002,0.0,10,0.5,0.5,-7.2833260116577145,-0.05075,-0.03,-0.001,0.34678108579512573,10,1,100,-3.34846382166954,-10,-1,-100,6349.027888513869,0.3059621833094527,0.044947049996952745,0.9509820740061741,193.98629885478925,22.89843864787494,828.8614233033176,-51.21118024527593,-5.9886474609375,4381.2578125,True
1599567791.5348465,0.0,10,0.5,0.5,-5.985328880310059,-0.05075,-0.03,-0.001,0.12937847008017267,10,1,100,-3.3181611436141907,-10,-1,-100,6346.958403919009,0.30551104799285933,0.0414896553000913,0.9512841889032869,205.6241231280515,24.274047929524215,885.1008286968371,-51.58526651490559,-35.183837890625,4381.2578125,True
1599567791.592694,0.0,10,0.5,0.5,-4.72229002380371,-0.05075,-0.03,-0.001,0.06333009493848557,10,1,100,-3.291066695971814,-10,-1,-100,6344.886703675962,0.30485844249981897,0.03777774470315385,0.9516481345758673,206.24616308522104,24.353824726494246,894.3207733061494,-51.95918256236179,-64.65005493164062,4381.2578125,True
1599567792.1152964,0.0,10,0.5,0.5,-4.169371261596679,-0.05075,-0.03,-0.001,0.2177227634768112,10,1,100,-3.303711312070398,-10,-1,-100,6343.850481435773,0.30438473415513706,0.03583991346573711,0.9518746945980205,202.20389800088716,23.8802947168373,879.9915057824271,-52.146185538330975,-79.48406982421875,4381.2578125,True
1599567792.1681564,0.0,10,0.5,0.5,-2.862423482894897,-0.05075,-0.03,-0.001,-0.007405005510066787,10,1,100,-3.2098074045785427,-10,-1,-100,6341.778721237555,0.30310542725271583,0.03206254635786554,0.9524174993620174,200.71913206159988,23.706128056569344,879.8687184982595,-52.520289387337314,-109.34358978271484,4381.2578125,True
1599567792.221013,0.0,10,0.5,0.5,-0.47118347930908155,-0.05075,-0.03,-0.001,-0.03529008518362203,10,1,100,-3.1550149907744642,-10,-1,-100,6339.643616031739,0.3014502311914049,0.028405783506210154,0.953058691570486,211.56934560780016,24.985741921721527,934.1320944374678,-52.8939396264002,-139.45785522460938,4381.2578125,True
1599567792.275866,0.0,10,0.5,0.5,-15.942960437774659,-0.05075,-0.03,-0.001,-0.21755794505598625,10,1,100,-2.9757449833698253,-10,-1,-100,6336.4714915863005,0.2983222174933635,0.023453584737939053,0.9541770191703334,204.58885747926823,24.16527470248947,913.0180363792367,-53.45429967772795,174.90650939941406,4381.2578125,True
1599567792.33072,0.0,10,0.5,0.5,-15.03542189025879,-0.05075,-0.03,-0.001,0.11275642444837103,10,1,100,-3.1659129221280997,-10,-1,-100,6335.37225149665,0.29721597006210176,0.021985125678477057,0.9545571336431076,201.25224167995745,23.769032441006587,901.3025175185813,-53.641199929134686,159.57278442382812,4381.2578125,True
1599567792.38657,0.0,10,0.5,0.5,-13.65483698654175,-0.05075,-0.03,-0.001,-0.038596835813706765,10,1,100,-3.02868010555643,-10,-1,-100,6333.234877891606,0.29497200761719783,0.01930486674395486,0.9553108587482287,213.89537954117483,25.25502174399406,964.6956738980389,-54.01460468385748,128.8019256591797,4381.2578125,True
1599567792.4414232,0.0,10,0.5,0.5,-10.701188312530519,-0.05075,-0.03,-0.001,-0.2884793873886986,10,1,100,-2.8001549124130207,-10,-1,-100,6328.902193494607,0.290865105970588,0.014625629861494863,0.9566522780403929,201.70988461253535,23.81102869051134,922.5065181360136,-54.76138483125864,66.65596008300781,4381.2578125,True
1599567792.4972746,0.0,10,0.5,0.5,-10.937777347564698,-0.05075,-0.03,-0.001,0.17624548865013628,10,1,100,-3.209315796460344,-10,-1,-100,6328.902193494607,0.290865105970588,0.014625629861494863,0.9566522780403929,201.70988461253535,23.81102869051134,922.5065181360136,-54.76138483125864,66.65596008300781,4381.2578125,True
1599567792.555119,0.0,10,0.5,0.5,-9.528313594818115,-0.05075,-0.03,-0.001,-0.08204039968944177,10,1,100,-3.006240385318129,-10,-1,-100,6326.641453442746,0.28903269048505775,0.012305141258530933,0.9572401408892005,216.7846028962498,25.580881859903624,998.3190133009967,-55.13454691200826,35.20866394042969,4381.2578125,True
1599567792.6169538,0.0,10,0.5,0.5,-8.130215606689452,-0.05075,-0.03,-0.001,-0.12146448082073365,10,1,100,-2.978654240063385,-10,-1,-100,6324.442289379658,0.2871310554118124,0.00986373680377158,0.9578405210233929,218.2546808891869,25.750595304932933,1012.0082177872448,-55.50744005983385,3.503875732421875,4381.2578125,True
1599567792.671808,0.0,10,0.5,0.5,-5.880239097595215,-0.05075,-0.03,-0.001,-0.3174434979524987,10,1,100,-2.8491888993950494,-10,-1,-100,6321.082126558293,0.2842414544183208,0.005888027150882834,0.9587346487565933,215.94755294236904,25.46417901021413,1011.5459677121521,-56.067021759496924,-44.53753662109375,4381.2578125,True
1599567792.7296543,0.0,10,0.5,0.5,-5.19783960723877,-0.05075,-0.03,-0.001,-0.07234334894681169,10,1,100,-3.0114255143248023,-10,-1,-100,6319.983606422669,0.2831077348142688,0.004529157808594632,0.9590774198248431,221.70599801061857,26.136750660987172,1042.0363034229704,-56.25335245150705,-60.67822265625,4381.2578125,True
1599567792.7850165,0.0,10,0.5,0.5,-3.6812903652191165,-0.05075,-0.03,-0.001,-0.234675586803671,10,1,100,-2.847963338955976,-10,-1,-100,6317.720898245578,0.28060924057308534,0.0018431047792241556,0.9598203254097972,221.87007990913594,26.14855471704507,1049.8422412809862,-56.62590747647007,-93.1166000366211,4381.2578125,True
1599567792.842864,0.0,10,0.5,0.5,-1.3213609390258787,-0.05075,-0.03,-0.001,-0.36363911731672716,10,1,100,-2.616257245833286,-10,-1,-100,6314.29746963724,0.2762504094987289,-0.0017470094532977098,0.9610841062101458,218.84819067396143,25.772288804127143,1045.9276296244389,-57.18509244597404,-142.03237915039062,4381.2578125,True
1599567792.8997145,0.0,10,0.5,0.5,-16.509318851470947,-0.05075,-0.03,-0.001,-0.3069479353533215,10,1,100,-2.519088453184777,-10,-1,-100,6310.809730802197,0.2714245484143227,-0.004472465652112775,0.9624493293514582,224.10571157499942,26.373113009722267,1081.7254757568473,-57.7435710190082,168.8827667236328,4381.2578125,True
1599567792.9555652,0.0,10,0.5,0.5,-16.226333652496336,-0.05075,-0.03,-0.001,-0.03704807460487393,10,1,100,-2.999095419460624,-10,-1,-100,6310.809730802197,0.2714245484143227,-0.004472465652112775,0.9624493293514582,224.10571157499942,26.373113009722267,1081.7254757568473,-57.7435710190082,168.8827667236328,4381.2578125,True
1599567793.0114505,0.0,10,0.5,0.5,-13.802125896453859,-0.05075,-0.03,-0.001,-0.24713031445262837,10,1,100,-2.481496075088282,-10,-1,-100,6307.321261155186,0.2667405066102131,-0.006360688439459573,0.9637473962485725,222.2558548863584,26.129570801722377,1083.3653199077614,-58.302336419849674,119.71464538574219,4381.2578125,True
1599567793.067303,0.0,10,0.5,0.5,-11.463885391235353,-0.05075,-0.03,-0.001,-0.19868172531241232,10,1,100,-2.483234571949571,-10,-1,-100,6303.8333677185,0.26252002275918007,-0.007617734419135647,0.9648964751582623,223.0698175198151,26.204787772734733,1097.9807796449004,-58.86056604858403,70.50527954101562,4381.2578125,True
1599567793.1281419,0.0,10,0.5,0.5,-11.524642715454103,-0.05075,-0.03,-0.001,-0.0752014637728679,10,1,100,-2.9024484487317324,-10,-1,-100,6303.8333677185,0.26252002275918007,-0.007617734419135647,0.9648964751582623,223.0698175198151,26.204787772734733,1097.9807796449004,-58.86056604858403,70.50527954101562,4381.2578125,True
1599567793.1849866,0.0,10,0.5,0.5,-9.082043262481688,-0.05075,-0.03,-0.001,-0.22254058002352353,10,1,100,-2.4821113494719,-10,-1,-100,6300.283961955225,0.25872287882747785,-0.008939069225343729,0.9659102261662865,225.2830551866204,26.437434040759047,1119.6259904210506,-59.4190440925867,21.259109497070312,4381.2578125,True
