Timestamp,Input Throttle,horizon,dT,dt,Input Roll,Roll P,Roll I,Roll D,Input Pitch,Pitch P,Pitch I,Pitch D,Input Yaw,Yaw P,Yaw I,Yaw D,Altitude,Direction X,Direction Y,Direction Z,Drag X,Drag Y,Drag Z,Vertical Velocity,Roll,Mass,Has Fuel
1599570214.2640116,0.0,10,0.5,0.5,-8.121825462341308,-0.15025,-0.00825,-0.001,-0.06720784439212975,10,1,100,0.6903747682423611,-10,-1,-100,6483.617967061698,-0.06725793186269749,-0.0070027833708897315,0.9977110461584622,205.07324835231847,21.49878037397765,-156.76525421691508,9.590823664436266,-35.944610595703125,4381.2578125,True
1599570214.343798,0.0,10,0.5,0.5,-8.166921074676514,-0.15025,-0.00825,-0.001,-0.06733631214596103,10,1,100,0.6998809977169058,-10,-1,-100,6483.997882885975,-0.06744498537091259,-0.006971948826344047,0.9976986347980438,204.6120571299731,21.45673253569665,-150.2666481284145,9.210801384577222,-35.9412841796875,4381.2578125,True
1599570214.422587,0.0,10,0.5,0.5,-8.211774672698974,-0.15025,-0.00825,-0.001,-0.06931034680424271,10,1,100,0.6986016942245303,-10,-1,-100,6484.156592019601,-0.06754209035993117,-0.0069555250565356734,0.9976921803346955,204.3812417790761,21.435618122659026,-147.0255406052646,9.020797640575996,-35.9395751953125,4381.2578125,True
1599570214.4974275,0.0,10,0.5,0.5,-8.23452169418335,-0.15025,-0.00825,-0.001,-0.03711217218763059,10,1,100,0.6997841376891463,-10,-1,-100,6484.5389357298845,-0.06757971520839008,-0.006641560473780191,0.9976917719249898,203.94246608746482,21.395611383650884,-140.5758589108978,8.640800592119302,-36.08404541015625,4381.2578125,True
1599570214.569235,0.0,10,0.5,0.5,-8.168146460723877,-0.15025,-0.00825,-0.001,0.002007199762467868,10,1,100,0.6991313171873121,-10,-1,-100,6485.0169492583955,-0.06754654877951025,-0.005994469689479966,0.9976981157049056,203.44707093689826,21.351722427687722,-131.0456612355591,8.070815973894895,-36.81793212890625,4381.2578125,True
1599570214.6440365,0.0,10,0.5,0.5,-8.153742758941652,-0.15025,-0.00825,-0.001,-0.028173590906724832,10,1,100,0.7015816064713971,-10,-1,-100,6485.175623531337,-0.0674772668842207,-0.005675126646481986,0.9977046714290667,203.3177028278504,21.34044861765061,-127.89871915256516,7.88081995281558,-37.208099365234375,4381.2578125,True
1599570214.7298062,0.0,10,0.5,0.5,-7.954028254699708,-0.15025,-0.00825,-0.001,0.07921413880952835,10,1,100,0.6678967024116003,-10,-1,-100,6485.590082218754,-0.06704671397261004,-0.004403403494839264,0.9977401205640357,202.9724195052994,21.309501501473967,-118.49844467600568,7.31081526995202,-38.819061279296875,4381.2578125,True
1599570214.806874,0.0,10,0.5,0.5,-7.779883106231689,-0.15025,-0.00825,-0.001,0.0741280173236524,10,1,100,0.6659951827181377,-10,-1,-100,6485.909323150758,-0.0665770641339574,-0.003289525912767627,0.9977758633834417,202.70962932251314,21.283862186550042,-112.22443573020911,6.930787647058628,-40.26025390625,4381.2578125,True
1599570214.8788521,0.0,10,0.5,0.5,-7.696704109954834,-0.15025,-0.00825,-0.001,0.032365134345302825,10,1,100,0.6874655858683207,-10,-1,-100,6486.005458200234,-0.06628477061460762,-0.002653582023494073,0.9977972177186172,202.54245773481924,21.266751507875615,-109.0721952145397,6.740763242931628,-41.091033935546875,4381.2578125,True
1599570214.9576426,0.0,10,0.5,0.5,-7.4531509384155274,-0.15025,-0.00825,-0.001,0.11971800461198952,10,1,100,0.6423500308795038,-10,-1,-100,6486.261183010996,-0.06554864894201438,-0.0012789218653450592,0.9978485551328613,202.08528763287333,21.218484506911533,-102.71662118472543,6.360687176738535,-42.97357177734375,4381.2578125,True
1599570215.0299594,0.0,10,0.5,0.5,-7.164637202453614,-0.15025,-0.00825,-0.001,0.15373084367146989,10,1,100,0.6225794993136782,-10,-1,-100,6486.517859733431,-0.06464012563547483,0.00028113947157236104,0.9979086005834541,201.37795360127606,21.142370129678838,-96.26402051358383,5.980564390358809,-45.150054931640625,4381.2578125,True
1599570215.1022782,0.0,10,0.5,0.5,-6.581978517150879,-0.15025,-0.00825,-0.001,0.2885234646886381,10,1,100,0.5230192593554521,-10,-1,-100,6486.868651154684,-0.06291148209011611,0.0029181427663420344,0.9980148445108521,199.59818389965875,20.94986413760788,-86.34479845139046,5.410256796835359,-48.966522216796875,4381.2578125,True
1599570215.1780758,0.0,10,0.5,0.5,-6.360355216217041,-0.15025,-0.00825,-0.001,0.12901340001633915,10,1,100,0.620503150821802,-10,-1,-100,6486.965226149652,-0.062230326519739365,0.003856335999482032,0.9980543648188237,198.74915713328122,20.858129741085758,-82.9649515198901,5.220111951797886,-50.385986328125,4381.2578125,True
1599570215.248888,0.0,10,0.5,0.5,-5.887036376190186,-0.15025,-0.00825,-0.001,0.2512612538605483,10,1,100,0.5204146482662955,-10,-1,-100,6487.157873552991,-0.06070602758147425,0.005810754099960279,0.9981387745960313,196.55794726668657,20.62194639895855,-76.08759415562486,4.8397430437015245,-53.445953369140625,4381.2578125,True
1599570215.3386471,0.0,10,0.5,0.5,-5.09780089111328,-0.15025,-0.00825,-0.001,0.3899655485833838,10,1,100,0.37506207426162513,-10,-1,-100,6487.447543461807,-0.05800516304448798,0.008837125675535608,0.9982771690617677,191.74989491555672,20.106450362046612,-65.49104906482668,4.268938115427616,-58.589569091796875,4381.2578125,True
1599570215.4114528,0.0,10,0.5,0.5,-4.5105347785949705,-0.15025,-0.00825,-0.001,0.31748846171547807,10,1,100,0.41492613666141487,-10,-1,-100,6487.578628708725,-0.05592090620153039,0.010916006686018567,0.9983755270676613,187.292188695356,19.631251786295792,-58.27335534502515,3.888185732342535,-62.3875732421875,4381.2578125,True
1599570215.4802678,0.0,10,0.5,0.5,-3.8742784820556637,-0.15025,-0.00825,-0.001,0.3337449372324654,10,1,100,0.37024832313106637,-10,-1,-100,6487.77073990833,-0.05363047109464095,0.012938601806309779,0.9984770228470281,181.66106839436898,19.033711301330992,-50.99165262151796,3.507224626477129,-66.48199462890625,4381.2578125,True
1599570215.5570626,0.0,10,0.5,0.5,-3.5290996818542477,-0.15025,-0.00825,-0.001,0.242180628845431,10,1,100,0.46376590071053636,-10,-1,-100,6487.805270490469,-0.052410613741716607,0.013929156380054977,0.9985284703851747,178.37936307049287,18.686620410835943,-47.35338339536802,3.3166521371378437,-68.64035034179688,4381.2578125,True
1599570215.6318643,0.0,10,0.5,0.5,-2.821398954772949,-0.15025,-0.00825,-0.001,0.3617429466691332,10,1,100,0.2980142431879017,-10,-1,-100,6487.934875630424,-0.04980769785284529,0.015900937352499884,0.9986322413310675,170.75671457451372,17.88314542392836,-40.12302169821855,2.9352723596138466,-73.1788330078125,4381.2578125,True
1599570215.7036715,0.0,10,0.5,0.5,-2.0680848457336425,-0.15025,-0.00825,-0.001,0.37021902576583887,10,1,100,0.25110797572128657,-10,-1,-100,6488.003934736014,-0.04702996922486738,0.01775365302889622,0.9987356956666952,161.68388381397597,16.929821667098846,-33.055056055558495,2.5535762905401023,-78.014404296875,4381.2578125,True
1599570215.7764761,0.0,10,0.5,0.5,-1.2678076972961425,-0.15025,-0.00825,-0.001,0.38347858068394647,10,1,100,0.19764556210165768,-10,-1,-100,6488.133543224074,-0.044035574602633694,0.01954117907497183,0.998838831088267,151.16211886637632,15.826326401165987,-26.28460757810561,2.171634145802391,-83.14633178710938,4381.2578125,True
1599570215.847287,0.0,10,0.5,0.5,0.007184502410888636,-0.15025,-0.00825,-0.001,0.46551303580750425,10,1,100,-0.021380043618195177,-10,-1,-100,6488.234709520941,-0.03934098721317972,0.021894461400160728,0.9989859454892692,152.05152620218868,15.919035771536407,-19.46469129193106,1.5985065342915208,-91.4027099609375,4381.2578125,True
1599570215.9280736,0.0,10,0.5,0.5,0.4726924518585205,-0.15025,-0.00825,-0.001,0.31074308511050536,10,1,100,0.26616102614364456,-10,-1,-100,6488.269251891761,-0.03770861794321732,0.022609558217965356,0.9990329664280356,155.96315633727565,16.328282166467453,-17.580273822410238,1.4074622394924368,-94.3035659790039,4381.2578125,True
1599570216.0093615,0.0,10,0.5,0.5,2.3507792486190797,-0.15025,-0.00825,-0.001,0.5050425926932456,10,1,100,-0.29860973523774154,-10,-1,-100,6488.341058298014,-0.031112658693035734,0.02500895701015949,0.9992029596324835,172.69418053373835,18.076129644521856,-8.902467857857799,0.6435186406485598,-106.50029754638672,4381.2578125,True
1599570216.6410713,0.0,10,0.5,0.5,2.3823523509979245,-0.15025,-0.00825,-0.001,0.26702253376485213,10,1,100,0.3580268528915728,-10,-1,-100,6488.341058298014,-0.031112658693035734,0.02500895701015949,0.9992029596324835,172.69418053373835,18.076129644521856,-8.902467857857799,0.6435186406485598,-106.50029754638672,4381.2578125,True
1599570216.7039034,0.0,10,0.5,0.5,3.3481083982467648,-0.15025,-0.00825,-0.001,0.37212242992843647,10,1,100,-0.023582926184662623,-10,-1,-100,6488.345251375344,-0.02766792661448037,0.025949708946796962,0.9992802902301396,179.85912719449863,18.825212423873047,-3.769981153226629,0.261624782827814,-112.62413024902344,4381.2578125,True
1599570216.7707853,0.0,10,0.5,0.5,3.383429725074768,-0.15025,-0.00825,-0.001,0.2795506064907671,10,1,100,0.31806498371216896,-10,-1,-100,6488.345251375344,-0.02766792661448037,0.025949708946796962,0.9992802902301396,179.85912719449863,18.825212423873047,-3.769981153226629,0.261624782827814,-112.62413024902344,4381.2578125,True
1599570216.8376446,0.0,10,0.5,0.5,4.316959023094178,-0.15025,-0.00825,-0.001,0.364074383335569,10,1,100,-0.04840672102426041,-10,-1,-100,6488.350443824194,-0.024359967975494792,0.02670627863889472,0.9993464697698663,185.35138069209262,19.39932562071175,1.7873876583876203,-0.12034746382477834,-118.54454040527344,4381.2578125,True
1599570216.9054253,0.0,10,0.5,0.5,5.205245630073548,-0.15025,-0.00825,-0.001,0.3566374294148543,10,1,100,-0.0795516422297996,-10,-1,-100,6488.3546805628575,-0.021095097788881387,0.027314845030378145,0.999404270598362,188.832169706076,19.762971558082885,7.603617261828899,-0.5024565672619454,-124.1844482421875,4381.2578125,True
1599570216.9862106,0.0,10,0.5,0.5,6.4382649637222285,-0.15025,-0.00825,-0.001,0.35968610510707766,10,1,100,-0.3005552907678961,-10,-1,-100,6488.26854077389,-0.016144012268944654,0.027885426158312493,0.9994807521287388,191.86608521902008,20.079425744424583,16.54595352841108,-1.0758589707437474,-132.09571838378906,4381.2578125,True
1599570217.0709836,0.0,10,0.5,0.5,6.851494100761413,-0.15025,-0.00825,-0.001,0.3191231377102237,10,1,100,0.017559701119482712,-10,-1,-100,6488.241629135096,-0.01456305804702918,0.028026171322709213,0.9995011010805885,192.0804407589522,20.101436023814085,19.50956173775734,-1.2670524758015693,-134.5851287841797,4381.2578125,True
1599570217.1452987,0.0,10,0.5,0.5,7.611003141212462,-0.15025,-0.00825,-0.001,0.326328882070276,10,1,100,-0.17111650483009855,-10,-1,-100,6488.181963134091,-0.011437381897160377,0.028211914609754217,0.9995365296823275,191.53609004186364,20.043403288284654,25.330313881741734,-1.6495148957336503,-139.34255981445312,4381.2578125,True
1599570217.2191424,0.0,10,0.5,0.5,8.641171376228334,-0.15025,-0.00825,-0.001,0.3261805385773129,10,1,100,-0.34921647879189327,-10,-1,-100,6488.033427460352,-0.007002134366096077,0.02837368042694129,0.999572860962796,188.69362391778674,19.743791369953943,33.64300375558833,-2.223341140402836,-145.92355346679688,4381.2578125,True
1599570217.2909513,0.0,10,0.5,0.5,9.28482863998413,-0.15025,-0.00825,-0.001,0.3121598604724429,10,1,100,-0.21753165647250616,-10,-1,-100,6487.974793519592,-0.004195140889465797,0.028388039439604378,0.9995881752050156,185.79924063322545,19.438870034897718,38.83331945290772,-2.6059329647128306,-149.9410858154297,4381.2578125,True
1599570217.3697398,0.0,10,0.5,0.5,9.87934148464203,-0.15025,-0.00825,-0.001,0.31530165356343764,10,1,100,-0.22966170610050024,-10,-1,-100,6487.853679577587,-0.0015575259302779323,0.028426582949734915,0.9995946696010232,182.34135213522282,19.07445511291912,43.712509300277496,-2.9885260989762075,-153.66136169433594,4381.2578125,True
1599570217.4405513,0.0,10,0.5,0.5,10.43236231956482,-0.15025,-0.00825,-0.001,0.3141225969922673,10,1,100,-0.244606587267751,-10,-1,-100,6487.732585458667,0.0009493001043562622,0.02844779687562515,0.9995948287592503,178.6184857382688,18.682101654090424,48.30886402796039,-3.3710926456221024,-157.08505249023438,4381.2578125,True
1599570217.5123591,0.0,10,0.5,0.5,10.707709820556639,-0.15025,-0.00825,-0.001,0.3130255155953399,10,1,100,-0.12896981747803668,-10,-1,-100,6487.640795688378,0.0021509738407364575,0.02845483780652709,0.9995927648382318,176.68930365965093,18.47874654964365,50.50232000279809,-3.562363638963292,-158.68565368652344,4381.2578125,True
1599570217.5851655,0.0,10,0.5,0.5,11.402883856201171,-0.15025,-0.00825,-0.001,0.3226444847850855,10,1,100,-0.38249979824908353,-10,-1,-100,6487.428433950292,0.005521114425859591,0.02854640643738133,0.9995772206163007,170.70461041699667,17.847427494938106,56.66363223572871,-4.136157007183237,-163.0411834716797,4381.2578125,True
1599570217.6619601,0.0,10,0.5,0.5,11.818267327117919,-0.15025,-0.00825,-0.001,0.3228442485242141,10,1,100,-0.27672445980224386,-10,-1,-100,6487.243419396458,0.007596119987908121,0.02862979383778773,0.9995612206693171,166.7137862238932,17.42604394094357,60.466566441180944,-4.518713468597194,-165.5736083984375,4381.2578125,True
1599570217.7353444,0.0,10,0.5,0.5,12.187853256988527,-0.15025,-0.00825,-0.001,0.3321578496541378,10,1,100,-0.2838117200451175,-10,-1,-100,6487.059391427785,0.009520835393999463,0.0287890742586043,0.999540165724586,162.9038345909791,17.023605780826575,64.09777845460657,-4.901336205280445,-167.80813598632812,4381.2578125,True
1599570217.8111424,0.0,10,0.5,0.5,12.367141543960571,-0.15025,-0.00825,-0.001,0.3295304995007571,10,1,100,-0.1936283871275291,-10,-1,-100,6486.90512681799,0.01042739651150175,0.028909168141497455,0.999527653143903,161.10139562032444,16.833242183818108,65.86853039495428,-5.092682856009121,-168.81349182128906,4381.2578125,True
1599570217.8829498,0.0,10,0.5,0.5,12.783194358444213,-0.15025,-0.00825,-0.001,0.3601480195859191,10,1,100,-0.3828711212627345,-10,-1,-100,6486.628868356347,0.012949212879043394,0.029295882765975625,0.9994869029350887,156.25418722275452,16.321764976607245,71.10789824876395,-5.666896058571773,-171.3842010498047,4381.2578125,True
1599570217.9637349,0.0,10,0.5,0.5,12.91411649017334,-0.15025,-0.00825,-0.001,0.34092867745099,10,1,100,-0.2175355874993578,-10,-1,-100,6486.47461307398,0.013716553274617642,0.02947173479776895,0.9994714968493472,154.86418481404863,16.175323328265215,72.86284560558637,-5.858361825774612,-172.09202575683594,4381.2578125,True
1599570218.0285618,0.0,10,0.5,0.5,13.188623429489136,-0.15025,-0.00825,-0.001,0.3929178033571047,10,1,100,-0.37262717854018423,-10,-1,-100,6486.135388741852,0.01580522383674655,0.030103230467299538,0.999421828066059,151.53526884064095,15.825414535966411,78.31076511093036,-6.432930352482731,-173.76889038085938,4381.2578125,True
1599570218.10037,0.0,10,0.5,0.5,13.26855062866211,-0.15025,-0.00825,-0.001,0.3602350413663806,10,1,100,-0.2339276675674813,-10,-1,-100,6485.980163402623,0.016424928461906248,0.030378642156931947,0.9994035020079339,150.719705016911,15.739985006269881,80.21663388873596,-6.624504956440871,-174.17845153808594,4381.2578125,True
1599570218.1801586,0.0,10,0.5,0.5,13.403377126312257,-0.15025,-0.00825,-0.001,0.4346792961092852,10,1,100,-0.3543853268322892,-10,-1,-100,6485.57845970639,0.018067018246829512,0.03130400777316309,0.9993466075136326,150.12143912208768,15.677897481916704,86.85836023043102,-7.199371665377718,-174.96066284179688,4381.2578125,True
1599570218.2554665,0.0,10,0.5,0.5,13.434176056671141,-0.15025,-0.00825,-0.001,0.3839613638997512,10,1,100,-0.24306270157934295,-10,-1,-100,6485.423728023074,0.01853224171433072,0.03168158057610697,0.9993261897244768,150.51202156959002,15.719097763224017,89.41243948558487,-7.391036717854314,-175.07196044921875,4381.2578125,True
1599570218.354203,0.0,10,0.5,0.5,13.447581154251097,-0.15025,-0.00825,-0.001,0.4309931085318345,10,1,100,-0.290071235136521,-10,-1,-100,6485.113291134476,0.019367630382693807,0.03244945649110254,0.9992857087273845,151.03639140410274,15.774869488594192,94.39947161643794,-7.774426862848353,-175.0719451904297,4381.2578125,True
1599570218.4334998,0.0,10,0.5,0.5,13.37279076194763,-0.15025,-0.00825,-0.001,0.5082853792886781,10,1,100,-0.30839604753145033,-10,-1,-100,6484.586117823259,0.020281076088471576,0.033846634284293714,0.9992212384153566,151.1801703869523,15.791188758246422,101.5173052614799,-8.349654612983539,-174.5118408203125,4381.2578125,True
1599570218.516278,0.0,10,0.5,0.5,13.329983597946166,-0.15025,-0.00825,-0.001,0.42378126419027007,10,1,100,-0.24374356498655275,-10,-1,-100,6484.429926583194,0.020512199655951784,0.034343834104076064,0.9991995550060588,151.71000051189696,15.84671031431888,104.22613863533124,-8.541430708809589,-174.17636108398438,4381.2578125,True
1599570218.6090329,0.0,10,0.5,0.5,13.20023346977234,-0.15025,-0.00825,-0.001,0.49409097738795715,10,1,100,-0.25571718972144114,-10,-1,-100,6484.119985878468,0.020821170974649184,0.0354299633694522,0.9991552414589454,153.79376806272856,16.064034077647328,110.43183087096813,-8.925020295342168,-173.28155517578125,4381.2578125,True
1599570218.696796,0.0,10,0.5,0.5,13.02442960128784,-0.15025,-0.00825,-0.001,0.5147926123841028,10,1,100,-0.2370691954048676,-10,-1,-100,6483.747057299479,0.020923077884711472,0.0365996222968246,0.9991109510257408,156.45028048418277,16.339906775595377,117.20055523630715,-9.30864824554746,-172.08892822265625,4381.2578125,True
1599570218.7975273,0.0,10,0.5,0.5,12.671296020126343,-0.15025,-0.00825,-0.001,0.6043444601103998,10,1,100,-0.20985047877225138,-10,-1,-100,6483.155927309068,0.020761028683557343,0.038470416537828706,0.9990440464461047,161.3897450515398,16.85013649776022,128.43179340921375,-9.884127126158273,-169.742431640625,4381.2578125,True
1599570218.8743217,0.0,10,0.5,0.5,12.378890323638917,-0.15025,-0.00825,-0.001,0.5639924465747486,10,1,100,-0.18485445854499255,-10,-1,-100,6482.720011009369,0.020380070611888564,0.03979612146865374,0.9989999606796321,165.33363671816917,17.255541443992847,136.71962336433495,-10.267776587532719,-167.8064727783203,4381.2578125,True
1599570218.9650793,0.0,10,0.5,0.5,11.852528190994262,-0.15025,-0.00825,-0.001,0.6587280856412123,10,1,100,-0.11529765902176171,-10,-1,-100,6482.066376629053,0.01939725159945563,0.041853729132734024,0.9989354393493461,172.03248019947137,17.940721889018484,150.305018501989,-10.843190038682653,-164.3461151123047,4381.2578125,True
1599570219.0568333,0.0,10,0.5,0.5,11.651020620346069,-0.15025,-0.00825,-0.001,0.5300857016110968,10,1,100,-0.1656785426683811,-10,-1,-100,6481.848171174759,0.018959085691179,0.04254437343891887,0.9989146757148202,174.4076890267801,18.18267985156329,155.10155476241854,-11.034966992462518,-163.04458618164062,4381.2578125,True
1599570219.1715271,0.0,10,0.5,0.5,11.215240600204467,-0.15025,-0.00825,-0.001,0.6125661598304498,10,1,100,-0.09235376603342135,-10,-1,-100,6481.41175598593,0.017893353198387568,0.04391183573229398,0.9988751566606998,179.28582013706904,18.678089616467958,165.03794373655523,-11.418463413534115,-160.21978759765625,4381.2578125,True
1599570219.264279,0.0,10,0.5,0.5,10.733866936874389,-0.15025,-0.00825,-0.001,0.6257407314013449,10,1,100,-0.05650758845473483,-10,-1,-100,6480.975333250128,0.016599211943785427,0.04526363369041023,0.9988371587140648,184.2303315160134,19.178309085979222,175.34654921627032,-11.801864807469034,-157.0994873046875,4381.2578125,True
1599570219.3460698,0.0,10,0.5,0.5,9.930631524658203,-0.15025,-0.00825,-0.001,0.7043731950716856,10,1,100,0.07775803203303275,-10,-1,-100,6480.194713768316,0.014204640088293693,0.04719573225188327,0.9987846569992805,191.4548766978888,19.906195564091956,191.20460343852332,-12.376738389018502,-151.86624145507812,4381.2578125,True
1599570219.435828,0.0,10,0.5,0.5,9.917182151031495,-0.15025,-0.00825,-0.001,0.5124982487211402,10,1,100,-0.1610915099161229,-10,-1,-100,6480.194713768316,0.014204640088293693,0.04719573225188327,0.9987846569992805,191.4548766978888,19.906195564091956,191.20460343852332,-12.376738389018502,-151.86624145507812,4381.2578125,True
1599570219.5235932,0.0,10,0.5,0.5,9.007311534881591,-0.15025,-0.00825,-0.001,0.6994300338664737,10,1,100,0.15897577067988183,-10,-1,-100,6479.4765758994035,0.01130067168248243,0.04888342857307011,0.998740559520072,197.9344199864207,20.55689035213743,206.969882195777,-12.951281240083148,-145.97225952148438,4381.2578125,True
1599570219.6052358,0.0,10,0.5,0.5,7.999255784606934,-0.15025,-0.00825,-0.001,0.6941066631548976,10,1,100,0.24169098590371557,-10,-1,-100,6478.634392364067,0.007917398901793854,0.050357073253858714,0.9986998948472637,203.0087301894891,21.06691392101331,221.8163098362554,-13.525468204967124,-139.41741943359375,4381.2578125,True
1599570219.6880147,0.0,10,0.5,0.5,7.978856629943847,-0.15025,-0.00825,-0.001,0.5481179401717406,10,1,100,-0.09533572426685026,-10,-1,-100,6478.634392364067,0.007917398901793854,0.050357073253858714,0.9986998948472637,203.0087301894891,21.06691392101331,221.8163098362554,-13.525468204967124,-139.41741943359375,4381.2578125,True
1599570220.4136353,0.0,10,0.5,0.5,6.863380368804932,-0.15025,-0.00825,-0.001,0.6491212509294949,10,1,100,0.31931528677732146,-10,-1,-100,6477.790230531129,0.004159520283012078,0.05126447911827827,0.9986764498934311,205.96344645226478,21.368378497118446,234.73320567027292,-14.099329693759262,-132.20777893066406,4381.2578125,True
1599570220.484445,0.0,10,0.5,0.5,6.058914987945557,-0.15025,-0.00825,-0.001,0.6060360087632568,10,1,100,0.24370005888945498,-10,-1,-100,6477.226786170155,0.001445424110671865,0.05168728374110332,0.9986622729674969,206.45985268441717,21.42529681606162,241.7801138865953,-14.48177300927523,-127.03550720214844,4381.2578125,True
1599570220.5562532,0.0,10,0.5,0.5,5.625584603118896,-0.15025,-0.00825,-0.001,0.5806769299565813,10,1,100,0.13062991610394634,-10,-1,-100,6476.9465266055195,2.229418612973465e-05,0.051832174904875974,0.9986558091492782,206.479998950643,21.433002930986614,245.04717937798253,-14.672971658831305,-124.33982849121094,4381.2578125,True
1599570220.6300566,0.0,10,0.5,0.5,4.307555121231079,-0.15025,-0.00825,-0.001,0.55460584759783,10,1,100,0.4558050311419679,-10,-1,-100,6476.03980607132,-0.004210382435158717,0.051718440849166145,0.9986528303449007,204.03468637144817,21.206966063632585,251.77363241655885,-15.246569191732043,-115.81887817382812,4381.2578125,True
1599570220.6998699,0.0,10,0.5,0.5,3.365100114059448,-0.15025,-0.00825,-0.001,0.528850415692498,10,1,100,0.3567297581092663,-10,-1,-100,6475.413823485607,-0.00713749166727498,0.051373809049275215,0.9986539881042223,200.05931867323525,20.819232570668703,253.17589005848865,-15.629061775029395,-109.77362060546875,4381.2578125,True
1599570220.7686856,0.0,10,0.5,0.5,2.3737632900238035,-0.15025,-0.00825,-0.001,0.4951201323629933,10,1,100,0.3820095029970324,-10,-1,-100,6474.7873410084285,-0.010006737101259402,0.050748313768779904,0.9986613409270492,194.59809495861893,20.27854386777655,252.4133336838945,-16.011706946538375,-103.4375,4381.2578125,True
1599570220.8393865,0.0,10,0.5,0.5,1.3377128757476806,-0.15025,-0.00825,-0.001,0.46219452063444016,10,1,100,0.4053612331802635,-10,-1,-100,6474.1627970376285,-0.012805420154556837,0.04987712833305469,0.9986732665311079,187.42360232053653,19.55671423425101,249.0431164840129,-16.394551649016638,-96.80984497070312,4381.2578125,True
1599570220.9082024,0.0,10,0.5,0.5,0.25237775154113773,-0.15025,-0.00825,-0.001,0.4277906878313618,10,1,100,0.42658792425206404,-10,-1,-100,6473.473298668745,-0.015518092794350102,0.048769941824111804,0.9986894820566093,177.77774949343956,18.56911962077612,241.86939584106847,-16.77762931158988,-89.89056396484375,4381.2578125,True
1599570220.9899852,0.0,10,0.5,0.5,-0.8776569736480713,-0.15025,-0.00825,-0.001,0.393059074586466,10,1,100,0.4392737712355156,-10,-1,-100,6472.785742039676,-0.0180751040172146,0.047447769865345546,0.9987101680415457,169.8740054606439,17.75077439659093,236.518829737202,-17.160890977095523,-82.67941284179688,4381.2578125,True
1599570221.0608299,0.0,10,0.5,0.5,-2.0470923625946043,-0.15025,-0.00825,-0.001,0.35955544242800197,10,1,100,0.4482306392638281,-10,-1,-100,6472.097198960255,-0.020457456199240612,0.04594386170447065,0.998734526316947,184.62326067126327,19.286201719772773,262.93171042751794,-17.54397287862099,-75.20941162109375,4381.2578125,True
1599570221.1316051,0.0,10,0.5,0.5,-2.664535725021362,-0.15025,-0.00825,-0.001,0.42035161462734827,10,1,100,0.3358538165441035,-10,-1,-100,6471.75243645953,-0.021575828108084005,0.04513337695235061,0.9987479471449878,191.2720837288347,19.974085475532068,275.44549069395794,-17.735383520765893,-71.427978515625,4381.2578125,True
1599570221.2014577,0.0,10,0.5,0.5,-4.388282652282714,-0.15025,-0.00825,-0.001,0.21597650274027635,10,1,100,0.5609927863209723,-10,-1,-100,6470.657590465504,-0.02461585197919399,0.04254419079887349,0.9987912953468345,207.7262723737526,21.665424887346653,309.0578251461954,-18.30901423100076,-60.33782958984375,4381.2578125,True
1599570221.2792172,0.0,10,0.5,0.5,-4.97142470664978,-0.15025,-0.00825,-0.001,0.3745750950234674,10,1,100,0.3589417425054926,-10,-1,-100,6470.252275405335,-0.025518990303617012,0.04164050249187078,0.998806712875974,212.0339962708063,22.10657660728542,318.83994697092385,-18.50002800452667,-56.7728271484375,4381.2578125,True
1599570221.3500657,0.0,10,0.5,0.5,-6.574233469390869,-0.15025,-0.00825,-0.001,0.15747728305614211,10,1,100,0.5345236081224831,-10,-1,-100,6469.156927821459,-0.02791300457280172,0.03885461635163173,0.9988549358960421,220.5713798544274,22.98317103693618,342.2045777776857,-19.072602915050616,-46.520721435546875,4381.2578125,True
1599570221.4248292,0.0,10,0.5,0.5,-7.59859531326294,-0.15025,-0.00825,-0.001,0.2308058702620538,10,1,100,0.44366389423299624,-10,-1,-100,6468.342875551432,-0.029241835943849173,0.03700031049373864,0.9988873270064045,223.7290684434338,23.31664353315817,354.2279313767954,-19.454059083543456,-40.05828857421875,4381.2578125,True
1599570221.4956744,0.0,10,0.5,0.5,-8.582045566558838,-0.15025,-0.00825,-0.001,0.21691046226722244,10,1,100,0.4375356927758375,-10,-1,-100,6467.591811898281,-0.030374058682212164,0.03520132282166058,0.9989185569558584,224.62918503641035,23.42686777545266,362.81729529396557,-19.835436505914178,-33.8936767578125,4381.2578125,True
1599570221.5674467,0.0,10,0.5,0.5,-9.520689797210695,-0.15025,-0.00825,-0.001,0.20739876343068211,10,1,100,0.4317873436294198,-10,-1,-100,6466.7787432104815,-0.03133257861431931,0.03349354312211845,0.9989476723465069,223.51530754137346,23.337486301140693,368.16312341300886,-20.216840826729396,-28.026336669921875,4381.2578125,True
1599570221.6497393,0.0,10,0.5,0.5,-9.998404216766357,-0.15025,-0.00825,-0.001,0.2851990299031052,10,1,100,0.3831707769232642,-10,-1,-100,6466.371966932784,-0.03174514871121552,0.03266318544065757,0.9989621423508361,222.2965452169448,23.22664427081641,369.7159553458714,-20.40757944195416,-25.20428466796875,4381.2578125,True
1599570221.7215478,0.0,10,0.5,0.5,-11.262193241119384,-0.15025,-0.00825,-0.001,0.11409366029253176,10,1,100,0.45672239269446346,-10,-1,-100,6465.089633653406,-0.03277411161911673,0.0303674539668547,0.9990013390116895,216.45527157194667,22.67171511969465,370.4331758220043,-20.980021143684535,-17.182830810546875,4381.2578125,True
1599570221.7938638,0.0,10,0.5,0.5,-12.06096231918335,-0.15025,-0.00825,-0.001,0.1894151838294375,10,1,100,0.4115407807218098,-10,-1,-100,6464.275604373892,-0.0332854277832738,0.028980694037277134,0.9990256251320094,211.77961658724763,22.219824897384566,369.2632998860915,-21.361868432186988,-12.2059326171875,4381.2578125,True
1599570221.8656733,0.0,10,0.5,0.5,-12.81595988845825,-0.15025,-0.00825,-0.001,0.19014383568198395,10,1,100,0.4079527135816232,-10,-1,-100,6463.4005448105745,-0.03370598007524759,0.027742048361472673,0.9990466884284621,206.45048195204274,21.694948567854848,366.65214905578284,-21.743892043070858,-7.52496337890625,4381.2578125,True
1599570221.9414697,0.0,10,0.5,0.5,-13.201223447418212,-0.15025,-0.00825,-0.001,0.2506612492377404,10,1,100,0.38781462203302075,-10,-1,-100,6462.93030407757,-0.03389419937026632,0.027181975441785383,0.9990557158938289,203.51910512303556,21.401841669058893,364.7463020179543,-21.93496622979596,-5.295379638671875,4381.2578125,True
1599570222.0112832,0.0,10,0.5,0.5,-14.188857849121092,-0.15025,-0.00825,-0.001,0.14039881862376308,10,1,100,0.4136967557785529,-10,-1,-100,6461.58697377122,-0.034292165083978116,0.02568439815953995,0.9990817579683033,195.24781000700528,20.563938680641996,359.44499064391374,-22.508379608123995,0.948944091796875,4381.2578125,True
1599570222.0840886,0.0,10,0.5,0.5,-14.522685425567627,-0.15025,-0.00825,-0.001,0.24227462399671365,10,1,100,0.3863648054332762,-10,-1,-100,6461.179728132789,-0.03439750420714054,0.025263613501191228,0.9990888656857216,192.4042396513256,20.27055139927264,357.34473095329713,-22.699564185870507,2.88250732421875,4381.2578125,True
1599570222.156613,0.0,10,0.5,0.5,-15.371745732116699,-0.15025,-0.00825,-0.001,0.16850482802450806,10,1,100,0.40120620707617544,-10,-1,-100,6459.770499605453,-0.0346222938798288,0.02422280294190001,0.9991068774581309,195.0170189590212,20.549629818766633,371.7438696439016,-23.27304938643403,8.23944091796875,4381.2578125,True
1599570222.2334104,0.0,10,0.5,0.5,-16.115837315368655,-0.15025,-0.00825,-0.001,0.1945771541680002,10,1,100,0.39283580567775644,-10,-1,-100,6458.36324151163,-0.03474566224416342,0.023525248587077777,0.9991192629682059,205.09144158648834,21.5963068236605,401.0039240708648,-23.846042892041527,12.9310302734375,4381.2578125,True
1599570222.3082106,0.0,10,0.5,0.5,-16.363948472595215,-0.15025,-0.00825,-0.001,0.24610376703155723,10,1,100,0.38529635625606584,-10,-1,-100,6457.893507355358,-0.03478530066830503,0.023370146630757704,0.9991215236916241,207.97851285760083,21.892244463566122,410.05073159208126,-24.03691947480749,14.3470458984375,4381.2578125,True
1599570222.3800163,0.0,10,0.5,0.5,-16.600492664337157,-0.15025,-0.00825,-0.001,0.2477523105788486,10,1,100,0.38519086561496524,-10,-1,-100,6457.362252693623,-0.03481723775528377,0.02325333469952516,0.9991231367456387,210.65154357871853,22.16428641413966,418.7676280401757,-24.22773519860725,15.689208984375,4381.2578125,True
1599570222.457809,0.0,10,0.5,0.5,-17.174847567749023,-0.15025,-0.00825,-0.001,0.24576739902222305,10,1,100,0.3863853307222821,-10,-1,-100,6455.891546413535,-0.034854337436199985,0.02313765179401819,0.9991245288908396,217.50775371973316,22.85165280334108,443.08099805706513,-24.79982621928678,19.272415161132812,4381.2578125,True
1599570222.529617,0.0,10,0.5,0.5,-17.506800964736936,-0.15025,-0.00825,-0.001,0.27000680575560143,10,1,100,0.3830630458424479,-10,-1,-100,6454.890577733517,-0.03485597071465525,0.023259416306745145,0.9991216446752661,221.23183577349437,23.217117254824984,457.91728089962703,-25.180937721440685,21.2919921875,4381.2578125,True
1599570222.604206,0.0,10,0.5,0.5,-17.906874935531615,-0.15025,-0.00825,-0.001,0.31034532050821806,10,1,100,0.38041195133530614,-10,-1,-100,6453.356425639824,-0.03483192688779386,0.023742026250366647,0.9991111314857873,225.7648672353072,23.651632323957852,478.4078457161457,-25.75221855428614,23.767745971679688,4381.2578125,True
1599570222.6760142,0.0,10,0.5,0.5,-18.032716067504882,-0.15025,-0.00825,-0.001,0.28844467239249216,10,1,100,0.3807002715498376,-10,-1,-100,6452.8872010192135,-0.03481166636822238,0.023985302145435147,0.9991060269889576,227.03421764857254,23.77067326177968,484.8241471461684,-25.942550664438215,24.4454345703125,4381.2578125,True
1599570222.7498527,0.0,10,0.5,0.5,-18.228115535736084,-0.15025,-0.00825,-0.001,0.33112018344229743,10,1,100,0.3764700720946234,-10,-1,-100,6451.822782251169,-0.034753957294475495,0.024597327308037785,0.9990931557876248,229.2629665661832,23.976011903504947,497.1149487099586,-26.323084764394476,25.57958984375,4381.2578125,True
1599570222.8206282,0.0,10,0.5,0.5,-18.316344555664063,-0.15025,-0.00825,-0.001,0.31043950373631835,10,1,100,0.3781462179087807,-10,-1,-100,6451.291065173107,-0.0347163123782793,0.024966695886578103,0.9990853025399588,230.32380766859094,24.073020442366367,503.20119128743454,-26.513290118375284,26.03607177734375,4381.2578125,True
1599570222.903677,0.0,10,0.5,0.5,-18.475235736083985,-0.15025,-0.00825,-0.001,0.4228120386482896,10,1,100,0.3666204530964525,-10,-1,-100,6449.633429096313,-0.034577020221469655,0.02632432392773687,0.9990552835766155,233.03189098489636,24.31457966072835,520.6224537125189,-27.08368002398166,26.96331787109375,4381.2578125,True
1599570222.9722853,0.0,10,0.5,0.5,-18.527554341125487,-0.15025,-0.00825,-0.001,0.41051963252218915,10,1,100,0.3664190460956541,-10,-1,-100,6448.5695321362,-0.034448601173143044,0.027444871617656803,0.9990295655780683,234.44250531299275,24.434671614218537,531.5026542553765,-27.46377089377699,27.213226318359375,4381.2578125,True
1599570223.0510948,0.0,10,0.5,0.5,-18.5412797416687,-0.15025,-0.00825,-0.001,0.36748265463019114,10,1,100,0.37133421916778886,-10,-1,-100,6448.036368649453,-0.034376810030839186,0.02806874278853805,0.9990147049019722,235.0396469968822,24.483538815207552,536.7347880818655,-27.653771153883767,27.22772216796875,4381.2578125,True
1599570223.1208763,0.0,10,0.5,0.5,-18.491752758026124,-0.15025,-0.00825,-0.001,0.5427872902300415,10,1,100,0.341897608552002,-10,-1,-100,6446.319709347328,-0.03404431116008986,0.030225305452830753,0.9989631703861348,236.41218227329367,24.586908064952006,551.5906434539673,-28.22361295145864,26.830108642578125,4381.2578125,True
1599570223.8063338,0.0,10,0.5,0.5,-18.40563795471191,-0.15025,-0.00825,-0.001,0.5099070046897431,10,1,100,0.3453808516676495,-10,-1,-100,6445.187008235138,-0.03377440796645562,0.031880567123863855,0.9989208771501256,236.97734743475758,24.61974150139001,560.7593193474554,-28.60339295331072,26.197357177734375,4381.2578125,True
1599570223.8771453,0.0,10,0.5,0.5,-18.347459743118286,-0.15025,-0.00825,-0.001,0.4436751765678092,10,1,100,0.35517495449397596,-10,-1,-100,6444.598692024592,-0.03361906047927269,0.032775294827940143,0.9988971612840997,237.15207119514938,24.625049758366085,565.1062695306371,-28.793253806180594,25.770751953125,4381.2578125,True
1599570223.9459608,0.0,10,0.5,0.5,-17.982517108535763,-0.15025,-0.00825,-0.001,0.8020530823462761,10,1,100,0.2677716082123994,-10,-1,-100,6442.283069440862,-0.03268438407948786,0.03683801381279447,0.9987866097298627,237.05978340237579,24.565127898717623,580.6556258266144,-29.552548081073105,23.330657958984375,4381.2578125,True
1599570224.012782,0.0,10,0.5,0.5,-17.98459660491943,-0.15025,-0.00825,-0.001,0.3970907826170859,10,1,100,0.3610244939100521,-10,-1,-100,6442.283069440862,-0.03268438407948786,0.03683801381279447,0.9987866097298627,237.05978340237579,24.565127898717623,580.6556258266144,-29.552548081073105,23.330657958984375,4381.2578125,True
1599570224.0796974,0.0,10,0.5,0.5,-17.59039368057251,-0.15025,-0.00825,-0.001,0.7856505204070328,10,1,100,0.2501693043525746,-10,-1,-100,6440.495260873344,-0.031678543521955094,0.04035869078209639,0.9986829556764663,236.0305739078349,24.422603527848505,589.9586804843507,-30.12191688500263,20.730438232421875,4381.2578125,True
1599570224.1505058,0.0,10,0.5,0.5,-17.27138127441406,-0.15025,-0.00825,-0.001,0.7172238443411539,10,1,100,0.2588457918017675,-10,-1,-100,6439.246449932805,-0.030845816004438444,0.042922917004977364,0.9986021023564912,234.79085266257883,24.27209606903888,594.7271009106402,-30.501479052416585,18.630523681640625,4381.2578125,True
1599570224.22132,0.0,10,0.5,0.5,-16.905457244110107,-0.15025,-0.00825,-0.001,0.7632246668834406,10,1,100,0.2294839071576555,-10,-1,-100,6438.063097513164,-0.029825383397543963,0.04565589721150958,0.9985118855351705,233.04741674759325,24.071869180671932,598.1417301250026,-30.881046390878343,16.237701416015625,4381.2578125,True
1599570224.2961245,0.0,10,0.5,0.5,-16.492784773254392,-0.15025,-0.00825,-0.001,0.8091660214585479,10,1,100,0.19315066114060564,-10,-1,-100,6436.800180746126,-0.02857173482459755,0.048540499192418235,0.9984124778403282,230.72840042217476,23.815579595147547,599.9657607715757,-31.260636172846063,13.551971435546875,4381.2578125,True
1599570224.3619516,0.0,10,0.5,0.5,-16.0336948638916,-0.15025,-0.00825,-0.001,0.855205418139712,10,1,100,0.15762937092415372,-10,-1,-100,6435.550475744298,-0.02711447608935902,0.0515622267561869,0.9983016287467146,227.76137413989719,23.497081962356432,599.9501240719185,-31.640262473656637,10.57342529296875,4381.2578125,True
1599570224.433757,0.0,10,0.5,0.5,-15.528121603393554,-0.15025,-0.00825,-0.001,0.900188198626114,10,1,100,0.11271075472064235,-10,-1,-100,6434.233418256394,-0.025387946486329777,0.05469682846951875,0.9981801987259531,224.0700221647541,23.11001578160875,597.8245780565716,-32.019937055359414,7.30194091796875,4381.2578125,True
1599570224.5165358,0.0,10,0.5,0.5,-15.251268753814697,-0.15025,-0.00825,-0.001,0.7655472984218423,10,1,100,0.17832399171430047,-10,-1,-100,6433.581736799446,-0.024422727515039867,0.05630021136794825,0.9981151319264981,221.93038978904787,22.88896381394619,595.8869686832621,-32.20979489226049,5.556396484375,4381.2578125,True
1599570224.5863483,0.0,10,0.5,0.5,-14.674696977233886,-0.15025,-0.00825,-0.001,0.9654879494347506,10,1,100,0.03618178669222982,-10,-1,-100,6432.328200521646,-0.02226155538680423,0.05955327479005234,0.9979768687767973,217.0167669343412,22.388000689998883,590.0837165476505,-32.58955262602812,1.84539794921875,4381.2578125,True
1599570224.662147,0.0,10,0.5,0.5,-13.733592654418944,-0.15025,-0.00825,-0.001,1.1878433509426867,10,1,100,-0.16745026120148004,-10,-1,-100,6430.298540882883,-0.018455978021276714,0.06450767429661719,0.9977465293510772,208.07463248801366,21.493293063359786,576.4263391111288,-33.159283386401405,-4.27081298828125,4381.2578125,True
1599570224.7299657,0.0,10,0.5,0.5,-13.044708762359619,-0.15025,-0.00825,-0.001,1.0576797460704326,10,1,100,-0.11215931595809822,-10,-1,-100,6428.979169848841,-0.015511942105789909,0.06780321411239763,0.9975781191506434,211.2511125339486,21.855640492575166,592.450222335622,-33.53896614345204,-8.715301513671875,4381.2578125,True
1599570224.806791,0.0,10,0.5,0.5,-12.669907907867431,-0.15025,-0.00825,-0.001,0.909482702812672,10,1,100,0.0038913436348654296,-10,-1,-100,6428.321693204809,-0.013906163126168571,0.06942376336958239,0.9974903306331909,214.21130159284698,22.183741160264535,604.4154700764175,-33.72868254105179,-11.04791259765625,4381.2578125,True
1599570224.8785992,0.0,10,0.5,0.5,-11.906842547607422,-0.15025,-0.00825,-0.001,1.091674415387875,10,1,100,-0.21520898069282998,-10,-1,-100,6426.93985856371,-0.010470699632984476,0.07252685546989994,0.9973114958150459,219.98761433522554,22.83474810014955,628.2352692627379,-34.10784454926081,-15.93505859375,4381.2578125,True
1599570224.9484124,0.0,10,0.5,0.5,-10.271081397247315,-0.15025,-0.00825,-0.001,1.426732254011974,10,1,100,-0.7376473889481024,-10,-1,-100,6424.19382454711,-0.002616633760834143,0.07836691596816686,0.9969211501966443,231.1787661731751,24.129473193255052,675.9665820498738,-34.864979589644584,-26.593780517578125,4381.2578125,True
1599570225.020728,0.0,10,0.5,0.5,-9.815285334014892,-0.15025,-0.00825,-0.001,0.9869483522793192,10,1,100,-0.19170375079644125,-10,-1,-100,6423.476809715969,-0.00046443308720049654,0.0796482891156066,0.9968229202535744,233.43414221359063,24.400277921868522,686.5315660052521,-35.05401805957689,-29.44415283203125,4381.2578125,True
1599570225.0925405,0.0,10,0.5,0.5,-8.886611047363282,-0.15025,-0.00825,-0.001,1.1143347496908498,10,1,100,-0.4673014403156941,-10,-1,-100,6422.036433074507,0.003971994428334756,0.08194295214436284,0.9966291064654532,237.9586444381609,24.943762046557808,707.9172252830971,-35.43181059111231,-35.36846923828125,4381.2578125,True
1599570225.16984,0.0,10,0.5,0.5,-8.389666946411133,-0.15025,-0.00825,-0.001,0.9977825911866693,10,1,100,-0.2765737754171781,-10,-1,-100,6421.385328251636,0.006242962061091482,0.08294182552465944,0.9965348358202741,239.79960396445608,25.170323641119232,717.4573896475748,-35.62057699019476,-38.442626953125,4381.2578125,True
1599570225.2416487,0.0,10,0.5,0.5,-6.892929272460937,-0.15025,-0.00825,-0.001,1.1887523164833882,10,1,100,-0.8506015348783096,-10,-1,-100,6419.158560149721,0.013497156896382954,0.0855603033757582,0.9962415677143585,243.1773642406356,25.613037769906292,739.903093620562,-36.1864700774411,-48.109222412109375,4381.2578125,True
1599570225.3164954,0.0,10,0.5,0.5,-5.294457291412353,-0.15025,-0.00825,-0.001,1.1081317778224546,10,1,100,-0.9533035045956336,-10,-1,-100,6417.008893080638,0.020991061121885944,0.08718122371437786,0.9959712895383284,242.68279152619633,25.621654051595215,750.7046139318921,-36.752015604781114,-58.448822021484375,4381.2578125,True
1599570225.3863087,0.0,10,0.5,0.5,-4.155666799926758,-0.15025,-0.00825,-0.001,0.9958659935749465,10,1,100,-0.7421978524015451,-10,-1,-100,6415.50199941569,0.025845238473752686,0.08760907330275991,0.9958195990857311,239.86549981506442,25.3489075988795,750.114213668462,-37.12904160146264,-65.71749877929688,4381.2578125,True
1599570225.4660954,0.0,10,0.5,0.5,-3.545594507598877,-0.15025,-0.00825,-0.001,0.9609678833046673,10,1,100,-0.5251773792437888,-10,-1,-100,6414.781975418329,0.028244939749929185,0.08765977065428092,0.995749962584665,237.66014207619372,25.124416398536614,747.2516761777752,-37.317596009116805,-69.46392822265625,4381.2578125,True
1599570225.535909,0.0,10,0.5,0.5,-2.3319793243408204,-0.15025,-0.00825,-0.001,0.9309828365108264,10,1,100,-0.8082977165383188,-10,-1,-100,6413.285231847782,0.032960528629261986,0.08741521640613611,0.9956265281184247,231.58429583138593,24.49452498352439,736.0339585520729,-37.6948503806445,-77.18124389648438,4381.2578125,True
1599570225.6047585,0.0,10,0.5,0.5,-1.0726071922302245,-0.15025,-0.00825,-0.001,0.8792250796846409,10,1,100,-0.8402848518679809,-10,-1,-100,6411.72347399767,0.03749561366642016,0.08670601343391501,0.9955280740341662,223.20027901131033,23.619254173142867,717.0220846822926,-38.072361174737004,-85.19796752929688,4381.2578125,True
1599570225.6745381,0.0,10,0.5,0.5,-0.4002542861938477,-0.15025,-0.00825,-0.001,0.8941250800537597,10,1,100,-0.6310418499012742,-10,-1,-100,6410.9960362243,0.039672603397503524,0.08618384786437508,0.995489040073749,218.12111560677914,23.089339562121836,704.4476818184672,-38.261226784287516,-89.3184814453125,4381.2578125,True
1599570225.7473426,0.0,10,0.5,0.5,1.584573643493652,-0.15025,-0.00825,-0.001,0.7159314123767745,10,1,100,-1.0642395462975458,-10,-1,-100,6408.644175934023,0.04555140108649238,0.08408210315691508,0.9954171335614871,199.37935328212262,21.14255938489076,654.2053549720249,-38.8282615044636,-102.12641906738281,4381.2578125,True
1599570225.8301222,0.0,10,0.5,0.5,2.975290892410278,-0.15025,-0.00825,-0.001,0.7283651536124038,10,1,100,-0.866525696028638,-10,-1,-100,6407.0885473395465,0.049056531406607005,0.08228042942132871,0.9954011189769651,204.12879832828722,21.689948940715357,676.8037291865472,-39.2062050138511,-111.00947570800781,4381.2578125,True
1599570225.9019313,0.0,10,0.5,0.5,3.7097343841552735,-0.15025,-0.00825,-0.001,0.7978003123642341,10,1,100,-0.6969831020823657,-10,-1,-100,6406.302405578201,0.05066073126449212,0.0812734661255605,0.9954034930678534,209.52526433791317,22.289551326935044,698.2864962361499,-39.39495212070863,-115.51144409179688,4381.2578125,True
1599570225.973739,0.0,10,0.5,0.5,5.112491901397704,-0.15025,-0.00825,-0.001,0.6786495362652814,10,1,100,-0.8455084194544205,-10,-1,-100,6404.7398448653985,0.05342894513940327,0.07927637276432536,0.9954198132158223,218.18652359875708,23.266894390562957,734.6047448728684,-39.772036362959405,-124.395263671875,4381.2578125,True
1599570226.0465446,0.0,10,0.5,0.5,7.105554018402099,-0.15025,-0.00825,-0.001,0.5185715156398363,10,1,100,-0.9459877652536991,-10,-1,-100,6402.325593685266,0.056822650180004104,0.07601129127625432,0.9954865493943338,226.08060221901817,24.18370934950403,772.7143871563333,-40.33688847627633,-137.2151641845703,4381.2578125,True
1599570226.1213722,0.0,10,0.5,0.5,7.781611060714722,-0.15025,-0.00825,-0.001,0.7225945303578258,10,1,100,-0.7086612885295154,-10,-1,-100,6401.479803289869,0.05771774898391399,0.07490794454129703,0.9955186895768597,227.70553353091293,24.376942693767134,782.1329623537442,-40.52503353669324,-141.340087890625,4381.2578125,True
1599570226.189162,0.0,10,0.5,0.5,9.053117361068725,-0.15025,-0.00825,-0.001,0.6032462226013084,10,1,100,-0.7827332541265499,-10,-1,-100,6399.851673422498,0.05917588166515951,0.07283146391969611,0.9955871598672137,228.95756686791927,24.540251016018775,794.2097461182408,-40.90123469688176,-149.3615264892578,4381.2578125,True
1599570226.26847,0.0,10,0.5,0.5,10.278153889465331,-0.15025,-0.00825,-0.001,0.5989919439520246,10,1,100,-0.7596577748160117,-10,-1,-100,6398.223038829397,0.060263560707182154,0.07091855928209687,0.9956600128559163,227.83060808339437,24.437296655836803,798.0584965720074,-41.27743527924483,-157.0781707763672,4381.2578125,True
1599570226.3333006,0.0,10,0.5,0.5,12.000903048324584,-0.15025,-0.00825,-0.001,0.49593361423178495,10,1,100,-0.7488932993122558,-10,-1,-100,6395.749538805219,0.06112968002982503,0.06825765812057177,0.995793178490065,222.4608204919216,23.875715913043067,790.6729427523657,-41.841961139467905,-168.08346557617188,4381.2578125,True
1599570226.4061103,0.0,10,0.5,0.5,12.58991040763855,-0.15025,-0.00825,-0.001,0.6776153668215433,10,1,100,-0.6791392905410489,-10,-1,-100,6394.907620799495,0.061261448364886305,0.06750708059301344,0.9958362460836845,219.87016192998686,23.601817596910248,785.2472500764848,-42.0302277137952,-171.598388671875,4381.2578125,True
1599570226.4809093,0.0,10,0.5,0.5,13.682843798446655,-0.15025,-0.00825,-0.001,0.6046080979062465,10,1,100,-0.6713165664485665,-10,-1,-100,6393.210114126094,0.06129049586413091,0.06617801382079531,0.9959236645463664,213.75462205542138,22.95613886772629,770.7847947870024,-42.40691631748455,-178.39883422851562,4381.2578125,True
1599570227.1675706,0.0,10,0.5,0.5,-39.72885775604247,-0.15025,-0.00825,-0.001,0.6198693647617259,10,1,100,-0.6484629760192815,-10,-1,-100,6391.456956532784,0.06109483450065284,0.0651247865350433,0.9960051121234785,206.66497522512182,22.21189955022591,752.3794849848292,-42.783808180060994,175.10745239257812,4381.2578125,True
1599570227.2343926,0.0,10,0.5,0.5,-38.22511423225403,-0.15025,-0.00825,-0.001,0.6094522839565579,10,1,100,-0.5800285453389792,-10,-1,-100,6388.917092950665,0.060283885433948164,0.06408820248875476,0.9961217573463331,201.91764400619,21.744504410822405,745.611190844655,-43.34935613530866,165.9419403076172,4381.2578125,True
1599570227.301214,0.0,10,0.5,0.5,-37.586855812072756,-0.15025,-0.00825,-0.001,0.6783463916935462,10,1,100,-0.5786755347029504,-10,-1,-100,6387.167891422752,0.059525610591007784,0.06378778639304397,0.9961866391348777,209.34283893286306,22.58501088243161,780.2964363610845,-43.72601392156076,160.12625122070312,4381.2578125,True
1599570227.3690305,0.0,10,0.5,0.5,-37.37944917526245,-0.15025,-0.00825,-0.001,0.7037465626096155,10,1,100,-0.6063109125368071,-10,-1,-100,6386.256681136438,0.05908195810914104,0.06375967202924505,0.996214849542363,212.8968256777148,22.991483049567638,797.2353879490184,-43.914193577494665,157.16458129882812,4381.2578125,True
1599570227.439844,0.0,10,0.5,0.5,-36.22222359809875,-0.15025,-0.00825,-0.001,0.7473236584212537,10,1,100,-0.48072343548974344,-10,-1,-100,6383.5924373923335,0.05753487941798966,0.06414140676884912,0.9962808929152813,222.438971733776,24.09878029829565,844.5205748456183,-44.47815469883503,147.88821411132812,4381.2578125,True
1599570227.5126488,0.0,10,0.5,0.5,-35.481809405136104,-0.15025,-0.00825,-0.001,0.7842733503212278,10,1,100,-0.5070072125750955,-10,-1,-100,6381.836023755721,0.056367553917324266,0.06483413240191845,0.9963027823614005,227.79670389025804,24.73119176390271,872.730480358075,-44.85368153720333,141.35397338867188,4381.2578125,True
1599570227.5794675,0.0,10,0.5,0.5,-35.21793212509155,-0.15025,-0.00825,-0.001,0.7667854606227501,10,1,100,-0.5564790022301405,-10,-1,-100,6380.924878723454,0.05575864548426326,0.0653121724633751,0.9963058233202667,230.4337712242281,25.042327333076226,886.8084781564872,-45.041320720752445,137.98040771484375,4381.2578125,True
1599570227.649281,0.0,10,0.5,0.5,-34.411935686874386,-0.15025,-0.00825,-0.001,0.8500331382055926,10,1,100,-0.47341226039933393,-10,-1,-100,6379.109955094871,0.05445403554231221,0.06650864812165129,0.996298829537698,234.7898537557666,25.561459931602506,911.6672673130777,-45.416388660612114,131.01979064941406,4381.2578125,True
1599570227.7307334,0.0,10,0.5,0.5,-33.00616455078125,-0.15025,-0.00825,-0.001,1.0058407669175415,10,1,100,-0.3863713780661723,-10,-1,-100,6376.3215378904715,0.05248281452340752,0.0690143762629191,0.9962341943783811,238.6774500601737,26.038414396997258,939.1144770576376,-45.978628519105655,120.04794311523438,4381.2578125,True
1599570227.8025413,0.0,10,0.5,0.5,-32.68316494445801,-0.15025,-0.00825,-0.001,0.8669021002368611,10,1,100,-0.511924075757761,-10,-1,-100,6375.413917559315,0.051840164152364504,0.07002786188000193,0.9961971170110719,239.16740162558605,26.10531585990954,945.1779403433195,-46.165994942024305,116.24906921386719,4381.2578125,True
1599570227.8813672,0.0,10,0.5,0.5,-31.142329928207396,-0.15025,-0.00825,-0.001,1.166176150304977,10,1,100,-0.36434151500724477,-10,-1,-100,6372.625770240207,0.049922868109785946,0.07366638576155173,0.9960326153537963,237.89870756379565,25.996921957317518,952.5620948156233,-46.728137260932584,104.429443359375,4381.2578125,True
1599570227.9491494,0.0,10,0.5,0.5,-29.85070023536682,-0.15025,-0.00825,-0.001,1.121183852827956,10,1,100,-0.4307992539931922,-10,-1,-100,6370.718965962995,0.04879418930403302,0.07655734876841816,0.9958705234314916,234.61313153323923,25.654700987504388,947.6190232556281,-47.10305524370977,96.19711303710938,4381.2578125,True
1599570228.025984,0.0,10,0.5,0.5,-29.16280171737671,-0.15025,-0.00825,-0.001,1.0058663984813057,10,1,100,-0.48750371809510484,-10,-1,-100,6369.793930423562,0.048294057968938583,0.07812582087489113,0.9957730866404843,232.19436669574478,25.399803109602775,941.9336903423049,-47.29059107889461,91.97502136230469,4381.2578125,True
1599570228.0997875,0.0,10,0.5,0.5,-27.80184125785828,-0.15025,-0.00825,-0.001,1.2319420718678242,10,1,100,-0.4342699365164067,-10,-1,-100,6367.81749353488,0.04736566015233917,0.08159390342566959,0.9955395166250788,225.7392639309999,24.718865129920058,923.7247662813264,-47.66584884136242,83.32075500488281,4381.2578125,True
1599570228.176054,0.0,10,0.5,0.5,-26.397964431762695,-0.15025,-0.00825,-0.001,1.3036647773082979,10,1,100,-0.4542894980119212,-10,-1,-100,6365.91200084181,0.046714309330805115,0.08538251740183939,0.9952525302785573,217.12576899812652,23.81334479165644,896.1831244587642,-48.04137288630595,74.38449096679688,4381.2578125,True
1599570228.2458677,0.0,10,0.5,0.5,-24.238850227355957,-0.15025,-0.00825,-0.001,1.6127571165159345,10,1,100,-0.4724346925542432,-10,-1,-100,6362.999362943461,0.04629696541623816,0.09161733218148772,0.9947174751843835,224.95894564408306,24.76370235642431,940.4872998231514,-48.60441668038083,60.451202392578125,4381.2578125,True
1599570228.3286471,0.0,10,0.5,0.5,-23.462219226074215,-0.15025,-0.00825,-0.001,1.2347706072653353,10,1,100,-0.5164843158427752,-10,-1,-100,6362.028725053882,0.04632716805880129,0.09382475626090843,0.9945102858252562,230.54057514453174,25.41563549659363,967.8995001781649,-48.79178016783286,55.665618896484375,4381.2578125,True
1599570228.4024563,0.0,10,0.5,0.5,-21.163354885864255,-0.15025,-0.00825,-0.001,1.7729204620151857,10,1,100,-0.5904318392530906,-10,-1,-100,6359.054052608204,0.04703544928979379,0.10069785630010995,0.9938046127115078,244.21750057530875,27.046768395689476,1038.221026148725,-49.35300570348128,40.88386535644531,4381.2578125,True
1599570228.4762592,0.0,10,0.5,0.5,-19.55959406967163,-0.15025,-0.00825,-0.001,1.605970487091055,10,1,100,-0.6303459663316937,-10,-1,-100,6357.050610641367,0.04804894118800384,0.10539732091991155,0.9932686967752568,250.91292700830155,27.86602256230877,1075.4861983323472,-49.7265817277674,30.674407958984375,4381.2578125,True
1599570228.5470688,0.0,10,0.5,0.5,-18.70783759536743,-0.15025,-0.00825,-0.001,1.3985710487134084,10,1,100,-0.6028604833263969,-10,-1,-100,6356.079699994181,0.04872446022572428,0.10775103663933713,0.9929832028180839,253.51607838647217,28.19023176670987,1091.0896203362888,-49.91324737858445,25.46295166015625,4381.2578125,True
1599570228.6193845,0.0,10,0.5,0.5,-16.20851274833679,-0.15025,-0.00825,-0.001,1.92578176622683,10,1,100,-0.8334816230894948,-10,-1,-100,6353.043584473664,0.051437956715977055,0.11464930911188301,0.9920734209367033,256.56678399164315,28.618919609890728,1117.7675382798996,-50.47306017076413,9.39923095703125,4381.2578125,True
1599570228.7161262,0.0,10,0.5,0.5,-15.314615417098999,-0.15025,-0.00825,-0.001,1.4838207365769203,10,1,100,-0.6856498597765941,-10,-1,-100,6352.0107514989795,0.05255946923281122,0.11686538115978887,0.9917560107608838,255.8722717568417,28.567536134329014,1119.2762200385093,-50.65968622260252,3.90130615234375,4381.2578125,True
1599570228.7869363,0.0,10,0.5,0.5,-13.548250383377075,-0.15025,-0.00825,-0.001,1.734209135763551,10,1,100,-0.8539977828164775,-10,-1,-100,6350.007618503994,0.05510603874854233,0.12111960662104414,0.9911071412240998,251.75440295240287,28.160447035116594,1110.2441360529037,-51.03309692652128,-7.31005859375,4381.2578125,True
1599570228.8577473,0.0,10,0.5,0.5,-11.737881147003172,-0.15025,-0.00825,-0.001,1.7347913435786517,10,1,100,-0.916316791282583,-10,-1,-100,6347.941986082238,0.05798144567546284,0.12495329185164425,0.9904669741151501,243.91861229536855,27.345796262921507,1084.4552606028235,-51.406809382254146,-18.81201171875,4381.2578125,True
1599570228.9325476,0.0,10,0.5,0.5,-9.881824769973754,-0.15025,-0.00825,-0.001,1.7412977159449259,10,1,100,-0.9788885137846306,-10,-1,-100,6345.876807401539,0.06115463509947908,0.1284581914569505,0.9898275625852511,232.35881036387119,26.12802076166491,1041.4356007787455,-51.78087057083074,-30.6024169921875,4381.2578125,True
1599570229.011336,0.0,10,0.5,0.5,-7.049176383590697,-0.15025,-0.00825,-0.001,1.8652988931665484,10,1,100,-1.2124379532520075,-10,-1,-100,6342.77814178844,0.06614940191122574,0.13273258755101175,0.9889420189418588,239.06377479704335,27.04133589029717,1084.3159828887035,-52.341648685907735,-48.835968017578125,4381.2578125,True
1599570229.0841415,0.0,10,0.5,0.5,-5.083562754440307,-0.15025,-0.00825,-0.001,1.6866926384749814,10,1,100,-1.082766074459563,-10,-1,-100,6340.650180728408,0.06949321608152323,0.13495733145262634,0.9884114586576952,249.44129455388085,28.33226921946273,1140.2015988199544,-52.71453583395804,-61.356201171875,4381.2578125,True
1599570229.1548176,0.0,10,0.5,0.5,-4.036165924453735,-0.15025,-0.00825,-0.001,1.5698961776889533,10,1,100,-0.9299172904543899,-10,-1,-100,6339.6156763867475,0.07112245270172599,0.1358806466513196,0.9881690374562997,253.09696082658738,28.802930822507783,1161.3601657120817,-52.90076737911275,-67.72561645507812,4381.2578125,True
1599570229.2276225,0.0,10,0.5,0.5,-0.9969338676452637,-0.15025,-0.00825,-0.001,1.7086273768847409,10,1,100,-1.2688760169206985,-10,-1,-100,6336.392239543493,0.07566312259395681,0.13794923246977409,0.9875449868944363,258.3780326874575,29.54710128721082,1199.2044038202932,-53.45905133714856,-87.2694091796875,4381.2578125,True
1599570229.3004277,0.0,10,0.5,0.5,0.08800499153137202,-0.15025,-0.00825,-0.001,1.5581759498809693,10,1,100,-0.9666252664722781,-10,-1,-100,6335.296012671781,0.07701816641790288,0.1384324321396531,0.9873726063515862,257.91240867576505,29.5336942143727,1201.5953124919322,-53.64513254153387,-93.9284439086914,4381.2578125,True
1599570229.373234,0.0,10,0.5,0.5,2.226743138694763,-0.15025,-0.00825,-0.001,1.5914602566722538,10,1,100,-1.1018339524030205,-10,-1,-100,6333.167377635837,0.07945347276068589,0.13914639699628176,0.9870792399140103,252.89415388161626,29.033969660430657,1187.2067702791667,-54.01749340901537,-107.46166229248047,4381.2578125,True
1599570229.4540431,0.0,10,0.5,0.5,5.453064628601074,-0.15025,-0.00825,-0.001,1.597448241027716,10,1,100,-1.1635796221512908,-10,-1,-100,6329.878632690292,0.08220324323725044,0.13982762209837166,0.9867577528956093,235.06451519068315,27.11032755915013,1116.1516552055127,-54.57685868216213,-128.24476623535156,4381.2578125,True
1599570229.5274081,0.0,10,0.5,0.5,6.595283929824829,-0.15025,-0.00825,-0.001,1.5512760484963364,10,1,100,-0.9656453361250625,-10,-1,-100,6328.78214967181,0.08287668309388482,0.14000629567640577,0.9866760829017427,227.433292003963,26.27940894488649,1083.9877650027722,-54.763548355761955,-135.21324157714844,4381.2578125,True
1599570229.6012876,0.0,10,0.5,0.5,8.777901151275634,-0.15025,-0.00825,-0.001,1.5792663029469192,10,1,100,-1.0063250168905478,-10,-1,-100,6326.58862133557,0.08383347038474291,0.14040601334320993,0.9865384435795277,239.72720776680183,27.813292887534196,1151.0950282009633,-55.13633678962536,-148.9921875,4381.2578125,True
1599570229.671066,0.0,10,0.5,0.5,10.911734168243406,-0.15025,-0.00825,-0.001,1.6006872592225727,10,1,100,-0.9651507403794859,-10,-1,-100,6324.395038292743,0.0843054635675049,0.14095008107781823,0.9864206321122976,251.89960694848975,29.340598303821924,1218.4084423065076,-55.508284858957474,-162.481201171875,4381.2578125,True
1599570229.7451265,0.0,10,0.5,0.5,12.9998682182312,-0.15025,-0.00825,-0.001,1.634864038930953,10,1,100,-0.9236606557940508,-10,-1,-100,6322.1389544728445,0.08433631948426819,0.14174402984333753,0.9863042204206665,258.7123405416541,30.236471257327104,1260.4514264333693,-55.87976106571109,-175.65689086914062,4381.2578125,True
1599570229.8209267,0.0,10,0.5,0.5,-39.41417747497559,-0.15025,-0.00825,-0.001,1.6854737061855731,10,1,100,-0.8848838112086317,-10,-1,-100,6319.884395792033,0.08399531998730096,0.14291769711222224,0.9861639407686584,261.87802768217716,30.695625557691244,1285.1388161969264,-56.25107730475948,171.4868927001953,4381.2578125,True
1599570229.8937325,0.0,10,0.5,0.5,-37.36317301368714,-0.15025,-0.00825,-0.001,1.7445801492643693,10,1,100,-0.8516708992962401,-10,-1,-100,6317.626045462792,0.08337020115094013,0.14451476196132504,0.9859842256016641,259.8887752048546,30.548218840306877,1284.6790934391313,-56.62251409545917,158.95164489746094,4381.2578125,True
1599570230.5626996,0.0,10,0.5,0.5,-35.71548267669677,-0.15025,-0.00825,-0.001,1.8146951888919274,10,1,100,-0.8255297469204725,-10,-1,-100,6315.370300911949,0.08255313014315128,0.14659619935229629,0.985745674623546,253.20524353544448,29.85795238783387,1260.799984517614,-56.99425047337687,146.738525390625,4381.2578125,True
1599570230.6268265,0.0,10,0.5,0.5,-33.14252367782593,-0.15025,-0.00825,-0.001,2.0568861004958032,10,1,100,-0.7592185357584651,-10,-1,-100,6311.892112142639,0.08120124548228028,0.15068228984332127,0.9852416989042333,238.5340189826311,28.302841654195063,1200.7132117693534,-57.55248010939504,128.3700714111328,4381.2578125,True
1599570230.7054117,0.0,10,0.5,0.5,-31.446947441673277,-0.15025,-0.00825,-0.001,2.019907175340906,10,1,100,-0.8037997307820228,-10,-1,-100,6309.635488502565,0.08037374021891681,0.15404960928129613,0.9847886980279078,255.67161446001265,30.484262713958547,1296.1418373853671,-57.923910062526375,115.82566833496094,4381.2578125,True
1599570230.7702029,0.0,10,0.5,0.5,-29.706117909240724,-0.15025,-0.00825,-0.001,2.107946877400382,10,1,100,-0.8145130605964921,-10,-1,-100,6307.255615936709,0.07971802000739227,0.15789762132337304,0.9842323803180435,269.1280292676769,32.24280208753334,1373.9188442017269,-58.294431519824876,103.01518249511719,4381.2578125,True
1599570230.8420463,0.0,10,0.5,0.5,-27.931522204589843,-0.15025,-0.00825,-0.001,2.196214214781446,10,1,100,-0.8390418283192695,-10,-1,-100,6304.938542946125,0.07934715881551326,0.16218181715670263,0.9835654968387492,278.3532324346007,33.49264265312971,1430.884463648069,-58.664359883917015,89.93620300292969,4381.2578125,True
