Timestamp,Input Throttle,horizon,dT,dt,Input Roll,Roll P,Roll I,Roll D,Input Pitch,Pitch P,Pitch I,Pitch D,Input Yaw,Yaw P,Yaw I,Yaw D,Altitude,Direction X,Direction Y,Direction Z,Drag X,Drag Y,Drag Z,Vertical Velocity,Roll,Mass,Has Fuel
1599566529.245123,0.0,10,0.5,0.5,-2.744513442993164,-0.05075,-0.001,-0.37525,-0.0671861477656817,10,1,100,0.6903988343178389,-10,-1,-100,6483.617967487196,-0.0672581993658293,-0.007002411012498573,0.9977110307389001,205.0732526254546,21.49878047298856,-156.76525880720448,9.590823801148366,-35.944610595703125,4381.2578125,True
1599566529.301939,0.0,10,0.5,0.5,-2.7494185775756836,-0.05075,-0.001,-0.37525,-0.06908815396049325,10,1,100,0.6894719352053216,-10,-1,-100,6483.776675172034,-0.06735060047137881,-0.006987536491900916,0.9977049017369409,204.84277427811128,21.47779080205625,-153.51326142338607,9.40080984266108,-35.942962646484375,4381.2578125,True
1599566529.3588216,0.0,10,0.5,0.5,-2.7556619430541995,-0.05075,-0.001,-0.37525,-0.06772023261800053,10,1,100,0.7080771716288419,-10,-1,-100,6484.156592041836,-0.06754251217075456,-0.006955226245978656,0.9976921538618667,204.381169093191,21.43561009761372,-147.02548585833873,9.020797536978431,-35.939544677734375,4381.2578125,True
1599566529.4166286,0.0,10,0.5,0.5,-2.5206414138793947,-0.05075,-0.001,-0.37525,0.004593725137895965,10,1,100,0.7007038390837932,-10,-1,-100,6484.856804529089,-0.06758854477234957,-0.006262130746226653,0.9976936274899592,203.59182457073422,21.364389117181613,-134.20531934696268,8.260810753432047,-36.50091552734375,4381.2578125,True
1599566529.481456,0.0,10,0.5,0.5,-2.7366457336425785,-0.05075,-0.001,-0.37525,-0.06534203791192701,10,1,100,0.7028594334015269,-10,-1,-100,6484.856804529089,-0.06758854477234957,-0.006262130746226653,0.9976936274899592,203.59182457073422,21.364389117181613,-134.20531934696268,8.260810753432047,-36.50091552734375,4381.2578125,True
1599566529.5422945,0.0,10,0.5,0.5,-2.4407353271484378,-0.05075,-0.001,-0.37525,-0.0014765147609336615,10,1,100,0.697560944358785,-10,-1,-100,6485.175624440191,-0.0674789325585316,-0.005675842235084689,0.9977045547032866,203.31730997947417,21.34040718161579,-127.89847217669893,7.880820022519862,-37.208099365234375,4381.2578125,True
1599566529.616101,0.0,10,0.5,0.5,-2.285099241638184,-0.05075,-0.001,-0.37525,0.025473763439836296,10,1,100,0.6864252040404146,-10,-1,-100,6485.493927878211,-0.06721670660438596,-0.004892690293825827,0.9977264033466032,203.08654252804817,21.320011497178985,-121.62911745861074,7.500820698359046,-38.208770751953125,4381.2578125,True
1599566529.674944,0.0,10,0.5,0.5,-2.1144815963745116,-0.05075,-0.001,-0.37525,0.0590272090580367,10,1,100,0.677524721497741,-10,-1,-100,6485.750193912187,-0.06683629979877072,-0.003871254759521562,0.9977564444371161,202.84983676216058,21.29778049079166,-115.36511174638636,7.120804713182788,-39.502899169921875,4381.2578125,True
1599566529.7454119,0.0,10,0.5,0.5,-1.5433121139526371,-0.05075,-0.001,-0.37525,0.16378297398832867,10,1,100,0.6236160069806187,-10,-1,-100,6486.165061714593,-0.06593963593460232,-0.001986832542824556,0.9978216358193777,202.33862869214335,21.245414902512145,-105.90454615715286,6.550730292110865,-41.9954833984375,4381.2578125,True
1599566529.8072464,0.0,10,0.5,0.5,-2.066893151855469,-0.05075,-0.001,-0.37525,0.054923365931092316,10,1,100,0.6779397946324961,-10,-1,-100,6486.261183574214,-0.06555839445861666,-0.0012615480258541317,0.9978479370187558,202.08500337642704,21.21845639536127,-102.716476522932,6.360687238791135,-42.97332763671875,4381.2578125,True
1599566529.8740678,0.0,10,0.5,0.5,-1.5114150482177733,-0.05075,-0.001,-0.37525,0.15546375976726934,10,1,100,0.623157310638466,-10,-1,-100,6486.517862060107,-0.06465419017644887,0.0003129519771986401,0.9979076799753009,201.3779891282417,21.142373542055843,-96.26403587463284,5.9805643860472415,-45.149658203125,4381.2578125,True
1599566529.9528565,0.0,10,0.5,0.5,-0.7012435211181645,-0.05075,-0.001,-0.37525,0.28657990550825435,10,1,100,0.5229590849667818,-10,-1,-100,6486.869141520117,-0.06292366060399864,0.0029296302476285716,0.9980140430889761,199.59685625252612,20.949721354236196,-86.34422424714275,5.410256900209515,-48.96636962890625,4381.2578125,True
1599566530.0206752,0.0,10,0.5,0.5,-0.8914215423583987,-0.05075,-0.001,-0.37525,0.23603399062759764,10,1,100,0.5400276032799548,-10,-1,-100,6487.061798172188,-0.06150964474086125,0.004839904752068421,0.9980947544826814,197.7396678041815,20.749217947380387,-79.54496681184469,5.0299416365113,-51.87890625,4381.2578125,True
1599566530.095478,0.0,10,0.5,0.5,-0.6218788604736332,-0.05075,-0.001,-0.37525,0.2618406660325745,10,1,100,0.5009830418048342,-10,-1,-100,6487.254436363117,-0.05987470964044425,0.0068004012316062136,0.9981827356193663,195.1774528319779,20.473565358919387,-72.59077900150923,4.64951206265266,-55.073455810546875,4381.2578125,True
1599566530.1652894,0.0,10,0.5,0.5,0.41144443511962847,-0.05075,-0.001,-0.37525,0.40222937945202397,10,1,100,0.3486398549418624,-10,-1,-100,6487.544095418067,-0.057010479518703513,0.009847056760473899,0.9983250175660247,189.75742755903735,19.893624160376778,-61.9262166383735,4.078587585158683,-60.3087158203125,4381.2578125,True
1599566530.2490652,0.0,10,0.5,0.5,0.05624525146484349,-0.05075,-0.001,-0.37525,0.3227682946657164,10,1,100,0.39370217486383297,-10,-1,-100,6487.675175515469,-0.05482590783027862,0.011879725390926544,0.998425256068386,184.91353562283612,19.37821677581807,-54.719777502171446,3.6977383577255725,-64.08090209960938,4381.2578125,True
1599566530.3118975,0.0,10,0.5,0.5,-1.3565803695678713,-0.05075,-0.001,-0.37525,0.12125698838305306,10,1,100,0.6108940412334973,-10,-1,-100,6487.675175515469,-0.05482590783027862,0.011879725390926544,0.998425256068386,184.91353562283612,19.37821677581807,-54.719777502171446,3.6977383577255725,-64.08090209960938,4381.2578125,True
1599566530.38031,0.0,10,0.5,0.5,1.0702858963012694,-0.05075,-0.001,-0.37525,0.4427060785745117,10,1,100,0.20999595316366937,-10,-1,-100,6487.83980113978,-0.05119264411943846,0.01478674219659003,0.9985793235608638,175.97261062481624,18.43176163459844,-44.03293098925989,3.1260358196836595,-69.77169799804688,4381.2578125,True
1599566530.4471314,0.0,10,0.5,0.5,1.3993670669555662,-0.05075,-0.001,-0.37525,0.47114311816058885,10,1,100,0.11507361332883059,-10,-1,-100,6488.003934192122,-0.047040968252611906,0.01767104147347016,0.9987366427637966,165.41295067385292,17.320174663287524,-33.81916364406542,2.5536903952025702,-75.5499267578125,4381.2578125,True
1599566530.5219305,0.0,10,0.5,0.5,-0.7655578308105468,-0.05075,-0.001,-0.37525,0.1846789778742051,10,1,100,0.5283513332432871,-10,-1,-100,6488.003934192122,-0.047040968252611906,0.01767104147347016,0.9987366427637966,165.41295067385292,17.320174663287524,-33.81916364406542,2.5536903952025702,-75.5499267578125,4381.2578125,True
1599566530.6116908,0.0,10,0.5,0.5,1.6726002807617188,-0.05075,-0.001,-0.37525,0.45935277445291006,10,1,100,0.04415673874565934,-10,-1,-100,6488.167101071449,-0.04265603323554802,0.02015086454282264,0.998886582894567,153.1808436689118,16.03663442304075,-24.29649499557171,1.980788731845065,-81.26565551757812,4381.2578125,True
1599566530.6924746,0.0,10,0.5,0.5,1.8182485549926755,-0.05075,-0.001,-0.37525,0.4716005396352595,10,1,100,-0.053153422862869115,-10,-1,-100,6488.269257146167,-0.03780508916626778,0.022498558005195683,0.9990318263803297,145.72553127118306,15.255200289260763,-16.428007165610108,1.4075999392171141,-86.63388061523438,4381.2578125,True
1599566530.7757328,0.0,10,0.5,0.5,-0.19241116180419923,-0.05075,-0.001,-0.37525,0.23878808617371183,10,1,100,0.42942912692138224,-10,-1,-100,6488.269257146167,-0.03780508916626778,0.022498558005195683,0.9990318263803297,145.72553127118306,15.255200289260763,-16.428007165610108,1.4075999392171141,-86.63388061523438,4381.2578125,True
1599566530.8770444,0.0,10,0.5,0.5,1.3096891220092775,-0.05075,-0.001,-0.37525,0.3805506601080063,10,1,100,0.07436106233191025,-10,-1,-100,6488.273414373165,-0.034598747265976754,0.023771255356186426,0.9991185385660784,150.7911106731508,15.78508084585365,-12.384999460097319,1.0254240394018157,-90.15177917480469,4381.2578125,True
1599566530.9448984,0.0,10,0.5,0.5,2.721313237762451,-0.05075,-0.001,-0.37525,0.49795876812673207,10,1,100,-0.35861892902479153,-10,-1,-100,6488.34526253806,-0.027770687400991687,0.0259801713353259,0.9992766481904116,158.61398809441744,16.600099830714306,-3.318279058019324,0.26113047937045986,-96.55602264404297,4381.2578125,True
1599566531.0136528,0.0,10,0.5,0.5,0.3217456066131592,-0.05075,-0.001,-0.37525,0.27868048167026993,10,1,100,0.32126307826194406,-10,-1,-100,6488.34526253806,-0.027770687400991687,0.0259801713353259,0.9992766481904116,158.61398809441744,16.600099830714306,-3.318279058019324,0.26113047937045986,-96.55602264404297,4381.2578125,True
1599566531.0884538,0.0,10,0.5,0.5,2.2887136234283445,-0.05075,-0.001,-0.37525,0.41376502253918496,10,1,100,-0.24394753352965742,-10,-1,-100,6488.322047362104,-0.022657004766912844,0.027195394028730217,0.9993733389872947,164.00535406699947,17.15939136653083,4.100959249101011,-0.31205970017508733,-101.16569519042969,4381.2578125,True
1599566531.1562717,0.0,10,0.5,0.5,1.7499575736999513,-0.05075,-0.001,-0.37525,0.3640177539498055,10,1,100,-0.11992052462247119,-10,-1,-100,6488.327761509805,-0.019164965092418648,0.02783397070043269,0.999428823973,168.0970634427257,17.58492105602595,9.351983149864015,-0.6942262665029193,-103.95281982421875,4381.2578125,True
1599566531.2216003,0.0,10,0.5,0.5,1.2793401443481445,-0.05075,-0.001,-0.37525,0.32997269013981056,10,1,100,0.02831728931791988,-10,-1,-100,6488.298399394262,-0.017367116132361134,0.0280931332505224,0.9994544307478023,170.32985624396838,17.817545007833505,12.08550893523683,-0.8853283348146923,-105.29515075683594,4381.2578125,True
1599566531.7806518,0.0,10,0.5,0.5,1.845701313018799,-0.05075,-0.001,-0.37525,0.3508034417433194,10,1,100,-0.15509147577226226,-10,-1,-100,6488.241647491464,-0.014092331806143785,0.028508631409020352,0.9994942041450015,174.24746006862932,18.226253659822735,17.703978585741016,-1.2675885008333143,-107.8000717163086,4381.2578125,True
1599566531.8404894,0.0,10,0.5,0.5,2.2831290996551514,-0.05075,-0.001,-0.37525,0.3509927279394237,10,1,100,-0.3803279551312924,-10,-1,-100,6488.154120086925,-0.009097604093997255,0.028878225436768937,0.999541535752953,178.83494624434687,18.70620520299221,26.39713802669257,-1.8411498568071056,-111.02583312988281,4381.2578125,True
1599566531.9082756,0.0,10,0.5,0.5,1.8354386840820311,-0.05075,-0.001,-0.37525,0.3249253303809938,10,1,100,-0.23706079810392006,-10,-1,-100,6488.033457082114,-0.005889878900605204,0.028969309701560156,0.9995629487040579,181.14254192995332,18.948272254235913,32.29712487690984,-2.22364494262258,-112.80940246582031,4381.2578125,True
1599566531.9761434,0.0,10,0.5,0.5,1.8027634048461914,-0.05075,-0.001,-0.37525,0.3169010168176677,10,1,100,-0.2555193175820703,-10,-1,-100,6487.974826840567,-0.0028349741934162133,0.028973282771979785,0.9995761660857755,182.94644013856032,19.138119375478063,38.23678696739178,-2.6062381613617327,-114.29764556884766,4381.2578125,True
1599566532.0499465,0.0,10,0.5,0.5,1.96217791557312,-0.05075,-0.001,-0.37525,0.29854144335666366,10,1,100,-0.43543739510752716,-10,-1,-100,6487.761428470723,0.0015460397770117036,0.028804103327473244,0.9995838801183761,184.89941310245078,19.34507385848943,47.16840534022917,-3.180305307162998,-115.97631072998047,4381.2578125,True
1599566532.1217535,0.0,10,0.5,0.5,1.5102471050262454,-0.05075,-0.001,-0.37525,0.30574740518754073,10,1,100,-0.15346961998901923,-10,-1,-100,6487.733597299433,0.0029325774426479296,0.02871123726004683,0.9995834456635125,185.38139678973778,19.396630664247112,50.14164714198247,-3.3717049301375552,-116.3880615234375,4381.2578125,True
1599566532.2155025,0.0,10,0.5,0.5,1.6139376968383792,-0.05075,-0.001,-0.37525,0.2916694157435018,10,1,100,-0.30692751253045447,-10,-1,-100,6487.549528542557,0.005560225921017874,0.028496349052963624,0.9995784321294447,186.13139290547807,19.477735588906235,56.07076232660627,-3.754563800676795,-116.98950958251953,4381.2578125,True
1599566532.2813258,0.0,10,0.5,0.5,1.5386102321624757,-0.05075,-0.001,-0.37525,0.26230897459285607,10,1,100,-0.45670282212844904,-10,-1,-100,6487.336678286549,0.009280290158315947,0.02803179560177517,0.9995639522561416,186.7873842058362,19.55129124127668,64.89460998662221,-4.328983361411317,-117.33768463134766,4381.2578125,True
1599566532.3781004,0.0,10,0.5,0.5,1.3960444858551029,-0.05075,-0.001,-0.37525,0.28844958381647257,10,1,100,-0.21666772001529813,-10,-1,-100,6487.244410339277,0.010450995541262616,0.02784635581947941,0.9995575807124728,186.8915880576178,19.564109927301935,67.80957383951292,-4.52048619565714,-117.30592346191406,4381.2578125,True
1599566532.4499094,0.0,10,0.5,0.5,1.17915703125,-0.05075,-0.001,-0.37525,0.24614605833797654,10,1,100,-0.45246480828803515,-10,-1,-100,6486.906580738141,0.013631959454935668,0.027293185435661442,0.9995345175181262,186.91961485614794,19.573739587886173,76.46249997259957,-5.095063631716851,-116.76568603515625,4381.2578125,True
1599566532.5077198,0.0,10,0.5,0.5,1.0722222557067873,-0.05075,-0.001,-0.37525,0.25218349579380456,10,1,100,-0.3538684168948698,-10,-1,-100,6486.722544117598,0.015599233022348488,0.026845916288893417,0.9995178641263619,186.68589171232242,19.554679225859328,82.1258142918528,-5.478159659866453,-116.03609466552734,4381.2578125,True
1599566532.5691369,0.0,10,0.5,0.5,1.3468250194549563,-0.05075,-0.001,-0.37525,0.29674413895859436,10,1,100,-0.16011021663643704,-10,-1,-100,6486.722544117598,0.015599233022348488,0.026845916288893417,0.9995178641263619,186.68589171232242,19.554679225859328,82.1258142918528,-5.478159659866453,-116.03609466552734,4381.2578125,True
1599566532.638951,0.0,10,0.5,0.5,0.9103081317901612,-0.05075,-0.001,-0.37525,0.24589305879320433,10,1,100,-0.3582553506172147,-10,-1,-100,6486.476007581805,0.01737810075206797,0.02638548129570612,0.9995007793849112,186.1834120564359,19.50838350316077,87.65160198143954,-5.861280443286763,-115.0102310180664,4381.2578125,True
1599566532.706003,0.0,10,0.5,0.5,0.043676282119751164,-0.05075,-0.001,-0.37525,0.17370000348632753,10,1,100,-0.5297407061161744,-10,-1,-100,6485.981465156539,0.02053305830211925,0.02531295246129684,0.9994686828282585,184.1707441720654,19.313394463212983,98.08375875381634,-6.627571540668666,-112.07171630859375,4381.2578125,True
1599566532.7713416,0.0,10,0.5,0.5,1.14613133392334,-0.05075,-0.001,-0.37525,0.2805868538961873,10,1,100,-0.2165817543606001,-10,-1,-100,6485.981465156539,0.02053305830211925,0.02531295246129684,0.9994686828282585,184.1707441720654,19.313394463212983,98.08375875381634,-6.627571540668666,-112.07171630859375,4381.2578125,True
1599566532.8429387,0.0,10,0.5,0.5,0.3364604789733887,-0.05075,-0.001,-0.37525,0.21782341194751903,10,1,100,-0.3627946760649486,-10,-1,-100,6485.734431549674,0.021845005755317774,0.024745549489823652,0.9994550782821592,182.8363829278732,19.183234626488765,103.02699177265673,-7.010735825842767,-110.1719970703125,4381.2578125,True
1599566532.9003057,0.0,10,0.5,0.5,-0.7645345863342283,-0.05075,-0.001,-0.37525,0.13441702091428248,10,1,100,-0.4759106795982686,-10,-1,-100,6485.114368020208,0.024048819446426006,0.023475093858882443,0.9994351275853526,179.1983063723681,18.82432152829617,112.07082153908853,-7.77711075935043,-105.91555786132812,4381.2578125,True
1599566532.980156,0.0,10,0.5,0.5,-0.21801083984374992,-0.05075,-0.001,-0.37525,0.184116986593317,10,1,100,-0.3539908641319789,-10,-1,-100,6484.804811939248,0.024927116667262304,0.022776516841649004,0.9994297719876162,176.70893838787993,18.575484551473803,115.9898300633772,-8.160337062539874,-103.45171356201172,4381.2578125,True
1599566533.037963,0.0,10,0.5,0.5,0.17830684852600104,-0.05075,-0.001,-0.37525,0.21604995695719925,10,1,100,-0.30710419810676537,-10,-1,-100,6484.587530622375,0.025285101880057954,0.022436524082708558,0.9994284696815482,175.26383977995943,18.43009035046086,117.75843736679644,-8.351964612418183,-102.21497344970703,4381.2578125,True
1599566533.0978048,0.0,10,0.5,0.5,0.13155785102844247,-0.05075,-0.001,-0.37525,0.20994588975587852,10,1,100,-0.3088585384152093,-10,-1,-100,6484.432258667424,0.02561300597964095,0.022076866265238665,0.9994281294323237,173.8666786593786,18.289723641016224,119.51631433603754,-8.543603481712116,-101.01937103271484,4381.2578125,True
1599566533.1616325,0.0,10,0.5,0.5,-0.857066146469116,-0.05075,-0.001,-0.37525,0.11599082753307143,10,1,100,-0.3656198327148388,-10,-1,-100,6483.903925839462,0.026416220521508754,0.02090050979203181,0.9994325149722677,170.01297070280143,17.90363125420228,124.78478753864674,-9.118594669324448,-97.64918518066406,4381.2578125,True
1599566533.2264924,0.0,10,0.5,0.5,-0.5490439575195312,-0.05075,-0.001,-0.37525,0.14048713976657898,10,1,100,-0.325250482057298,-10,-1,-100,6483.528904903214,0.026769587837684423,0.0200591934789637,0.9994403523592461,167.41644396805322,17.642399446417695,128.08280097137646,-9.501991437599678,-95.40786743164062,4381.2578125,True
1599566533.2892897,0.0,10,0.5,0.5,-0.19295543212890623,-0.05075,-0.001,-0.37525,0.17536999449675128,10,1,100,-0.3048075884500012,-10,-1,-100,6483.312093793182,0.026894831497036573,0.019617647076276015,0.9994457543868684,166.22282313080484,17.522353821863103,129.75485541447262,-9.69371174230635,-94.2742919921875,4381.2578125,True
1599566533.3665152,0.0,10,0.5,0.5,-1.1103984489440917,-0.05075,-0.001,-0.37525,0.06859449652281471,10,1,100,-0.3110194270957288,-10,-1,-100,6482.721215267316,0.02705650905618608,0.01825170748699636,0.9994672683442423,162.50753792313031,17.14558813376186,134.44472095930038,-10.268962212667015,-91.12700653076172,4381.2578125,True
1599566533.44032,0.0,10,0.5,0.5,-0.33978038597106935,-0.05075,-0.001,-0.37525,0.15074765542160615,10,1,100,-0.2949809633509186,-10,-1,-100,6482.502930023824,0.02705175402977457,0.017763210436707776,0.999476198295334,161.32588109890165,17.025056563360007,135.98131657851027,-10.460740360611144,-90.16854095458984,4381.2578125,True
1599566533.5196216,0.0,10,0.5,0.5,-1.1356025623321533,-0.05075,-0.001,-0.37525,0.029291287006716293,10,1,100,-0.2744689709958783,-10,-1,-100,6481.848548188573,0.026855032533693143,0.01622183680724151,0.9995077084436185,157.93100511830872,16.67618976272126,140.51129466720664,-11.036147209680323,-87.46127319335938,4381.2578125,True
1599566533.593458,0.0,10,0.5,0.5,-0.7696557334899902,-0.05075,-0.001,-0.37525,0.06247408486527495,10,1,100,-0.26393507668186045,-10,-1,-100,6481.411959208548,0.02657587756460225,0.015129998681606876,0.9995322935611264,155.90359576889844,16.465804325001443,143.5782135602374,-11.41980138059851,-85.94088745117188,4381.2578125,True
1599566533.6662288,0.0,10,0.5,0.5,-0.9893480552673339,-0.05075,-0.001,-0.37525,-0.016684251445579112,10,1,100,-0.22377090067911287,-10,-1,-100,6480.696029562852,0.02595467412165994,0.01342538377836515,0.9995729658017178,153.60003857225374,16.22439943674762,148.6641335698099,-11.995328730321543,-84.09060668945312,4381.2578125,True
1599566533.7290604,0.0,10,0.5,0.5,-0.5046621109008789,-0.05075,-0.001,-0.37525,0.0874259607254522,10,1,100,-0.25753875953134275,-10,-1,-100,6480.477728675818,0.02569599011086502,0.01283069137066685,0.9995874596308084,154.01847301691512,16.26836183248058,151.48059831173538,-12.187173455961922,-83.60305786132812,4381.2578125,True
1599566533.7968802,0.0,10,0.5,0.5,-0.7832678703308105,-0.05075,-0.001,-0.37525,-0.05166511866912238,10,1,100,-0.1825277511996731,-10,-1,-100,6479.697823847877,0.024778531036008272,0.01103433012618321,0.9996320662915751,157.48478786584118,16.63175556434542,162.29471408876233,-12.762664320494554,-82.52395629882812,4381.2578125,True
1599566533.8617425,0.0,10,0.5,0.5,-0.38018455047607425,-0.05075,-0.001,-0.37525,0.12686675216533602,10,1,100,-0.27419021119098463,-10,-1,-100,6479.697823847877,0.024778531036008272,0.01103433012618321,0.9996320662915751,157.48478786584118,16.63175556434542,162.29471408876233,-12.762664320494554,-82.52395629882812,4381.2578125,True
1599566534.0502384,0.0,10,0.5,0.5,-0.5664730133056641,-0.05075,-0.001,-0.37525,-0.013990658879270923,10,1,100,-0.19273308324668492,-10,-1,-100,6479.198229797999,0.024039500499683276,0.009762777461837555,0.9996633386255376,159.19291944852688,16.80910830180917,169.05175874656936,-13.14628632763333,-82.0902099609375,4381.2578125,True
1599566534.1250043,0.0,10,0.5,0.5,-0.5070432968139649,-0.05075,-0.001,-0.37525,-0.312674236067636,10,1,100,0.036155634717604634,-10,-1,-100,6477.5119479170535,0.021289329928201556,0.005900875625281027,0.999755942266943,162.26965782416337,17.122130576712355,187.6326613486067,-14.29696074379936,-81.85076904296875,4381.2578125,True
1599566534.2157614,0.0,10,0.5,0.5,-0.34199257354736334,-0.05075,-0.001,-0.37525,-0.07435346373205301,10,1,100,-0.119187517651895,-10,-1,-100,6476.949856509105,0.020206481249821658,0.004569078041872207,0.9997853877914737,162.8060775038425,17.174679078166164,193.38610276394883,-14.680455140181813,-82.03021240234375,4381.2578125,True
1599566534.29455,0.0,10,0.5,0.5,-0.3489150703430176,-0.05075,-0.001,-0.37525,-0.008050459913306121,10,1,100,-0.16777533227328983,-10,-1,-100,6476.669544852455,0.019670008064040217,0.003973546300257455,0.9997986305814587,162.98538487971348,17.19165989998063,196.17080420240237,-14.8721905677283,-82.17416381835938,4381.2578125,True
1599566534.3768816,0.0,10,0.5,0.5,-0.3264703750610352,-0.05075,-0.001,-0.37525,-0.01569538113627427,10,1,100,-0.15929430847130915,-10,-1,-100,6476.324782798416,0.019111915629644295,0.0033751905823411065,0.9998116536475748,163.0957968224876,17.20147409383232,198.87871647203977,-15.06391828037026,-82.35552978515625,4381.2578125,True
1599566534.4527087,0.0,10,0.5,0.5,0.05154124450683589,-0.05075,-0.001,-0.37525,-0.22621787153637557,10,1,100,0.053654969965927585,-10,-1,-100,6475.075143950526,0.01667569553704044,0.000929068786257051,0.9998605192773373,162.92498973161182,17.17781464980096,208.97576527771386,-15.830755622343322,-83.40383911132812,4381.2578125,True
1599566534.5224915,0.0,10,0.5,0.5,-0.20241328887939458,-0.05075,-0.001,-0.37525,-0.04750752313147831,10,1,100,-0.11875704785509093,-10,-1,-100,6474.792400086415,0.016037332143980343,0.000342871166130021,0.9998713349311836,162.7376703296655,17.157226360375088,211.31297564687853,-16.022447142030966,-83.73171997070312,4381.2578125,True
1599566534.599328,0.0,10,0.5,0.5,0.13071366424560538,-0.05075,-0.001,-0.37525,-0.1711934614792198,10,1,100,0.029999318807849285,-10,-1,-100,6473.824062072439,0.014113686946060506,-0.0013025601893174423,0.9998995485436233,164.22137250287898,17.312943537058825,221.0527003657986,-16.597459226577794,-84.8026123046875,4381.2578125,True
1599566534.6631536,0.0,10,0.5,0.5,-0.11360881652832033,-0.05075,-0.001,-0.37525,-0.07098973558948252,10,1,100,-0.08506067309970611,-10,-1,-100,6473.479801020119,0.01342144787726098,-0.0018746155029448117,0.9999081710605201,165.36796626920236,17.43423379886784,225.22214041162465,-16.78909883690307,-85.172119140625,4381.2578125,True
1599566534.7259858,0.0,10,0.5,0.5,0.2319417358398437,-0.05075,-0.001,-0.37525,-0.18699456701318778,10,1,100,0.07119361302313287,-10,-1,-100,6472.448494844371,0.011381970743743555,-0.0034375197595223517,0.999929314601733,168.880465470156,17.807848428787764,238.06224375183052,-17.363910596908237,-86.30813598632812,4381.2578125,True
1599566534.7918835,0.0,10,0.5,0.5,-0.19397016754150392,-0.05075,-0.001,-0.37525,-0.03215132634400434,10,1,100,-0.13141444429938323,-10,-1,-100,6472.448494844371,0.011381970743743555,-0.0034375197595223517,0.999929314601733,168.880465470156,17.807848428787764,238.06224375183052,-17.363910596908237,-86.30813598632812,4381.2578125,True
1599566535.3216898,0.0,10,0.5,0.5,0.12992977447509763,-0.05075,-0.001,-0.37525,-0.14593850029256156,10,1,100,0.026803267372645184,-10,-1,-100,6471.69797755254,0.00995513475559415,-0.004459948343398908,0.9999405003062793,171.20553406532423,18.05694982569788,246.7937559083075,-17.747023722613786,-87.06747436523438,4381.2578125,True
1599566535.374549,0.0,10,0.5,0.5,0.004791700744628896,-0.05075,-0.001,-0.37525,-0.09557361368529124,10,1,100,-0.03962344644469849,-10,-1,-100,6471.354215310421,0.009272194160318369,-0.004922147337794521,0.9999448979223996,172.37486044214353,18.18276379667635,251.22775047561038,-17.9385499692271,-87.44137573242188,4381.2578125,True
1599566535.429402,0.0,10,0.5,0.5,0.018497093200683587,-0.05075,-0.001,-0.37525,-0.10023582512161248,10,1,100,-0.030825121701800032,-10,-1,-100,6471.010455164942,0.008581294564304493,-0.005376083595411937,0.9999487282399913,173.52721653055505,18.307149858897333,255.67591414700274,-18.130055566487165,-87.8016357421875,4381.2578125,True
1599566535.4842548,0.0,10,0.5,0.5,0.19165883178710935,-0.05075,-0.001,-0.37525,-0.15719936770255477,10,1,100,0.06070605880570634,-10,-1,-100,6470.259951252723,0.00713118303013249,-0.006298103644076637,0.9999547390352621,175.7859174791799,18.552129136156385,264.61902987124796,-18.51300310853788,-88.52413940429688,4381.2578125,True
1599566535.557062,0.0,10,0.5,0.5,0.37510724334716794,-0.05075,-0.001,-0.37525,-0.20718075215156556,10,1,100,0.1571232888313497,-10,-1,-100,6469.101736459066,0.004947271119378922,-0.0075818860067388095,0.9999590189168015,179.12461382143383,18.917054035493916,278.24229998846795,-19.08725851299915,-89.58975219726562,4381.2578125,True
1599566535.6178985,0.0,10,0.5,0.5,0.27195375518798826,-0.05075,-0.001,-0.37525,-0.16672718616752202,10,1,100,0.10011596279528441,-10,-1,-100,6468.351737373392,0.003490807277583237,-0.00837346395949221,0.9999588488362257,181.32609415163952,19.159544082776865,287.473958066169,-19.469979956022378,-90.28482055664062,4381.2578125,True
1599566535.6787353,0.0,10,0.5,0.5,0.15255395050048828,-0.05075,-0.001,-0.37525,-0.12969048078076953,10,1,100,0.035529921332648345,-10,-1,-100,6467.944025543751,0.002765301002762394,-0.008748459017456078,0.9999579079017197,182.4073999366914,19.279260265387684,292.1146149038364,-19.661304968718788,-90.61526489257812,4381.2578125,True
1599566535.739573,0.0,10,0.5,0.5,0.28109519195556637,-0.05075,-0.001,-0.37525,-0.1692434224139336,10,1,100,0.11920991277411178,-10,-1,-100,6467.1320230769925,0.0013553393634058674,-0.009442166813335505,0.9999545032355618,184.49001337969887,19.511230361845413,301.37550335223426,-20.043883161187445,-91.20671844482422,4381.2578125,True
1599566535.7964213,0.0,10,0.5,0.5,0.368068786239624,-0.05075,-0.001,-0.37525,-0.2058463323683854,10,1,100,0.21276491212871693,-10,-1,-100,6465.911343554151,-0.00076597474967479,-0.010398684398893281,0.9999456388451601,187.3232884079231,19.830641146684044,315.04471527843197,-20.61757143709888,-91.93045806884766,4381.2578125,True
1599566535.8752105,0.0,10,0.5,0.5,0.2689369304656982,-0.05075,-0.001,-0.37525,-0.17210381721191098,10,1,100,0.1523610263722054,-10,-1,-100,6465.097400468774,-0.002134272304240357,-0.010955167371032973,0.9999377126549454,189.0686296377284,20.029675128786565,324.0742995302146,-20.99991215473844,-92.33395385742188,4381.2578125,True
1599566535.9320586,0.0,10,0.5,0.5,0.19180148468017577,-0.05075,-0.001,-0.37525,-0.14512972497364926,10,1,100,0.09029520027669884,-10,-1,-100,6464.69018601242,-0.002801656895660827,-0.01120900773661985,0.9999332522044657,189.9024123890111,20.125421839833272,328.5673101996153,-21.191047332411294,-92.50689697265625,4381.2578125,True
1599566535.9969213,0.0,10,0.5,0.5,0.2851281951904297,-0.05075,-0.001,-0.37525,-0.19327575782065293,10,1,100,0.23527631094936358,-10,-1,-100,6463.407511140918,-0.00471478317429343,-0.011871327404495934,0.9999184178748158,192.20007143846425,20.392269478109384,341.85909749612824,-21.764314193165944,-92.87703704833984,4381.2578125,True
1599566536.0586936,0.0,10,0.5,0.5,0.22583591728210448,-0.05075,-0.001,-0.37525,-0.1869905684869392,10,1,100,0.2484091987621671,-10,-1,-100,6462.062829671428,-0.006560663337407999,-0.012409980672197975,0.9999014701840822,194.18020660824953,20.626844169614674,354.8145607173525,-22.337379302426722,-93.0626220703125,4381.2578125,True
1599566536.1185331,0.0,10,0.5,0.5,0.1680804130554199,-0.05075,-0.001,-0.37525,-0.14928569014210744,10,1,100,0.12682841904405862,-10,-1,-100,6461.593606933369,-0.007119690981073246,-0.012550499387813373,0.999895892063494,194.78697275152186,20.699624041107832,359.0823956438009,-22.528357403535928,-93.08928680419922,4381.2578125,True
1599566536.182364,0.0,10,0.5,0.5,0.15608039436340335,-0.05075,-0.001,-0.37525,-0.16241253605775424,10,1,100,0.1920362049189422,-10,-1,-100,6460.716684921528,-0.00820774064325768,-0.012791894641475308,0.9998844935416361,195.91009771984315,20.83585883139025,367.51491876213066,-22.910249651498834,-93.08353424072266,4381.2578125,True
1599566536.2432005,0.0,10,0.5,0.5,0.12725399513244628,-0.05075,-0.001,-0.37525,-0.15954503382337332,10,1,100,0.20003049859679806,-10,-1,-100,6459.778238824452,-0.009257592995258003,-0.012980540298460208,0.9998728931946771,196.91271106120843,20.959551002144448,375.80046704669553,-23.292058235498565,-93.00997924804688,4381.2578125,True
1599566536.2990909,0.0,10,0.5,0.5,0.1008509834289551,-0.05075,-0.001,-0.37525,-0.15529544710704818,10,1,100,0.20428742097974079,-10,-1,-100,6458.8388154793065,-0.010239114063946102,-0.013109215492535372,0.999861644935116,197.8117427900294,21.07238283215187,383.96047450389926,-23.67378502164833,-92.882568359375,4381.2578125,True
1599566536.3818681,0.0,10,0.5,0.5,0.07457785873413088,-0.05075,-0.001,-0.37525,-0.15058816448666945,10,1,100,0.20724870481393406,-10,-1,-100,6457.83835614589,-0.011146504511185488,-0.01317943513925928,0.9998510178654578,198.62195902478135,21.17582578390833,392.0142946774576,-24.055431745188457,-92.7081298828125,4381.2578125,True
1599566536.460659,0.0,10,0.5,0.5,-0.0014640319824218706,-0.05075,-0.001,-0.37525,-0.14434655803385435,10,1,100,0.2547793396449972,-10,-1,-100,6456.366227877908,-0.012392136285435874,-0.013183131788231854,0.9998363065995041,199.6900634698234,21.315239014241776,403.91657758350914,-24.62775394717766,-92.37561798095703,4381.2578125,True
1599566536.5524125,0.0,10,0.5,0.5,0.06984556541442873,-0.05075,-0.001,-0.37525,-0.14149522051162838,10,1,100,0.17330559177836433,-10,-1,-100,6455.897001368459,-0.01277328913457069,-0.013158039812196378,0.9998318403976667,200.0098852759856,21.357792363281508,407.83891024648966,-24.818488991757498,-92.25000762939453,4381.2578125,True
1599566536.6212509,0.0,10,0.5,0.5,0.06088834877014162,-0.05075,-0.001,-0.37525,-0.13996289043737792,10,1,100,0.17634948988320542,-10,-1,-100,6455.365763166803,-0.013137791692164232,-0.013119296040178974,0.9998276263941017,200.3142226015773,21.398651055007747,411.7426540853335,-25.009204693929153,-92.11835479736328,4381.2578125,True
1599566536.699567,0.0,10,0.5,0.5,-0.004395836257934549,-0.05075,-0.001,-0.37525,-0.1314094530257488,10,1,100,0.2130321434565476,-10,-1,-100,6454.3633415712975,-0.013793239836282832,-0.013004579281599652,0.9998202975797836,200.88128714524686,21.475770537695244,419.5015635542408,-25.390578217591962,-91.84922790527344,4381.2578125,True
1599566536.778356,0.0,10,0.5,0.5,-0.1515288162231445,-0.05075,-0.001,-0.37525,-0.10097412454583805,10,1,100,0.2764473188001878,-10,-1,-100,6452.298431333038,-0.014957350237094661,-0.012622576285912804,0.9998084557763006,201.87916944311067,21.61468119727043,434.8717778965273,-26.153094865043226,-91.26702117919922,4381.2578125,True
1599566536.8551502,0.0,10,0.5,0.5,0.0010992313385009833,-0.05075,-0.001,-0.37525,-0.12548463554157493,10,1,100,0.18742601380059862,-10,-1,-100,6451.766209928552,-0.015198714477018526,-0.012497930393782627,0.9998063816630289,202.09381262762432,21.645482513115414,438.6665035583369,-26.343676659109715,-91.11287689208984,4381.2578125,True
1599566536.9179828,0.0,10,0.5,0.5,-0.007177991867065421,-0.05075,-0.001,-0.37525,-0.12281193840307628,10,1,100,0.1891154500661486,-10,-1,-100,6451.23447685549,-0.015426150458003452,-0.012360366489672507,0.9998046085222292,202.2986761320671,21.675144226158483,442.4498537377271,-26.534239537538095,-90.9581298828125,4381.2578125,True
1599566536.9848049,0.0,10,0.5,0.5,-0.12929397659301756,-0.05075,-0.001,-0.37525,-0.08498917100695794,10,1,100,0.22923431325681892,-10,-1,-100,6449.637805555132,-0.015991065188073347,-0.011891857353382052,0.9998014150634303,202.89754296480626,21.76188497838668,453.8230947028268,-27.105814379068505,-90.53565979003906,4381.2578125,True
1599566537.0544355,0.0,10,0.5,0.5,-0.028107650756835936,-0.05075,-0.001,-0.37525,-0.1118176491878802,10,1,100,0.19139426118131006,-10,-1,-100,6449.10509198904,-0.01615450222182061,-0.01171082492471282,0.9998009245032472,203.0991012161713,21.790830986476557,457.63769191597214,-27.29630065049491,-90.40162658691406,4381.2578125,True
1599566537.1262434,0.0,10,0.5,0.5,-0.09129078826904295,-0.05075,-0.001,-0.37525,-0.08676744458899706,10,1,100,0.20516853582241085,-10,-1,-100,6447.979115084163,-0.016422924396366428,-0.01131979212099442,0.9998010551407758,203.47903213335348,21.84596983469143,465.24292480378426,-27.677214944803268,-90.13582611083984,4381.2578125,True
1599566537.2050326,0.0,10,0.5,0.5,-0.14480588645935058,-0.05075,-0.001,-0.37525,-0.05431313391051888,10,1,100,0.2084606930747845,-10,-1,-100,6446.319439846557,-0.016692076511988584,-0.010670959150553586,0.9998037333459628,204.02577187976016,21.925522277560752,476.6667052437795,-28.248439779874346,-89.77667236328125,4381.2578125,True
1599566537.2758427,0.0,10,0.5,0.5,-0.1027138084411621,-0.05075,-0.001,-0.37525,-0.06593395864444906,10,1,100,0.193703668087438,-10,-1,-100,6445.201267170021,-0.016798696444281436,-0.0101890386501319,0.9998069750152572,204.39127057177333,21.978256772187443,484.33052624931526,-28.629156947090078,-89.55972290039062,4381.2578125,True
1599566537.349646,0.0,10,0.5,0.5,-0.06405814666748047,-0.05075,-0.001,-0.37525,-0.08612160185935738,10,1,100,0.18651866435641667,-10,-1,-100,6444.595793602057,-0.016826645978529554,-0.009937152225485957,0.9998090402625697,204.57176155121988,22.00426619128591,488.1707983128143,-28.819485394731704,-89.45999145507812,4381.2578125,True
1599566537.4134753,0.0,10,0.5,0.5,-0.13079966049194336,-0.05075,-0.001,-0.37525,-0.024198712687329774,10,1,100,0.18342902238943193,-10,-1,-100,6442.81403417734,-0.01682061348788583,-0.009148122068620933,0.9998166726077881,205.14034638006115,22.084820948738415,499.81237987975027,-29.390347822455446,-89.21609497070312,4381.2578125,True
1599566537.4792993,0.0,10,0.5,0.5,-0.11444963150024415,-0.05075,-0.001,-0.37525,-0.007987895529264571,10,1,100,0.16948787665762088,-10,-1,-100,6441.031782330712,-0.016685639559146342,-0.008286956731136663,0.9998264428292735,205.76037195655363,22.170503601006217,511.6669300550217,-29.96102127576001,-89.04025268554688,4381.2578125,True
1599566537.5521047,0.0,10,0.5,0.5,-0.08324278869628907,-0.05075,-0.001,-0.37525,-0.029913945494590095,10,1,100,0.16553890468526722,-10,-1,-100,6439.8432858421,-0.01652546507025082,-0.007707348350885537,0.9998337390714569,206.1851494768603,22.228717276804105,519.6490759525817,-30.341363007502785,-88.95913696289062,4381.2578125,True
1599566537.618926,0.0,10,0.5,0.5,-0.053019487762451176,-0.05075,-0.001,-0.37525,-0.08739572531541301,10,1,100,0.18168902863414282,-10,-1,-100,6439.8432858421,-0.01652546507025082,-0.007707348350885537,0.9998337390714569,206.1851494768603,22.228717276804105,519.6490759525817,-30.341363007502785,-88.95913696289062,4381.2578125,True
1599566537.6837518,0.0,10,0.5,0.5,-0.07287612533569335,-0.05075,-0.001,-0.37525,-0.021324660210979632,10,1,100,0.15895768358705975,-10,-1,-100,6438.596194823622,-0.016317817101993475,-0.0071109323209714035,0.9998415691931158,206.6399421302671,22.2901317404662,527.7490241582265,-30.721617081575722,-88.91299438476562,4381.2578125,True
1599566537.7555945,0.0,10,0.5,0.5,-0.0630426643371582,-0.05075,-0.001,-0.37525,0.022673716946442546,10,1,100,0.13497894775227787,-10,-1,-100,6436.743621639092,-0.015910760666976127,-0.006173096978738727,0.999854359678793,207.4100618442424,22.3918355047987,540.2091290253667,-31.2918291670167,-88.89581298828125,4381.2578125,True
1599566537.8333526,0.0,10,0.5,0.5,-0.051051712799072266,-0.05075,-0.001,-0.37525,-0.000386128413726719,10,1,100,0.13941552403635593,-10,-1,-100,6435.491156403441,-0.015581263457320015,-0.005535188650843263,0.9998632836121512,208.02227418024543,22.47045610048243,548.8357578028706,-31.67185364807225,-88.9091796875,4381.2578125,True
1599566537.900195,0.0,10,0.5,0.5,-0.05002799987792969,-0.05075,-0.001,-0.37525,-0.02845527781053235,10,1,100,0.1524279674707315,-10,-1,-100,6434.831964830519,-0.015400780626071552,-0.00521570480497303,0.9998677974509905,208.32936325641262,22.509937122925116,553.1719963727139,-31.861830198470287,-88.92364501953125,4381.2578125,True
1599566537.977003,0.0,10,0.5,0.5,-0.011001745605468759,-0.05075,-0.001,-0.37525,0.08131901070076034,10,1,100,0.08102766848039009,-10,-1,-100,6432.270881510689,-0.014588785603102497,-0.003932276189847958,0.9998858457537008,209.58674785816027,22.671570186236696,570.732097534692,-32.62149341472438,-89.0281982421875,4381.2578125,True
1599566538.0418766,0.0,10,0.5,0.5,-0.034869915771484385,-0.05075,-0.001,-0.37525,-0.010231531360598185,10,1,100,0.136768574782262,-10,-1,-100,6431.602900450118,-0.014359352831185081,-0.0036034885243468643,0.9998904059229312,209.90561775992467,22.712637757991526,575.1692437318994,-32.811347965634674,-89.06439208984375,4381.2578125,True
1599566538.1016846,0.0,10,0.5,0.5,-0.031460577392578126,-0.05075,-0.001,-0.37525,-0.006370797032048542,10,1,100,0.13328724246229712,-10,-1,-100,6430.947615735815,-0.0141213721021217,-0.0032752509379055453,0.999894924270169,210.22529545258155,22.753869835284906,579.6226922587244,-33.00117775599617,-89.1043701171875,4381.2578125,True
1599566538.185963,0.0,10,0.5,0.5,-0.009773126220703136,-0.05075,-0.001,-0.37525,0.028072624574571325,10,1,100,0.10516537458860037,-10,-1,-100,6429.634604491293,-0.01365182649629026,-0.0026690700911993614,0.9999032471685265,210.86428394293074,22.836544235312886,588.5709216007361,-33.38076217654229,-89.19052124023438,4381.2578125,True
1599566538.97537,0.0,10,0.5,0.5,-0.0022268112182617233,-0.05075,-0.001,-0.37525,0.03901605714728143,10,1,100,0.0940161705105808,-10,-1,-100,6428.259582491475,-0.013126368465791368,-0.002023618013205409,0.9999117978207062,211.5047192726232,22.919722187245195,597.5798164678554,-33.76024604615866,-89.28408813476562,4381.2578125,True
1599566539.0561514,0.0,10,0.5,0.5,0.006792362976074218,-0.05075,-0.001,-0.37525,0.04381316006020221,10,1,100,0.0864235670210109,-10,-1,-100,6426.87723688921,-0.01258274576689125,-0.0013984003979458817,0.9999198562811386,212.13949856549092,23.002656050256267,606.6293444871301,-34.139628686434506,-89.38760375976562,4381.2578125,True
1599566539.129953,0.0,10,0.5,0.5,0.06286853485107421,-0.05075,-0.001,-0.37525,0.11464138291573467,10,1,100,0.014860373043088376,-10,-1,-100,6424.126709462726,-0.011441553112913082,-0.0001918632198895978,0.9999345248819389,213.39199815787225,23.1678564610758,624.848137302133,-34.898086736136754,-89.61032104492188,4381.2578125,True
1599566539.2032685,0.0,10,0.5,0.5,-0.02063639373779297,-0.05075,-0.001,-0.37525,-0.005320427979785542,10,1,100,0.12849201204199712,-10,-1,-100,6424.126709462726,-0.011441553112913082,-0.0001918632198895978,0.9999345248819389,213.39199815787225,23.1678564610758,624.848137302133,-34.898086736136754,-89.61032104492188,4381.2578125,True
1599566539.285563,0.0,10,0.5,0.5,0.07244055023193358,-0.05075,-0.001,-0.37525,0.11838445218370228,10,1,100,-0.0013118893421226602,-10,-1,-100,6421.303434392321,-0.01026558056174296,0.0009272891145431558,0.9999468775843187,214.60761803535632,23.33067748707836,643.1811678451245,-35.656132457138824,-89.82864379882812,4381.2578125,True
1599566539.3823037,0.0,10,0.5,0.5,0.011706675720214842,-0.05075,-0.001,-0.37525,0.03868565263948867,10,1,100,0.08071155386450979,-10,-1,-100,6420.590047717327,-0.009947014710644577,0.0012142908065660932,0.9999497899375664,214.90228914349984,23.370623545212393,647.7710544950725,-35.845579351093505,-89.878173828125,4381.2578125,True
1599566539.4571037,0.0,10,0.5,0.5,0.035155560302734375,-0.05075,-0.001,-0.37525,0.06758051152860688,10,1,100,0.0459447599475384,-10,-1,-100,6419.148627934861,-0.009346305597596695,0.00173203652047753,0.9999548222900712,215.48068388041864,23.44960585640135,656.9580039070382,-36.22439579356999,-89.97662353515625,4381.2578125,True
1599566539.5319045,0.0,10,0.5,0.5,0.01694660034179687,-0.05075,-0.001,-0.37525,0.04247476836878182,10,1,100,0.07376668125852451,-10,-1,-100,6418.424989530118,-0.0090578988522035,0.0019693310382983124,0.9999570371789205,215.76448176592717,23.488646478796092,661.5549249474781,-36.413765190766064,-90.02037811279297,4381.2578125,True
1599566539.6185925,0.0,10,0.5,0.5,0.060705050277709956,-0.05075,-0.001,-0.37525,0.1205048201422916,10,1,100,-0.02827440133194821,-10,-1,-100,6415.480145054753,-0.007872884200095373,0.0028893512346557988,0.9999648340535855,216.85663179190632,23.640925654267996,679.9397922027626,-37.17098546396756,-90.16141510009766,4381.2578125,True
1599566539.689402,0.0,10,0.5,0.5,0.03293856620788574,-0.05075,-0.001,-0.37525,0.0757235920568824,10,1,100,0.02462208906969461,-10,-1,-100,6413.980625487398,-0.007282155781741124,0.0033130269740474652,0.9999679965176085,217.37964625967774,23.714984546876693,689.1364461303226,-37.5494415458497,-90.22022247314453,4381.2578125,True
1599566539.759726,0.0,10,0.5,0.5,0.010974069595336915,-0.05075,-0.001,-0.37525,0.033954227824240436,10,1,100,0.08305796383366454,-10,-1,-100,6413.980625487398,-0.007282155781741124,0.0033130269740474652,0.9999679965176085,217.37964625967774,23.714984546876693,689.1364461303226,-37.5494415458497,-90.22022247314453,4381.2578125,True
1599566539.832041,0.0,10,0.5,0.5,0.03340252189636231,-0.05075,-0.001,-0.37525,0.07637712120253379,10,1,100,0.020442470907456073,-10,-1,-100,6412.414700103109,-0.006718236948488366,0.0036938381456799022,0.9999706099941424,217.89030311236945,23.78795829713753,698.3436298820824,-37.92779517092552,-90.27265167236328,4381.2578125,True
1599566539.8973813,0.0,10,0.5,0.5,0.03938242988586426,-0.05075,-0.001,-0.37525,0.09831368608865654,10,1,100,-0.017808143650941022,-10,-1,-100,6410.128559019766,-0.005863181975744433,0.0042348241292708465,0.9999738443387973,218.6393054173608,23.896007724053188,712.191687891862,-38.49513277181552,-90.3326644897461,4381.2578125,True
1599566539.9801593,0.0,10,0.5,0.5,0.03695560646057129,-0.05075,-0.001,-0.37525,0.09657580084420522,10,1,100,-0.023103216001619853,-10,-1,-100,6407.842420119443,-0.005042793498368475,0.004706806350904729,0.9999762078208201,219.3675647670537,24.002253624715195,726.080798518372,-39.06223881166289,-90.3796615600586,4381.2578125,True
1599566540.0479774,0.0,10,0.5,0.5,0.02424607200622559,-0.05075,-0.001,-0.37525,0.0650658960008403,10,1,100,0.02987448797716634,-10,-1,-100,6406.9937857521,-0.004784418336574338,0.004844974081476946,0.9999768175149514,219.6070405521496,24.037402914488165,730.7235382824401,-39.25122245165855,-90.39104461669922,4381.2578125,True
1599566540.1177912,0.0,10,0.5,0.5,0.02642056007385254,-0.05075,-0.001,-0.37525,0.07976687731123883,10,1,100,-0.0002651021019573277,-10,-1,-100,6405.427376956912,-0.00428051842715597,0.0051006648621217355,0.9999778299442239,220.0844574513218,24.107654210895575,740.0395321475067,-39.62911241523206,-90.40604400634766,4381.2578125,True
1599566540.1806233,0.0,10,0.5,0.5,0.023181663894653322,-0.05075,-0.001,-0.37525,0.09089163300800701,10,1,100,-0.030154274870892422,-10,-1,-100,6403.023565937066,-0.003555859208224851,0.005430712101718932,0.9999789313937366,220.80078845733752,24.21330776995651,754.1035209955429,-40.19575330862544,-90.41152954101562,4381.2578125,True
1599566540.2534635,0.0,10,0.5,0.5,0.020500432586669923,-0.05075,-0.001,-0.37525,0.06855529424129393,10,1,100,0.016512773523277346,-10,-1,-100,6402.233525839052,-0.003326588036770261,0.005524334989308772,0.9999792075513169,221.03872204607322,24.248489851748683,758.8125231858585,-40.38458192592518,-90.40996551513672,4381.2578125,True
1599566540.3152635,0.0,10,0.5,0.5,0.01776566581726074,-0.05075,-0.001,-0.37525,0.0767260814630034,10,1,100,-0.007612234509217303,-10,-1,-100,6400.606083458639,-0.0029040517268028943,0.005680494767359612,0.9999796490243018,221.51429015019272,24.31889234521454,768.2653342085016,-40.76216114898536,-90.4020767211914,4381.2578125,True
1599566540.388069,0.0,10,0.5,0.5,0.011038637161254888,-0.05075,-0.001,-0.37525,0.08160974932890473,10,1,100,-0.032029683058292104,-10,-1,-100,6398.1353797544725,-0.0023024681240894195,0.005864317779338839,0.9999801540118286,222.24037920995727,24.426042521113615,782.5793071866331,-41.328334801424184,-90.37928009033203,4381.2578125,True
1599566540.454891,0.0,10,0.5,0.5,0.015331818008422851,-0.05075,-0.001,-0.37525,0.06829969020451,10,1,100,0.0076819048680464574,-10,-1,-100,6397.286746286089,-0.0021211153642781127,0.0059081097156388285,0.9999802973605026,222.4847820804682,24.462052395893643,787.383401511617,-41.51700718555066,-90.3692398071289,4381.2578125,True
1599566540.524705,0.0,10,0.5,0.5,0.00394926643371582,-0.05075,-0.001,-0.37525,0.0734403396202174,10,1,100,-0.028955697551746463,-10,-1,-100,6394.809694699477,-0.0016278719610128645,0.005992294577198349,0.99998072103345,223.23284634356392,24.571791617122923,801.9229580286494,-42.08286726962287,-90.3336410522461,4381.2578125,True
1599566540.5885665,0.0,10,0.5,0.5,0.017313798141479493,-0.05075,-0.001,-0.37525,0.06525169910741724,10,1,100,0.019859606276030808,-10,-1,-100,6394.809694699477,-0.0016278719610128645,0.005992294577198349,0.99998072103345,223.23284634356392,24.571791617122923,801.9229580286494,-42.08286726962287,-90.3336410522461,4381.2578125,True
1599566540.655357,0.0,10,0.5,0.5,0.005577705001831057,-0.05075,-0.001,-0.37525,0.06791025216342678,10,1,100,-0.01390084921800407,-10,-1,-100,6393.119264787878,-0.0013248090110804852,0.006014865540936683,0.99998103295693,223.7486638141644,24.646888826027734,811.7408063733244,-42.459975795428136,-90.30609130859375,4381.2578125,True
1599566540.7211778,0.0,10,0.5,0.5,-0.0030593231201171862,-0.05075,-0.001,-0.37525,0.06280369093796467,10,1,100,-0.02522464622651408,-10,-1,-100,6390.517700257362,-0.0009497336151439475,0.005987772170294575,0.9999816221263754,224.54684437116782,24.762295518184146,826.6545323628005,-43.02543995168235,-90.26156616210938,4381.2578125,True
1599566540.7899945,0.0,10,0.5,0.5,-0.007584256744384763,-0.05075,-0.001,-0.37525,0.05566502260938271,10,1,100,-0.021775871003302694,-10,-1,-100,6387.926878555212,-0.0006435945615230445,0.005897205941188443,0.9999824042192582,225.37657027870858,24.881249357849693,841.805716929615,-43.59066423635807,-90.21175384521484,4381.2578125,True
1599566540.8568149,0.0,10,0.5,0.5,0.003960868453979493,-0.05075,-0.001,-0.37525,0.060041438970961335,10,1,100,-0.0006156621702822496,-10,-1,-100,6387.081662437064,-0.0005609581602275302,0.005853934480670796,0.9999827082390168,225.6605055438878,24.921725214258554,846.9112032705896,-43.779018710693805,-90.19502258300781,4381.2578125,True
1599566540.9166927,0.0,10,0.5,0.5,-0.003452389526367186,-0.05075,-0.001,-0.37525,0.05271837282814474,10,1,100,-0.008127424063077274,-10,-1,-100,6385.262813146459,-0.0004202680518861964,0.005747638713102827,0.9999833938741123,226.24476069086498,25.00450708655751,857.2264504184702,-44.155646431124026,-90.16293334960938,4381.2578125,True
1599566540.983514,0.0,10,0.5,0.5,-0.010257064819335936,-0.05075,-0.001,-0.37525,0.040414419419825015,10,1,100,-0.010832685143556682,-10,-1,-100,6382.59874782234,-0.0002704167799214293,0.0055389490718528635,0.9999846233407516,227.16484636036836,25.13357768539093,872.9755271758825,-44.720383998478866,-90.1187515258789,4381.2578125,True
1599566541.0453854,0.0,10,0.5,0.5,0.006293832015991211,-0.05075,-0.001,-0.37525,0.06126922897527069,10,1,100,0.0038890785582318824,-10,-1,-100,6382.59874782234,-0.0002704167799214293,0.0055389490718528635,0.9999846233407516,227.16484636036836,25.13357768539093,872.9755271758825,-44.720383998478866,-90.1187515258789,4381.2578125,True
1599566541.1051915,0.0,10,0.5,0.5,-0.011201626968383787,-0.05075,-0.001,-0.37525,0.03285811748616141,10,1,100,-0.0035159196826882377,-10,-1,-100,6379.935169778764,-0.00020494593349867183,0.005280962029867766,0.9999860346210858,228.13151678113783,25.26790244972413,889.0416707178625,-45.28487413288318,-90.07774353027344,4381.2578125,True
1599566541.1979432,0.0,10,0.5,0.5,-0.011004345703124998,-0.05075,-0.001,-0.37525,0.02397744269038836,10,1,100,0.003492873548778264,-10,-1,-100,6377.1500097223325,-0.00021088525651929638,0.004966265082361351,0.9999876457929568,229.1488195690367,25.407961018907148,905.4495236253127,-45.84911392770117,-90.04215240478516,4381.2578125,True
1599566541.2712643,0.0,10,0.5,0.5,-0.002458854293823242,-0.05075,-0.001,-0.37525,0.04323815149534377,10,1,100,0.004992933429950642,-10,-1,-100,6376.249129393487,-0.00023120971882551627,0.004856207055123148,0.9999881818277171,229.49836487296224,25.455837567796618,910.9931633274535,-46.03713768397704,-90.03092956542969,4381.2578125,True
1599566541.3544416,0.0,10,0.5,0.5,-0.0026686698913574213,-0.05075,-0.001,-0.37525,0.04135548899976642,10,1,100,0.005951822545227897,-10,-1,-100,6375.337995331502,-0.00025967336946295245,0.00474007199633051,0.9999887320801224,229.85367285543097,25.504370861293747,916.5766819790481,-46.22513311816795,-90.02062225341797,4381.2578125,True
1599566541.4504335,0.0,10,0.5,0.5,-0.009506048965454102,-0.05075,-0.001,-0.37525,0.011274053194566327,10,1,100,0.01716502258579088,-10,-1,-100,6372.545998272835,-0.00038845590281266475,0.004362185975148662,0.9999904101717826,230.9517754234421,25.653663686995337,933.5604311884214,-46.78894855938332,-89.99555969238281,4381.2578125,True
1599566541.518823,0.0,10,0.5,0.5,-0.0058806396484375,-0.05075,-0.001,-0.37525,0.01853422335913742,10,1,100,0.018124475281702638,-10,-1,-100,6370.66171823442,-0.0005147634828319022,0.004086132581202306,0.9999915192335811,231.71165914218852,25.756398221456283,945.0847444563431,-47.16468187122197,-89.9820556640625,4381.2578125,True
1599566541.6025162,0.0,10,0.5,0.5,-0.005828410339355469,-0.05075,-0.001,-0.37525,0.014479186568796723,10,1,100,0.022836867215250415,-10,-1,-100,6368.704684215016,-0.0006725456014077261,0.003799957409847964,0.9999925539753269,232.49338268916136,25.86166496774423,956.7721251052759,-47.54029919581533,-89.9703369140625,4381.2578125,True
1599566541.6773162,0.0,10,0.5,0.5,-0.00354649658203125,-0.05075,-0.001,-0.37525,0.026766443961977405,10,1,100,0.01677550702325433,-10,-1,-100,6367.779390609707,-0.0007607791734210742,0.0036533677549827706,0.9999930370353066,232.8920162266769,25.915204000227675,962.6761195487284,-47.72806414321171,-89.96542358398438,4381.2578125,True
1599566541.7436318,0.0,10,0.5,0.5,-0.006181687927246094,-0.05075,-0.001,-0.37525,-0.009894974320475959,10,1,100,0.04199839203245675,-10,-1,-100,6364.822355644428,-0.0010699809106791082,0.0031887226943176734,0.999994343578217,234.11446534081495,26.078957603226044,980.614364098693,-48.29118224833307,-89.9549560546875,4381.2578125,True
1599566541.8209395,0.0,10,0.5,0.5,-0.0038301856994628902,-0.05075,-0.001,-0.37525,0.0006978463042469837,10,1,100,0.03773796722977508,-10,-1,-100,6362.85653358174,-0.0013116153880431624,0.0028647530324628257,0.9999950364152498,234.95323081665305,26.190941948044753,992.7718154726803,-48.666445898581735,-89.9512939453125,4381.2578125,True
1599566541.8867679,0.0,10,0.5,0.5,-0.0030967483520507816,-0.05075,-0.001,-0.37525,-0.0032805620029168064,10,1,100,0.04276754004915535,-10,-1,-100,6360.914637612877,-0.001576059939815649,0.0025364988971109206,0.9999955410942645,235.81124476772456,26.305215620820206,1005.0920383252248,-49.04158964014562,-89.9498291015625,4381.2578125,True
1599566541.9511023,0.0,10,0.5,0.5,-0.0021178405761718756,-0.05075,-0.001,-0.37525,-0.007482200988867541,10,1,100,0.048029826450141186,-10,-1,-100,6358.91024264181,-0.0018630565777938562,0.0022023842952212337,0.9999958392531462,236.6850231759946,26.42139984663199,1017.562668857221,-49.4166124645656,-89.95086669921875,4381.2578125,True
1599566542.5529523,0.0,10,0.5,0.5,-0.0019313056945800778,-0.05075,-0.001,-0.37525,0.006910832989517151,10,1,100,0.03632167878709742,-10,-1,-100,6357.938074559905,-0.002016022932363397,0.002032002130386052,0.9999959033010478,237.12706800229373,26.480127447520225,1023.851809557265,-49.604078190229856,-89.95223999023438,4381.2578125,True
1599566542.6187758,0.0,10,0.5,0.5,0.00045760726928710917,-0.05075,-0.001,-0.37525,-0.032620160899167694,10,1,100,0.0746481608693321,-10,-1,-100,6354.962489339872,-0.0025018832616164424,0.001520304040570331,0.9999957146187023,238.47365776112494,26.65884878257015,1042.9368386520646,-50.16629171066456,-89.95907592773438,4381.2578125,True
1599566542.671635,0.0,10,0.5,0.5,0.002371435546874999,-0.05075,-0.001,-0.37525,-0.03939155865153838,10,1,100,0.08516583474879086,-10,-1,-100,6351.923917883425,-0.00303715131448506,0.0009964928593124514,0.999994891343888,239.84841215370957,26.84111984310994,1062.3424022065462,-50.72822677975644,-89.9696044921875,4381.2578125,True
1599566542.756408,0.0,10,0.5,0.5,0.0002510650634765625,-0.05075,-0.001,-0.37525,-0.006806245969626212,10,1,100,0.052718206958213804,-10,-1,-100,6350.890715537942,-0.003226372295895219,0.0008195907126552497,0.9999944593810868,240.31366068832284,26.902753643790422,1068.8865521911425,-50.91547603822865,-89.97390747070312,4381.2578125,True
1599566542.8162503,0.0,10,0.5,0.5,0.0024577011108398434,-0.05075,-0.001,-0.37525,-0.02664409714536262,10,1,100,0.07527554398447675,-10,-1,-100,6348.821871091961,-0.0036009929712222414,0.00048139606124977824,0.9999934005319503,241.25403564548967,27.0272732243433,1082.0871235152442,-51.28988037010949,-89.98287963867188,4381.2578125,True
1599566542.8750925,0.0,10,0.5,0.5,0.0031743026733398435,-0.05075,-0.001,-0.37525,-0.03131525475174543,10,1,100,0.08202076931076502,-10,-1,-100,6346.754003751557,-0.004000215226876869,0.0001344981829582315,0.9999919900621091,242.19669823960356,27.152246259376657,1095.3898211124474,-51.664158289676536,-89.99246215820312,4381.2578125,True
1599566542.93493,0.0,10,0.5,0.5,0.003903828430175781,-0.05075,-0.001,-0.37525,-0.03464850283070094,10,1,100,0.08757333504540754,-10,-1,-100,6344.687113925349,-0.0044106774786474125,-0.00020796680750456606,0.9999902512894745,243.14644255588323,27.278215084440745,1108.8172492856347,-52.03830897966023,-90.00260925292969,4381.2578125,True
1599566542.994774,0.0,10,0.5,0.5,0.0066986442565917965,-0.05075,-0.001,-0.37525,-0.05574868035587291,10,1,100,0.11624077128799197,-10,-1,-100,6341.5230607306585,-0.0050414010401277935,-0.0007080305131524705,0.9999870414002098,244.5818713022432,27.468770012669108,1129.1838592717602,-52.599294817434604,-90.01809692382812,4381.2578125,True
1599566543.0650976,0.0,10,0.5,0.5,0.005219488525390625,-0.05075,-0.001,-0.37525,-0.0419000347848027,10,1,100,0.10095097451788083,-10,-1,-100,6339.454219950829,-0.005472397229334325,-0.0010334891189630042,0.9999844922641578,245.5411948347287,27.59633630618672,1142.891127910384,-52.97312435814839,-90.02825164794922,4381.2578125,True
1599566543.119991,0.0,10,0.5,0.5,0.0014167705535888674,-0.05075,-0.001,-0.37525,-0.009711173005356715,10,1,100,0.058240989326179514,-10,-1,-100,6339.454219950829,-0.005472397229334325,-0.0010334891189630042,0.9999844922641578,245.5411948347287,27.59633630618672,1142.891127910384,-52.97312435814839,-90.02825164794922,4381.2578125,True
1599566543.1828234,0.0,10,0.5,0.5,0.0072552280426025385,-0.05075,-0.001,-0.37525,-0.06097514601836727,10,1,100,0.12941306995799298,-10,-1,-100,6336.228157219943,-0.006116134925394865,-0.0014965835341592963,0.9999801763691616,246.9758526647392,27.787598178115207,1163.6110420907578,-53.533625421685365,-90.04193878173828,4381.2578125,True
1599566543.2433522,0.0,10,0.5,0.5,0.005722735977172851,-0.05075,-0.001,-0.37525,-0.04864709550724801,10,1,100,0.11443969381482219,-10,-1,-100,6334.097794740344,-0.006561502036881957,-0.0018022974654507092,0.9999768489394473,247.92543532466107,27.91460002361362,1177.5117980333107,-53.907129782248134,-90.05037689208984,4381.2578125,True
1599566543.3211443,0.0,10,0.5,0.5,0.00610159797668457,-0.05075,-0.001,-0.37525,-0.05018182003848707,10,1,100,0.11870937329660008,-10,-1,-100,6331.903468860546,-0.0070015059346361435,-0.0020911507155396023,0.9999733026452917,248.87923949276902,28.042292489437376,1191.528885787168,-54.28050288809257,-90.05867767333984,4381.2578125,True
1599566543.394948,0.0,10,0.5,0.5,0.007562058639526367,-0.05075,-0.001,-0.37525,-0.06699988572380092,10,1,100,0.14773256607345714,-10,-1,-100,6328.615398820024,-0.007661752726365785,-0.002503829136782493,0.999967513664726,250.3024341724729,28.23339098006598,1212.700258627484,-54.84031520493304,-90.06939697265625,4381.2578125,True
1599566543.470289,0.0,10,0.5,0.5,0.004888240814208984,-0.05075,-0.001,-0.37525,-0.04058097963826959,10,1,100,0.10645305653317495,-10,-1,-100,6327.518724698806,-0.00788267664990792,-0.002635798173635347,0.9999654573918144,250.7730167392284,28.296768232191663,1219.7874429733065,-55.02685318578284,-90.07254028320312,4381.2578125,True
1599566543.5570571,0.0,10,0.5,0.5,0.006061017608642578,-0.05075,-0.001,-0.37525,-0.055135238501204345,10,1,100,0.1321929525102163,-10,-1,-100,6325.32488818618,-0.008313623195029615,-0.002885247656587453,0.9999612787579982,251.7094396180315,28.423149333704295,1234.0114349598425,-55.39982938149425,-90.07804107666016,4381.2578125,True
1599566543.6353912,0.0,10,0.5,0.5,0.004957688522338868,-0.05075,-0.001,-0.37525,-0.043460431507142634,10,1,100,0.1127904832277069,-10,-1,-100,6324.22821444564,-0.008525085417146385,-0.0030031400812892193,0.9999591511998289,252.17353861565812,28.485956198042526,1241.1396227084288,-55.58626759822262,-90.08027648925781,4381.2578125,True
1599566543.72367,0.0,10,0.5,0.5,0.007194731903076171,-0.05075,-0.001,-0.37525,-0.0814506287322401,10,1,100,0.18606243332327044,-10,-1,-100,6319.717496769037,-0.009379692067268118,-0.003453139375542816,0.9999500473549547,254.00465689169184,28.734859042852843,1269.7685984248335,-56.33168648770258,-90.08747863769531,4381.2578125,True
1599566543.796475,0.0,10,0.5,0.5,0.005074335479736328,-0.05075,-0.001,-0.37525,-0.04828361649109372,10,1,100,0.12444588539947343,-10,-1,-100,6318.619846374961,-0.009592512867137776,-0.003558215796433491,0.9999476600288836,254.45701007468142,28.796604195248083,1276.9589683808135,-56.51795736267415,-90.08882904052734,4381.2578125,True
1599566543.8628175,0.0,10,0.5,0.5,0.005441437149047852,-0.05075,-0.001,-0.37525,-0.05902744956268416,10,1,100,0.14812738375120668,-10,-1,-100,6316.302476906916,-0.009997527110546127,-0.0037491158190963176,0.999942995166349,255.3572607573164,28.919750746672964,1291.3894099919655,-56.89039830468255,-90.09086608886719,4381.2578125,True
1599566543.9276435,0.0,10,0.5,0.5,0.004930305480957032,-0.05075,-0.001,-0.37525,-0.04970960523054038,10,1,100,0.1293260288085542,-10,-1,-100,6315.205315565341,-0.010190686714273959,-0.0038354848669520042,0.9999407177228692,255.80281204424472,28.980885899185175,1298.6175371815455,-57.07656821351493,-90.09144592285156,4381.2578125,True
1599566543.9984548,0.0,10,0.5,0.5,0.005058936309814453,-0.05075,-0.001,-0.37525,-0.0607011997633745,10,1,100,0.15525896240566656,-10,-1,-100,6312.887457290897,-0.010598336157828573,-0.0040117994959076725,0.9999357883061742,256.677841981931,29.101492216780244,1313.0634894600876,-57.44880699303584,-90.09224700927734,4381.2578125,True
1599566544.0636718,0.0,10,0.5,0.5,0.004570758438110351,-0.05075,-0.001,-0.37525,-0.07548439954124148,10,1,100,0.1986123188293454,-10,-1,-100,6308.250764333759,-0.011359378133892624,-0.004304469609274837,0.999926215312807,258.3955897643174,29.3396700788333,1342.073051258296,-58.192878628945294,-90.091796875,4381.2578125,True
