Timestamp,Input Throttle,horizon,dT,dt,Input Roll,Roll P,Roll I,Roll D,Input Pitch,Pitch P,Pitch I,Pitch D,Input Yaw,Yaw P,Yaw I,Yaw D,Altitude,Direction X,Direction Y,Direction Z,Drag X,Drag Y,Drag Z,Vertical Velocity,Roll,Mass,Has Fuel
1599565625.0188563,0.0,10,0.5,0.5,-0.054060394287109376,-0.001,-0.02275,-0.001,-0.06812924221308596,10,1,100,0.6839415685713628,-10,-1,-100,6483.997882679105,-0.06744513982354651,-0.006971798870084604,0.997698625404835,204.61212158571013,21.45673923353496,-150.26669755660373,9.210801507632873,-35.9412841796875,4381.2578125,True
1599565625.0846808,0.0,10,0.5,0.5,-0.17705279235839844,-0.001,-0.02275,-0.001,-0.06481036214474686,10,1,100,0.7139434652084674,-10,-1,-100,6484.538951491006,-0.06774284485073422,-0.006920846084238171,0.997678810470087,203.91791700824146,21.39306910020958,-140.55894287770306,8.640800826017827,-35.93603515625,4381.2578125,True
1599565625.1485102,0.0,10,0.5,0.5,-0.3000403778076172,-0.001,-0.02275,-0.001,-0.03598297664147594,10,1,100,0.6963046860804427,-10,-1,-100,6484.85684431449,-0.06779154884260397,-0.0066061665506350975,0.9976776355461847,203.46624550534497,21.351536926819872,-134.12259003703343,8.26081265866127,-35.9373779296875,4381.2578125,True
1599565625.203364,0.0,10,0.5,0.5,-0.42303418579101565,-0.001,-0.02275,-0.001,-0.06811154665684677,10,1,100,0.6982134417777281,-10,-1,-100,6484.85684431449,-0.06779154884260397,-0.0066061665506350975,0.9976776355461847,203.46624550534497,21.351536926819872,-134.12259003703343,8.26081265866127,-35.9373779296875,4381.2578125,True
1599565625.263789,0.0,10,0.5,0.5,-0.5458794342041016,-0.001,-0.02275,-0.001,0.0029599837094818823,10,1,100,0.7021526794352964,-10,-1,-100,6485.33437131322,-0.0677657314132704,-0.005954056123167896,0.9976834943315974,202.85009349777113,21.29521198530491,-124.54693895356122,7.6908309251768845,-36.010986328125,4381.2578125,True
1599565625.3336027,0.0,10,0.5,0.5,-0.6684866058349609,-0.001,-0.02275,-0.001,0.013803436087877069,10,1,100,0.6936422552061577,-10,-1,-100,6485.590679134126,-0.06760328831959929,-0.005257238843736695,0.9976984298113921,202.47818466535097,21.261336759143898,-118.21038841652707,7.310832515842492,-36.156707763671875,4381.2578125,True
1599565625.3904514,0.0,10,0.5,0.5,-0.7905946891784668,-0.001,-0.02275,-0.001,0.04421674019257221,10,1,100,0.6834003251295517,-10,-1,-100,6485.908972773817,-0.0673010467898204,-0.004342504698898614,0.9977232641138194,202.138162488341,21.23037936664754,-111.90887822889546,6.930816443128066,-36.422271728515625,4381.2578125,True
1599565625.4532876,0.0,10,0.5,0.5,-0.9123722656250001,-0.001,-0.02275,-0.001,0.011338724247344223,10,1,100,0.6975726413889286,-10,-1,-100,6486.005610413733,-0.06709393823166138,-0.0038058715260943414,0.9977394042506755,201.98118794690745,21.216076592902844,-108.77096998941913,6.7407992744947975,-36.610931396484375,4381.2578125,True
1599565625.5131273,0.0,10,0.5,0.5,-1.0315446769714356,-0.001,-0.02275,-0.001,0.24985112709262317,10,1,100,0.5930748066287108,-10,-1,-100,6486.518076047301,-0.06589468291894059,-0.001146268732655108,0.9978259251146989,201.41521421640752,21.163780072444368,-96.2840681826551,5.980643112585211,-37.84912109375,4381.2578125,True
1599565625.5719714,0.0,10,0.5,0.5,-1.1494833671569824,-0.001,-0.02275,-0.001,0.16436610589231784,10,1,100,0.6280012986205836,-10,-1,-100,6486.772322543082,-0.06506206012283058,0.0004954574947711054,0.9978810965513095,201.13877964811408,21.137177985725568,-90.06196000397294,5.600497027307819,-38.82049560546875,4381.2578125,True
1599565625.6310954,0.0,10,0.5,0.5,-1.2657096473693847,-0.001,-0.02275,-0.001,0.0924762838947582,10,1,100,0.6619751791057894,-10,-1,-100,6486.86940788792,-0.06455483643975715,0.0013339416310946019,0.9979132696241497,200.98793892177005,21.12221810564414,-86.94993087505993,5.4104029214246125,-39.40972900390625,4381.2578125,True
1599565625.6919284,0.0,10,0.5,0.5,-1.2570854148864745,-0.001,-0.02275,-0.001,0.10699131353583721,10,1,100,0.652108113940187,-10,-1,-100,6486.965511455433,-0.06400665095671564,0.002220604078579245,0.997947001373736,200.82117456294844,21.105350289615316,-83.83463608502959,5.220293020270963,-40.07110595703125,4381.2578125,True
1599565625.76036,0.0,10,0.5,0.5,-1.2452557044982908,-0.001,-0.02275,-0.001,0.23169680655938169,10,1,100,0.5727777591810068,-10,-1,-100,6487.157703278586,-0.06279051201422536,0.004152036739994945,0.9980180921165213,200.39718918003433,21.061381437868146,-77.58063143334249,4.840019504680793,-41.613006591796875,4381.2578125,True
1599565625.8221955,0.0,10,0.5,0.5,-1.2259529327392578,-0.001,-0.02275,-0.001,0.5113744669319931,10,1,100,0.36025721071142236,-10,-1,-100,6487.543996542343,-0.0597574725684456,0.008440628614405112,0.9981772389014013,198.90815464593442,20.903245088377588,-64.92626716259333,4.07920958785863,-45.579315185546875,4381.2578125,True
1599565625.8845248,0.0,10,0.5,0.5,-1.2079838340759277,-0.001,-0.02275,-0.001,0.08401995900748037,10,1,100,0.6627577476619827,-10,-1,-100,6487.543996542343,-0.0597574725684456,0.008440628614405112,0.9981772389014013,198.90815464593442,20.903245088377588,-64.92626716259333,4.07920958785863,-45.579315185546875,4381.2578125,True
1599565625.950351,0.0,10,0.5,0.5,-1.1813645065307616,-0.001,-0.02275,-0.001,0.33548058963991173,10,1,100,0.4596776974216307,-10,-1,-100,6487.67462691816,-0.05791857052884679,0.010713548270393058,0.9982638223793111,197.63535605906787,20.767371784928432,-58.50331408710036,3.6986407753490553,-48.0050048828125,4381.2578125,True
1599565626.0081937,0.0,10,0.5,0.5,-1.1484498222351074,-0.001,-0.02275,-0.001,0.49114898978931326,10,1,100,0.29444881016392976,-10,-1,-100,6487.838816968026,-0.054753564897587634,0.014180487243454724,0.9983991991746307,194.71554461450066,20.456065171044877,-48.75171906865034,3.127528164746489,-52.19775390625,4381.2578125,True
1599565626.0696084,0.0,10,0.5,0.5,-1.110425407409668,-0.001,-0.02275,-0.001,0.4091755266870234,10,1,100,0.34687007446416096,-10,-1,-100,6487.968455344671,-0.052364250800892534,0.01657019756172419,0.998490567702483,191.91472465851282,20.15829445248429,-42.204544464364254,2.746578755927558,-55.361724853515625,4381.2578125,True
1599565626.1284544,0.0,10,0.5,0.5,-1.0640093872070313,-0.001,-0.02275,-0.001,0.4245175734528195,10,1,100,0.29888642580665425,-10,-1,-100,6488.098094202462,-0.04976932271376581,0.01886361094066929,0.9985825848165449,188.43226569090325,19.788939712600772,-35.69373085889465,2.3654360773090453,-58.82269287109375,4381.2578125,True
1599565626.1892896,0.0,10,0.5,0.5,-1.0082620712280272,-0.001,-0.02275,-0.001,0.5680793180821189,10,1,100,0.08641935913209164,-10,-1,-100,6488.199785763398,-0.04549343781043201,0.022235448163909988,0.9987171431196816,181.2871273903956,19.03419405754031,-26.040096791171198,1.793319259330465,-64.56939697265625,4381.2578125,True
1599565626.2561107,0.0,10,0.5,0.5,-0.9554300247192382,-0.001,-0.02275,-0.001,0.2330695948249629,10,1,100,0.5120509872342316,-10,-1,-100,6488.199785763398,-0.04549343781043201,0.022235448163909988,0.9987171431196816,181.2871273903956,19.03419405754031,-26.040096791171198,1.793319259330465,-64.56939697265625,4381.2578125,True
1599565626.317945,0.0,10,0.5,0.5,-0.8897869338989257,-0.001,-0.02275,-0.001,0.46698054594636695,10,1,100,0.17130425551550232,-10,-1,-100,6488.2688904955285,-0.04241306879356113,0.024342909986347465,0.9988035614318308,175.00617561308093,18.373945104959127,-19.78968086952027,1.4115948843042245,-68.77182006835938,4381.2578125,True
1599565626.3877602,0.0,10,0.5,0.5,-0.8101149711608886,-0.001,-0.02275,-0.001,0.677630950918102,10,1,100,-0.25633117122418353,-10,-1,-100,6488.340726578957,-0.03574476906437515,0.028153676864753882,0.9989643046493352,158.66467896303195,16.659623924150395,-8.232070639018492,0.6475129002502555,-78.06195068359375,4381.2578125,True
1599565626.4745276,0.0,10,0.5,0.5,-0.7263496597290039,-0.001,-0.02275,-0.001,0.47499328642171923,10,1,100,0.024663809152096206,-10,-1,-100,6488.344439627486,-0.03226176526212666,0.029754030131406456,0.9990364739052878,148.4255409692479,15.584566195487781,-3.1557232080461497,0.2653152611816032,-83.12899780273438,4381.2578125,True
1599565626.545338,0.0,10,0.5,0.5,-0.6407296432495116,-0.001,-0.02275,-0.001,0.3940506638734003,10,1,100,0.18236934649088388,-10,-1,-100,6488.317983069923,-0.030554080969804574,0.030453678894726804,0.9990690774805651,142.73848239795834,14.987290499573247,-0.8489306044010417,0.07421309633995188,-85.759765625,4381.2578125,True
1599565626.6131563,0.0,10,0.5,0.5,-0.5410679893493652,-0.001,-0.02275,-0.001,0.471923340474991,10,1,100,-0.03933116648994084,-10,-1,-100,6488.321238034056,-0.027012730032957583,0.03177764478477765,0.9991298682894526,149.0636877525433,15.650732610793401,3.6794505775385096,-0.30797393696158304,-91.20071411132812,4381.2578125,True
1599565626.683967,0.0,10,0.5,0.5,-0.43110814514160156,-0.001,-0.02275,-0.001,0.5181002602339462,10,1,100,-0.28629508188931463,-10,-1,-100,6488.297589686234,-0.021576289805371365,0.03338189114034676,0.9992097442790122,161.3247484044748,16.934533974864234,11.396086477133213,-0.8812170919053282,-99.7659912109375,4381.2578125,True
1599565626.7677453,0.0,10,0.5,0.5,-0.3255570465087891,-0.001,-0.02275,-0.001,0.4053558621425549,10,1,100,0.060609308532823175,-10,-1,-100,6488.269207942882,-0.019817908852396253,0.033797892022854305,0.9992321817193087,165.50989951352656,17.372456326045114,14.227933754669294,-1.0723080460103702,-102.7153091430664,4381.2578125,True
1599565626.853514,0.0,10,0.5,0.5,-0.2147944314956665,-0.001,-0.02275,-0.001,0.406326864038825,10,1,100,0.03925487598773389,-10,-1,-100,6488.240831246716,-0.018054837091962154,0.03416924039286259,0.9992529639028134,169.76519178068006,17.81804589506188,17.195783685559228,-1.2634194392754607,-105.70657348632812,4381.2578125,True
1599565626.9447837,0.0,10,0.5,0.5,-0.09276735401153564,-0.001,-0.02275,-0.001,0.464503573382509,10,1,100,-0.3551283859818406,-10,-1,-100,6488.153292515199,-0.012895573551500299,0.035021794787401625,0.9993033463731856,181.07262970541797,19.00439715392942,26.672490512573376,-1.8369447635953138,-114.88533020019531,4381.2578125,True
1599565627.7358816,0.0,10,0.5,0.5,0.01875475406646728,-0.001,-0.02275,-0.001,0.4008136126680739,10,1,100,-0.03153306192489072,-10,-1,-100,6488.123471169383,-0.011176744064560823,0.03520622064264816,0.9993175683536123,184.18386036802127,19.331163049728072,29.957590465760035,-2.0281913899155417,-118.00138854980469,4381.2578125,True
1599565627.8121881,0.0,10,0.5,0.5,0.17519751415252688,-0.001,-0.02275,-0.001,0.43537767885297896,10,1,100,-0.8951937616697169,-10,-1,-100,6487.7620177182835,-0.0017939078912500338,0.03567630768320893,0.999361787824895,192.28168670751808,20.181783484690882,49.003050758219196,-3.17636260251533,-137.0019073486328,4381.2578125,True
1599565627.8665516,0.0,10,0.5,0.5,0.31780426349639895,-0.001,-0.02275,-0.001,0.38446917953869175,10,1,100,-0.12255389722163652,-10,-1,-100,6487.733202921576,-0.00032498210222487605,0.035630551910228056,0.9993649774517844,191.8288123022505,20.133612279446044,51.8384831610943,-3.3677998322731084,-140.19381713867188,4381.2578125,True
1599565627.92739,0.0,10,0.5,0.5,0.46872855472564695,-0.001,-0.02275,-0.001,0.3748693599713627,10,1,100,-0.2834169223931835,-10,-1,-100,6487.550094478531,0.0024405963103010125,0.03549488750686475,0.9993668778034047,189.37591491094068,19.873762871927152,57.003636948848026,-3.7506860165023683,-146.57691955566406,4381.2578125,True
1599565627.990733,0.0,10,0.5,0.5,0.6256706754684449,-0.001,-0.02275,-0.001,0.3759090612145526,10,1,100,-0.41873394780851225,-10,-1,-100,6487.337231606711,0.006153365678579875,0.03537578909931305,0.9993551368940005,182.0610729445587,19.099744315435174,63.20893279821758,-4.324957871620872,-156.06752014160156,4381.2578125,True
1599565628.0555575,0.0,10,0.5,0.5,0.7761302164077758,-0.001,-0.02275,-0.001,0.38831111299018106,10,1,100,-0.0511277556454645,-10,-1,-100,6487.337231606711,0.006153365678579875,0.03537578909931305,0.9993551368940005,182.0610729445587,19.099744315435174,63.20893279821758,-4.324957871620872,-156.06752014160156,4381.2578125,True
1599565628.119387,0.0,10,0.5,0.5,0.9481644498825071,-0.001,-0.02275,-0.001,0.376904553161473,10,1,100,-0.5337109508648158,-10,-1,-100,6486.968171227374,0.010510334639018034,0.03526882206058431,0.9993225920873773,165.81425187350672,17.385480819661787,67.78069235927698,-5.090479579137867,-168.29864501953125,4381.2578125,True
1599565628.1792269,0.0,10,0.5,0.5,1.0977338453292846,-0.001,-0.02275,-0.001,0.379646730908299,10,1,100,-0.21095714119611642,-10,-1,-100,6486.81390051241,0.011507920311115104,0.03519479279496547,0.9993142120125345,160.70930743733328,16.848375373929176,68.16936273019381,-5.28185994793896,-171.24301147460938,4381.2578125,True
1599565628.245051,0.0,10,0.5,0.5,1.2621105339050294,-0.001,-0.02275,-0.001,0.39122011051087313,10,1,100,-0.31791438048638015,-10,-1,-100,6486.629390670685,0.013358676889148009,0.035231436094633466,0.9992898937057659,149.512748727168,15.673496511260996,68.02824038673914,-5.664705672979647,-176.95327758789062,4381.2578125,True
1599565628.3068857,0.0,10,0.5,0.5,0.7145778587341309,-0.001,-0.02275,-0.001,0.40823922686796776,10,1,100,-0.4116940349565581,-10,-1,-100,6486.229115776019,0.01586516744256035,0.03541850179239453,0.9992466293127046,161.14958921864059,16.900346165078606,80.7813558848189,-6.23916862763417,175.0010528564453,4381.2578125,True
1599565628.3667257,0.0,10,0.5,0.5,0.4121089660644532,-0.001,-0.02275,-0.001,0.404021041622489,10,1,100,-0.24779836426215168,-10,-1,-100,6486.136874323478,0.01662768844753691,0.03554985373630479,0.9992295671547249,165.10474168888953,17.319278049263733,85.31349798152803,-6.430700433809518,172.46690368652344,4381.2578125,True
1599565628.4255729,0.0,10,0.5,0.5,-0.24152677230834962,-0.001,-0.02275,-0.001,0.4312940729580959,10,1,100,-0.33198572080197186,-10,-1,-100,6485.826912958524,0.01806095220923024,0.03591688884918903,0.9991915627649639,172.00096552123102,18.053127619088315,94.19274679463892,-6.813828064765416,167.61001586914062,4381.2578125,True
1599565628.4874039,0.0,10,0.5,0.5,-0.9300965496063233,-0.001,-0.02275,-0.001,0.447323688188611,10,1,100,-0.3346258113426145,-10,-1,-100,6485.580441686441,0.019369870215593218,0.03639606219830123,0.9991497058921094,177.5088965870109,18.64379893116628,102.70028159608155,-7.197027108719496,162.97039794921875,4381.2578125,True
1599565628.5452473,0.0,10,0.5,0.5,-1.6199072605133056,-0.001,-0.02275,-0.001,0.430744776321901,10,1,100,-0.2726071580624082,-10,-1,-100,6485.424740794231,0.019978085325814215,0.036680261034807614,0.9991273365077811,180.22559043709225,18.935967811877973,107.0615792302328,-7.388643859884873,160.70664978027344,4381.2578125,True
1599565628.6110723,0.0,10,0.5,0.5,-2.312186166763306,-0.001,-0.02275,-0.001,0.4831883606643724,10,1,100,-0.33937047108585955,-10,-1,-100,6485.113837582408,0.021122004190759668,0.03741430585881048,0.9990765889840824,185.12064032030372,19.46459232112799,115.70362706579303,-7.771892693042619,156.17916870117188,4381.2578125,True
1599565628.6679196,0.0,10,0.5,0.5,-3.017708104705811,-0.001,-0.02275,-0.001,0.5082525094961295,10,1,100,-0.34148250517777173,-10,-1,-100,6484.804903827491,0.022167522888352754,0.03830762203659316,0.9990200833931697,189.35763632074475,19.92419744986426,124.22192248360197,-8.155143489247493,151.49578857421875,4381.2578125,True
1599565628.7227745,0.0,10,0.5,0.5,-3.7070399982452393,-0.001,-0.02275,-0.001,0.6013726778185807,10,1,100,-0.39350772840029885,-10,-1,-100,6484.277326845331,0.023576392681633286,0.03996360933483853,0.9989229518021165,194.47852790299788,20.48119270491376,136.63298142251617,-8.729983457635463,143.96678161621094,4381.2578125,True
1599565628.790592,0.0,10,0.5,0.5,-4.414211284637451,-0.001,-0.02275,-0.001,0.58619876409374,10,1,100,-0.3484158986047944,-10,-1,-100,6483.905455649248,0.024435379442799533,0.041326839674586446,0.9988468373849904,196.3927792060937,20.69077179204717,144.07684913986304,-9.11316605486007,138.58599853515625,4381.2578125,True
1599565628.8549044,0.0,10,0.5,0.5,-5.107218324279785,-0.001,-0.02275,-0.001,0.7229945405870266,10,1,100,-0.39632833352385094,-10,-1,-100,6483.314012713148,0.025640091853004195,0.043804163363496594,0.998711059797474,196.41128267407478,20.69574246997925,153.24699667772776,-9.687868098025664,129.9686279296875,4381.2578125,True
1599565628.910755,0.0,10,0.5,0.5,-5.814083029937744,-0.001,-0.02275,-0.001,0.4761194444228982,10,1,100,-0.27708523399977036,-10,-1,-100,6483.314012713148,0.025640091853004195,0.043804163363496594,0.998711059797474,196.41128267407478,20.69574246997925,153.24699667772776,-9.687868098025664,129.9686279296875,4381.2578125,True
1599565628.9805717,0.0,10,0.5,0.5,-5.69941566581726,-0.001,-0.02275,-0.001,0.6893643242010536,10,1,100,-0.3634147071215004,-10,-1,-100,6482.941247495706,0.026416018950101337,0.04573512985096064,0.9986042718916958,194.15115306401452,20.452828091290673,157.5227972783301,-10.070982444791879,123.85932922363281,4381.2578125,True
1599565629.0434043,0.0,10,0.5,0.5,-5.568760908889771,-0.001,-0.02275,-0.001,1.0057822191040175,10,1,100,-0.46214625833226264,-10,-1,-100,6482.070857037441,0.028010068294376064,0.05035782090585067,0.9983383824875004,183.21561678252513,19.280133470957523,160.06425730945958,-10.837370279564364,110.76841735839844,4381.2578125,True
1599565629.1042407,0.0,10,0.5,0.5,-5.4525371841430665,-0.001,-0.02275,-0.001,0.5449572068206809,10,1,100,-0.30373623551330453,-10,-1,-100,6482.070857037441,0.028010068294376064,0.05035782090585067,0.9983383824875004,183.21561678252513,19.280133470957523,160.06425730945958,-10.837370279564364,110.76841735839844,4381.2578125,True
1599565629.1610909,0.0,10,0.5,0.5,-5.319816466140746,-0.001,-0.02275,-0.001,0.8472767306975407,10,1,100,-0.4019121618905371,-10,-1,-100,6481.634278577287,0.028894721990461104,0.05309348770590617,0.9981714164432465,174.24418639909453,18.32506250771603,157.66387529003276,-11.220749563885942,103.78781127929688,4381.2578125,True
1599565629.2189348,0.0,10,0.5,0.5,-5.175277661895752,-0.001,-0.02275,-0.001,1.0845362897975783,10,1,100,-0.4852207859760407,-10,-1,-100,6480.981753776316,0.03044819771798422,0.05772244149171051,0.9978682413044132,157.08094072558092,16.513873658853505,149.49979886749628,-11.79612987411696,92.77328491210938,4381.2578125,True
1599565629.2767801,0.0,10,0.5,0.5,-5.026631266021728,-0.001,-0.02275,-0.001,0.995876158674243,10,1,100,-0.46480424165505047,-10,-1,-100,6480.482387085678,0.03166636507324421,0.06110611816347241,0.9976288306008602,160.77006043528644,16.90967034906877,158.04450858658788,-12.179758918986977,85.0670166015625,4381.2578125,True
1599565629.3346257,0.0,10,0.5,0.5,-4.875288982391358,-0.001,-0.02275,-0.001,0.8592200251279473,10,1,100,-0.4209651635066855,-10,-1,-100,6480.20344385528,0.032366617556509165,0.06291913347271974,0.9974936514640045,167.52274842035337,17.627578192680293,167.30673337704482,-12.371489865941154,81.10546875,4381.2578125,True
1599565629.3959723,0.0,10,0.5,0.5,-4.719960037612915,-0.001,-0.02275,-0.001,1.101186158928463,10,1,100,-0.5309564350440734,-10,-1,-100,6479.706189708086,0.033995140259930945,0.0667461526755512,0.9971906946726488,179.26450845439146,18.88388230426363,184.6509992195204,-12.754750407576278,72.9649658203125,4381.2578125,True
1599565629.524932,0.0,10,0.5,0.5,-4.56195041694641,-0.001,-0.02275,-0.001,1.1659654990499586,10,1,100,-0.5799522213095496,-10,-1,-100,6479.208084788639,0.03591234099198495,0.0707910556674107,0.9968444864681596,188.21650663626463,19.850489796036715,199.77134767408307,-13.137733822579857,64.53382873535156,4381.2578125,True
1599565629.6146915,0.0,10,0.5,0.5,-4.386046713256836,-0.001,-0.02275,-0.001,1.7089870625250008,10,1,100,-0.9322161365356387,-10,-1,-100,6478.088734724093,0.04084831156941761,0.07938026633496162,0.9960071228452729,199.3453095068569,21.060525180117605,224.082350081579,-13.902988296607475,46.798492431640625,4381.2578125,True
1599565629.6845071,0.0,10,0.5,0.5,-4.186433486175537,-0.001,-0.02275,-0.001,1.5826169919040989,10,1,100,-0.9754093906482677,-10,-1,-100,6477.249463421758,0.04571439784109264,0.0860074789334802,0.9952451493966364,199.1861779492081,21.045769622829177,233.2812302179191,-14.476714662874613,32.73023986816406,4381.2578125,True
1599565629.7583077,0.0,10,0.5,0.5,-3.9736890113830565,-0.001,-0.02275,-0.001,1.3961028381651763,10,1,100,-0.9158789533402825,-10,-1,-100,6476.626964533818,0.04957938285900553,0.09030002321715913,0.994679742732454,193.61362181694122,20.44837076255225,232.8451326310334,-14.859385972325848,22.98321533203125,4381.2578125,True
1599565629.8490653,0.0,10,0.5,0.5,-3.7737550357818606,-0.001,-0.02275,-0.001,1.1971747729349242,10,1,100,-0.7643117921096558,-10,-1,-100,6476.347495045513,0.05169551385086189,0.09235758815267286,0.994383049814465,189.16841620901852,19.97366928411004,230.47988931598425,-15.050825336713348,17.998382568359375,4381.2578125,True
1599565629.914889,0.0,10,0.5,0.5,-3.5263197532653807,-0.001,-0.02275,-0.001,1.8176740198912982,10,1,100,-1.6105600929737152,-10,-1,-100,6475.1038427030435,0.06129090344626232,0.09983082236888255,0.9931149138241222,162.83416918697523,17.19049852742658,208.6891337835214,-15.817277891738247,-2.685760498046875,4381.2578125,True
1599565629.976724,0.0,10,0.5,0.5,-3.3047765205383297,-0.001,-0.02275,-0.001,1.0750243317366275,10,1,100,-0.6542607515792526,-10,-1,-100,6475.1038427030435,0.06129090344626232,0.09983082236888255,0.9931149138241222,162.83416918697523,17.19049852742658,208.6891337835214,-15.817277891738247,-2.685760498046875,4381.2578125,True
1599565630.0465367,0.0,10,0.5,0.5,-3.0550037986755374,-0.001,-0.02275,-0.001,1.574858159813322,10,1,100,-1.562207526724022,-10,-1,-100,6474.1407307769405,0.06951692621509815,0.10433648591423689,0.9921095174811462,178.69158532032696,18.900552279865757,237.49826462856385,-16.39180915813236,-18.987457275390625,4381.2578125,True
1599565630.112363,0.0,10,0.5,0.5,-2.812089624023437,-0.001,-0.02275,-0.001,1.3897719239842803,10,1,100,-1.3850557590749397,-10,-1,-100,6473.457004116848,0.07535024851619193,0.10671064120452158,0.9914308745960397,188.9454375656021,20.01815825067828,257.10036485657486,-16.7741594225753,-30.233428955078125,4381.2578125,True
1599565630.168212,0.0,10,0.5,0.5,-2.546941641998291,-0.001,-0.02275,-0.001,1.3603159669072329,10,1,100,-1.4717098586207829,-10,-1,-100,6472.773275087704,0.08140195730309423,0.10856137230614195,0.990751305722194,194.44573323862727,20.629158826204698,270.72385188678214,-17.156064753926557,-41.78240966796875,4381.2578125,True
1599565630.231046,0.0,10,0.5,0.5,-2.285660680389404,-0.001,-0.02275,-0.001,1.2512940190609498,10,1,100,-1.201978095765167,-10,-1,-100,6472.431882081088,0.08440830670427875,0.10921473267298464,0.9904278771957528,195.48127238077805,20.7488814732053,275.2498486513133,-17.346911451801162,-47.6722412109375,4381.2578125,True
1599565630.2948737,0.0,10,0.5,0.5,-2.012267420578003,-0.001,-0.02275,-0.001,1.2909677593340478,10,1,100,-1.5685371392999548,-10,-1,-100,6471.748055200791,0.09042961931411521,0.11013443639350108,0.989794367467804,192.94088423293644,20.488743633302953,277.7640379103948,-17.72858596443658,-59.67938232421875,4381.2578125,True
1599565630.3547125,0.0,10,0.5,0.5,-1.7448732730865477,-0.001,-0.02275,-0.001,1.2356257446704855,10,1,100,-1.9375963615963032,-10,-1,-100,6470.660075548338,0.09921354979143816,0.11043946312424861,0.9889184984227007,179.3885812449182,19.047712631871928,266.7729450755555,-18.30154011732319,-78.26144409179688,4381.2578125,True
1599565630.4185426,0.0,10,0.5,0.5,-1.4982566268920898,-0.001,-0.02275,-0.001,1.1886785748585216,10,1,100,-1.3720140216237404,-10,-1,-100,6470.255511876312,0.10200864790566269,0.110267756804646,0.9886532544637325,172.36629825139806,18.301900971840077,259.0669285354016,-18.492704497919625,-84.60775756835938,4381.2578125,True
1599565630.4813771,0.0,10,0.5,0.5,-1.220846004486084,-0.001,-0.02275,-0.001,1.0755947292534742,10,1,100,-1.9572003489656131,-10,-1,-100,6469.165586324758,0.10982185892620505,0.10906547270533638,0.9879493316792892,160.12927303751886,17.021014253807323,248.31450135564373,-19.066395333186094,-104.10149383544922,4381.2578125,True
1599565630.5382226,0.0,10,0.5,0.5,-0.9358173894882201,-0.001,-0.02275,-0.001,1.0599505062870427,10,1,100,-1.691787693258053,-10,-1,-100,6468.355575903901,0.11445909357928816,0.10781507796576675,0.9875601373386045,175.86727166115327,18.722147697978265,278.30581514905754,-19.448248426563193,-117.47406005859375,4381.2578125,True
1599565631.0515506,0.0,10,0.5,0.5,-0.6744497724533081,-0.001,-0.02275,-0.001,1.1068940119245223,10,1,100,-1.4672876869174059,-10,-1,-100,6467.950259828707,0.11658551757887325,0.10709785620322883,0.9873894197769888,181.17414419901903,19.30115671193775,289.5764216329633,-19.638957272563584,-124.2724609375,4381.2578125,True
1599565631.1044087,0.0,10,0.5,0.5,-0.390893190574646,-0.001,-0.02275,-0.001,1.095936596263481,10,1,100,-1.4793870353109007,-10,-1,-100,6467.6069114099955,0.11857835655104365,0.10633961715506275,0.9872340447841982,184.60975486750786,19.679206131770318,297.99239721481865,-19.8295646294565,-131.14508056640625,4381.2578125,True
1599565631.158265,0.0,10,0.5,0.5,-0.10053186931610106,-0.001,-0.02275,-0.001,0.9127317483012489,10,1,100,-1.8538326632739461,-10,-1,-100,6466.390599514241,0.12374947820692084,0.103982989283218,0.986850345586017,185.63234206807488,19.80541619592356,308.46798631135835,-20.401218681723122,-152.18275451660156,4381.2578125,True
1599565631.2191029,0.0,10,0.5,0.5,0.1700922231674194,-0.001,-0.02275,-0.001,1.0645755494696802,10,1,100,-1.5023603572694797,-10,-1,-100,6465.984607295017,0.1252112958125043,0.10322347818481879,0.9867456840302782,182.90971498335935,19.515127188065193,306.8489436118314,-20.591856942765716,-159.29627990722656,4381.2578125,True
1599565631.2751267,0.0,10,0.5,0.5,-0.24672500743865972,-0.001,-0.02275,-0.001,0.921695144561506,10,1,100,-1.7703007213338293,-10,-1,-100,6464.704497831059,0.12893621572861114,0.10123895340903731,0.9864715538657096,164.54985080806324,17.557649541420055,283.91931047188575,-21.164375829799816,179.22760009765625,4381.2578125,True
1599565631.3339713,0.0,10,0.5,0.5,-0.395765545463562,-0.001,-0.02275,-0.001,1.0152010862769114,10,1,100,-1.6203353278227242,-10,-1,-100,6463.829892116599,0.13091870488494883,0.10029214470052505,0.9863071420316375,159.13505879525638,16.995384426458248,279.66415950059013,-21.546278944574603,164.91123962402344,4381.2578125,True
1599565631.4117615,0.0,10,0.5,0.5,-0.9210255708694457,-0.001,-0.02275,-0.001,1.1088977279588395,10,1,100,-1.4261353207460379,-10,-1,-100,6463.829892116599,0.13091870488494883,0.10029214470052505,0.9863071420316375,159.13505879525638,16.995384426458248,279.66415950059013,-21.546278944574603,164.91123962402344,4381.2578125,True
1599565631.4785833,0.0,10,0.5,0.5,-1.4455969724655149,-0.001,-0.02275,-0.001,1.045722825248251,10,1,100,-1.6242248948896127,-10,-1,-100,6462.954340790166,0.13269069632707814,0.09972705223808673,0.9861276256956485,174.46567057459325,18.66055491866879,312.17435484828536,-21.92760909029583,150.5880126953125,4381.2578125,True
1599565631.5563753,0.0,10,0.5,0.5,-1.951687445640564,-0.001,-0.02275,-0.001,1.1014603863343781,10,1,100,-1.7158778390911729,-10,-1,-100,6461.610913652461,0.13510691345046313,0.0997296193771681,0.9857992315663339,183.67070409746756,19.680727539313068,337.41438263610013,-22.498718631148034,128.9364471435547,4381.2578125,True
1599565631.642149,0.0,10,0.5,0.5,-2.4592192600250242,-0.001,-0.02275,-0.001,1.2093514428830652,10,1,100,-1.7607462179737043,-10,-1,-100,6460.267355932738,0.1376883824119959,0.10072126806616483,0.9853411264673325,179.22719085209243,19.214825888989797,337.8169882095559,-23.069721498865913,106.79591369628906,4381.2578125,True
1599565631.7129588,0.0,10,0.5,0.5,-2.961367318725586,-0.001,-0.02275,-0.001,1.2349135333344434,10,1,100,-1.7268424872961474,-10,-1,-100,6459.328950699419,0.1397058391082909,0.1018615984329013,0.9849398424694489,167.34608146844664,17.943686777421167,320.77774822361084,-23.450795903254345,91.69258117675781,4381.2578125,True
1599565631.7737937,0.0,10,0.5,0.5,-3.452476546859741,-0.001,-0.02275,-0.001,1.1955214297035026,10,1,100,-1.652846443135787,-10,-1,-100,6458.860815958935,0.14084618086571088,0.10254491260398983,0.9847065015701802,159.65937981181148,17.123872504199554,308.6038671011879,-23.641464555952915,84.03529357910156,4381.2578125,True
1599565631.8536155,0.0,10,0.5,0.5,-3.9186137046813965,-0.001,-0.02275,-0.001,1.29441852979016,10,1,100,-1.8270946226822578,-10,-1,-100,6457.862730199704,0.1434466860735018,0.10406862158263182,0.9841711082207307,161.10124839967943,17.298092544342435,316.55750326826546,-24.02271346602835,68.50755310058594,4381.2578125,True
1599565631.9592993,0.0,10,0.5,0.5,-4.388550731658936,-0.001,-0.02275,-0.001,1.4084449996896706,10,1,100,-2.098039584330585,-10,-1,-100,6456.395625370671,0.1482560111793269,0.10649033798748425,0.9831988420785018,179.19093085759675,19.280724475436376,360.6969356886261,-24.593460740361348,44.676971435546875,4381.2578125,True
1599565632.049612,0.0,10,0.5,0.5,-4.860242695236206,-0.001,-0.02275,-0.001,1.251228731321964,10,1,100,-1.8237499126393808,-10,-1,-100,6455.926890604664,0.15011363270073258,0.10725968967964125,0.9828332799855816,181.2084364185365,19.507216793700174,367.65040620924265,-24.783536281039524,36.58808898925781,4381.2578125,True
1599565632.1413631,0.0,10,0.5,0.5,-4.4944090568542485,-0.001,-0.02275,-0.001,1.3872068866311598,10,1,100,-2.3328089043825857,-10,-1,-100,6454.399389001424,0.15641093635697403,0.10918979196053066,0.9816380230612254,176.72862884019705,19.037642334715784,367.04100814402005,-25.353901184361845,11.8792724609375,4381.2578125,True
1599565632.2061908,0.0,10,0.5,0.5,-4.13727953529358,-0.001,-0.02275,-0.001,1.2831039653776544,10,1,100,-2.224231901827454,-10,-1,-100,6453.400746106636,0.16112551944717232,0.1099899514342528,0.9807857959648322,164.84775869391726,17.765083256358366,347.6640542320707,-25.734554567607137,-4.966033935546875,4381.2578125,True
1599565632.2724025,0.0,10,0.5,0.5,-3.7333594886779786,-0.001,-0.02275,-0.001,1.2348508291342872,10,1,100,-2.3061241499323453,-10,-1,-100,6452.340622637654,0.16612851831688594,0.11026988807475711,0.9799193166714373,156.05329646359735,16.83541206289687,334.1380806092549,-26.11536002286907,-22.113311767578125,4381.2578125,True
1599565632.3332365,0.0,10,0.5,0.5,-3.3402359481811525,-0.001,-0.02275,-0.001,1.199116063716701,10,1,100,-2.091509612282443,-10,-1,-100,6451.811039361637,0.1686952598361812,0.11018993002974964,0.9794897082812265,163.91746788536946,17.697174072943525,353.60867961835515,-26.305561448905877,-30.80096435546875,4381.2578125,True
1599565632.3980656,0.0,10,0.5,0.5,-2.95031224937439,-0.001,-0.02275,-0.001,1.1392536860487328,10,1,100,-2.406545040142405,-10,-1,-100,6450.7503376042005,0.1738620847920986,0.10956352809125897,0.9786561238677971,173.40365303908018,18.748265085847514,379.6259726707642,-26.68554012290242,-48.40533447265625,4381.2578125,True
1599565632.475215,0.0,10,0.5,0.5,-2.5608746124267583,-0.001,-0.02275,-0.001,0.9723617426985876,10,1,100,-2.721593431751247,-10,-1,-100,6449.157733859727,0.18139038949175837,0.10746883388033422,0.9775213431656771,171.01185094880918,18.511808300687836,382.595719977067,-27.255193157079574,-75.38491821289062,4381.2578125,True
1599565632.5290687,0.0,10,0.5,0.5,-2.1710197460174556,-0.001,-0.02275,-0.001,0.9532378465747824,10,1,100,-2.483899727797892,-10,-1,-100,6448.034971698304,0.18603555595516086,0.10538561532796129,0.9768749377491477,160.7792195874518,17.41244159989559,364.86336597663023,-27.63526211332764,-93.7514877319336,4381.2578125,True
1599565632.5988865,0.0,10,0.5,0.5,-1.7475868391036984,-0.001,-0.02275,-0.001,0.8873961403891375,10,1,100,-2.485931389086585,-10,-1,-100,6446.910929549136,0.19023582295625174,0.10289063685800369,0.976331833195616,146.4899184503478,15.878852618934749,337.1457271795132,-28.01559675034933,-112.41876220703125,4381.2578125,True
1599565632.662713,0.0,10,0.5,0.5,-1.3357563806533812,-0.001,-0.02275,-0.001,0.9874544135343561,10,1,100,-2.2803732766025098,-10,-1,-100,6446.380284843035,0.1921430018102221,0.10153316617274843,0.9761004471991056,154.9177502695648,16.80284555423326,359.0286559676418,-28.205613314175125,-121.86394500732422,4381.2578125,True
1599565632.7305338,0.0,10,0.5,0.5,-0.9281004432678223,-0.001,-0.02275,-0.001,0.8118608209329455,10,1,100,-2.4689940829010846,-10,-1,-100,6445.193771447986,0.19555163810688136,0.0987073030459715,0.9757132904491492,165.37738399396315,17.95822727753865,388.56509203011257,-28.585253307276403,-140.97421264648438,4381.2578125,True
1599565632.8063269,0.0,10,0.5,0.5,-0.48484421272277833,-0.001,-0.02275,-0.001,0.6288477744921194,10,1,100,-2.5810272698718477,-10,-1,-100,6443.4784585935995,0.1996275746168457,0.0944823564963792,0.9753060626098284,164.00461901237549,17.825696553036163,393.2168540252093,-29.154489275429047,-170.1803436279297,4381.2578125,True
1599565632.870157,0.0,10,0.5,0.5,-0.7802392898559569,-0.001,-0.02275,-0.001,0.7668057265168837,10,1,100,-2.4203984967121794,-10,-1,-100,6442.2855466759065,0.20183342201694365,0.09190902959285148,0.9750979438170458,154.03154769648802,16.74994840961493,374.255984327678,-29.534284758444567,170.00694274902344,4381.2578125,True
1599565632.937976,0.0,10,0.5,0.5,-0.8181466228485108,-0.001,-0.02275,-0.001,0.8912543392279744,10,1,100,-2.314729402843901,-10,-1,-100,6441.691509649856,0.20284110252498494,0.09071742972505564,0.9750004282412024,146.50732546453605,15.938181689100256,358.330778002245,-29.724283445686197,160.02249145507812,4381.2578125,True
1599565633.0067916,0.0,10,0.5,0.5,-1.2224475154876708,-0.001,-0.02275,-0.001,0.8859422332960143,10,1,100,-2.3215228837458923,-10,-1,-100,6441.102847200236,0.2037855595548514,0.08960364020799588,0.9749064741699032,151.39347624433108,16.478330961599138,372.7141586382939,-29.914169515285888,150.00123596191406,4381.2578125,True
1599565633.0666332,0.0,10,0.5,0.5,-1.5830854331970214,-0.001,-0.02275,-0.001,0.6948280983408573,10,1,100,-2.521057972853443,-10,-1,-100,6439.310116525507,0.20642621193778166,0.0868724178654599,0.9745980720477683,163.57098829125567,17.82927930582446,410.5575556839281,-30.48314984916683,119.64706420898438,4381.2578125,True
1599565633.1314614,0.0,10,0.5,0.5,-1.9547487716674805,-0.001,-0.02275,-0.001,0.8131795667194447,10,1,100,-2.4663829996501923,-10,-1,-100,6438.065189689514,0.20830015605028354,0.08548603918498326,0.974321908864771,161.21267234233537,17.581039502569887,409.8056384597315,-30.862362521067876,99.14204406738281,4381.2578125,True
1599565633.1932924,0.0,10,0.5,0.5,-2.351613910293579,-0.001,-0.02275,-0.001,0.8840030361069435,10,1,100,-2.393531735063956,-10,-1,-100,6437.407409209176,0.20931699395944808,0.08488952901052299,0.9741561291210727,157.02455616179748,17.12779734895476,401.68121768110643,-31.05205627608295,88.79768371582031,4381.2578125,True
1599565633.2551281,0.0,10,0.5,0.5,-2.7354659181594845,-0.001,-0.02275,-0.001,0.8154539985351557,10,1,100,-2.5394045187889103,-10,-1,-100,6436.1501347511075,0.21154634333072972,0.08374270677064961,0.9737737435801616,143.42833463897128,15.654416069641476,371.51360868664625,-31.43166472829703,67.90182495117188,4381.2578125,True
1599565633.3119755,0.0,10,0.5,0.5,-3.081308092689514,-0.001,-0.02275,-0.001,0.677587610227778,10,1,100,-2.92787359498729,-10,-1,-100,6433.649998841225,0.21708518843335786,0.08146421750441343,0.9727474503843466,160.36882802144007,17.53179315837601,425.6818257252422,-32.18996191255673,25.26031494140625,4381.2578125,True
1599565633.3758051,0.0,10,0.5,0.5,-3.415139105606079,-0.001,-0.02275,-0.001,0.734497074060575,10,1,100,-2.7313643707261583,-10,-1,-100,6432.3450430841185,0.22031137995462485,0.07992846688692264,0.9721493383444721,157.51087996404917,17.226964093200355,423.14888991875813,-32.568944273495525,3.501220703125,4381.2578125,True
1599565633.4486113,0.0,10,0.5,0.5,-3.743598365402222,-0.001,-0.02275,-0.001,0.7853728910529637,10,1,100,-2.5944080709200397,-10,-1,-100,6431.687711261096,0.2219767152104049,0.07901190905837004,0.9718453869476105,153.13302684938608,16.75180806037872,413.8486459688697,-32.75851827975689,-7.489501953125,4381.2578125,True
1599565633.5074558,0.0,10,0.5,0.5,-4.1025804428100585,-0.001,-0.02275,-0.001,0.7624708522628397,10,1,100,-2.616927988257352,-10,-1,-100,6431.023054768331,0.22367506547273183,0.07798453835926474,0.9715389219494305,147.06012564455787,16.092008093865772,399.80079188350413,-32.94815817027605,-18.554656982421875,4381.2578125,True
1599565633.566297,0.0,10,0.5,0.5,-3.6399568378448484,-0.001,-0.02275,-0.001,0.5945085734685275,10,1,100,-2.8253682662897894,-10,-1,-100,6429.711754916469,0.22709407583563684,0.07553629381761488,0.9709390037673105,149.6763889687902,16.390874361837348,411.72042036739646,-33.327320085360455,-40.91021728515625,4381.2578125,True
1599565633.6257842,0.0,10,0.5,0.5,-3.159877863693237,-0.001,-0.02275,-0.001,0.5100483297778098,10,1,100,-2.8448736539458155,-10,-1,-100,6428.338279203395,0.23035754062305014,0.07255659759702435,0.9703973122506283,154.88035853268073,16.972252144580573,430.9980189322844,-33.70612979197261,-63.5665283203125,4381.2578125,True
1599565633.6826322,0.0,10,0.5,0.5,-2.6275844573974605,-0.001,-0.02275,-0.001,0.22971262870001985,10,1,100,-2.9881911905643017,-10,-1,-100,6426.302942837938,0.2346030571435319,0.06731477378906302,0.969757767078272,147.5862709058391,16.18292743488311,417.7970315711699,-34.274371454621246,-98.1080551147461,4381.2578125,True
1599565633.7394829,0.0,10,0.5,0.5,-2.119948831748962,-0.001,-0.02275,-0.001,0.33371492200236286,10,1,100,-2.8168406491134914,-10,-1,-100,6424.9257811455755,0.23687927010786639,0.06351273448827983,0.9694608522013592,140.98566504869584,15.466931448853162,403.6349909125618,-34.6534056321713,-121.50018310546875,4381.2578125,True
1599565633.8023493,0.0,10,0.5,0.5,-1.6177728982925417,-0.001,-0.02275,-0.001,0.49850885025779035,10,1,100,-2.6967843793460076,-10,-1,-100,6424.204852191964,0.23783115297386825,0.06157443747597783,0.9693528415002648,145.92722616361453,16.013579887134714,420.12061239252847,-34.84281195404728,-133.30368041992188,4381.2578125,True
1599565633.8581634,0.0,10,0.5,0.5,-1.076664200401306,-0.001,-0.02275,-0.001,0.2746832178243206,10,1,100,-2.785284971218335,-10,-1,-100,6422.822870720527,0.23947512990633255,0.057798766344066776,0.9691805635512143,150.0055790285412,16.46833934974965,436.6652373216284,-35.22145513642159,-157.11947631835938,4381.2578125,True
1599565633.919,0.0,10,0.5,0.5,-1.2603693716049196,-0.001,-0.02275,-0.001,0.24969000860420043,10,1,100,-2.757449769748561,-10,-1,-100,6421.385533210821,0.24069121729832432,0.054162712449807075,0.9690893346309877,146.3495462457042,16.071419282275457,430.7120699359816,-35.600120198152,178.7869415283203,4381.2578125,True
1599565633.9778435,0.0,10,0.5,0.5,-1.2004362855911255,-0.001,-0.02275,-0.001,0.0728193178670325,10,1,100,-2.790486247951887,-10,-1,-100,6419.224001741037,0.24207562288483347,0.049274113089282735,0.9690053945072671,144.29210071128847,15.854109317333544,431.5968913767761,-36.168268883448896,142.13706970214844,4381.2578125,True
1599565634.481948,0.0,10,0.5,0.5,-1.5277765981674192,-0.001,-0.02275,-0.001,0.39281089088266957,10,1,100,-2.7027495077818164,-10,-1,-100,6418.507741299574,0.2425167810138137,0.04776681374694607,0.9689705580827327,147.06549830863332,16.161804976768916,442.24782906325953,-36.357532403276345,129.7840118408203,4381.2578125,True
1599565634.5367994,0.0,10,0.5,0.5,-1.77748521900177,-0.001,-0.02275,-0.001,0.07153902119256156,10,1,100,-2.815772085535763,-10,-1,-100,6416.280064233579,0.24392663905082848,0.04350429288883124,0.9688174086284834,144.3828767244696,15.872429945618055,441.11872451280016,-36.92527582666548,92.31317138671875,4381.2578125,True
1599565634.5906546,0.0,10,0.5,0.5,-2.016527292823792,-0.001,-0.02275,-0.001,0.1933566844909606,10,1,100,-2.8008334582557946,-10,-1,-100,6414.780518832034,0.24505411195140758,0.04076805290732177,0.9686518714573636,138.9828147077256,15.282425176570316,429.076610248534,-37.30392312197556,66.98663330078125,4381.2578125,True
1599565634.6435132,0.0,10,0.5,0.5,-2.2360986764907835,-0.001,-0.02275,-0.001,0.1466180798171745,10,1,100,-2.8337582069185965,-10,-1,-100,6413.277730991715,0.24636207590694517,0.03788727310065174,0.9684370305248645,145.17404260842957,15.967426605515582,452.84215362736967,-37.682362944176376,41.37638854980469,4381.2578125,True
1599565634.6968737,0.0,10,0.5,0.5,-2.4486605695724486,-0.001,-0.02275,-0.001,0.08781869107626555,10,1,100,-2.855208399485903,-10,-1,-100,6411.771611752338,0.24773158622142405,0.0347653600373947,0.9682047463887415,144.40666580743655,15.885595955974045,455.0746625295157,-38.06071713231841,15.479644775390625,4381.2578125,True
1599565634.7717097,0.0,10,0.5,0.5,-2.68059780960083,-0.001,-0.02275,-0.001,0.017112217277149566,10,1,100,-2.8696627077036054,-10,-1,-100,6410.272328609601,0.2490960633737677,0.03131406150330694,0.9679724070260779,138.10180820758393,15.19422495863594,439.632917616929,-38.4391892504324,-10.70611572265625,4381.2578125,True
1599565634.8275244,0.0,10,0.5,0.5,-2.932437119293213,-0.001,-0.02275,-0.001,0.15444573814177887,10,1,100,-2.80242729901785,-10,-1,-100,6409.483098228113,0.24971415998487695,0.02945427545561922,0.9678715224452219,140.71587658317117,15.483304247717655,450.209702673423,-38.62838969793077,-23.9075927734375,4381.2578125,True
1599565634.88138,0.0,10,0.5,0.5,-3.0874720932006836,-0.001,-0.02275,-0.001,-0.5551426258725688,10,1,100,-2.922429008041336,-10,-1,-100,6406.351961427485,0.25135618788881614,0.021341957704882095,0.9676593345032772,140.01080035623642,15.409254469613947,456.9251163913004,-39.38493779232593,-77.42889404296875,4381.2578125,True
1599565634.9431481,0.0,10,0.5,0.5,-3.322289469146728,-0.001,-0.02275,-0.001,0.2524434683372253,10,1,100,-2.7594143234456654,-10,-1,-100,6406.351961427485,0.25135618788881614,0.021341957704882095,0.9676593345032772,140.01080035623642,15.409254469613947,456.9251163913004,-39.38493779232593,-77.42889404296875,4381.2578125,True
1599565634.9960058,0.0,10,0.5,0.5,-2.6576502437591554,-0.001,-0.02275,-0.001,-0.4454230585046698,10,1,100,-2.7731659444061183,-10,-1,-100,6403.947374881594,0.2514715071970107,0.015027553601542072,0.9677480321348199,143.84074744676235,15.832633797670624,476.33856174460544,-39.95227781762418,-118.30299377441406,4381.2578125,True
1599565635.059348,0.0,10,0.5,0.5,-2.023062047958374,-0.001,-0.02275,-0.001,-0.4696658983573199,10,1,100,-2.682432432852115,-10,-1,-100,6401.51881061506,0.2507429511136856,0.00909793001756136,0.9680109504216342,140.89915591635526,15.508618684644425,473.3709256376666,-40.51943427372399,-159.7835693359375,4381.2578125,True
1599565635.1306758,0.0,10,0.5,0.5,-2.0698134552001957,-0.001,-0.02275,-0.001,-0.2651937762150309,10,1,100,-2.6823750559290245,-10,-1,-100,6399.889702561195,0.2500726274567257,0.005601354127717325,0.9682108788011141,146.70685692747693,16.147654788456094,497.5875334790215,-40.897426620953446,172.23497009277344,4381.2578125,True
1599565635.2007282,0.0,10,0.5,0.5,-1.919617007827759,-0.001,-0.02275,-0.001,0.08067351889326117,10,1,100,-2.7500220204656047,-10,-1,-100,6399.889702561195,0.2500726274567257,0.005601354127717325,0.9682108788011141,146.70685692747693,16.147654788456094,497.5875334790215,-40.897426620953446,172.23497009277344,4381.2578125,True
1599565635.2785127,0.0,10,0.5,0.5,-2.0741168800354,-0.001,-0.02275,-0.001,-0.4507056697661088,10,1,100,-2.629916318267158,-10,-1,-100,6397.415175157366,0.2489761951499168,0.000802603956977238,0.9685092720648362,146.00185158111435,16.06796792307831,502.21946194423515,-41.46421467274892,129.76492309570312,4381.2578125,True
1599565635.3463337,0.0,10,0.5,0.5,-2.2603834285736086,-0.001,-0.02275,-0.001,-0.2912196620686518,10,1,100,-2.672423179267975,-10,-1,-100,6395.779997532372,0.24836348804442254,-0.0020763100654062547,0.9686646823039023,149.03323590696422,16.399879836626273,517.4305436505193,-41.842053742369366,101.1212158203125,4381.2578125,True
1599565635.41415,0.0,10,0.5,0.5,-2.396907577896118,-0.001,-0.02275,-0.001,-0.48768581756068613,10,1,100,-2.668576729437017,-10,-1,-100,6393.2401394465705,0.2477709394029436,-0.0064460681628617416,0.9687971974529151,151.6758358571294,16.686953287282588,533.9070012393979,-42.40846377636451,57.64414978027344,4381.2578125,True
1599565635.4789765,0.0,10,0.5,0.5,-2.5958814979553226,-0.001,-0.02275,-0.001,-0.05448602078175434,10,1,100,-2.7276990811878297,-10,-1,-100,6393.2401394465705,0.2477709394029436,-0.0064460681628617416,0.9687971974529151,151.6758358571294,16.686953287282588,533.9070012393979,-42.40846377636451,57.64414978027344,4381.2578125,True
1599565635.5568821,0.0,10,0.5,0.5,-2.6635344844818114,-0.001,-0.02275,-0.001,-0.7689636458161435,10,1,100,-2.6271985137440437,-10,-1,-100,6389.796595619293,0.24685906444489275,-0.012908682623521206,0.9689654112579651,157.48687668072228,17.31961350298032,564.4795819704626,-43.16345434075526,-1.294464111328125,4381.2578125,True
1599565635.6177208,0.0,10,0.5,0.5,-2.865861482620239,-0.001,-0.02275,-0.001,-0.3217628383984683,10,1,100,-2.6892702507964366,-10,-1,-100,6388.9444460361265,0.24659846402299912,-0.01468718784729785,0.9690064416992469,157.2898915228431,17.295752121587928,566.2987695514546,-43.35210224696251,-16.20318603515625,4381.2578125,True
1599565635.6795554,0.0,10,0.5,0.5,-2.990100743484497,-0.001,-0.02275,-0.001,-0.35321335727793,10,1,100,-2.674759472206063,-10,-1,-100,6388.036590116331,0.24623396358306135,-0.016557170817315198,0.9690689837533248,154.98760337987292,17.04001247653112,560.4989425021042,-43.540780918665234,-31.182159423828125,4381.2578125,True
1599565635.7433846,0.0,10,0.5,0.5,-3.082113813018799,-0.001,-0.02275,-0.001,-0.9799867036008614,10,1,100,-2.3965943202959537,-10,-1,-100,6384.526378385024,0.24337858684176597,-0.02392638146170411,0.9696362161847368,165.3357191908662,18.166366153320002,608.5513864015115,-44.294990913670695,-91.76506042480469,4381.2578125,True
1599565635.8002374,0.0,10,0.5,0.5,-3.2974388217926025,-0.001,-0.02275,-0.001,-0.24636807030989671,10,1,100,-2.6813955579982998,-10,-1,-100,6384.526378385024,0.24337858684176597,-0.02392638146170411,0.9696362161847368,165.3357191908662,18.166366153320002,608.5513864015115,-44.294990913670695,-91.76506042480469,4381.2578125,True
1599565635.8621411,0.0,10,0.5,0.5,-2.6045955577850344,-0.001,-0.02275,-0.001,-0.7998788756274445,10,1,100,-2.329041464368979,-10,-1,-100,6381.853573241155,0.2401814533002403,-0.028931454477691434,0.9702967795640619,165.46160497144365,18.167366739866182,616.9981265432202,-44.86042116560987,-137.88665771484375,4381.2578125,True
1599565635.9199874,0.0,10,0.5,0.5,-2.5718026344299316,-0.001,-0.02275,-0.001,-0.7637142631362965,10,1,100,-2.23394089609045,-10,-1,-100,6379.1286705561215,0.23641940961828167,-0.03312135818902819,0.9710864216883363,173.3518531937705,19.01978426170849,654.7898212853073,-45.42529890912426,175.41943359375,4381.2578125,True
1599565635.9777977,0.0,10,0.5,0.5,-2.2994701736450196,-0.001,-0.02275,-0.001,-0.601078446631062,10,1,100,-2.3525527864831774,-10,-1,-100,6377.308368270169,0.23408907507964558,-0.035421014174608564,0.9715696869927541,166.44383818261335,18.249980132500777,634.0573393803927,-45.80196798069263,143.9742431640625,4381.2578125,True
1599565636.0516007,0.0,10,0.5,0.5,-2.428406001281738,-0.001,-0.02275,-0.001,-0.3744473184839451,10,1,100,-2.5841587990503094,-10,-1,-100,6377.308368270169,0.23408907507964558,-0.035421014174608564,0.9715696869927541,166.44383818261335,18.249980132500777,634.0573393803927,-45.80196798069263,143.9742431640625,4381.2578125,True
1599565636.1137898,0.0,10,0.5,0.5,-2.4974702022552493,-0.001,-0.02275,-0.001,-0.8310591374282353,10,1,100,-2.105081771637012,-10,-1,-100,6373.5995185263455,0.22974626743436405,-0.03954568985045507,0.9724468062646046,179.80765493012262,19.690423787422773,696.5615183219127,-46.55451668534534,80.30586242675781,4381.2578125,True
1599565636.173632,0.0,10,0.5,0.5,-2.5805323581695556,-0.001,-0.02275,-0.001,-0.5317654603279385,10,1,100,-2.432444325224729,-10,-1,-100,6372.691350737936,0.2287906697639679,-0.04054445283514229,0.972630956104757,175.7360297953154,19.23674128931778,683.6220965282673,-46.742666102065954,64.22505187988281,4381.2578125,True
1599565636.2314754,0.0,10,0.5,0.5,-2.6809603507995607,-0.001,-0.02275,-0.001,-0.6813838696679155,10,1,100,-2.3145552757550796,-10,-1,-100,6370.809668372502,0.22686665179086632,-0.04278746311502899,0.972985485660183,182.76576708457293,19.991381189338025,716.8767889366319,-47.118847229244636,31.870193481445312,4381.2578125,True
1599565636.287326,0.0,10,0.5,0.5,-2.7901786075592043,-0.001,-0.02275,-0.001,-0.5913792510198383,10,1,100,-2.3897328841956265,-10,-1,-100,6369.835620021913,0.22581891535771725,-0.04398279385879099,0.9731758994709225,186.5226098476664,20.395351154518217,734.6253813135388,-47.30677707006799,15.618423461914062,4381.2578125,True
1599565636.3501585,0.0,10,0.5,0.5,-2.8149818122863772,-0.001,-0.02275,-0.001,-0.8909141006956253,10,1,100,-2.1228016893159003,-10,-1,-100,6366.96650674101,0.22245833959978908,-0.047767569874680435,0.9737713008765315,177.4270754725161,19.37538631329524,707.3954624113228,-47.87067403627702,-33.341522216796875,4381.2578125,True
1599565636.4090004,0.0,10,0.5,0.5,-2.9641174533843992,-0.001,-0.02275,-0.001,-0.6567555908925248,10,1,100,-2.3099431810087214,-10,-1,-100,6365.976647550822,0.22112357542364547,-0.04905788781053995,0.9740111334247837,186.04687627949352,20.307797690686645,744.7757225236036,-48.058585437234754,-49.71044921875,4381.2578125,True
1599565636.4668467,0.0,10,0.5,0.5,-3.01059091873169,-0.001,-0.02275,-0.001,-0.8081517504265132,10,1,100,-2.115013699983771,-10,-1,-100,6364.0582218068885,0.2181582990827591,-0.05158438601494955,0.9745491304499625,195.05241051616986,21.272691379145982,787.1363512975452,-48.43404835281529,-82.49530029296875,4381.2578125,True
1599565636.5486283,0.0,10,0.5,0.5,-3.103752024078369,-0.001,-0.02275,-0.001,-0.7905363882748593,10,1,100,-2.040234573982615,-10,-1,-100,6362.020828229259,0.21480280413123143,-0.05370046933436392,0.9751799910430017,189.08570882441128,20.59891004813096,769.1696321231116,-48.8095172006174,-115.3148422241211,4381.2578125,True
1599565636.5974972,0.0,10,0.5,0.5,-2.3766231801986697,-0.001,-0.02275,-0.001,-0.8499040398740695,10,1,100,-1.7709325554420836,-10,-1,-100,6359.089604146313,0.20932380546628057,-0.05614517908369222,0.97623320130529,201.6414801564586,21.931949401842424,830.0656528206382,-49.37250238460857,-164.57879638671875,4381.2578125,True
1599565636.6782825,0.0,10,0.5,0.5,-2.3453840475082397,-0.001,-0.02275,-0.001,-0.7565479839661124,10,1,100,-1.7268747870612513,-10,-1,-100,6356.105656715459,0.20396488630342074,-0.057500110924910086,0.9772881163704261,191.30773650923726,20.76946805173451,796.8307922434157,-49.935214139222836,146.14874267578125,4381.2578125,True
1599565636.7411172,0.0,10,0.5,0.5,-2.0067532751083372,-0.001,-0.02275,-0.001,-0.6550599730983979,10,1,100,-2.0763982295855277,-10,-1,-100,6355.132090671221,0.2022980130772018,-0.05778917695744683,0.9776174737245631,196.81157820593842,21.354021016995457,822.9628504738471,-50.12281853840605,129.7236328125,4381.2578125,True
1599565636.808937,0.0,10,0.5,0.5,-2.102752005958557,-0.001,-0.02275,-0.001,-0.6551189174984104,10,1,100,-2.064738384406461,-10,-1,-100,6354.095110712806,0.20070162814660866,-0.05803591512965581,0.9779318427244119,204.3269646663117,22.157453962306736,857.7181144113043,-50.310258875709465,113.2977294921875,4381.2578125,True
1599565636.8827379,0.0,10,0.5,0.5,-2.099388258171081,-0.001,-0.02275,-0.001,-0.7324292239044805,10,1,100,-1.588772149240972,-10,-1,-100,6350.014654520317,0.19494893883694442,-0.05894714219690596,0.9790404208576717,195.89500925212877,21.187721153645604,835.0713662311048,-51.05987738962735,47.582733154296875,4381.2578125,True
1599565636.9405844,0.0,10,0.5,0.5,-2.1679823694229126,-0.001,-0.02275,-0.001,-0.6779736706602795,10,1,100,-2.0122099051868423,-10,-1,-100,6348.978891632869,0.19359767153035204,-0.05926578933847529,0.9792892870812553,205.5500496836019,22.218483623843973,879.5924439631128,-51.247248586082534,31.149276733398438,4381.2578125,True
1599565637.0024612,0.0,10,0.5,0.5,-2.1211294069290156,-0.001,-0.02275,-0.001,-0.7810290350029779,10,1,100,-1.6758484164276022,-10,-1,-100,6345.932136370335,0.18934070703002712,-0.0604784418743995,0.9800471696453261,209.42089673066454,22.594877377671303,906.3986138557905,-51.80881759546022,-18.1602783203125,4381.2578125,True
1599565637.0588272,0.0,10,0.5,0.5,-2.1392246438980105,-0.001,-0.02275,-0.001,-0.7595954818940678,10,1,100,-1.7509284065120614,-10,-1,-100,6343.797440449824,0.18618339160556296,-0.0613744474497044,0.9805962073608551,204.61470496613333,22.04418594850316,892.2920542749627,-52.18349636171565,-51.036102294921875,4381.2578125,True
1599565637.1146777,0.0,10,0.5,0.5,-2.103343640327453,-0.001,-0.02275,-0.001,-0.7510831913384813,10,1,100,-1.6739245095590167,-10,-1,-100,6341.7245168697555,0.18264483323267522,-0.06210041664071337,0.9812157780765951,218.4373551110733,23.504523262215802,959.72573410519,-52.55760720881463,-83.90658569335938,4381.2578125,True
1599565637.1750276,0.0,10,0.5,0.5,-2.133003449440002,-0.001,-0.02275,-0.001,-0.6795378753001605,10,1,100,-2.0242290002627827,-10,-1,-100,6341.7245168697555,0.18264483323267522,-0.06210041664071337,0.9812157780765951,218.4373551110733,23.504523262215802,959.72573410519,-52.55760720881463,-83.90658569335938,4381.2578125,True
1599565637.2298806,0.0,10,0.5,0.5,-2.073041827774048,-0.001,-0.02275,-0.001,-0.7177931763688913,10,1,100,-1.1591354593081524,-10,-1,-100,6337.513573722099,0.17480958101572272,-0.062440555789241514,0.982620367882652,214.7816026564974,23.038916170093117,957.7477070036114,-53.305892498168156,-149.61428833007812,4381.2578125,True
1599565637.720569,0.0,10,0.5,0.5,-2.1727937862396236,-0.001,-0.02275,-0.001,-0.6844087991866318,10,1,100,-1.9392092585583462,-10,-1,-100,6337.513573722099,0.17480958101572272,-0.062440555789241514,0.982620367882652,214.7816026564974,23.038916170093117,957.7477070036114,-53.305892498168156,-149.61428833007812,4381.2578125,True
1599565637.7744248,0.0,10,0.5,0.5,-2.154268614578247,-0.001,-0.02275,-0.001,-0.6206096825644777,10,1,100,-1.4966854246229446,-10,-1,-100,6335.315206054365,0.17081314189384425,-0.061856072506436176,0.9833599019943978,224.72015525497238,24.073421910881986,1009.455596218277,-53.67955695550201,177.55357360839844,4381.2578125,True
1599565637.825289,0.0,10,0.5,0.5,-1.9359138679504395,-0.001,-0.02275,-0.001,-0.6794647003999105,10,1,100,-1.893180849692456,-10,-1,-100,6335.315206054365,0.17081314189384425,-0.061856072506436176,0.9833599019943978,224.72015525497238,24.073421910881986,1009.455596218277,-53.67955695550201,177.55357360839844,4381.2578125,True
1599565637.882137,0.0,10,0.5,0.5,-1.9836451992034911,-0.001,-0.02275,-0.001,-0.4930853343557635,10,1,100,-1.281527562027206,-10,-1,-100,6332.079870285117,0.16527982881166267,-0.06015824176296504,0.9844102621041576,209.39827822991194,22.376714647530502,950.9628593280629,-54.24039986311182,128.32821655273438,4381.2578125,True
1599565637.9439726,0.0,10,0.5,0.5,-2.1509494045257567,-0.001,-0.02275,-0.001,-0.5056263284073486,10,1,100,-1.4754191937651495,-10,-1,-100,6329.943427476566,0.16203916730732007,-0.058727667306127454,0.9850352122392028,226.63017819593364,24.18678987872443,1036.717417093055,-54.613978319605856,95.5196533203125,4381.2578125,True
1599565638.0043223,0.0,10,0.5,0.5,-2.231777631378174,-0.001,-0.02275,-0.001,-0.4095813517866007,10,1,100,-1.331012379213174,-10,-1,-100,6326.6469074812485,0.15780901172037523,-0.05655449812338862,0.9858488243954293,217.2306062950218,23.128424147778993,1004.4658322497311,-55.174118542127616,46.30818176269531,4381.2578125,True
1599565638.0590835,0.0,10,0.5,0.5,-2.3620307956695554,-0.001,-0.02275,-0.001,-0.4886627322089868,10,1,100,-1.4671333189450035,-10,-1,-100,6324.385950870113,0.15522954399826897,-0.055301378637239565,0.986329329479211,225.93125337844387,24.02245046599332,1052.2090508127503,-55.54767401323347,13.49615478515625,4381.2578125,True
1599565638.1159317,0.0,10,0.5,0.5,-2.541653707504272,-0.001,-0.02275,-0.001,-0.613367373942646,10,1,100,-1.7219847063949008,-10,-1,-100,6324.385950870113,0.15522954399826897,-0.055301378637239565,0.986329329479211,225.93125337844387,24.02245046599332,1052.2090508127503,-55.54767401323347,13.49615478515625,4381.2578125,True
1599565638.169789,0.0,10,0.5,0.5,-2.6976136554718013,-0.001,-0.02275,-0.001,-0.4935546739309622,10,1,100,-1.4384879644077104,-10,-1,-100,6322.188522516051,0.1526772238795076,-0.05421835321713651,0.9867877357785051,229.9368380536034,24.41713715439691,1078.4724508416655,-55.920689999078235,-19.319488525390625,4381.2578125,True
1599565638.2341173,0.0,10,0.5,0.5,-2.778917740249634,-0.001,-0.02275,-0.001,-0.43111233820897366,10,1,100,-1.2279930489060553,-10,-1,-100,6318.765301184263,0.14847058600275784,-0.05267329256813708,0.9875130426186932,222.72182897841196,23.59808918743452,1055.7333445554725,-56.480792089049274,-68.5430908203125,4381.2578125,True
1599565638.2929933,0.0,10,0.5,0.5,-2.9141540615081793,-0.001,-0.02275,-0.001,-0.37536426912246684,10,1,100,-1.1307223388581116,-10,-1,-100,6315.405244220863,0.14378603510983398,-0.05077077068027946,0.9883055726605633,233.2728762653436,24.66818149242308,1117.371858758002,-57.03990277243291,-117.75521850585938,4381.2578125,True
1599565638.3498862,0.0,10,0.5,0.5,-3.0358455730438236,-0.001,-0.02275,-0.001,-0.5644494793973331,10,1,100,-1.5960750735599083,-10,-1,-100,6315.405244220863,0.14378603510983398,-0.05077077068027946,0.9883055726605633,233.2728762653436,24.66818149242308,1117.371858758002,-57.03990277243291,-117.75521850585938,4381.2578125,True
1599565638.411726,0.0,10,0.5,0.5,-2.952859013366699,-0.001,-0.02275,-0.001,-0.13693510560449174,10,1,100,-0.8672782222371814,-10,-1,-100,6310.757563762367,0.13718517928579466,-0.046894353920186496,0.9894347609391602,236.6588237989776,24.958464999860933,1149.4183395330076,-57.78572134420357,176.66525268554688,4381.2578125,True
1599565638.4824944,0.0,10,0.5,0.5,-2.623641916275024,-0.001,-0.02275,-0.001,-0.3868689796923281,10,1,100,-1.356729617220561,-10,-1,-100,6309.595179512282,0.1356645302752515,-0.045656066374160725,0.9897023081858675,238.3002158802008,25.116461522117877,1161.3634490326851,-57.971879567930415,160.27740478515625,4381.2578125,True
1599565638.5508084,0.0,10,0.5,0.5,-2.6471760204315182,-0.001,-0.02275,-0.001,-0.20898388691081327,10,1,100,-1.185083138615795,-10,-1,-100,6307.2710099895485,0.13274862254974748,-0.04292639701193153,0.99021973705371,227.20606171844494,23.91124678810501,1114.8868349344982,-58.344493153635945,127.50833129882812,4381.2578125,True
1599565638.621653,0.0,10,0.5,0.5,-2.6544358280181886,-0.001,-0.02275,-0.001,0.01998238960470128,10,1,100,-1.0770735344432492,-10,-1,-100,6303.784362164093,0.12914251962022757,-0.038377732596395035,0.9908831208911061,238.91099383673262,25.10398616160611,1184.374535489802,-58.90336181177592,78.3665771484375,4381.2578125,True
1599565638.6934278,0.0,10,0.5,0.5,-2.7765104316711424,-0.001,-0.02275,-0.001,-0.4330663753962489,10,1,100,-1.434817178185225,-10,-1,-100,6303.784362164093,0.12914251962022757,-0.038377732596395035,0.9908831208911061,238.91099383673262,25.10398616160611,1184.374535489802,-58.90336181177592,78.3665771484375,4381.2578125,True
1599565638.7856886,0.0,10,0.5,0.5,-2.7930420585632323,-0.001,-0.02275,-0.001,0.21813189894434348,10,1,100,-1.0490452097547363,-10,-1,-100,6299.013151294785,0.12565921720211226,-0.032473133416972236,0.9915418582885122,227.46182841869805,23.84436781086547,1142.9122366076326,-59.648112773242836,12.84228515625,4381.2578125,True
1599565638.8525097,0.0,10,0.5,0.5,-2.791543518829346,-0.001,-0.02275,-0.001,-0.07580644941250542,10,1,100,-1.2174738779845904,-10,-1,-100,6296.628703244496,0.12405063046663897,-0.02979823573457765,0.9918283653071917,240.0809072085624,25.14954410114708,1214.412590086647,-60.02015528182054,-19.92535400390625,4381.2578125,True
