Timestamp,Input Throttle,horizon,dT,dt,Input Roll,Roll P,Roll I,Roll D,Input Pitch,Pitch P,Pitch I,Pitch D,Input Yaw,Yaw P,Yaw I,Yaw D,Altitude,Direction X,Direction Y,Direction Z,Drag X,Drag Y,Drag Z,Vertical Velocity,Roll,Mass,Has Fuel
1599567656.553836,0.0,10,0.5,0.5,-2.744513442993164,-0.05075,-0.02275,-0.37525,-0.06718841445843257,10,1,100,0.6903617110767217,-10,-1,-100,6483.617967234692,-0.06725837759936851,-0.007002336609593366,0.9977110192459071,205.07310199736793,21.49876438755979,-156.7651448620159,9.590823852512454,-35.944610595703125,4381.2578125,True
1599567656.6146731,0.0,10,0.5,0.5,-2.866989049530029,-0.05075,-0.02275,-0.37525,-0.0690628687242149,10,1,100,0.6894636256506528,-10,-1,-100,6483.776675390545,-0.06735068679843242,-0.006987239054750838,0.9977048979924731,204.84270597966457,21.47778333425822,-153.5132130962457,9.400809998223536,-35.942962646484375,4381.2578125,True
1599567656.6715214,0.0,10,0.5,0.5,-2.9732948135375983,-0.05075,-0.02275,-0.37525,-0.05042613265323742,10,1,100,0.7100153869266852,-10,-1,-100,6484.316760194022,-0.06756021054845589,-0.0067977370960171524,0.9976920410231915,204.14945737779922,21.414354382221195,-143.7893403007153,8.83079766811524,-35.98065185546875,4381.2578125,True
1599567656.7264051,0.0,10,0.5,0.5,-2.9927812911987304,-0.05075,-0.02275,-0.37525,-0.03423990803541836,10,1,100,0.6997056079477404,-10,-1,-100,6484.697140875505,-0.06759554304817003,-0.0064721353305554315,0.9976918131488732,203.7566313533839,21.37897211507029,-137.38153115833757,8.450805407988778,-36.256591796875,4381.2578125,True
1599567656.7812283,0.0,10,0.5,0.5,-2.9794500259399417,-0.05075,-0.02275,-0.37525,-0.015317116384124072,10,1,100,0.6974374674711756,-10,-1,-100,6485.016949621029,-0.0675455935498976,-0.005998224587550687,0.9976981578081566,203.44651982211244,21.351663938971466,-131.04530573595105,8.070815962142524,-36.817962646484375,4381.2578125,True
1599567657.2995372,0.0,10,0.5,0.5,-2.9473919120788574,-0.05075,-0.02275,-0.37525,0.012299626812113662,10,1,100,0.6892410245339107,-10,-1,-100,6485.335755313048,-0.06736426671244762,-0.005310882406137348,0.9977143128663446,203.1993199644636,21.33007550955072,-124.7611088375214,7.690821926006681,-37.671722412109375,4381.2578125,True
1599567657.3529065,0.0,10,0.5,0.5,-2.898006736755371,-0.05075,-0.02275,-0.37525,0.04198503270880912,10,1,100,0.6786481211944988,-10,-1,-100,6485.590081111528,-0.0670418847692144,-0.004411330476331502,0.9977404100516426,202.97290098962577,21.309552992829783,-118.49872714942914,7.31081537697157,-38.81915283203125,4381.2578125,True
1599567657.4057662,0.0,10,0.5,0.5,-3.1536754867553713,-0.05075,-0.02275,-0.37525,0.009766124274883714,10,1,100,0.6936581765161569,-10,-1,-100,6485.750193101936,-0.06682431815577271,-0.003882444861837935,0.9977572034943726,202.8502230511358,21.29782121933672,-115.36533319807533,7.12080478460043,-39.5030517578125,4381.2578125,True
1599567657.462611,0.0,10,0.5,0.5,-2.8485657028198244,-0.05075,-0.02275,-0.37525,0.08864347892511032,10,1,100,0.6606814207845721,-10,-1,-100,6486.005455641076,-0.06626599225676061,-0.002681043401967325,0.9977983915984749,202.54354205204203,21.2668694328939,-109.0727829347205,6.740763492302348,-41.09136962890625,4381.2578125,True
1599567657.5423992,0.0,10,0.5,0.5,-2.3060861785888673,-0.05075,-0.02275,-0.37525,0.20522392122019417,10,1,100,0.5957113665309076,-10,-1,-100,6486.420283035492,-0.0651075445896647,-0.0005266007417642198,0.9978781139644077,201.77061553923915,21.184727679936085,-99.50484240531377,6.17063268204184,-44.02508544921875,4381.2578125,True
1599567657.6221855,0.0,10,0.5,0.5,-3.032344972229004,-0.05075,-0.02275,-0.37525,0.07908005994736347,10,1,100,0.665880386557036,-10,-1,-100,6486.517857204075,-0.06463312185200625,0.00028569984752356423,0.9979090529378221,201.37945703251145,21.142537127060663,-96.2647423834082,5.98056456888247,-45.149993896484375,4381.2578125,True
1599567657.6913116,0.0,10,0.5,0.5,-1.8075275497436523,-0.05075,-0.02275,-0.37525,0.284486745913512,10,1,100,0.5218030985633559,-10,-1,-100,6486.868649016134,-0.06289442152305362,0.0028848629497891572,0.9980160165583725,199.59954047907522,20.950016191242067,-86.34538844219281,5.410256965852669,-48.966888427734375,4381.2578125,True
1599567657.7521503,0.0,10,0.5,0.5,-2.605405076599121,-0.05075,-0.02275,-0.37525,0.126884592330681,10,1,100,0.6200684569096699,-10,-1,-100,6486.965223753941,-0.062211157450131706,0.0038060170083643783,0.9980557530134511,198.74997974144836,20.858227531263534,-82.96529678169733,5.220112041011541,-50.386566162109375,4381.2578125,True
1599567657.8112183,0.0,10,0.5,0.5,-0.37237704391479554,-0.05075,-0.02275,-0.37525,0.4690557189711778,10,1,100,0.32845682855533737,-10,-1,-100,6487.351963154855,-0.05894385626525269,0.007744436618251476,0.9982312585318329,193.58516638765468,20.302818895227706,-69.0589398085866,4.459245415866224,-56.802032470703125,4381.2578125,True
1599567657.8731945,0.0,10,0.5,0.5,-2.733039898681641,-0.05075,-0.02275,-0.37525,0.07663541517734873,10,1,100,0.6543217783649471,-10,-1,-100,6487.351963154855,-0.05894385626525269,0.007744436618251476,0.9982312585318329,193.58516638765468,20.302818895227706,-69.0589398085866,4.459245415866224,-56.802032470703125,4381.2578125,True
1599567657.9320357,0.0,10,0.5,0.5,-1.1327437423706055,-0.05075,-0.02275,-0.37525,0.30961711182511825,10,1,100,0.43640791861924744,-10,-1,-100,6487.544089337112,-0.05697064093782328,0.009849958713953198,0.998327263167979,189.6603669147457,19.883439326149944,-61.894516183588514,4.078586324007948,-60.451873779296875,4381.2578125,True
1599567657.9913933,0.0,10,0.5,0.5,-0.8091582015991212,-0.05075,-0.02275,-0.37525,0.3117306825685474,10,1,100,0.3951471282896668,-10,-1,-100,6487.675169729046,-0.05481115947877729,0.011769501406694945,0.9984273712360002,184.6724315433238,19.352903791109874,-54.64833260676077,3.6977331693983806,-64.30484008789062,4381.2578125,True
1599567658.0512333,0.0,10,0.5,0.5,-0.4634927619934086,-0.05075,-0.02275,-0.37525,0.35666094539371984,10,1,100,0.3414721642547054,-10,-1,-100,6487.8052647437435,-0.05237115913868168,0.013908287305886259,0.9985308313891403,178.6518020467532,18.715195005935087,-47.42578735374596,3.316656792981099,-68.37411499023438,4381.2578125,True
1599567658.1122031,0.0,10,0.5,0.5,1.8988581115722654,-0.05075,-0.02275,-0.37525,0.5656891258570441,10,1,100,-0.010671766890990697,-10,-1,-100,6488.003925773897,-0.04696480778183124,0.01773672091648338,0.9987390627992612,162.73128962787686,17.039463175693136,-33.26967663416628,2.553608826357523,-77.349853515625,4381.2578125,True
1599567658.1785264,0.0,10,0.5,0.5,-0.3699665283203126,-0.05075,-0.02275,-0.37525,0.2844678739721317,10,1,100,0.36676133442324843,-10,-1,-100,6488.100467570825,-0.045498699455255684,0.018641996668692058,0.9987904406371162,157.93090351868184,16.535713814855683,-29.8757387184204,2.3626683069807015,-79.73678588867188,4381.2578125,True
1599567658.2413585,0.0,10,0.5,0.5,-0.1510099693298339,-0.05075,-0.02275,-0.37525,0.2924544282955186,10,1,100,0.3452800671518653,-10,-1,-100,6488.133534780238,-0.043988415678751155,0.01952015366690305,0.9988413201739773,152.82986820300226,16.000815072837163,-26.575219091758704,2.171677858860406,-82.16262817382812,4381.2578125,True
1599567658.3071816,0.0,10,0.5,0.5,2.0368906578063966,-0.05075,-0.02275,-0.37525,0.46420612940299355,10,1,100,-0.012815620808398043,-10,-1,-100,6488.2347098628525,-0.03937878299699306,0.02186237144459974,0.9989851591312526,149.38434822037485,15.63942428689348,-19.123713247157713,1.598541799938619,-89.23773193359375,4381.2578125,True
1599567658.3720093,0.0,10,0.5,0.5,0.4746832412719726,-0.05075,-0.02275,-0.37525,0.3121641333171442,10,1,100,0.26555283870050295,-10,-1,-100,6488.26925469737,-0.03774020804413576,0.022592208088548275,0.9990321660639707,152.68815492891272,15.985142490580492,-17.211321815646986,1.4074784875337456,-91.58775329589844,4381.2578125,True
1599567658.4378338,0.0,10,0.5,0.5,1.7049449832916257,-0.05075,-0.02275,-0.37525,0.38459476006056703,10,1,100,0.0624602157500998,-10,-1,-100,6488.27341121831,-0.03442654419599455,0.023897077834277893,0.9991214854689612,158.999849762939,16.644660113023626,-13.058670973102908,1.0253824614369016,-96.32572174072266,4381.2578125,True
1599567658.5076468,0.0,10,0.5,0.5,1.981569256401062,-0.05075,-0.02275,-0.37525,0.37669500478631257,10,1,100,0.0340039923988501,-10,-1,-100,6488.341063631582,-0.03117771804182687,0.02499682288134248,0.999201235359296,165.41944892473117,17.314223471925832,-8.525131275062424,0.6433495324064893,-100.93753051757812,4381.2578125,True
1599567658.5754652,0.0,10,0.5,0.5,2.2354725343704223,-0.05075,-0.02275,-0.37525,0.37633888728944503,10,1,100,-0.024303048083092915,-10,-1,-100,6488.345256710076,-0.027719417659314426,0.025977669686645045,0.9992781367378555,170.80132911184742,17.875036866720293,-3.5763340545715625,0.26135231331792186,-105.36024475097656,4381.2578125,True
1599567658.6452792,0.0,10,0.5,0.5,3.3147940961837765,-0.05075,-0.02275,-0.37525,0.40406715694764045,10,1,100,-0.23681749533355,-10,-1,-100,6488.322044068482,-0.02267015072137033,0.027106762223837615,0.9993754488219182,178.2364901583045,18.651383371595692,4.452070509120399,-0.31171782834584416,-111.54986572265625,4381.2578125,True
1599567658.7180846,0.0,10,0.5,0.5,2.7042487775802613,-0.05075,-0.02275,-0.37525,0.3543715602710735,10,1,100,-0.10374314254634881,-10,-1,-100,6488.3277556236135,-0.019318893992902444,0.027667488868937395,0.9994304830224953,182.36593814826023,19.082883154411725,10.141334243510695,-0.693888504271964,-115.31659698486328,4381.2578125,True
1599567658.7998667,0.0,10,0.5,0.5,2.8767953254699705,-0.05075,-0.02275,-0.37525,0.34695713194510786,10,1,100,-0.1292341277611548,-10,-1,-100,6488.268549484783,-0.016070608251565928,0.028097328105552915,0.9994760005641725,185.77403338723335,19.43905236470568,16.02452607550911,-1.076164266693084,-118.7889404296875,4381.2578125,True
1599567658.8816464,0.0,10,0.5,0.5,3.0216019573211668,-0.05075,-0.02275,-0.37525,0.3387754490886424,10,1,100,-0.15561029005394703,-10,-1,-100,6488.210344719584,-0.012905923556353043,0.02840429337906364,0.9995131981393711,188.25475058947038,19.698437432116148,22.011627293365486,-1.4585540849342753,-121.96623992919922,4381.2578125,True
1599567658.960437,0.0,10,0.5,0.5,3.153148690986633,-0.05075,-0.02275,-0.37525,0.3302930404350934,10,1,100,-0.17948754592158986,-10,-1,-100,6488.154114981764,-0.009841501303634488,0.02859736509748624,0.999542563156553,189.99286906109808,19.88028905677704,28.044829992746763,-1.841058497863713,-124.84829711914062,4381.2578125,True
1599567659.0322454,0.0,10,0.5,0.5,2.7354384107589724,-0.05075,-0.02275,-0.37525,0.31870569312820984,10,1,100,-0.03946805659455449,-10,-1,-100,6488.124299216084,-0.008359609989931684,0.02865929331014368,0.9995542815814353,190.6288983679495,19.946826703852473,31.064794635205054,-2.0323516473332184,-126.17851257324219,4381.2578125,True
1599567659.1055624,0.0,10,0.5,0.5,3.3591778558731082,-0.05075,-0.02275,-0.37525,0.32028957755901233,10,1,100,-0.20991240423414284,-10,-1,-100,6488.003157327417,-0.005491141247121115,0.028723811614779972,0.9995723035449325,191.5400595511994,20.042045437523573,37.09607011952507,-2.4150142404517725,-128.61715698242188,4381.2578125,True
1599567659.1763735,0.0,10,0.5,0.5,3.850500594139099,-0.05075,-0.02275,-0.37525,0.3083590483596358,10,1,100,-0.3758296832181626,-10,-1,-100,6487.853213842027,-0.001404420823617703,0.028668431077612966,0.9995879894545043,192.23494163158054,20.114252288332533,46.093432934071394,-2.989179524250914,-131.7208709716797,4381.2578125,True
1599567659.2531683,0.0,10,0.5,0.5,3.804945392227173,-0.05075,-0.02275,-0.37525,0.2936702151500245,10,1,100,-0.38712030429851024,-10,-1,-100,6487.640801518923,0.002383401459050034,0.02848021269351619,0.9995915150112156,192.46724525189902,20.13734206033473,55.03040062752229,-3.563519511923226,-134.15887451171875,4381.2578125,True
1599567659.326984,0.0,10,0.5,0.5,3.5000741931915287,-0.05075,-0.02275,-0.37525,0.29851030873375173,10,1,100,-0.26583829421768707,-10,-1,-100,6487.518741180305,0.004693802424830605,0.02834993920436012,0.9995870393146891,192.4769665244417,20.1369895659681,60.9586199231264,-3.9464950562124703,-135.41336059570312,4381.2578125,True
1599567659.4013727,0.0,10,0.5,0.5,3.317556886291504,-0.05075,-0.02275,-0.37525,0.3037191936497745,10,1,100,-0.1591894725100101,-10,-1,-100,6487.428418621421,0.005795165632666657,0.028276705650256886,0.9995833351816439,192.46557267300466,20.134929160178316,63.91885531527144,-4.13800490630892,-135.92945861816406,4381.2578125,True
1599567659.4712207,0.0,10,0.5,0.5,3.5244071369171146,-0.05075,-0.02275,-0.37525,0.2931987957561941,10,1,100,-0.28168974517604506,-10,-1,-100,6487.243386738934,0.00788416619461426,0.02811342612619738,0.999573646708867,192.53540450925382,20.140125923019767,69.87450687839379,-4.521064132901138,-136.73944091796875,4381.2578125,True
1599567659.5419984,0.0,10,0.5,0.5,3.4880419683456423,-0.05075,-0.02275,-0.37525,0.2893236755449934,10,1,100,-0.2890320884777369,-10,-1,-100,6487.059338756953,0.009825276135320629,0.02792935643217122,0.9995616114067954,192.65689475750185,20.15023656041486,75.8583305408216,-4.904169879435594,-137.25315856933594,4381.2578125,True
1599567659.607037,0.0,10,0.5,0.5,3.429708987617493,-0.05075,-0.02275,-0.37525,0.28834957704036135,10,1,100,-0.29279784665843106,-10,-1,-100,6486.813282565679,0.011600613988162832,0.02775331760726295,0.9995474871745152,192.8504330120293,20.16743704036029,81.88382720528647,-5.287315498919134,-137.4701385498047,4381.2578125,True
1599567659.6733189,0.0,10,0.5,0.5,3.2853529308319094,-0.05075,-0.02275,-0.37525,0.2768412617041531,10,1,100,-0.3785246616903149,-10,-1,-100,6486.474476970383,0.013971613502359674,0.027489253059536995,0.9995244544193851,193.30118983636495,20.209382364235417,91.02693173891001,-5.862095237207866,-137.23960876464844,4381.2578125,True
1599567659.7381766,0.0,10,0.5,0.5,3.3041708656311037,-0.05075,-0.02275,-0.37525,0.29328420047251924,10,1,100,-0.22235088243377316,-10,-1,-100,6486.382212551311,0.014685657690382792,0.02739968301589668,0.9995166776141504,193.49630180140718,20.22795219774621,94.1076183731566,-6.053701802611315,-137.01454162597656,4381.2578125,True
1599567659.8015463,0.0,10,0.5,0.5,3.2858224884033205,-0.05075,-0.02275,-0.37525,0.292324472028122,10,1,100,-0.22743592918122713,-10,-1,-100,6486.226960107684,0.015360066224762195,0.027310675999723918,0.9995089771192697,193.71086355059668,20.248538119096295,97.20505783046644,-6.245313745283631,-136.71534729003906,4381.2578125,True
1599567659.8634145,0.0,10,0.5,0.5,2.8445555637359625,-0.05075,-0.02275,-0.37525,0.2746643360051444,10,1,100,-0.3569924081576128,-10,-1,-100,6485.825652785832,0.017131995421736174,0.027070498508098933,0.9994867096882241,194.44128595446819,20.319524483715615,106.59061406530476,-6.820172900496349,-135.37271118164062,4381.2578125,True
1599567659.9267263,0.0,10,0.5,0.5,2.817687455749512,-0.05075,-0.02275,-0.37525,0.2788353418802006,10,1,100,-0.29183306392293296,-10,-1,-100,6485.578128921217,0.01813363118390147,0.02689152623509447,0.99947387021214,194.95921565457735,20.370568861905753,112.90824592252966,-7.203421553022003,-134.10745239257812,4381.2578125,True
1599567659.987562,0.0,10,0.5,0.5,2.9755239311218262,-0.05075,-0.02275,-0.37525,0.28677367873314097,10,1,100,-0.2418338188609483,-10,-1,-100,6485.4233596202685,0.018575352167374742,0.02680243512780662,0.9994681514500988,195.20611622679365,20.395095648149866,116.07343031154122,-7.395045372968627,-133.36370849609375,4381.2578125,True
1599567660.0503926,0.0,10,0.5,0.5,2.109925051879883,-0.05075,-0.02275,-0.37525,0.2693443766929222,10,1,100,-0.31583341599118997,-10,-1,-100,6484.95855277183,0.019637020717404873,0.02656440183361254,0.999454211043491,195.8019888718842,20.455156417436516,125.52815146656286,-7.9699018829425015,-130.68759155273438,4381.2578125,True
1599567660.1182134,0.0,10,0.5,0.5,2.184696726608277,-0.05075,-0.02275,-0.37525,0.27197646263838654,10,1,100,-0.26958099846913414,-10,-1,-100,6484.585521532339,0.020169113917154723,0.026373492623682732,0.9994486708834153,195.9777894714785,20.473889543511877,131.71841387035553,-8.353117799765094,-128.53379821777344,4381.2578125,True
1599567660.187028,0.0,10,0.5,0.5,1.9305931404113774,-0.05075,-0.02275,-0.37525,0.26962794494504955,10,1,100,-0.2584142342893808,-10,-1,-100,6484.274493332254,0.020540150835545428,0.026180170393354855,0.9994461970920835,195.86816271514135,20.46473629648861,137.7230943945907,-8.736309848172361,-126.08392333984375,4381.2578125,True
1599567660.2518566,0.0,10,0.5,0.5,1.654883749008179,-0.05075,-0.02275,-0.37525,0.2652340278694137,10,1,100,-0.24665488888691656,-10,-1,-100,6483.902420601458,0.0207608131897871,0.0259660683796772,0.9994472231831959,195.36546845605997,20.416863682481342,143.43664698959032,-9.119473838832873,-123.33834838867188,4381.2578125,True
1599567660.3156865,0.0,10,0.5,0.5,1.3575252700805667,-0.05075,-0.02275,-0.37525,0.2593136450014364,10,1,100,-0.23443746383674155,-10,-1,-100,6483.528873120085,0.020842020375731005,0.02571923329501371,0.9994519154143306,194.34445891626316,20.317511194144213,148.7267200915564,-9.502610797657148,-120.29730224609375,4381.2578125,True
1599567660.3765929,0.0,10,0.5,0.5,1.7651929866790772,-0.05075,-0.02275,-0.37525,0.268919424712841,10,1,100,-0.22553991271016846,-10,-1,-100,6483.3106020978885,0.020828712437371735,0.02558377214248196,0.9994556695227472,193.59666101167818,20.244093074543848,151.16439853813984,-9.69417144518579,-118.66598510742188,4381.2578125,True
1599567660.438397,0.0,10,0.5,0.5,0.8514075325012211,-0.05075,-0.02275,-0.37525,0.2489446261149763,10,1,100,-0.21375274349007056,-10,-1,-100,6482.937039749231,0.020703873632546974,0.025280687390084707,0.9994659756398376,191.92577755921246,20.081035655223488,155.83133894982726,-10.077284178605666,-115.18196105957031,4381.2578125,True
1599567660.4992347,0.0,10,0.5,0.5,-0.35212936401367156,-0.05075,-0.02275,-0.37525,0.21821062865849214,10,1,100,-0.1804078798527819,-10,-1,-100,6482.283170779236,0.02028239067926931,0.024727601264309746,0.9994884543425436,188.1268602377654,19.705849292357946,161.53691323503566,-10.651966009429753,-109.40278625488281,4381.2578125,True
1599567660.5630624,0.0,10,0.5,0.5,0.873989221572876,-0.05075,-0.02275,-0.37525,0.24947690613239293,10,1,100,-0.20083631986203926,-10,-1,-100,6482.0648846394615,0.020082073453412376,0.02451116448813505,0.9994978304835119,186.36656897881775,19.52990414847395,162.9309808830741,-10.843543645137776,-107.32899475097656,4381.2578125,True
1599567660.6239336,0.0,10,0.5,0.5,-0.26024829788208015,-0.05075,-0.02275,-0.37525,0.21822737343150195,10,1,100,-0.1686061697772293,-10,-1,-100,6481.62928109779,0.019605194208890064,0.02403248108682901,0.9995189223885873,182.02730164082828,19.09255388342156,164.81806057233376,-11.226748104090145,-102.98273468017578,4381.2578125,True
1599567660.6837406,0.0,10,0.5,0.5,-1.533596906852722,-0.05075,-0.02275,-0.37525,0.1718319558247381,10,1,100,-0.11870052579084325,-10,-1,-100,6480.9734193986515,0.01871704373031944,0.023178055974708373,0.9995561264857671,174.79800758761922,18.359120382014176,166.46766428659214,-11.801719592978248,-96.3274154663086,4381.2578125,True
1599567660.7441237,0.0,10,0.5,0.5,-0.08944639549255351,-0.05075,-0.02275,-0.37525,0.22067507043822365,10,1,100,-0.1697102501282607,-10,-1,-100,6480.694085798808,0.01837419531376547,0.022848412683683938,0.9995700770753433,171.90031927140458,18.062063156934897,166.39815812926412,-11.993430662866082,-94.0384750366211,4381.2578125,True
1599567660.8049617,0.0,10,0.5,0.5,-1.2633325117111207,-0.05075,-0.02275,-0.37525,0.17511803393206365,10,1,100,-0.12375643342312707,-10,-1,-100,6480.194006799837,0.017646384709218275,0.02213778670536936,0.999599181425476,165.75922507237718,17.428119070609476,165.64679646046784,-12.376939814913191,-89.45083618164062,4381.2578125,True
1599567660.8648334,0.0,10,0.5,0.5,-2.422580372047424,-0.05075,-0.02275,-0.37525,0.1117178409778073,10,1,100,-0.06436369643496367,-10,-1,-100,6479.476107781054,0.016447435428943273,0.02091907259248831,0.9996458744323816,155.93679785251956,16.401539133051344,163.1703127755027,-12.952382981732296,-82.88412475585938,4381.2578125,True
1599567660.9240355,0.0,10,0.5,0.5,-1.8444576486587525,-0.05075,-0.02275,-0.37525,0.1312754546871725,10,1,100,-0.08904042398667628,-10,-1,-100,6478.914497184218,0.015585736677127789,0.019993535337942663,0.9996786200359201,164.09825988522684,17.2560233458729,176.86560297038358,-13.335972640653225,-78.6728515625,4381.2578125,True
1599567660.9842734,0.0,10,0.5,0.5,-1.2171392435073853,-0.05075,-0.02275,-0.37525,0.16928023519457003,10,1,100,-0.12600872944309974,-10,-1,-100,6478.634179148823,0.015143228119352656,0.019502841018383937,0.9996951144395659,168.1828164768666,17.68139138939404,183.91128196613,-13.527715640176682,-76.65814208984375,4381.2578125,True
1599567661.0461087,0.0,10,0.5,0.5,-2.1818263948440553,-0.05075,-0.02275,-0.37525,0.10599550605788209,10,1,100,-0.07142223391069816,-10,-1,-100,6478.0720801429125,0.014249875365915265,0.01848696767310984,0.9997275494244967,175.52433973965483,18.441264924619123,197.45959719324412,-13.911081058709199,-72.84326171875,4381.2578125,True
1599567661.1049566,0.0,10,0.5,0.5,-2.345738381767273,-0.05075,-0.02275,-0.37525,0.08537521557554661,10,1,100,-0.058372162757716645,-10,-1,-100,6477.509493444464,0.013324966759823835,0.01738216537276395,0.9997601240236598,181.84227960625844,19.089547949475197,210.28945699483708,-14.294274374527824,-69.32418823242188,4381.2578125,True
1599567661.1618052,0.0,10,0.5,0.5,-2.4884954011917113,-0.05075,-0.02275,-0.37525,0.06423669783707843,10,1,100,-0.04643929873991548,-10,-1,-100,6476.94739743229,0.012381985103142019,0.01619230897109211,0.9997922262025697,187.4928504292598,19.665012887012235,222.72755652686865,-14.677289464470494,-66.103271484375,4381.2578125,True
1599567661.2186525,0.0,10,0.5,0.5,-2.6189386838912965,-0.05075,-0.02275,-0.37525,0.04788852931444276,10,1,100,-0.03623375336647125,-10,-1,-100,6476.32231601933,0.011438951446718394,0.014969564215291059,0.9998225155181313,192.2424347176482,20.144376942925295,234.4263381904056,-15.060130818638632,-63.180023193359375,4381.2578125,True
1599567661.7053523,0.0,10,0.5,0.5,-2.7307909313201906,-0.05075,-0.02275,-0.37525,0.028043020828330045,10,1,100,-0.024814379438113474,-10,-1,-100,6475.759250919917,0.010485259489495639,0.013685803375481387,0.9998513680139691,196.22195158058722,20.542403606928687,245.46488120728333,-15.4428077594997,-60.555023193359375,4381.2578125,True
1599567661.752226,0.0,10,0.5,0.5,-2.8184941076278687,-0.05075,-0.02275,-0.37525,0.009604691233853213,10,1,100,-0.013998776529093024,-10,-1,-100,6475.07265538699,0.00952742657852097,0.012359756208976648,0.9998782248700318,199.54490801039114,20.87177422254973,255.91640227198005,-15.825330503114973,-58.2279052734375,4381.2578125,True
1599567661.8040876,0.0,10,0.5,0.5,-2.026712154388428,-0.05075,-0.02275,-0.37525,0.1411605422368564,10,1,100,-0.1088973907530355,-10,-1,-100,6475.07265538699,0.00952742657852097,0.012359756208976648,0.9998782248700318,199.54490801039114,20.87177422254973,255.91640227198005,-15.825330503114973,-58.2279052734375,4381.2578125,True
1599567661.857943,0.0,10,0.5,0.5,-3.347117247009277,-0.05075,-0.02275,-0.37525,-0.08362733054223627,10,1,100,0.05047721722707081,-10,-1,-100,6474.104785875301,0.008085947377002455,0.010325119211436163,0.9999140009862278,203.5303579291273,21.26249882274163,270.666799875732,-16.398849239806896,-55.29510498046875,4381.2578125,True
1599567661.9118,0.0,10,0.5,0.5,-2.6624422187805172,-0.05075,-0.02275,-0.37525,0.04309110550538493,10,1,100,-0.03981955474920115,-10,-1,-100,6473.821555127273,0.007603992837271679,0.009637065862633234,0.9999246502884555,204.63992881675085,21.37029441204208,275.3753564176213,-16.58995693583644,-54.46624755859375,4381.2578125,True
1599567661.9691598,0.0,10,0.5,0.5,-3.0171554313659668,-0.05075,-0.02275,-0.37525,-0.050152984571989606,10,1,100,0.01892019311410248,-10,-1,-100,6473.134491451783,0.006639110769522627,0.008173304244359266,0.9999445581160584,206.59322969890883,21.558822136806512,284.53549293610916,-16.97208239097277,-53.032745361328125,4381.2578125,True
1599567662.0250092,0.0,10,0.5,0.5,-3.212439028930664,-0.05075,-0.02275,-0.37525,-0.13544651210743403,10,1,100,0.08358850742040204,-10,-1,-100,6472.102689569816,0.0051817825027387935,0.006077515738128005,0.9999681059576587,208.98030480378762,21.78651428764617,297.744595489087,-17.545064400788718,-51.437774658203125,4381.2578125,True
1599567662.0808592,0.0,10,0.5,0.5,-2.825636878204346,-0.05075,-0.02275,-0.37525,-0.007577404643971192,10,1,100,-0.007622907596554242,-10,-1,-100,6471.696910960367,0.004694377026601435,0.005345981211162868,0.9999746913343468,209.6643966590997,21.851095684130858,302.0402766424663,-17.736007530960617,-51.05511474609375,4381.2578125,True
1599567662.1357152,0.0,10,0.5,0.5,-2.955144584655762,-0.05075,-0.02275,-0.37525,-0.0903034063098995,10,1,100,0.05279534168111433,-10,-1,-100,6471.0093819734175,0.0037098703182552335,0.003939837248014851,0.999985357165134,210.88681622616377,21.965342613412954,310.4868969725262,-18.117823176895197,-50.5115966796875,4381.2578125,True
1599567662.1915646,0.0,10,0.5,0.5,-2.8971516403198243,-0.05075,-0.02275,-0.37525,-0.1787849326053316,10,1,100,0.1193854746193644,-10,-1,-100,6469.914627803606,0.0022173831155790375,0.0018682856531246131,0.9999957963515831,212.4258475147949,22.1060816882052,322.86721454744657,-18.690382640006575,-50.252227783203125,4381.2578125,True
1599567662.2464595,0.0,10,0.5,0.5,-2.802804203796387,-0.05075,-0.02275,-0.37525,-0.04964206207156023,10,1,100,0.026246079129222402,-10,-1,-100,6469.507884618361,0.0017156815888120952,0.0011709932794970155,0.9999978426033854,212.86704369482658,22.14535451320849,326.9198449327576,-18.88119507724511,-50.31427001953125,4381.2578125,True
1599567662.30231,0.0,10,0.5,0.5,-2.7022567405700686,-0.05075,-0.02275,-0.37525,-0.1265061653071401,10,1,100,0.08855037243688657,-10,-1,-100,6468.756902596215,0.0007011589688640036,-0.00015029635312790437,0.9999997428935203,213.63452651746357,22.211400265154296,334.89267645476247,-19.26276340445008,-50.659637451171875,4381.2578125,True
1599567662.3599737,0.0,10,0.5,0.5,-2.5760894256591795,-0.05075,-0.02275,-0.37525,-0.13327325164068773,10,1,100,0.10098982597911872,-10,-1,-100,6467.943917227909,-0.0003261963836457746,-0.0014016149380354423,0.9999989645352063,214.24487120280102,22.260051212179448,342.6708650042481,-19.64426230907812,-51.300445556640625,4381.2578125,True
1599567662.416824,0.0,10,0.5,0.5,-2.1860973670959476,-0.05075,-0.02275,-0.37525,-0.21487877830633567,10,1,100,0.17067212967392936,-10,-1,-100,6466.787194748409,-0.001884673444096427,-0.003268535374778174,0.9999928823159258,214.79866531795477,22.292665390264357,353.8309900512008,-20.216398224596087,-52.8173828125,4381.2578125,True
1599567662.4746678,0.0,10,0.5,0.5,-2.172991806793213,-0.05075,-0.02275,-0.37525,-0.15604630527575034,10,1,100,0.1314543956872269,-10,-1,-100,6465.974225364043,-0.002935881716607817,-0.00441853724009696,0.999985928464598,214.85607114634288,22.279730090253384,360.78836687378447,-20.597762335698544,-54.197601318359375,4381.2578125,True
1599567662.532713,0.0,10,0.5,0.5,-2.3503581573486327,-0.05075,-0.02275,-0.37525,-0.10367388475998927,10,1,100,0.0855173046284424,-10,-1,-100,6465.503533950192,-0.0034643339778529674,-0.004975102746513728,0.9999816232025224,214.77072485047614,22.26065614679062,364.0787996132603,-20.788431325099168,-54.99847412109375,4381.2578125,True
1599567662.5891967,0.0,10,0.5,0.5,-1.870102486419678,-0.05075,-0.02275,-0.37525,-0.16133808975993247,10,1,100,0.149864842187099,-10,-1,-100,6464.690084165311,-0.004520537788838732,-0.005993338336900389,0.9999718219198374,214.32812336544288,22.19272635648062,370.1898215616107,-21.169752881144568,-56.82080078125,4381.2578125,True
1599567662.6480403,0.0,10,0.5,0.5,-1.1414015884399416,-0.05075,-0.02275,-0.37525,-0.2196774178490782,10,1,100,0.22032390143538558,-10,-1,-100,6463.40741700388,-0.006112439682636053,-0.007438391079812289,0.9999536531356189,213.3068186057632,22.050005624815288,378.6907054817553,-21.74172147717715,-60.10784912109375,4381.2578125,True
1599567662.7058847,0.0,10,0.5,0.5,-1.2639595565795902,-0.05075,-0.02275,-0.37525,-0.17080459438818948,10,1,100,0.1783388656260734,-10,-1,-100,6462.530989168095,-0.007168116699904199,-0.008296154839823232,0.9999398941525686,211.96986091500915,21.884985105075295,383.13394617158053,-22.123053018808115,-62.667266845703125,4381.2578125,True
1599567662.762733,0.0,10,0.5,0.5,-1.604567667388916,-0.05075,-0.02275,-0.37525,-0.12981749325735978,10,1,100,0.1313480303235808,-10,-1,-100,6462.062747460441,-0.007690744588290619,-0.008692206436745785,0.9999326467292379,211.06598905267398,21.777816984200136,384.8995117154649,-22.313733023231812,-64.05731201171875,4381.2578125,True
1599567662.818611,0.0,10,0.5,0.5,-0.8166195434570314,-0.05075,-0.02275,-0.37525,-0.16891035964415824,10,1,100,0.1923779570904435,-10,-1,-100,6461.1858344983775,-0.00871167097770078,-0.009398042590110027,0.9999178884209697,208.72325186294552,21.508283960677336,387.36217988313064,-22.695136612304402,-67.05767822265625,4381.2578125,True
1599567662.8754318,0.0,10,0.5,0.5,0.24797113037109364,-0.05075,-0.02275,-0.37525,-0.20389939218947012,10,1,100,0.25718808176682995,-10,-1,-100,6459.7781813321635,-0.010219489417343972,-0.010348185720062531,0.9998942329508417,203.6515573130299,20.94639028210581,387.8378624401454,-23.267393312776214,-72.1102294921875,4381.2578125,True
1599567662.9313238,0.0,10,0.5,0.5,-0.011318997955322319,-0.05075,-0.02275,-0.37525,-0.1673242355827264,10,1,100,0.2134515364055958,-10,-1,-100,6458.838770758128,-0.011182700633384557,-0.01087017996962447,0.9998783858019795,199.05644448703003,20.451680088344148,385.5520459823399,-23.649027057144533,-75.837646484375,4381.2578125,True
1599567662.9860277,0.0,10,0.5,0.5,1.1572762359619138,-0.05075,-0.02275,-0.37525,-0.18363032965485682,10,1,100,0.2656377008346822,-10,-1,-100,6457.368129856186,-0.012522897320731566,-0.011484349628944155,0.9998556329572258,190.26452704628338,19.527293019015467,377.82428600362624,-24.221693383431976,-81.733154296875,4381.2578125,True
1599567663.040882,0.0,10,0.5,0.5,-0.9892296905517579,-0.05075,-0.02275,-0.37525,-0.1230349451483049,10,1,100,0.13268185448764477,-10,-1,-100,6457.368129856186,-0.012522897320731566,-0.011484349628944155,0.9998556329572258,190.26452704628338,19.527293019015467,377.82428600362624,-24.221693383431976,-81.733154296875,4381.2578125,True
1599567663.0997238,0.0,10,0.5,0.5,0.7458225059509276,-0.05075,-0.02275,-0.37525,-0.15977182932839418,10,1,100,0.22592499104005687,-10,-1,-100,6456.428715245216,-0.013361846729749745,-0.01181189783750056,0.9998409574134512,185.42404039218044,19.0268734432233,374.2738772919659,-24.603577216396246,-85.65899658203125,4381.2578125,True
1599567663.1565714,0.0,10,0.5,0.5,1.746953688812256,-0.05075,-0.02275,-0.37525,-0.16562782912203639,10,1,100,0.2665589394681171,-10,-1,-100,6454.895564879174,-0.014484929802974186,-0.012156690029684052,0.9998211848606354,196.56547842996898,20.181598496782215,406.42357830248653,-25.1760694696109,-91.30348205566406,4381.2578125,True
1599567663.2124226,0.0,10,0.5,0.5,1.3409434719085693,-0.05075,-0.02275,-0.37525,-0.14857712305499404,10,1,100,0.22915998075101937,-10,-1,-100,6453.89315516944,-0.015156865343009938,-0.012309528011338855,0.9998093543036654,203.18007589153032,20.87803800477126,426.7675426915527,-25.55741662356619,-95.1383056640625,4381.2578125,True
1599567663.2722623,0.0,10,0.5,0.5,0.779157905960083,-0.05075,-0.02275,-0.37525,-0.13967496951625002,10,1,100,0.19596099324037786,-10,-1,-100,6453.361431572237,-0.015457684651436269,-0.012363114656189616,0.9998040874997535,206.58542336098225,21.23899842796848,437.31175507705046,-25.747983870837157,-97.01045989990234,4381.2578125,True
1599567663.3311052,0.0,10,0.5,0.5,1.66921892414093,-0.05075,-0.02275,-0.37525,-0.14272451621736254,10,1,100,0.22587520880038364,-10,-1,-100,6452.360969369067,-0.015995568193322502,-0.012435855703503725,0.9997947245765475,212.77487884191788,21.901234053166117,457.4024680220443,-26.128898922336706,-100.56552124023438,4381.2578125,True
1599567663.388951,0.0,10,0.5,0.5,2.4634848989486695,-0.05075,-0.02275,-0.37525,-0.1391715096419026,10,1,100,0.2479373779788161,-10,-1,-100,6450.76334328868,-0.016677568566109344,-0.01246628055104259,0.9997832017772379,220.6030797296691,22.75139452887265,485.10285625637704,-26.699742403639334,-105.36656951904297,4381.2578125,True
1599567663.4457989,0.0,10,0.5,0.5,1.9741290225982664,-0.05075,-0.02275,-0.37525,-0.13360933340977138,10,1,100,0.21847595654258167,-10,-1,-100,6449.6368930640165,-0.017022496075960333,-0.012440584957639517,0.9997777085298791,225.21277393586794,23.25718445638086,502.64097532358494,-27.07996791142969,-108.24235534667969,4381.2578125,True
1599567663.5081415,0.0,10,0.5,0.5,1.5442917766571047,-0.05075,-0.02275,-0.37525,-0.1337765648682751,10,1,100,0.19993979003860768,-10,-1,-100,6449.10418466758,-0.01716137138337182,-0.012416843432134415,0.99977562949465,227.22937716439836,23.48028540524986,510.8763028520036,-27.269987671773,-109.57357788085938,4381.2578125,True
1599567663.5734785,0.0,10,0.5,0.5,2.1615713283538818,-0.05075,-0.02275,-0.37525,-0.12961042177369966,10,1,100,0.20956750459163465,-10,-1,-100,6448.039739274303,-0.017369711185364334,-0.012355980141304082,0.9997727856308577,230.7314726678287,23.870774287727254,526.3362346309184,-27.64985750567628,-112.01506042480469,4381.2578125,True
1599567663.6343167,0.0,10,0.5,0.5,2.6372942802429202,-0.05075,-0.02275,-0.37525,-0.12140854716551183,10,1,100,0.20794129529996194,-10,-1,-100,6446.3229459496215,-0.01753992109010175,-0.012225294989099926,0.9997714205410068,234.84360182506862,24.334941972682888,547.305996232864,-28.219285249213886,-115.12068939208984,4381.2578125,True
1599567663.6951547,0.0,10,0.5,0.5,2.2716755880355834,-0.05075,-0.02275,-0.37525,-0.1232988965376686,10,1,100,0.1921721756542913,-10,-1,-100,6445.1959897031775,-0.017546740803293874,-0.01212300171287925,0.9997725464907762,236.96806834226254,24.577560463584618,560.0599110648901,-28.598685787458436,-116.81977844238281,4381.2578125,True
1599567663.7529979,0.0,10,0.5,0.5,2.3023101354598996,-0.05075,-0.02275,-0.37525,-0.12154399604870797,10,1,100,0.183799261280361,-10,-1,-100,6444.067564701312,-0.01747301869000231,-0.012013771362892285,0.9997751561803778,238.7004620653226,24.77713401660747,572.0210746229499,-28.977934328689095,-118.22195434570312,4381.2578125,True
1599567663.8118412,0.0,10,0.5,0.5,2.308303089332581,-0.05075,-0.02275,-0.37525,-0.11967476541173347,10,1,100,0.17509185734509536,-10,-1,-100,6442.880053981207,-0.0173241239249739,-0.01189760796499236,0.999779136437115,240.11317892435787,24.94136154323298,583.3279255601116,-29.35704655525708,-119.32740020751953,4381.2578125,True
1599567663.8686917,0.0,10,0.5,0.5,2.2930829113006594,-0.05075,-0.02275,-0.37525,-0.11790221307092212,10,1,100,0.16576351424042285,-10,-1,-100,6441.68570439762,-0.017101991693467447,-0.01177626523657264,0.9997843974863754,241.31738196016025,25.082146076099864,594.223737597316,-29.736034286714265,-120.13624572753906,4381.2578125,True
1599567663.9255378,0.0,10,0.5,0.5,2.260475741767883,-0.05075,-0.02275,-0.37525,-0.11625875592591708,10,1,100,0.15594910958206057,-10,-1,-100,6440.498187067569,-0.016809336616074623,-0.011651546645254317,0.9997908219539231,242.41065955697877,25.210107591387448,604.9324089622345,-30.11490476478803,-120.64868927001953,4381.2578125,True
1599567663.9843805,0.0,10,0.5,0.5,2.1756910816192625,-0.05075,-0.02275,-0.37525,-0.12167551736393253,10,1,100,0.16639503087692137,-10,-1,-100,6439.898080266779,-0.016637509677104652,-0.01158812240172712,0.9997944332166221,242.88249612654755,25.265995603884893,610.1300032541191,-30.304298541024316,-120.79380798339844,4381.2578125,True
1599567664.0432224,0.0,10,0.5,0.5,2.185355842018127,-0.05075,-0.02275,-0.37525,-0.11348714124690962,10,1,100,0.14063413428165636,-10,-1,-100,6438.657336420729,-0.01624714981707409,-0.011456822541228836,0.9998023661404689,243.68977335644053,25.363310664664695,620.2334489764736,-30.683007285975393,-120.8619384765625,4381.2578125,True
1599567664.1000707,0.0,10,0.5,0.5,2.0914085294723512,-0.05075,-0.02275,-0.37525,-0.11143850010815301,10,1,100,0.13002537242599774,-10,-1,-100,6437.399989087484,-0.015796538787684763,-0.011319729350802074,0.9998111487124725,244.32295418695972,25.442639199092007,629.9535013460846,-31.061616335337227,-120.63402557373047,4381.2578125,True
1599567664.1569188,0.0,10,0.5,0.5,1.8201637699127198,-0.05075,-0.02275,-0.37525,-0.10102163548453469,10,1,100,0.08793617803117362,-10,-1,-100,6435.5474104415625,-0.015005504114283053,-0.011101397784818789,0.999825781730747,244.93763585805328,25.52830430416887,643.7558172333551,-31.629357430087165,-119.73747253417969,4381.2578125,True
1599567664.2147634,0.0,10,0.5,0.5,1.9838658882141114,-0.05075,-0.02275,-0.37525,-0.11418067604099535,10,1,100,0.1349853205743296,-10,-1,-100,6434.8926118899835,-0.014716250440738444,-0.011023682713853159,0.9998309409057062,245.04470318258726,25.5473788664944,648.1183233401821,-31.818562323776867,-119.29076385498047,4381.2578125,True
1599567664.272609,0.0,10,0.5,0.5,1.4012284542083742,-0.05075,-0.02275,-0.37525,-0.09389431769378515,10,1,100,0.06092215277823687,-10,-1,-100,6432.985341893276,-0.013782558003596469,-0.010769703584614536,0.9998470155876733,245.01836224177458,25.571439245835954,660.3129985685149,-32.386066755566375,-117.50730895996094,4381.2578125,True
1599567664.3286543,0.0,10,0.5,0.5,1.4082356040954593,-0.05075,-0.02275,-0.37525,-0.09839583010874706,10,1,100,0.07903990648878559,-10,-1,-100,6431.664999819477,-0.013101875533381204,-0.010580966578286591,0.9998581819457082,244.65860077460394,25.55487565746734,667.5279123806557,-32.76432635308607,-115.9490966796875,4381.2578125,True
1599567664.3875322,0.0,10,0.5,0.5,1.6087255241394045,-0.05075,-0.02275,-0.37525,-0.1060590878063607,10,1,100,0.10713268468218065,-10,-1,-100,6431.006782033946,-0.012742435946904211,-0.010480356010498225,0.9998638869686375,244.35532794039682,25.534755831370624,670.7942701381623,-32.95343871317743,-115.05928802490234,4381.2578125,True
1599567664.4453793,0.0,10,0.5,0.5,1.0804644996643065,-0.05075,-0.02275,-0.37525,-0.09147592949530539,10,1,100,0.06444879957852079,-10,-1,-100,6429.631263863528,-0.012031802538235555,-0.01025760610236693,0.999875000809966,243.45905551956844,25.466394399797334,676.5058429388974,-33.33163963539911,-113.0582275390625,4381.2578125,True
1599567664.5041845,0.0,10,0.5,0.5,0.30098258132934563,-0.05075,-0.02275,-0.37525,-0.0722753814955992,10,1,100,0.009034653723662425,-10,-1,-100,6427.656609339872,-0.010886616467270092,-0.009881936348735883,0.9998919086160734,241.25490559479448,25.278957800131735,682.5677528744047,-33.89892156018716,-109.50358581542969,4381.2578125,True
1599567664.5630295,0.0,10,0.5,0.5,1.0419347105026247,-0.05075,-0.02275,-0.37525,-0.09432938493747646,10,1,100,0.07940662604961622,-10,-1,-100,6426.943216113374,-0.010490667714945438,-0.009742518067903378,0.9998975093641304,240.24795173075546,25.189062946528466,683.7757598177707,-34.088022517948005,-108.17125701904297,4381.2578125,True
1599567664.6199138,0.0,10,0.5,0.5,-0.3646027389526365,-0.05075,-0.02275,-0.37525,-0.05750413945921336,10,1,100,-0.011251727416365834,-10,-1,-100,6424.906063196133,-0.009312135492197879,-0.00928267703946582,0.9999135542833469,236.24390162509988,24.817796639587637,684.3859679761857,-34.655394570964035,-103.7633285522461,4381.2578125,True
1599567664.6767607,0.0,10,0.5,0.5,0.5892772432327271,-0.05075,-0.02275,-0.37525,-0.08487344141638567,10,1,100,0.0625996910748674,-10,-1,-100,6424.185834472883,-0.008918423652643014,-0.009115428072771211,0.9999186820389958,234.58246582813138,24.659636355156774,683.5602497604816,-34.844552926585735,-102.21099090576172,4381.2578125,True
1599567664.7360694,0.0,10,0.5,0.5,-0.26905100078582755,-0.05075,-0.02275,-0.37525,-0.06155855829786564,10,1,100,0.010841776689594906,-10,-1,-100,6422.814225504757,-0.008096230136031607,-0.008753433984951412,0.9999289116987544,231.01803208464,24.31647203158741,681.0477317781014,-35.22293396266422,-98.92711639404297,4381.2578125,True
1599567664.791936,0.0,10,0.5,0.5,-1.236309233856201,-0.05075,-0.02275,-0.37525,-0.032681613459990995,10,1,100,-0.03724936516721902,-10,-1,-100,6420.648660648498,-0.00691787044403043,-0.008163965282770795,0.9999427447306077,225.1021549210633,23.734663461499224,675.1656955553784,-35.7906765996667,-93.87503051757812,4381.2578125,True
1599567664.8488104,0.0,10,0.5,0.5,-0.13451020183563234,-0.05075,-0.02275,-0.37525,-0.06767813992686601,10,1,100,0.03575010727574085,-10,-1,-100,6419.921598345856,-0.006517355364416911,-0.0079488346281519,0.9999471686579787,222.87853423032288,23.511411360343583,672.3231184888446,-35.97997276348212,-92.14691925048828,4381.2578125,True
1599567664.904634,0.0,10,0.5,0.5,-1.7228244293212889,-0.05075,-0.02275,-0.37525,-0.015858428685002923,10,1,100,-0.04952300491330423,-10,-1,-100,6417.766780942446,-0.005384645365448921,-0.007284737448078207,0.9999589682554985,216.32814323263122,22.843160164425313,663.7374948323816,-36.54798541940529,-87.03167724609375,4381.2578125,True
1599567664.9654722,0.0,10,0.5,0.5,-1.2216487957000732,-0.05075,-0.02275,-0.37525,-0.02981212501327804,10,1,100,-0.01833278913555287,-10,-1,-100,6416.267250733916,-0.004645472082701153,-0.006810861095659358,0.9999660153026524,211.73675208818324,22.363564464849578,656.961300182576,-36.926748049998906,-83.85671997070312,4381.2578125,True
1599567665.0263429,0.0,10,0.5,0.5,-1.4013327505111692,-0.05075,-0.02275,-0.37525,-0.02343710083708153,10,1,100,-0.022542767929742247,-10,-1,-100,6414.75258576707,-0.003942584712859827,-0.006325445550872107,0.9999722219963737,209.6888000671434,22.143955508738788,657.8581771068215,-37.30552238447958,-80.80484008789062,4381.2578125,True
1599567665.084567,0.0,10,0.5,0.5,-0.9402802213668823,-0.05075,-0.02275,-0.37525,-0.04501283610370779,10,1,100,0.010279382548253925,-10,-1,-100,6414.039199871826,-0.003609333215372564,-0.006083876431263477,0.9999749792676363,212.8135292452275,22.46911153358539,671.3438091996018,-37.49482505901015,-79.37106323242188,4381.2578125,True
1599567665.1424134,0.0,10,0.5,0.5,-2.118410827064514,-0.05075,-0.02275,-0.37525,0.013989962003264855,10,1,100,-0.06398675011595634,-10,-1,-100,6411.749629814876,-0.0026378463600294118,-0.005331331848753583,0.9999823091771672,220.9460284597223,23.30246053064792,708.4759975930192,-38.062317739091576,-75.50344848632812,4381.2578125,True
1599567665.664342,0.0,10,0.5,0.5,-1.2274439128875732,-0.05075,-0.02275,-0.37525,-0.03313529594185826,10,1,100,-0.0010552059662945722,-10,-1,-100,6410.969839488622,-0.002333920366855213,-0.005079622015263116,0.9999843750058812,223.26333709347145,23.53564296346329,719.7745601185519,-38.25134834910915,-74.36251831054688,4381.2578125,True
1599567665.715206,0.0,10,0.5,0.5,-1.7469537878036498,-0.05075,-0.02275,-0.37525,-0.0007374266293781948,10,1,100,-0.036580119756203316,-10,-1,-100,6409.466412176727,-0.0017410140796298098,-0.004560089768362148,0.9999880871546815,227.36649346256854,23.94240580209984,740.8835368328863,-38.629220960059854,-72.29501342773438,4381.2578125,True
1599567665.815022,0.0,10,0.5,0.5,-2.1267112754821778,-0.05075,-0.02275,-0.37525,0.03008528023835612,10,1,100,-0.06622859816068492,-10,-1,-100,6407.114838461042,-0.000939001659905077,-0.0038117225162949643,0.9999922944939832,232.35461436263853,24.423021549750402,769.2256462884407,-39.19559076387439,-69.74212646484375,4381.2578125,True
1599567665.8946679,0.0,10,0.5,0.5,-1.5343945344924927,-0.05075,-0.02275,-0.37525,-0.015817626437305304,10,1,100,-0.014904287534434606,-10,-1,-100,6406.331632681075,-0.0006829906735540742,-0.0035531802673477706,0.9999934541954401,233.7349247510031,24.552264719421835,777.8509325822398,-39.3842731389479,-69.03964233398438,4381.2578125,True
1599567665.9604914,0.0,10,0.5,0.5,-2.0343844301223757,-0.05075,-0.02275,-0.37525,0.03890067055110555,10,1,100,-0.06615011522641276,-10,-1,-100,6403.931235537166,9.94967508256934e-06,-0.002824894418424244,0.9999960099283041,237.13526099930974,24.85985934758641,801.5202589761373,-39.95003146933642,-67.37979125976562,4381.2578125,True
1599567666.0273135,0.0,10,0.5,0.5,-1.7807012802124025,-0.05075,-0.02275,-0.37525,0.019521645516564524,10,1,100,-0.043721813672639206,-10,-1,-100,6402.295978824375,0.00043006788240930444,-0.0023436474562711636,0.9999971611750791,238.84724213096888,25.005497964719282,815.6113548377359,-40.326986850630384,-66.64544677734375,4381.2578125,True
1599567666.0901444,0.0,10,0.5,0.5,-1.6604092773437502,-0.05075,-0.02275,-0.37525,-0.0016312402328626657,10,1,100,-0.024083070604370233,-10,-1,-100,6401.512775038253,0.0006281733945876564,-0.002102941079301162,0.9999975915156012,239.5521979900886,25.06229556701833,822.1866700389412,-40.515406550524276,-66.38983154296875,4381.2578125,True
1599567666.1519797,0.0,10,0.5,0.5,-1.7266914314270019,-0.05075,-0.02275,-0.37525,0.022795500396475966,10,1,100,-0.04389374756658896,-10,-1,-100,6399.885332603939,0.0009835721548815204,-0.0016663357490765897,0.9999981279537414,240.68071137266531,25.146244909615916,834.4433807941275,-40.892141317113044,-66.10235595703125,4381.2578125,True
1599567666.2148113,0.0,10,0.5,0.5,-1.6481302139282226,-0.05075,-0.02275,-0.37525,0.027593541417221566,10,1,100,-0.044545430332468126,-10,-1,-100,6398.25300756027,0.0013081080013223516,-0.0012300388121400144,0.9999983879276894,241.44890627634368,25.19246358086966,845.5292536120093,-41.26875119352712,-66.112060546875,4381.2578125,True
1599567666.2736542,0.0,10,0.5,0.5,-1.551242183685303,-0.05075,-0.02275,-0.37525,0.031196699138164717,10,1,100,-0.04435988413930632,-10,-1,-100,6396.562578099547,0.00159698340431555,-0.0008050618334792114,0.9999984007584466,241.86903115766148,25.202476368209584,855.4519142989408,-41.64525402482783,-66.41885375976562,4381.2578125,True
1599567666.3344915,0.0,10,0.5,0.5,-1.2537275154113772,-0.05075,-0.02275,-0.37525,0.053473285593465585,10,1,100,-0.055366604188282285,-10,-1,-100,6394.023516504094,0.0019558086531506528,-0.00022031949420781377,0.9999980631340408,241.8433494961078,25.14983236785864,868.0678407475798,-42.20984594953308,-67.43600463867188,4381.2578125,True
1599567666.3933346,0.0,10,0.5,0.5,-1.2043444190979002,-0.05075,-0.02275,-0.37525,0.03588622851819926,10,1,100,-0.04124813333451483,-10,-1,-100,6392.333087848965,0.0021497639361301277,0.0001469645657900763,0.9999976784555228,241.36776628312398,25.067885171542272,874.8389022300421,-42.586159090090405,-68.48489379882812,4381.2578125,True
1599567666.454603,0.0,10,0.5,0.5,-1.3358469291687012,-0.05075,-0.02275,-0.37525,0.01890561541726664,10,1,100,-0.03137584819499923,-10,-1,-100,6391.487873870414,0.002232801803010636,0.00032221081547590503,0.9999974553849119,240.98333300523342,25.0120687533993,877.6856836624955,-42.77429826926192,-69.1204833984375,4381.2578125,True
1599567666.5134456,0.0,10,0.5,0.5,-0.5741695457458497,-0.05075,-0.02275,-0.37525,0.054574867232055124,10,1,100,-0.04432587595999779,-10,-1,-100,6388.886312948773,0.0024231348403447976,0.000802033392295853,0.9999967425746861,239.1866012264828,24.780246482780978,883.8018107958565,-43.33867615285571,-71.47164916992188,4381.2578125,True
1599567666.5742831,0.0,10,0.5,0.5,-0.625666690826416,-0.05075,-0.02275,-0.37525,0.03965988015949788,10,1,100,-0.0344746817671443,-10,-1,-100,6387.129966774839,0.0025037848129736413,0.0010986856581456093,0.9999962619687311,237.39547032175486,24.567129427661985,885.5912435824561,-43.7149211863157,-73.40884399414062,4381.2578125,True
1599567666.6501448,0.0,10,0.5,0.5,-0.8790556831359864,-0.05075,-0.02275,-0.37525,0.025865719361155993,10,1,100,-0.02952191395512489,-10,-1,-100,6386.284752865788,0.0025298106851288763,0.0012394011834090343,0.9999960319634292,236.3026368573283,24.441377297011826,885.7088817415527,-43.90304965488178,-74.48825073242188,4381.2578125,True
1599567666.7359169,0.0,10,0.5,0.5,0.7865814193725584,-0.05075,-0.02275,-0.37525,0.06529867738977119,10,1,100,-0.027765142019338752,-10,-1,-100,6382.713465607143,0.002535591057851289,0.0017225485078725769,0.9999953017912763,230.65294167387157,23.817672223817894,880.9760878538219,-44.655658984548076,-79.30712890625,4381.2578125,True
1599567666.8107173,0.0,10,0.5,0.5,-0.9923157638549805,-0.05075,-0.02275,-0.37525,0.017366493902134312,10,1,100,-0.027377846513423836,-10,-1,-100,6382.713465607143,0.002535591057851289,0.0017225485078725769,0.9999953017912763,230.65294167387157,23.817672223817894,880.9760878538219,-44.655658984548076,-79.30712890625,4381.2578125,True
1599567666.8755758,0.0,10,0.5,0.5,0.7689871185302734,-0.05075,-0.02275,-0.37525,0.05110342609355037,10,1,100,-0.016859542926389276,-10,-1,-100,6380.056239512167,0.002438559189875548,0.002026167087560951,0.9999949740253752,225.10640637370034,23.230765667485482,871.8943259456195,-45.220265246127106,-83.37112426757812,4381.2578125,True
1599567666.93995,0.0,10,0.5,0.5,-0.15211256332397455,-0.05075,-0.02275,-0.37525,0.030531976621291382,10,1,100,-0.021000093424810247,-10,-1,-100,6379.145107275341,0.002386962086075471,0.002112210613984663,0.9999949204762602,223.0773079384328,23.020304625982206,868.0447278030487,-45.40850222687881,-84.69659423828125,4381.2578125,True
1599567667.0037796,0.0,10,0.5,0.5,0.568383869934082,-0.05075,-0.02275,-0.37525,0.0418306922197627,10,1,100,-0.01127834809168553,-10,-1,-100,6377.264248062158,0.0022509579626090307,0.002290495532130991,0.9999948433959388,224.06300038871,23.12577148164243,879.9499133063499,-45.784922461116956,-87.45785522460938,4381.2578125,True
1599567667.0715992,0.0,10,0.5,0.5,0.7502096801757812,-0.05075,-0.02275,-0.37525,0.03976402156575312,10,1,100,-0.006165316751012895,-10,-1,-100,6375.448818619247,0.0020805674297157354,0.002431502256294531,0.9999948795048643,228.85647506318602,23.63227303990728,907.034504382733,-46.16107596894527,-90.2100601196289,4381.2578125,True
1599567667.1463988,0.0,10,0.5,0.5,1.4804021547317503,-0.05075,-0.02275,-0.37525,0.0473534767904328,10,1,100,0.013460028683866032,-10,-1,-100,6372.653407701058,0.0017473176199560353,0.0026266083824034695,0.9999950238923895,235.38308545713033,24.3373722217172,945.6683534630503,-46.72480053918705,-94.23243713378906,4381.2578125,True
1599567667.2142162,0.0,10,0.5,0.5,1.1070941492080688,-0.05075,-0.02275,-0.37525,0.03989219546000504,10,1,100,0.009727629763394141,-10,-1,-100,6370.762783000828,0.0014787354959815565,0.0027340528508014088,0.9999951691365024,239.33137206873627,24.773937488404158,970.1962024713295,-47.10028041120135,-96.76520538330078,4381.2578125,True
1599567667.2810376,0.0,10,0.5,0.5,1.2000524806976318,-0.05075,-0.02275,-0.37525,0.03937268464195899,10,1,100,0.016215658143339157,-10,-1,-100,6368.854091626825,0.001176446397409224,0.0028252504333095662,0.9999953169559662,243.10724180431848,25.19795764705774,994.3113111053257,-47.475494420265605,-99.07937622070312,4381.2578125,True
1599567667.342873,0.0,10,0.5,0.5,0.8387819381713868,-0.05075,-0.02275,-0.37525,0.03471588127529082,10,1,100,0.004099922176613518,-10,-1,-100,6367.866787085892,0.001012987851509668,0.0028642531460971224,0.9999953849441144,244.86552477638838,25.398166558380417,1005.9410010144411,-47.663003450012546,-100.1327133178711,4381.2578125,True
1599567667.4037097,0.0,10,0.5,0.5,1.3056882856369019,-0.05075,-0.02275,-0.37525,0.038622101600607445,10,1,100,0.026921172451525234,-10,-1,-100,6365.890224798815,0.0006583021916778007,0.00293374411344079,0.999995479881635,248.00066215298327,25.761584060827587,1027.8152468233648,-48.037838237538516,-102.01963806152344,4381.2578125,True
1599567667.4660544,0.0,10,0.5,0.5,1.3270159383773805,-0.05075,-0.02275,-0.37525,0.03760068273460308,10,1,100,0.033921302902407316,-10,-1,-100,6364.004482768942,0.00027392975942824204,0.0029865310071481134,0.9999955027874026,250.85332914868687,26.098323485863546,1048.7427456742896,-48.412441960174,-103.61054229736328,4381.2578125,True
1599567667.5272582,0.0,10,0.5,0.5,1.584332649230957,-0.05075,-0.02275,-0.37525,0.0383488369729763,10,1,100,0.06618101607965471,-10,-1,-100,6361.028897337848,-0.0003667137885023122,0.003040171419504277,0.9999953114283774,254.64090010679158,26.555760266242316,1078.4571643589231,-48.97393832583354,-105.48616027832031,4381.2578125,True
1599567667.587136,0.0,10,0.5,0.5,1.3124122909545899,-0.05075,-0.02275,-0.37525,0.03475039985042368,10,1,100,0.05311290396618223,-10,-1,-100,6359.087003598339,-0.0008277657465181772,0.0030553005438667263,0.9999949899586776,256.7096998111826,26.814739741561013,1096.560873269584,-49.34802297103987,-106.38191986083984,4381.2578125,True
1599567667.6462343,0.0,10,0.5,0.5,1.2816149885177612,-0.05075,-0.02275,-0.37525,0.03303064833488181,10,1,100,0.060470254854279794,-10,-1,-100,6357.080657445826,-0.0013108664183947654,0.0030525628341186795,0.9999944817294627,258.4315393419752,27.038361214988242,1113.3340726486747,-49.721932167141,-106.98286437988281,4381.2578125,True
1599567667.7060392,0.0,10,0.5,0.5,1.181314987754822,-0.05075,-0.02275,-0.37525,0.03245146750604835,10,1,100,0.039858079346568244,-10,-1,-100,6356.109955646098,-0.0015594274115024644,0.0030441159383565257,0.9999941507550443,259.1692103980555,27.13755185229284,1121.2404474732841,-49.90882666815479,-107.17250061035156,4381.2578125,True
1599567667.7723725,0.0,10,0.5,0.5,1.215894316482544,-0.05075,-0.02275,-0.37525,0.030303731044674688,10,1,100,0.07250080396618674,-10,-1,-100,6354.104098713957,-0.0020788349064685243,0.003016355143758387,0.9999932900010272,260.4069887995117,27.311523186605058,1136.111045745368,-50.282506416091586,-107.33013153076172,4381.2578125,True
1599567667.8541548,0.0,10,0.5,0.5,1.1279408674240112,-0.05075,-0.02275,-0.37525,0.027829661020870495,10,1,100,0.07964959522060835,-10,-1,-100,6352.037207190879,-0.0026125342291811165,0.002968272196851537,0.9999921819819726,261.336933564134,27.453786552335778,1149.7382432894162,-50.656054672717296,-107.19257354736328,4381.2578125,True
1599567667.9129975,0.0,10,0.5,0.5,0.8798783666610717,-0.05075,-0.02275,-0.37525,0.02120185847031312,10,1,100,0.11936176107822352,-10,-1,-100,6348.997174347984,-0.0034550157851480083,0.0028640947497983785,0.9999899298628904,262.1507742580524,27.607079210578714,1167.763186168601,-51.21616958975558,-106.43341064453125,4381.2578125,True
1599567667.9698453,0.0,10,0.5,0.5,1.0109637697219849,-0.05075,-0.02275,-0.37525,0.026673834563643008,10,1,100,0.06708041216626509,-10,-1,-100,6347.962997216382,-0.0037414126984795996,0.002819097903947153,0.9999890271988126,262.2615838959858,27.64149221433102,1173.0871256275975,-51.402828213551786,-106.03312683105469,4381.2578125,True
1599567668.0286882,0.0,10,0.5,0.5,0.7395908733367922,-0.05075,-0.02275,-0.37525,0.01983052079033708,10,1,100,0.10317970976730319,-10,-1,-100,6345.894643705455,-0.004325626779199584,0.0027160207872724846,0.9999869560069522,262.2214309579504,27.6828764887092,1182.5892441762278,-51.77609047058426,-105.01199340820312,4381.2578125,True
1599567668.0885277,0.0,10,0.5,0.5,0.25691127243042,-0.05075,-0.02275,-0.37525,0.009068591671284244,10,1,100,0.1425287271309021,-10,-1,-100,6342.792602476431,-0.005209917984095126,0.0025246765286006407,0.9999832412410845,261.4611305543277,27.670690811339913,1193.7027510974208,-52.335884753014994,-102.9634780883789,4381.2578125,True
1599567668.1463728,0.0,10,0.5,0.5,0.6731768932342531,-0.05075,-0.02275,-0.37525,0.020201749445255983,10,1,100,0.08816196486742853,-10,-1,-100,6341.6964152537985,-0.005514590470019929,0.0024523575954610234,0.9999817874512376,261.0064917497312,27.64497367204575,1196.4840052331224,-52.52246708177729,-102.13961029052734,4381.2578125,True
1599567668.2032595,0.0,10,0.5,0.5,0.1964229013442994,-0.05075,-0.02275,-0.37525,0.00975793061664161,10,1,100,0.12368943181494638,-10,-1,-100,6339.628552272799,-0.006109862541582169,0.002292203679459462,0.9999787074643215,259.8993639245633,27.571430356208097,1201.1101166176777,-52.895622317284,-100.3126220703125,4381.2578125,True
1599567668.2620673,0.0,10,0.5,0.5,0.02667422218322768,-0.05075,-0.02275,-0.37525,0.006447241651782242,10,1,100,0.12912461248758073,-10,-1,-100,6337.4972137527075,-0.006695627797485368,0.002117205762381509,0.9999753427000875,258.63398049379447,27.478831454877945,1204.9557984960777,-53.26877085691278,-98.33722686767578,4381.2578125,True
1599567668.3219037,0.0,10,0.5,0.5,-0.6289147787094115,-0.05075,-0.02275,-0.37525,-0.008529863661080907,10,1,100,0.17036503175261147,-10,-1,-100,6334.270178210689,-0.0075981593312802916,0.0018228115686225572,0.9999694722004077,256.24522395638377,27.28142616871596,1208.3069813494055,-53.828509034257976,-95.1043930053711,4381.2578125,True
1599567668.380746,0.0,10,0.5,0.5,-0.4082198097229004,-0.05075,-0.02275,-0.37525,-0.0025223299039231137,10,1,100,0.1452339473996629,-10,-1,-100,6332.07731857989,-0.0081846883843218,0.0016109047033337936,0.9999652073257791,254.51483364210426,27.129318171438825,1209.7842171784057,-54.201685025016694,-92.83920288085938,4381.2578125,True
1599567668.4375947,0.0,10,0.5,0.5,-0.5512341367721558,-0.05075,-0.02275,-0.37525,-0.00574377414692636,10,1,100,0.15028428818954348,-10,-1,-100,6329.945495016174,-0.008758258027469493,0.0013902539239898195,0.9999606792821162,252.54612326190068,26.94600397687062,1210.0249493736114,-54.57488092941624,-90.58554077148438,4381.2578125,True
1599567668.4954405,0.0,10,0.5,0.5,-0.200815612411499,-0.05075,-0.02275,-0.37525,0.003804885277994125,10,1,100,0.12427240358643951,-10,-1,-100,6328.849310156191,-0.009037626275940734,0.0012779028632426308,0.9999583432701425,251.523639633885,26.84788326898665,1209.9184554850333,-54.761486944553724,-89.51162719726562,4381.2578125,True
1599567668.5522885,0.0,10,0.5,0.5,-0.7080483417510987,-0.05075,-0.02275,-0.37525,-0.010682411455682748,10,1,100,0.1585226037528374,-10,-1,-100,6326.593463715049,-0.009597887766526576,0.001045504830335902,0.9999533926489128,249.5048581283146,26.64949747175363,1209.7384285102255,-55.13471040627769,-87.46533203125,4381.2578125,True
1599567668.6101334,0.0,10,0.5,0.5,-0.790684171295166,-0.05075,-0.02275,-0.37525,-0.013383324641327741,10,1,100,0.16242731920368836,-10,-1,-100,6324.399629816529,-0.010137389739277762,0.0008112924924362953,0.9999482862297259,247.53477969687398,26.4496557557401,1209.669693084641,-55.50794275471232,-85.5679931640625,4381.2578125,True
1599567668.6689765,0.0,10,0.5,0.5,-0.883861441040039,-0.05075,-0.02275,-0.37525,-0.016793989161066825,10,1,100,0.16811627364714826,-10,-1,-100,6322.204820151092,-0.010674280424937496,0.0005690977153434213,0.9999428663004704,245.65630241710468,26.25303118334121,1209.9254472971966,-55.88117535917163,-83.78179931640625,4381.2578125,True
1599567668.7278197,0.0,10,0.5,0.5,-0.955408741569519,-0.05075,-0.02275,-0.37525,-0.018678757421580875,10,1,100,0.1711209269176175,-10,-1,-100,6319.9504404113395,-0.011184710293958936,0.0003335641872663692,0.9999373935355019,248.68226220131922,26.57415379178492,1234.402920485571,-56.254245951840026,-82.14288330078125,4381.2578125,True
1599567668.7886567,0.0,10,0.5,0.5,-0.99244884185791,-0.05075,-0.02275,-0.37525,-0.021105735508269555,10,1,100,0.17563619796522295,-10,-1,-100,6317.693620163831,-0.011684630711843986,9.9305536779329e-05,0.999931727441198,252.2232209069042,26.94462066975548,1261.7100809398462,-56.62705535715848,-80.71905517578125,4381.2578125,True
1599567668.8474996,0.0,10,0.5,0.5,-1.0037455200195313,-0.05075,-0.02275,-0.37525,-0.023078564163197222,10,1,100,0.1792610797000744,-10,-1,-100,6315.374787790235,-0.01216698931826517,-0.00012959813494215896,0.9999259710474834,255.2884631513019,27.259428803087008,1286.9125046438442,-56.99962003288925,-79.54296875,4381.2578125,True
1599567668.9043474,0.0,10,0.5,0.5,-1.1366229864120483,-0.05075,-0.02275,-0.37525,-0.03626028272559594,10,1,100,0.2073507061913827,-10,-1,-100,6311.959283915232,-0.012855883418095614,-0.00045548363807684214,0.999917255974811,258.95375212948136,27.62504728452797,1320.4444436828003,-57.55805283722199,-78.29544067382812,4381.2578125,True
