Timestamp,Input Throttle,horizon,dT,dt,Input Roll,Roll P,Roll I,Roll D,Input Pitch,Pitch P,Pitch I,Pitch D,Input Yaw,Yaw P,Yaw I,Yaw D,Altitude,Direction X,Direction Y,Direction Z,Drag X,Drag Y,Drag Z,Vertical Velocity,Roll,Mass,Has Fuel
1599567915.1561897,0.0,10,0.5,0.5,-2.7441121520996097,-0.05075,-0.03,-0.2505,-0.06720282479226286,10,1,100,0.6903551430267076,-10,-1,-100,6483.617966830148,-0.06725778054584529,-0.007002575205312616,0.9977110578201189,205.07322740038228,21.498777357574703,-156.76524946015473,9.590824440685424,-35.94464111328125,4381.2578125,True
1599567915.2280269,0.0,10,0.5,0.5,-2.9064776229858396,-0.05075,-0.03,-0.2505,-0.06732760900874571,10,1,100,0.6999026651994581,-10,-1,-100,6483.997883022646,-0.06744504492481275,-0.00697168065472251,0.9976986326461205,204.6121581503197,21.45674223710345,-150.26673318141988,9.210802124995597,-35.941314697265625,4381.2578125,True
1599567915.29881,0.0,10,0.5,0.5,-3.0559517059326176,-0.05075,-0.03,-0.2505,-0.05200019773544122,10,1,100,0.7005458261585726,-10,-1,-100,6484.316759746522,-0.06755981850993438,-0.006797916705651715,0.9976920663468101,204.14958640706448,21.414367621997354,-143.78944444954524,8.830798547100272,-35.980712890625,4381.2578125,True
1599567915.3632555,0.0,10,0.5,0.5,-3.1967498931884766,-0.05075,-0.03,-0.2505,-0.05281623856849553,10,1,100,0.6980425106427595,-10,-1,-100,6484.538935626624,-0.06757998270216489,-0.0066411881079736215,0.9976917562847202,203.94232908906622,21.395595841668193,-140.57577833109443,8.64080152336121,-36.08404541015625,4381.2578125,True
1599567915.4260743,0.0,10,0.5,0.5,-3.163280792236329,-0.05075,-0.03,-0.2505,0.0017793783753724673,10,1,100,0.6987233908658876,-10,-1,-100,6485.016948871897,-0.06754306725831001,-0.0059963463304965785,0.997698340128931,203.4471526386775,21.351729571705164,-131.04572916657992,8.07081700669998,-36.8179931640625,4381.2578125,True
1599567915.4888253,0.0,10,0.5,0.5,-3.2494855957031255,-0.05075,-0.03,-0.2505,0.012555624941274067,10,1,100,0.6896069079166768,-10,-1,-100,6485.335754781496,-0.06736522785775974,-0.005306709430981528,0.9977142701749269,203.19992538516559,21.330138156404658,-124.76149721474005,7.690823003214377,-37.6717529296875,4381.2578125,True
1599567916.043235,0.0,10,0.5,0.5,-3.4585881195068358,-0.05075,-0.03,-0.2505,-0.009964170218082373,10,1,100,0.6988651048969599,-10,-1,-100,6485.493927371921,-0.06722647998630046,-0.0048796679242974665,0.9977258086416326,203.08702258455412,21.320060641922254,-121.62942194493816,7.500821744497921,-38.20867919921875,4381.2578125,True
1599567916.0980756,0.0,10,0.5,0.5,-3.358532379150391,-0.05075,-0.03,-0.2505,0.057021816613450516,10,1,100,0.6750416499588947,-10,-1,-100,6485.750193373533,-0.06682265371282207,-0.0038780487943668412,0.9977573320644277,202.85026961707536,21.2978233314317,-115.36537419495237,7.1208057093818065,-39.5030517578125,4381.2578125,True
1599567916.1508975,0.0,10,0.5,0.5,-3.3557919845581052,-0.05075,-0.03,-0.2505,0.08892133045202125,10,1,100,0.6610288755532374,-10,-1,-100,6486.005455875304,-0.06626740219350591,-0.0026739648697207507,0.9977983169550847,202.54327580009115,21.266837238769742,-109.07265135422311,6.740764256156291,-41.091339111328125,4381.2578125,True
1599567916.2064016,0.0,10,0.5,0.5,-3.0166388320922852,-0.05075,-0.03,-0.2505,0.20682894413812045,10,1,100,0.5966191026398919,-10,-1,-100,6486.420284461812,-0.06511684160201216,-0.0005050248457418385,0.9978775184809424,201.77019859908685,21.18467705350943,-99.50464853598478,6.17063347273614,-44.024932861328125,4381.2578125,True
1599567916.2662416,0.0,10,0.5,0.5,-3.5505322113037106,-0.05075,-0.03,-0.2505,0.07853927446758904,10,1,100,0.6657417579751682,-10,-1,-100,6486.517858883017,-0.06464006807497306,0.0003009282016393795,0.9979085985407082,201.37948698937262,21.142532121409364,-96.26476716723123,5.980565304089661,-45.14990234375,4381.2578125,True
1599567916.322246,0.0,10,0.5,0.5,-2.654927772521973,-0.05075,-0.03,-0.2505,0.28614670747648385,10,1,100,0.5226655518828275,-10,-1,-100,6486.869139701128,-0.06290832455179886,0.002914313541696847,0.9980150547354815,199.59821939093968,20.949865607132264,-86.34482764543982,5.410257744998689,-48.966644287109375,4381.2578125,True
1599567916.380106,0.0,10,0.5,0.5,-2.6945347900390626,-0.05075,-0.03,-0.2505,0.23549754731704112,10,1,100,0.5399422742538449,-10,-1,-100,6487.061795795569,-0.061495197661716114,0.004820684218302866,0.9980957377267041,197.74076085605344,20.749335533895145,-79.54542115324709,5.029942546502108,-51.87921142578125,4381.2578125,True
1599567916.438459,0.0,10,0.5,0.5,-2.410098556518555,-0.05075,-0.03,-0.2505,0.2626383079486272,10,1,100,0.5008642315863907,-10,-1,-100,6487.255409626639,-0.05986079521088969,0.006789920292846434,0.9981836415104872,195.17721601778942,20.473545519718986,-72.59070491284292,4.649512927239451,-55.08697509765625,4381.2578125,True
1599567916.4992962,0.0,10,0.5,0.5,-2.6400562744140625,-0.05075,-0.03,-0.2505,0.17579979387502584,10,1,100,0.5644285367181027,-10,-1,-100,6487.351966412854,-0.05895984956360057,0.00777848377048892,0.9982300493020984,193.58351751389017,20.302628082439096,-69.05835907185464,4.4592459955431565,-56.8017578125,4381.2578125,True
1599567916.5586476,0.0,10,0.5,0.5,-1.3266093826293948,-0.05075,-0.03,-0.2505,0.4147907106087546,10,1,100,0.3202506137711406,-10,-1,-100,6487.578626913368,-0.05592881169172418,0.010837299965833273,0.9983759416934096,187.29175329136353,19.631206904198027,-58.27322726040906,3.888186266872737,-62.388641357421875,4381.2578125,True
1599567916.6160028,0.0,10,0.5,0.5,-1.4186205368041993,-0.05075,-0.03,-0.2505,0.3358918576114631,10,1,100,0.3687429659433291,-10,-1,-100,6487.770737298997,-0.053624559024461935,0.012886103289446567,0.9984780192930868,181.6607618260545,19.0336817456749,-50.99157320510128,3.5072251059110835,-66.48275756835938,4381.2578125,True
1599567916.6738467,0.0,10,0.5,0.5,-1.0366802444458008,-0.05075,-0.03,-0.2505,0.3497110829361967,10,1,100,0.3226439844220813,-10,-1,-100,6487.839795414242,-0.051123067604904766,0.01485813038548919,0.9985818283546481,174.7588103604943,18.304582446874754,-43.7286728935204,3.1260036007996734,-70.87344360351562,4381.2578125,True
1599567916.7356846,0.0,10,0.5,0.5,-0.6304000930786131,-0.05075,-0.03,-0.2505,0.36259454597644925,10,1,100,0.27579884925457965,-10,-1,-100,6487.969399482594,-0.04843739198206452,0.016750971792094,0.9986857483723277,166.39826946056016,17.424905009743444,-36.559613938065496,2.744461812630076,-75.56069946289062,4381.2578125,True
1599567916.7925472,0.0,10,0.5,0.5,-0.19972615051269527,-0.05075,-0.03,-0.2505,0.37351869438070495,10,1,100,0.22708153681660503,-10,-1,-100,6488.100471123937,-0.04556919313023857,0.01855338811389905,0.9987888768037787,156.61480355524324,16.397977026494495,-29.62621477078607,2.362629661422128,-80.544677734375,4381.2578125,True
1599567916.8483493,0.0,10,0.5,0.5,-0.5543443908691407,-0.05075,-0.03,-0.2505,0.2884638875786181,10,1,100,0.3479669149568311,-10,-1,-100,6488.133538471302,-0.04407846820119137,0.019401397060103177,0.998839664026791,151.1623050474379,15.826348808818254,-26.284646605924923,2.171634730611524,-83.148193359375,4381.2578125,True
1599567916.9042,0.0,10,0.5,0.5,0.5264771194458008,-0.05075,-0.03,-0.2505,0.3798011928028024,10,1,100,0.1568840112153576,-10,-1,-100,6488.200656671659,-0.041004838777020325,0.020985289359728182,0.9989385470725207,147.9790096153761,15.492695706224694,-21.206301172916003,1.789560926159489,-88.52249145507812,4381.2578125,True
1599567916.9630425,0.0,10,0.5,0.5,0.9575392131805419,-0.05075,-0.03,-0.2505,0.37986627195932304,10,1,100,0.11238659383842198,-10,-1,-100,6488.269250713172,-0.037826020493233393,0.022409354919157437,0.9990330389860752,155.73363974115617,16.30426012450265,-17.554392564601432,1.4074616515051188,-94.02840423583984,4381.2578125,True
1599567917.0228832,0.0,10,0.5,0.5,2.2528339195251466,-0.05075,-0.03,-0.2505,0.4423018959382188,10,1,100,-0.12094740823183381,-10,-1,-100,6488.306980524096,-0.03283648492294157,0.024255566854173218,0.9991663688968359,167.73231588007994,17.557640396622634,-11.211442767765705,0.8344510732918078,-102.48675537109375,4381.2578125,True
1599567917.0807283,0.0,10,0.5,0.5,1.1199401607513428,-0.05075,-0.03,-0.2505,0.31698564486653164,10,1,100,0.1910226565904546,-10,-1,-100,6488.341050620074,-0.031161202548595213,0.024778824833934655,0.9992071803663015,171.20757329152318,17.92038650137904,-8.825405705460646,0.6434887211725222,-105.2874984741211,4381.2578125,True
1599567917.138574,0.0,10,0.5,0.5,2.987955312728882,-0.05075,-0.03,-0.2505,0.41243048893365125,10,1,100,-0.19687753141770703,-10,-1,-100,6488.318290178431,-0.026137124723674333,0.026106739451543008,0.9993174114696434,180.6747764194431,18.909818342173946,-1.0219619745110713,0.07059637177221179,-113.3344497680664,4381.2578125,True
1599567917.1974165,0.0,10,0.5,0.5,2.635013967514038,-0.05075,-0.03,-0.2505,0.35546845819656137,10,1,100,-0.06620553244624489,-10,-1,-100,6488.322027045069,-0.0227847918616396,0.026782216606771866,0.9993815918524064,185.02432677907785,19.36435437683495,4.617702530032064,-0.311446907371947,-118.34683990478516,4381.2578125,True
1599567917.2557683,0.0,10,0.5,0.5,2.956509834289551,-0.05075,-0.03,-0.2505,0.34730068358358446,10,1,100,-0.09284955933526648,-10,-1,-100,6488.327738375636,-0.019523034258219482,0.027309401421118925,0.9994363650214918,188.41755196967864,19.71886670334772,10.474105728544059,-0.6936215736916358,-123.06553649902344,4381.2578125,True
1599567917.3136148,0.0,10,0.5,0.5,3.2636526947021482,-0.05075,-0.03,-0.2505,0.3405208573697319,10,1,100,-0.11745344253169576,-10,-1,-100,6488.268532911665,-0.01636285571091246,0.0277157062221852,0.9994819140842867,190.72520781366657,19.95984277762227,16.448298522548956,-1.0759156675078811,-127.48910522460938,4381.2578125,True
1599567917.3714597,0.0,10,0.5,0.5,2.9443101348876954,-0.05075,-0.03,-0.2505,0.317624395449107,10,1,100,0.023677243860189517,-10,-1,-100,6488.241625189898,-0.014802131031715172,0.027866956628939687,0.9995020408409184,191.4412547932533,20.034480442005457,19.445317799648492,-1.2671073624133986,-129.59027099609375,4381.2578125,True
1599567917.4323325,0.0,10,0.5,0.5,4.330397895812989,-0.05075,-0.03,-0.2505,0.3388115306118897,10,1,100,-0.31588163314431694,-10,-1,-100,6488.153607833898,-0.010324361588857144,0.028188600437909935,0.9995493036179528,192.1008236685043,20.10238080241647,28.353668029397134,-1.8408445573370404,-135.45016479492188,4381.2578125,True
1599567917.4891818,0.0,10,0.5,0.5,4.085009773254395,-0.05075,-0.03,-0.2505,0.31721748248326137,10,1,100,-0.18610133566236947,-10,-1,-100,6488.0334310979815,-0.007464168533015128,0.028276706005460988,0.999572265564422,191.55024971576378,20.04359051201146,34.153839974126456,-2.2234502526321602,-138.98745727539062,4381.2578125,True
1599567917.5450344,0.0,10,0.5,0.5,4.326640361785889,-0.05075,-0.03,-0.2505,0.31468340952698926,10,1,100,-0.2010289057623627,-10,-1,-100,6487.974794436363,-0.004758779363380634,0.028327136388499714,0.9995873785532697,190.43581397631513,19.925353007015975,39.80530286787666,-2.606123130258241,-142.22837829589844,4381.2578125,True
1599567917.6028407,0.0,10,0.5,0.5,4.546453510284424,-0.05075,-0.03,-0.2505,0.3118283969614393,10,1,100,-0.21651825985964726,-10,-1,-100,6487.853677064762,-0.0021885834820374642,0.02834164773023961,0.9995958989042907,188.90536559026552,19.76297716960172,45.29123279424256,-2.98884311181583,-145.17298889160156,4381.2578125,True
1599567917.6606865,0.0,10,0.5,0.5,4.734733650207519,-0.05075,-0.03,-0.2505,0.3075929656087953,10,1,100,-0.23118687646289823,-10,-1,-100,6487.732575952308,0.00025344755972142255,0.028312621318728144,0.9995990852528812,187.11936134026973,19.573114735109662,50.616435428251336,-3.3715953437200783,-147.82144165039062,4381.2578125,True
1599567917.7185733,0.0,10,0.5,0.5,4.564295154571534,-0.05075,-0.03,-0.2505,0.30920792158670074,10,1,100,-0.11800025553517567,-10,-1,-100,6487.640780927497,0.001415947725515372,0.028297702547621595,0.9995985369750023,186.1832261627261,19.47336134535326,53.226424770733864,-3.562981262475759,-149.0343780517578,4381.2578125,True
1599567917.7764182,0.0,10,0.5,0.5,5.031300937652588,-0.05075,-0.03,-0.2505,0.30769848691308394,10,1,100,-0.24806749720975893,-10,-1,-100,6487.518723236863,0.003630147280143183,0.028268426110404508,0.9995937765492365,184.35969203713344,19.278307489991093,58.37726668201693,-3.9457710389039784,-151.23768615722656,4381.2578125,True
1599567917.8342633,0.0,10,0.5,0.5,5.40610996246338,-0.05075,-0.03,-0.2505,0.30501637164198525,10,1,100,-0.3658135640788288,-10,-1,-100,6487.243371206219,0.006689461174849299,0.02821607720183023,0.999579463622843,181.77070263450005,18.999449003002123,65.95094124060905,-4.520007408262419,-153.9864501953125,4381.2578125,True
1599567917.8951473,0.0,10,0.5,0.5,5.0416873168945315,-0.05075,-0.03,-0.2505,0.30741146001219644,10,1,100,-0.1674041958825223,-10,-1,-100,6487.151103555807,0.00764310455422201,0.028189436564873067,0.9995733783064293,180.9865636377373,18.91434883593967,68.45354617778844,-4.711436480315536,-154.7545166015625,4381.2578125,True
1599567917.952976,0.0,10,0.5,0.5,5.490617465972901,-0.05075,-0.03,-0.2505,0.31414838230844805,10,1,100,-0.36120899227870756,-10,-1,-100,6486.8132748618955,0.010250091266103309,0.028226031888202763,0.9995490116812096,178.97088399991307,18.69318188772486,75.96384079997536,-5.28578921535974,-156.6118927001953,4381.2578125,True
1599567918.0107925,0.0,10,0.5,0.5,5.367691223144531,-0.05075,-0.03,-0.2505,0.3144643290354675,10,1,100,-0.27537619940732466,-10,-1,-100,6486.628754379461,0.011817006321439356,0.028261846174876062,0.9995307030863968,177.99458995697617,18.583290392442407,81.03852931440586,-5.668754996025617,-157.47921752929688,4381.2578125,True
1599567918.0686376,0.0,10,0.5,0.5,5.388173057556153,-0.05075,-0.03,-0.2505,0.3211371999246095,10,1,100,-0.27585101081574037,-10,-1,-100,6486.380761390319,0.01322566250463018,0.02835500049290129,0.9995104180539398,177.37806030898392,18.510325124858568,86.23144155854344,-6.051778907620625,-158.04904174804688,4381.2578125,True
1599567918.1264822,0.0,10,0.5,0.5,5.384658927917481,-0.05075,-0.03,-0.2505,0.3285146460300612,10,1,100,-0.27482862953944814,-10,-1,-100,6486.135213349247,0.014478155722257687,0.02850668275162157,0.9994887453320225,177.1454410435247,18.476792638980616,91.58858076847946,-6.434863587344559,-158.32138061523438,4381.2578125,True
1599567918.184364,0.0,10,0.5,0.5,5.372191299438477,-0.05075,-0.03,-0.2505,0.32281502326610695,10,1,100,-0.2144382742729322,-10,-1,-100,6485.979969617561,0.01505029456760015,0.02859259773772849,0.9994778396683125,177.1875599095983,18.47631197774893,94.34761496836934,-6.6264286874744105,-158.34619140625,4381.2578125,True
1599567918.2401793,0.0,10,0.5,0.5,5.293510749816895,-0.05075,-0.03,-0.2505,0.35234600425504115,10,1,100,-0.3210355737617605,-10,-1,-100,6485.57771455578,0.016523815442310248,0.028938937597718286,0.9994445964704315,177.9408566153687,18.53921517640784,103.0016904011775,-7.201209567351407,-157.97445678710938,4381.2578125,True
1599567918.2960627,0.0,10,0.5,0.5,5.334982879638672,-0.05075,-0.03,-0.2505,0.33316560541898155,10,1,100,-0.22069573564290715,-10,-1,-100,6485.423447409412,0.016936408283800226,0.029078855375309385,0.9994336287340476,178.40196078781145,18.581708065695196,106.02887651665534,-7.392828865342219,-157.701904296875,4381.2578125,True
1599567918.352878,0.0,10,0.5,0.5,5.1980453338623045,-0.05075,-0.03,-0.2505,0.3510503817611821,10,1,100,-0.2601733207740623,-10,-1,-100,6485.11149260751,0.017656270313112267,0.029367932091841582,0.9994127178915022,179.62909974367417,18.697877730812834,112.32005521522053,-7.776099133621492,-156.93438720703125,4381.2578125,True
1599567918.4127548,0.0,10,0.5,0.5,5.086511322021485,-0.05075,-0.03,-0.2505,0.3625968666324017,10,1,100,-0.24804323989171145,-10,-1,-100,6484.80246416328,0.018187665856253688,0.029734697600262452,0.9993923436615483,181.23338906164193,18.852518178712582,118.93925984027754,-8.159401347545169,-155.86920166015625,4381.2578125,True
1599567918.4715607,0.0,10,0.5,0.5,4.710245651245118,-0.05075,-0.03,-0.2505,0.38775477279152604,10,1,100,-0.2541657671678073,-10,-1,-100,6484.273727570311,0.018715959139181847,0.030295448463547616,0.9993657482002737,184.260944286295,19.147652768309293,129.49961755655343,-8.734382594134,-153.7156982421875,4381.2578125,True
1599567918.5284085,0.0,10,0.5,0.5,4.985612773895264,-0.05075,-0.03,-0.2505,0.3546840580235245,10,1,100,-0.21214651242200677,-10,-1,-100,6484.118963737274,0.018804166303622933,0.03050266455782623,0.9993577891748773,185.40309273203343,19.259513495168623,133.18014466939314,-8.926042362664562,-152.8494110107422,4381.2578125,True
1599567918.5872536,0.0,10,0.5,0.5,4.274530220031738,-0.05075,-0.03,-0.2505,0.40387343834987705,10,1,100,-0.20532330310793467,-10,-1,-100,6483.528685183963,0.018814549027498247,0.03113614934407397,0.9993380573904485,189.10314741233725,19.622819849850604,144.65060216213385,-9.50099019981742,-149.80609130859375,4381.2578125,True
1599567918.6450956,0.0,10,0.5,0.5,4.66363907623291,-0.05075,-0.03,-0.2505,0.3645902468499839,10,1,100,-0.19564908422526195,-10,-1,-100,6483.309461441124,0.018729679020536908,0.0313523116786918,0.9993328933224354,190.38657463664748,19.74901718588841,148.59207131598276,-9.692622506828114,-148.64352416992188,4381.2578125,True
1599567918.705935,0.0,10,0.5,0.5,4.159353530883789,-0.05075,-0.03,-0.2505,0.39000617565260143,10,1,100,-0.17422420057790144,-10,-1,-100,6482.936436771066,0.018452749147854317,0.03177715196183563,0.9993246262662002,192.95198320051287,20.001461513003367,156.5969334743209,-10.075850919645683,-146.09649658203125,4381.2578125,True
1599567918.7627816,0.0,10,0.5,0.5,3.9043881454467777,-0.05075,-0.03,-0.2505,0.3920255245333141,10,1,100,-0.1508264128633542,-10,-1,-100,6482.500414998853,0.01798467429035099,0.03217875496432721,0.9993203086196216,195.4168464821566,20.244322376922078,164.68112927717993,-10.459017872426912,-143.25393676757812,4381.2578125,True
1599567918.8236194,0.0,10,0.5,0.5,3.625817790985108,-0.05075,-0.03,-0.2505,0.39442792316865516,10,1,100,-0.13014715666050516,-10,-1,-100,6482.063895024476,0.0173684908364832,0.03256242844761666,0.9993187798593884,197.64626233899483,20.46445266658147,172.71743939517296,-10.84211076116387,-140.11582946777344,4381.2578125,True
1599567918.8805003,0.0,10,0.5,0.5,3.3241745223999026,-0.05075,-0.03,-0.2505,0.39251759219388094,10,1,100,-0.10539625070483637,-10,-1,-100,6481.628342519747,0.016582547937557153,0.03289056179551831,0.9993213847650184,199.49206665837008,20.64744721545003,180.54991432878302,-11.22512320860825,-136.68292236328125,4381.2578125,True
1599567918.9383137,0.0,10,0.5,0.5,2.4034264907836915,-0.05075,-0.03,-0.2505,0.40117654358187604,10,1,100,-0.023634725858324546,-10,-1,-100,6480.974017636618,0.015125089494789043,0.03326411739130139,0.9993321420638648,201.1831375816421,20.817367826216547,191.4973880012571,-11.799491252333024,-130.98123168945312,4381.2578125,True
1599567918.995161,0.0,10,0.5,0.5,3.1369758186340335,-0.05075,-0.03,-0.2505,0.3736775080264708,10,1,100,-0.10776953766647425,-10,-1,-100,6480.692753846641,0.014567290273090597,0.03335018016851009,0.9993375603552723,201.37325434311245,20.837670835313816,194.8227569022674,-11.99091038242748,-128.9335479736328,4381.2578125,True
1599567919.057999,0.0,10,0.5,0.5,1.585807849884033,-0.05075,-0.03,-0.2505,0.37606718851869975,10,1,100,0.04015950295747281,-10,-1,-100,6479.9744343666825,0.012718681861859003,0.03344685662265803,0.9993595663792687,200.59795750875898,20.767323440158084,203.47790076371487,-12.56509010853302,-122.34996032714844,4381.2578125,True
1599567919.115845,0.0,10,0.5,0.5,1.7081139640808105,-0.05075,-0.03,-0.2505,0.35912877094926204,10,1,100,0.007165607122957551,-10,-1,-100,6479.475360207027,0.011343525338577987,0.033377893777471176,0.9993784271435285,199.27827449301267,20.644037858645834,208.37619445718758,-12.947846514102775,-117.59382629394531,4381.2578125,True
1599567919.1736908,0.0,10,0.5,0.5,2.0442008323669434,-0.05075,-0.03,-0.2505,0.3579325843502331,10,1,100,-0.049191297228442954,-10,-1,-100,6479.195058928919,0.010612500939667108,0.033301712013474094,0.9993889987391181,198.13119186412845,20.5337384350363,210.28007816380654,-13.139230046953767,-115.10566711425781,4381.2578125,True
1599567919.2295403,0.0,10,0.5,0.5,0.9981622390747071,-0.05075,-0.03,-0.2505,0.33482752002275873,10,1,100,0.03933439312355437,-10,-1,-100,6478.632495831698,0.00915061070844618,0.03302044113170934,0.9994127859854154,194.74718059942876,20.20284562054796,212.79566518679704,-13.522039858135134,-109.909912109375,4381.2578125,True
1599567919.2903771,0.0,10,0.5,0.5,0.5298522205352785,-0.05075,-0.03,-0.2505,0.31908188207070765,10,1,100,0.06379680669127442,-10,-1,-100,6478.070414032787,0.007607942255186146,0.032620081685583634,0.9994388673077848,189.8235292959266,19.713969064600747,213.3778867432015,-13.904949581569014,-104.4206314086914,4381.2578125,True
1599567919.3473854,0.0,10,0.5,0.5,0.03792933464050274,-0.05075,-0.03,-0.2505,0.29940511220566657,10,1,100,0.08651219317118974,-10,-1,-100,6477.507837370504,0.00600887179048931,0.03207647252694739,0.9994673548295779,184.21419198456516,19.153024320213618,212.8687428617217,-14.287995743873697,-98.63819122314453,4381.2578125,True
1599567919.4042335,0.0,10,0.5,0.5,-0.4776197872161865,-0.05075,-0.03,-0.2505,0.2783619593774077,10,1,100,0.10166388385060346,-10,-1,-100,6476.945256350911,0.004428315818679209,0.0313910739774188,0.9994973689277799,176.59666412574512,18.37905765156088,209.6331674803412,-14.671211738392614,-92.56282806396484,4381.2578125,True
1599567919.4603245,0.0,10,0.5,0.5,-0.99544193649292,-0.05075,-0.03,-0.2505,0.25657516594159885,10,1,100,0.11890421666293668,-10,-1,-100,6476.319684547721,0.002846480250574091,0.030570987496131085,0.9995285450019397,167.60369422381115,17.453860585661065,204.2503807222266,-15.054602039474297,-86.26559448242188,4381.2578125,True
1599567919.520199,0.0,10,0.5,0.5,-1.4934841537475587,-0.05075,-0.03,-0.2505,0.23403626836037394,10,1,100,0.13254773872952377,-10,-1,-100,6475.758075376623,0.0012969032314068135,0.02962266396631238,0.9995603112476743,167.17727619275968,17.40999940749971,209.01656018830639,-15.43806290211676,-79.8780517578125,4381.2578125,True
1599567920.0533347,0.0,10,0.5,0.5,-2.8861297149658203,-0.05075,-0.03,-0.2505,0.14860918173060256,10,1,100,0.22340521447118838,-10,-1,-100,6474.7887095523765,-0.0009252091234300424,0.027987252200229264,0.9996078519611372,184.7251551213424,19.220219621620764,239.72349743264414,-16.012816406389803,-70.45260620117188,4381.2578125,True
1599567920.1044052,0.0,10,0.5,0.5,-2.50288688659668,-0.05075,-0.03,-0.2505,0.17849351921551374,10,1,100,0.15566721564829566,-10,-1,-100,6474.1636268480215,-0.0023154271845313226,0.026777065415442242,0.9996387485310331,194.0879290736805,20.176269429152192,258.0161833773034,-16.39560719871446,-64.46957397460938,4381.2578125,True
1599567920.1598685,0.0,10,0.5,0.5,-2.8919376754760746,-0.05075,-0.03,-0.2505,0.1600455863780495,10,1,100,0.16073478411093625,-10,-1,-100,6473.475559193175,-0.003611663217877955,0.025515250577301835,0.9996679087961052,201.95699260804312,20.97540262885492,274.868767385832,-16.77808813498122,-58.7794189453125,4381.2578125,True
1599567920.2153077,0.0,10,0.5,0.5,-2.4664885025024414,-0.05075,-0.03,-0.2505,0.21478260210767014,10,1,100,0.09988355002155545,-10,-1,-100,6473.131772313151,-0.0042232709486928355,0.024872903270352714,0.9996817006754688,205.14854160331714,21.2983269966421,282.45914381342465,-16.96922106333025,-56.04583740234375,4381.2578125,True
1599567920.2691638,0.0,10,0.5,0.5,-4.294347175598145,-0.05075,-0.03,-0.2505,0.05647645255904177,10,1,100,0.22855747768674387,-10,-1,-100,6472.099441224011,-0.005935553890127749,0.02285746691245064,0.9997211138144295,212.05661235076337,21.9968101033629,302.0414367853559,-17.54225749657896,-48.2933349609375,4381.2578125,True
1599567920.3245294,0.0,10,0.5,0.5,-3.270756446838379,-0.05075,-0.03,-0.2505,0.18268846885392,10,1,100,0.11621406465696109,-10,-1,-100,6471.755659604212,-0.0064571562960718506,0.0221818730754197,0.9997330992016988,213.5519159830494,22.14893372645114,307.553814726905,-17.733172858012118,-45.8582763671875,4381.2578125,True
1599567920.3773875,0.0,10,0.5,0.5,-4.236040077209473,-0.05075,-0.03,-0.2505,0.09550939600250183,10,1,100,0.17275129435661044,-10,-1,-100,6471.005598646705,-0.0074325286636985205,0.020784649114569738,0.9997563482563375,215.93460300265693,22.3956780639357,317.83067911038614,-18.11490189818912,-41.212371826171875,4381.2578125,True
1599567920.4334269,0.0,10,0.5,0.5,-5.175899787902832,-0.05075,-0.03,-0.2505,0.012822904234767313,10,1,100,0.22161676915650583,-10,-1,-100,6469.9117697943,-0.008751242950218008,0.01877301542810162,0.9997854718081087,217.65387916440258,22.587684606602963,330.7275185109837,-18.68733606204728,-34.8011474609375,4381.2578125,True
1599567920.4919348,0.0,10,0.5,0.5,-4.91852434539795,-0.05075,-0.03,-0.2505,0.06475306509131451,10,1,100,0.1767979564262243,-10,-1,-100,6469.159281931701,-0.009530648950625076,0.01742782086505314,0.9998026994314806,217.6397523934028,22.603943187375858,337.6305487157607,-19.068921031470133,-30.899566650390625,4381.2578125,True
1599567920.5483007,0.0,10,0.5,0.5,-5.193166481018067,-0.05075,-0.03,-0.2505,0.05681475844191425,10,1,100,0.18028227141306558,-10,-1,-100,6468.3472309206845,-0.01025962351523806,0.016144698626042772,0.9998170276763645,216.9296360881473,22.55338961092243,343.4440777765335,-19.450517175614078,-27.294952392578125,4381.2578125,True
1599567920.6042397,0.0,10,0.5,0.5,-5.444296844482422,-0.05075,-0.03,-0.2505,0.04646776558641691,10,1,100,0.18247557068911086,-10,-1,-100,6467.596710439306,-0.01093176081580787,0.014896412987656343,0.9998292821704948,215.70590696216644,22.45350532531641,348.39708410547036,-19.832145502288068,-23.98760986328125,4381.2578125,True
1599567920.6625936,0.0,10,0.5,0.5,-5.6620782928466795,-0.05075,-0.03,-0.2505,0.03815516778856637,10,1,100,0.18477347998370383,-10,-1,-100,6466.78369503899,-0.011554587944738199,0.01369793955388147,0.9998394160811052,214.1359300690186,22.320336188281935,352.7163980344708,-20.213816279091215,-20.97723388671875,4381.2578125,True
1599567920.7214363,0.0,10,0.5,0.5,-5.458393188476562,-0.05075,-0.03,-0.2505,0.09344914191076821,10,1,100,0.15617979708622515,-10,-1,-100,6466.377434084541,-0.011852452616733958,0.013122980856889383,0.9998436411461534,213.2698364371051,22.245937235211258,354.7090982429327,-20.40466880005357,-19.583251953125,4381.2578125,True
1599567920.777285,0.0,10,0.5,0.5,-5.999634101867676,-0.05075,-0.03,-0.2505,0.028253533962705996,10,1,100,0.19016879410623205,-10,-1,-100,6465.564427881851,-0.012424737937458479,0.012018869487114569,0.9998505751678285,211.4591956524698,22.089523593523257,358.4894023304592,-20.786406939947256,-17.017791748046875,4381.2578125,True
1599567920.8331363,0.0,10,0.5,0.5,-6.157582878112793,-0.05075,-0.03,-0.2505,0.022748864395218088,10,1,100,0.1935719475060182,-10,-1,-100,6464.687460666755,-0.012968479199034494,0.010976774912872337,0.9998556540620133,209.64783034466785,21.933020118086823,362.166880803454,-21.16818397084115,-14.748870849609375,4381.2578125,True
1599567920.8899848,0.0,10,0.5,0.5,-6.284003959655762,-0.05075,-0.03,-0.2505,0.016043838058438648,10,1,100,0.1945135307214381,-10,-1,-100,6463.811962911277,-0.013464955715781136,0.009979262053226474,0.9998595447843888,207.9451254741495,21.787164881508094,365.9333003579522,-21.549989744795063,-12.776580810546875,4381.2578125,True
1599567920.9468324,0.0,10,0.5,0.5,-6.6131906356811525,-0.05075,-0.03,-0.2505,-0.033883042608688144,10,1,100,0.22663431021674815,-10,-1,-100,6462.527775576455,-0.01420193436330844,0.008629644730231078,0.9998619076113312,206.0030035162478,21.630319670312716,372.50917399161017,-22.12272034958601,-10.373260498046875,4381.2578125,True
1599567921.0036802,0.0,10,0.5,0.5,-6.3003970413208,-0.05075,-0.03,-0.2505,0.05374267485474232,10,1,100,0.17941130831119062,-10,-1,-100,6462.0590250846,-0.014436460929464911,0.008210367326615847,0.9998620797210953,205.535973512145,21.59631898775665,374.99490172895344,-22.313627604493504,-9.720245361328125,4381.2578125,True
1599567921.060529,0.0,10,0.5,0.5,-6.538618942260743,-0.05075,-0.03,-0.2505,0.008293723526393404,10,1,100,0.20764813470850713,-10,-1,-100,6461.183539359947,-0.01490119694051072,0.007425636173163816,0.9998613975232586,204.82372774656108,21.55070787019008,380.3423667720625,-22.695425839142693,-8.63623046875,4381.2578125,True
1599567921.1183734,0.0,10,0.5,0.5,-6.57136604309082,-0.05075,-0.03,-0.2505,0.009224818279862379,10,1,100,0.21440300173786678,-10,-1,-100,6460.244091614732,-0.015380209789010283,0.006729801608413405,0.9998590695278797,204.5930905904378,21.554736137326234,386.56584463964504,-23.077187503159266,-7.84783935546875,4381.2578125,True
1599567921.176219,0.0,10,0.5,0.5,-6.580486892700196,-0.05075,-0.03,-0.2505,0.006714360938748193,10,1,100,0.2158124347881239,-10,-1,-100,6459.3066003337735,-0.015823833964217885,0.006082961389191657,0.9998562916036537,204.77772766036506,21.601838567702323,393.5843330442341,-23.45889452446323,-7.35565185546875,4381.2578125,True
1599567921.2340646,0.0,10,0.5,0.5,-6.5626364440917975,-0.05075,-0.03,-0.2505,-0.017478357286104182,10,1,100,0.24884140315568065,-10,-1,-100,6457.899391101324,-0.016522944678522212,0.005283003252944559,0.9998495297672445,205.69488286586667,21.739697636159782,405.41775484079693,-24.031319035320482,-7.1712646484375,4381.2578125,True
1599567921.2919095,0.0,10,0.5,0.5,-6.483591712951661,-0.05075,-0.03,-0.2505,0.013398682242699737,10,1,100,0.23019072715605593,-10,-1,-100,6456.897452948731,-0.016984431585407935,0.004844118885073539,0.9998440196330365,206.74032956181796,21.8779192359519,414.23984654376073,-24.412822477632595,-7.417816162109375,4381.2578125,True
1599567921.34906,0.0,10,0.5,0.5,-6.511344833374023,-0.05075,-0.03,-0.2505,0.03561687060151539,10,1,100,0.21002822688074857,-10,-1,-100,6456.427734472905,-0.017216004244647913,0.004654642864790769,0.9998409591018212,207.39305809208264,21.961104250228164,418.94307300252274,-24.603534462213155,-7.65185546875,4381.2578125,True
1599567921.4078646,0.0,10,0.5,0.5,-6.390417701721192,-0.05075,-0.03,-0.2505,0.02071256035009772,10,1,100,0.2393767415535617,-10,-1,-100,6455.426776435925,-0.01768897382615784,0.004353592959177475,0.9998340594485282,208.95043839481164,22.155094190259337,428.9383300672261,-24.984869481450943,-8.341156005859375,4381.2578125,True
1599567921.4667077,0.0,10,0.5,0.5,-6.104013740539551,-0.05075,-0.03,-0.2505,0.016063436548808645,10,1,100,0.2687644891494565,-10,-1,-100,6453.8916506709065,-0.018381816156013978,0.004043667539475212,0.9998228631050785,212.06372306779414,22.531685390372147,445.77411851135076,-25.556616354298153,-9.928863525390625,4381.2578125,True
1599567921.528543,0.0,10,0.5,0.5,-6.080338127136231,-0.05075,-0.03,-0.2505,0.036104351707181626,10,1,100,0.2504271442472534,-10,-1,-100,6452.891672587371,-0.0188404998109175,0.003949503290743592,0.9998147013275166,214.680375372466,22.842870943127814,458.3343451580344,-25.93758171185586,-11.356048583984375,4381.2578125,True
1599567921.5923717,0.0,10,0.5,0.5,-5.623488334655762,-0.05075,-0.03,-0.2505,0.04933593822713622,10,1,100,0.2785939674537869,-10,-1,-100,6451.294540402596,-0.019509330103209543,0.003988441252477604,0.9998017195300773,219.35523261696224,23.393854133871454,479.14898982725254,-26.50868365509872,-14.049530029296875,4381.2578125,True
1599567921.6581962,0.0,10,0.5,0.5,-5.970333740234375,-0.05075,-0.03,-0.2505,0.05095088260248257,10,1,100,0.23560103993475584,-10,-1,-100,6450.762325311429,-0.019721901146780442,0.004042358826624525,0.9997973324380665,221.07409398838578,23.59576474725091,486.54623218529576,-26.69894852919228,-15.09478759765625,4381.2578125,True
1599567921.721028,0.0,10,0.5,0.5,-5.516503814697265,-0.05075,-0.03,-0.2505,0.06575041419209376,10,1,100,0.2595175329207312,-10,-1,-100,6449.636372991139,-0.020128187755166244,0.004228991706069591,0.9997884634695694,224.62761890904247,24.01335710887943,501.7728187869561,-27.079312974964985,-17.4061279296875,4381.2578125,True
1599567921.7838955,0.0,10,0.5,0.5,-5.281793533325195,-0.05075,-0.03,-0.2505,0.0771423871592773,10,1,100,0.26110744455733303,-10,-1,-100,6448.570479048532,-0.020507676615880484,0.004504494814268905,0.9997795480636154,228.2520901248325,24.43977860046781,517.3980119204997,-27.459446715809477,-20.01202392578125,4381.2578125,True
1599567921.848686,0.0,10,0.5,0.5,-5.022895462036133,-0.05075,-0.03,-0.2505,0.08949248754852895,10,1,100,0.2612332888783173,-10,-1,-100,6447.445503078285,-0.020849552489764504,0.004868660794875045,0.9997707698782962,231.83374636733444,24.861777547882465,533.1659625077757,-27.839342014835392,-22.91229248046875,4381.2578125,True
1599567921.9095237,0.0,10,0.5,0.5,-4.739822402954101,-0.05075,-0.03,-0.2505,0.10268988176302728,10,1,100,0.2596386694948538,-10,-1,-100,6446.317596415873,-0.021141918919071905,0.0053200737632470374,0.9997623297962236,235.24527130818694,25.264237240731727,548.7744471910638,-28.21899767673183,-26.10687255859375,4381.2578125,True
1599567921.969365,0.0,10,0.5,0.5,-4.432987335205078,-0.05075,-0.03,-0.2505,0.11576536118494929,10,1,100,0.2569084574571604,-10,-1,-100,6445.19017718453,-0.021379106938705362,0.005848884497531619,0.999754331991934,238.33981237316868,25.629598548121866,563.858756972156,-28.59842122532572,-29.595703125,4381.2578125,True
1599567922.0269618,0.0,10,0.5,0.5,-4.682368530273438,-0.05075,-0.03,-0.2505,0.09520183591617286,10,1,100,0.24409562216978042,-10,-1,-100,6444.595949638868,-0.02147446745149227,0.006141594715680779,0.9997505329140981,239.71891577485485,25.79244989427546,571.0771928449752,-28.788051299675203,-31.450439453125,4381.2578125,True
1599567922.0858042,0.0,10,0.5,0.5,-3.2685524749755857,-0.05075,-0.03,-0.2505,0.17297178028446408,10,1,100,0.2539504976634441,-10,-1,-100,6442.874786006636,-0.02164730724612701,0.007113068952113114,0.9997403654644912,243.00344882635727,26.179357705204225,590.9352935469236,-29.35665739972395,-37.45574951171875,4381.2578125,True
1599567922.144647,0.0,10,0.5,0.5,-3.3735191879272457,-0.05075,-0.03,-0.2505,0.15522603924760692,10,1,100,0.23937049296218368,-10,-1,-100,6441.680465926998,-0.021668920206610664,0.00783211206543232,0.999734522719744,244.5155287572757,26.353995748893308,602.6907736128022,-29.73553453615038,-41.826812744140625,4381.2578125,True
1599567922.2034905,0.0,10,0.5,0.5,-2.971715217590332,-0.05075,-0.03,-0.2505,0.1666215842290025,10,1,100,0.2294013607455428,-10,-1,-100,6440.492978817783,-0.02159536858653935,0.00858585384212184,0.9997299251144847,245.05645013110305,26.41417251004283,612.129443744036,-30.114310513886146,-46.491851806640625,4381.2578125,True
1599567922.261337,0.0,10,0.5,0.5,-2.5490864944458007,-0.05075,-0.03,-0.2505,0.1770359320395944,10,1,100,0.21853560084023144,-10,-1,-100,6439.24689467391,-0.021427827443259568,0.009361570062308927,0.9997265672257741,244.42870457798998,26.33818060304857,618.6601026168796,-30.493044730527544,-51.450836181640625,4381.2578125,True
1599567922.3191795,0.0,10,0.5,0.5,-2.9021178588867187,-0.05075,-0.03,-0.2505,0.143416308150815,10,1,100,0.22255291642261624,-10,-1,-100,6438.648265760625,-0.021310487521666466,0.009756298035094025,0.999725301155392,243.61434934360383,26.242615180760513,620.6420225765462,-30.682417872645402,-54.04046630859375,4381.2578125,True
1599567922.3800182,0.0,10,0.5,0.5,-0.9677124252319338,-0.05075,-0.03,-0.2505,0.23269250896649896,10,1,100,0.17911379858109977,-10,-1,-100,6436.801589674898,-0.02080783897641668,0.010921718648378492,0.9997238368163965,238.88345368629302,25.6982373077042,620.5222196375444,-31.25067556133867,-62.250274658203125,4381.2578125,True
1599567922.4388597,0.0,10,0.5,0.5,-1.1381638336181643,-0.05075,-0.03,-0.2505,0.2001496132923809,10,1,100,0.17971267191476664,-10,-1,-100,6435.552564018639,-0.020356057181622447,0.011679513587205016,0.9997245720189061,233.60185198008278,25.10184221562139,614.6223667573313,-31.629721206391118,-68.090576171875,4381.2578125,True
1599567922.4977467,0.0,10,0.5,0.5,-0.6181515197753904,-0.05075,-0.03,-0.2505,0.2026442568203563,10,1,100,0.16550702413398433,-10,-1,-100,6434.238104333519,-0.01981665283862798,0.012384904970217697,0.9997269199132092,226.43891947640475,24.30598210918809,603.3928519703813,-32.00900434384514,-74.2232666015625,4381.2578125,True
1599567922.5555909,0.0,10,0.5,0.5,-0.07595708465576179,-0.05075,-0.03,-0.2505,0.20397987339587792,10,1,100,0.15178624401169177,-10,-1,-100,6432.985164629063,-0.0192027556766853,0.013031889258909447,0.9997306757506069,217.2820140476856,23.305197436684374,586.3370172527982,-32.38856034671199,-80.64346313476562,4381.2578125,True
1599567922.6144345,0.0,10,0.5,0.5,-0.5310863113403319,-0.05075,-0.03,-0.2505,0.17320674700173794,10,1,100,0.17619128655466915,-10,-1,-100,6432.326954856864,-0.018868509871911767,0.013333771095263059,0.9997330593131311,211.92802948058377,22.726955588022843,575.4829447990694,-32.5784424428629,-83.96292114257812,4381.2578125,True
1599567922.6732774,0.0,10,0.5,0.5,0.8438208408355714,-0.05075,-0.03,-0.2505,0.20315025780163695,10,1,100,0.13140785382534526,-10,-1,-100,6431.0071150769945,-0.01815989698601432,0.013873884520693077,0.9997388326306844,204.64704945004644,21.951594033891464,562.6688129021526,-32.95833287183588,-90.76422882080078,4381.2578125,True
1599567922.7341502,0.0,10,0.5,0.5,1.3812987651824953,-0.05075,-0.03,-0.2505,0.19996986145790221,10,1,100,0.1191074283169751,-10,-1,-100,6429.631608534255,-0.017407051776267925,0.014329837835624068,0.9997457928373907,216.23250126281252,23.21855033118701,601.8832073059754,-33.33787943449917,-97.67304229736328,4381.2578125,True
1599567922.7949855,0.0,10,0.5,0.5,2.984529270172119,-0.05075,-0.03,-0.2505,0.2129744063843153,10,1,100,0.06188122880388096,-10,-1,-100,6427.6569658753,-0.01620628328858884,0.014856656961464914,0.9997582888508099,231.81658735012786,24.952463285179753,657.0832996831018,-33.906236943459064,-108.18374633789062,4381.2578125,True
1599567922.8547919,0.0,10,0.5,0.5,1.5764655284881592,-0.05075,-0.03,-0.2505,0.1750069572148148,10,1,100,0.13694367407093133,-10,-1,-100,6426.9401572830975,-0.01580196060703372,0.014984724080579912,0.9997628499225218,235.91793027433755,25.416086640783043,672.7100441977419,-34.09543778554669,-111.63533782958984,4381.2578125,True
1599567922.913635,0.0,10,0.5,0.5,3.8897193260192875,-0.05075,-0.03,-0.2505,0.19081253734374254,10,1,100,0.04453522225388111,-10,-1,-100,6424.906426910544,-0.014599432122588813,0.015239723868203553,0.9997772788967143,246.36646152833958,26.60249416017003,715.0122980623869,-34.66238179699527,-121.5849609375,4381.2578125,True
1599567922.9713538,0.0,10,0.5,0.5,4.398072463989258,-0.05075,-0.03,-0.2505,0.17116180930885036,10,1,100,0.035010169435328295,-10,-1,-100,6422.814589225571,-0.013425733979651217,0.015287913942241379,0.9997929932513041,251.9585829776864,27.241453446455107,744.0131921112695,-35.22861962583969,-130.87326049804688,4381.2578125,True
1599567923.0311947,0.0,10,0.5,0.5,2.277222381591797,-0.05075,-0.03,-0.2505,0.166779421434454,10,1,100,0.1516417732294114,-10,-1,-100,6422.814589225571,-0.013425733979651217,0.015287913942241379,0.9997929932513041,251.9585829776864,27.241453446455107,744.0131921112695,-35.22861962583969,-130.87326049804688,4381.2578125,True
1599567923.091544,0.0,10,0.5,0.5,5.061337284088135,-0.05075,-0.03,-0.2505,0.15456528938713016,10,1,100,0.0356400315753288,-10,-1,-100,6420.649019869277,-0.012377472985706803,0.015173596014215675,0.9998082616914533,253.19981527741209,27.377842601671812,760.5295637564468,-35.79454061142196,-139.4899139404297,4381.2578125,True
1599567923.148899,0.0,10,0.5,0.5,3.918930088043213,-0.05075,-0.03,-0.2505,0.15805641773234674,10,1,100,0.10375564294914859,-10,-1,-100,6419.921955436235,-0.012050504167203808,0.015098872981836096,0.9998133872798437,252.80540316629754,27.329220379817638,763.6324861804834,-35.983169235386804,-142.21278381347656,4381.2578125,True
1599567923.2087388,0.0,10,0.5,0.5,5.747549671173095,-0.05075,-0.03,-0.2505,0.12573318854770074,10,1,100,0.035215467582710436,-10,-1,-100,6417.767127567204,-0.011136669330242085,0.014735216338246128,0.9998294094472786,249.6614400467189,26.956888661124044,766.8860833740991,-36.549150510184724,-149.9339141845703,4381.2578125,True
1599567923.2691524,0.0,10,0.5,0.5,4.74160803604126,-0.05075,-0.03,-0.2505,0.14678112973693333,10,1,100,0.09657876335841044,-10,-1,-100,6416.987328748684,-0.010870787476912037,0.014594690268300105,0.9998343967855897,248.0658533829339,26.77049613598435,766.2262900916919,-36.737864379605405,-152.3581085205078,4381.2578125,True
1599567923.3279939,0.0,10,0.5,0.5,6.375251258850097,-0.05075,-0.03,-0.2505,0.10055343121313778,10,1,100,0.04355203478815767,-10,-1,-100,6414.756818349939,-0.010153641995527062,0.014046032212907754,0.9998497949858772,242.07273544298002,26.079233193563375,760.1914222436104,-37.304220156130036,-159.18341064453125,4381.2578125,True
1599567923.3858378,0.0,10,0.5,0.5,6.108375213623048,-0.05075,-0.03,-0.2505,0.10810322269628175,10,1,100,0.07183442808793189,-10,-1,-100,6413.2572801297065,-0.009765398233157523,0.013616144635691213,0.99985960894648,237.3483494307431,25.542943993756968,753.5601925463504,-37.68198214948333,-163.36044311523438,4381.2578125,True
1599567923.4436834,0.0,10,0.5,0.5,6.396005630493164,-0.05075,-0.03,-0.2505,0.09870076071515932,10,1,100,0.07483215571764401,-10,-1,-100,6411.749930692138,-0.009445556777687535,0.013140988558689403,0.9998690393630858,232.27967126112205,24.9755797496519,745.5340237487111,-38.05989268075815,-167.23910522460938,4381.2578125,True
1599567923.5075123,0.0,10,0.5,0.5,6.141704895019532,-0.05075,-0.03,-0.2505,0.11871632847244075,10,1,100,0.09131490744109703,-10,-1,-100,6410.970133775962,-0.00931041356459107,0.012892664318773853,0.999873539706907,229.67183948616238,24.686879543882053,741.1643190867657,-38.24889918396745,-169.06646728515625,4381.2578125,True
1599567923.5673523,0.0,10,0.5,0.5,6.860103408813477,-0.05075,-0.03,-0.2505,0.08373288650955267,10,1,100,0.08093508781684682,-10,-1,-100,6409.466692339396,-0.009098002300244734,0.012351017409687488,0.9998823324387177,224.41390876089952,24.11149507449634,732.0363914660289,-38.62700132425091,-172.49786376953125,4381.2578125,True
1599567923.6251984,0.0,10,0.5,0.5,7.0693284530639655,-0.05075,-0.03,-0.2505,0.07437695310703132,10,1,100,0.0857928953035604,-10,-1,-100,6407.893916602945,-0.008952997338608559,0.011776227094615647,0.9998905761702482,219.21672583267087,23.551830556789408,722.7661430261794,-39.005202709242,-175.63119506835938,4381.2578125,True
1599567924.1093116,0.0,10,0.5,0.5,7.272937004089355,-0.05075,-0.03,-0.2505,0.06371134756920419,10,1,100,0.09286923905280779,-10,-1,-100,6406.331884630024,-0.008889571168151596,0.011159922836795205,0.9998982106428249,218.07319762070415,23.436904554955746,726.6588457019517,-39.38341945345433,-178.46682739257812,4381.2578125,True
1599567924.1564934,0.0,10,0.5,0.5,-101.00590113449095,-0.05075,-0.03,-0.2505,0.05401271686504684,10,1,100,0.09827562942027777,-10,-1,-100,6404.762530151638,-0.008884230836365498,0.010515125662536482,0.999905246798289,222.99888629886027,23.98283541520174,750.9245330917419,-39.76140392251568,178.99522399902344,4381.2578125,True
1599567924.2093518,0.0,10,0.5,0.5,-12.076588638305664,-0.05075,-0.03,-0.2505,0.08098819306483654,10,1,100,0.10113786942310116,-10,-1,-100,6403.931466165464,-0.00890827478325002,0.010178345058044186,0.9999085177816347,225.2069014472667,24.23130946765874,762.330040831841,-39.95030345074789,177.83773803710938,4381.2578125,True
1599567924.2637186,0.0,10,0.5,0.5,-13.023542564392093,-0.05075,-0.03,-0.2505,0.07613882718030124,10,1,100,0.10286640227806271,-10,-1,-100,6403.141419479623,-0.008947872665051046,0.009832238337991961,0.9999116274271617,227.2585871271008,24.464681486822496,773.2845567995182,-40.13914269714477,176.75454711914062,4381.2578125,True
1599567924.3205686,0.0,10,0.5,0.5,-13.240384681701661,-0.05075,-0.03,-0.2505,-0.00934492365727134,10,1,100,0.12310472416250864,-10,-1,-100,6400.7273355231155,-0.009169603588194089,0.00874480035935774,0.9999197201959317,232.95071496991096,25.12417261747112,804.999441620606,-40.70530442748542,173.29617309570312,4381.2578125,True
1599567924.381404,0.0,10,0.5,0.5,-14.71776505279541,-0.05075,-0.03,-0.2505,0.05732515377167708,10,1,100,0.11294021362876039,-10,-1,-100,6399.885532934684,-0.009279667093842174,0.008367131293456662,0.9999219363993099,234.88195651802425,25.350670576177844,815.8272224261879,-40.89390088451179,172.01358032226562,4381.2578125,True
1599567924.4422414,0.0,10,0.5,0.5,-14.754319259643555,-0.05075,-0.03,-0.2505,-0.036112409212791005,10,1,100,0.1471091038505845,-10,-1,-100,6397.4113982321,-0.009690792674756393,0.007179135218544366,0.9999272716327167,241.49361675371495,26.127143664657762,851.6120297240585,-41.45926989337714,167.72857666015625,4381.2578125,True
1599567924.5000863,0.0,10,0.5,0.5,-15.861174568176269,-0.05075,-0.03,-0.2505,-0.009582446710674444,10,1,100,0.1451473446045122,-10,-1,-100,6395.71412707516,-0.010046486086171327,0.006345740130770744,0.99992939735739,246.06954201788892,26.66915833645991,876.4581769036919,-41.83580335139498,164.50387573242188,4381.2578125,True
1599567924.5569403,0.0,10,0.5,0.5,-16.609386810302734,-0.05075,-0.03,-0.2505,-0.023019887339850137,10,1,100,0.15463044911955684,-10,-1,-100,6394.020277479431,-0.010455384617120237,0.00547190143088222,0.9999303691893946,251.01997864932335,27.255002858291032,902.9707896299734,-42.21201000774549,160.9842529296875,4381.2578125,True
1599567924.6137834,0.0,10,0.5,0.5,-17.34241305541992,-0.05075,-0.03,-0.2505,-0.037213049814637564,10,1,100,0.1647662186364597,-10,-1,-100,6392.333266854868,-0.010918019929666657,0.004554727604829863,0.9999300232002545,255.85201852141643,27.828937028595263,929.3950727485624,-42.58787879594251,157.16986083984375,4381.2578125,True
1599567924.67462,0.0,10,0.5,0.5,-18.058565284729006,-0.05075,-0.03,-0.2505,-0.0514492826759148,10,1,100,0.17623814985677633,-10,-1,-100,6390.6325883578975,-0.01144110138617441,0.0035980779183068233,0.9999280749305748,260.2924381475914,28.358096613589268,954.713462911546,-42.963418521407114,153.06112670898438,4381.2578125,True
1599567924.7334652,0.0,10,0.5,0.5,-19.430270156860352,-0.05075,-0.03,-0.2505,-0.011066731302289468,10,1,100,0.15525465175081665,-10,-1,-100,6389.797632058035,-0.011723551336383623,0.003102384892972007,0.9999264640722532,262.3078136778026,28.598416315370187,966.7310313096768,-43.15107151449323,150.89642333984375,4381.2578125,True
1599567924.7923064,0.0,10,0.5,0.5,-18.517584899902342,-0.05075,-0.03,-0.2505,-0.0756040556362124,10,1,100,0.1940327814811875,-10,-1,-100,6388.037879042677,-0.012330271270031716,0.0020717907766952055,0.9999218329916519,265.80184150192025,29.01421826982111,988.975213699689,-43.52616597714971,146.3465576171875,4381.2578125,True
1599567924.851149,0.0,10,0.5,0.5,-18.10372819519043,-0.05075,-0.03,-0.2505,-0.0925383271866922,10,1,100,0.20726755978834016,-10,-1,-100,6386.284967008163,-0.012999040106607023,0.0009883087062404327,0.9999150204903453,268.40115046206785,29.320879672519112,1008.1002214485782,-43.901020885306124,141.50299072265625,4381.2578125,True
1599567924.9109883,0.0,10,0.5,0.5,-16.02820771408081,-0.05075,-0.03,-0.2505,-0.23869504972927605,10,1,100,0.31115059788090305,-10,-1,-100,6382.709828597144,-0.014547720152115551,-0.0013173325358039852,0.9998933085451496,269.99920356837697,29.49585820385557,1033.149220995457,-44.65029764823922,130.93675231933594,4381.2578125,True
1599567924.9688344,0.0,10,0.5,0.5,-18.54797217178345,-0.05075,-0.03,-0.2505,-0.009137138814350418,10,1,100,0.15682040498644242,-10,-1,-100,6382.709828597144,-0.014547720152115551,-0.0013173325358039852,0.9998933085451496,269.99920356837697,29.49585820385557,1033.149220995457,-44.65029764823922,130.93675231933594,4381.2578125,True
1599567925.0266798,0.0,10,0.5,0.5,-15.805844192504885,-0.05075,-0.03,-0.2505,-0.22263641159951503,10,1,100,0.3074675669807104,-10,-1,-100,6380.046319534304,-0.015912450667465012,-0.0032494309576425176,0.999868108858467,267.11017182447455,29.14072391988794,1036.3100368828436,-45.212241341803036,122.24331665039062,4381.2578125,True
1599567925.0885162,0.0,10,0.5,0.5,-16.93003197479248,-0.05075,-0.03,-0.2505,-0.10749700756516764,10,1,100,0.22689585039685234,-10,-1,-100,6379.13521450269,-0.016414988568845167,-0.003949681698841492,0.9998574639241148,265.2108522194014,28.914640318376037,1033.673630247618,-45.39962334126533,119.19912719726562,4381.2578125,True
1599567925.1483536,0.0,10,0.5,0.5,-15.657147258758545,-0.05075,-0.03,-0.2505,-0.18545285884561719,10,1,100,0.29427347276596794,-10,-1,-100,6377.327172913589,-0.0174785754984712,-0.005285603364454089,0.999833266997862,259.8347424282193,28.287293690783166,1022.0453331727495,-45.77456855365003,112.89360046386719,4381.2578125,True
1599567925.2057083,0.0,10,0.5,0.5,-14.077850421905518,-0.05075,-0.03,-0.2505,-0.3047157423805056,10,1,100,0.38984274452111656,-10,-1,-100,6374.538723630132,-0.019307899549649538,-0.007574506088241494,0.9997848928006963,247.49359053762907,26.890291665850587,986.966256239993,-46.33761041351207,102.88676452636719,4381.2578125,True
1599567925.2645507,0.0,10,0.5,0.5,-15.373148777008057,-0.05075,-0.03,-0.2505,-0.16171148980830416,10,1,100,0.28074924229077736,-10,-1,-100,6373.56855985627,-0.01997153513988132,-0.008344261510398148,0.9997657281003398,242.15689542937173,26.299326587144,970.1117305341265,-46.525492176438995,99.40605163574219,4381.2578125,True
1599567925.3219056,0.0,10,0.5,0.5,-13.921143127441407,-0.05075,-0.03,-0.2505,-0.26502773954729647,10,1,100,0.3756065280140404,-10,-1,-100,6371.753735984443,-0.02142942424325469,-0.009972421128687122,0.9997206262718774,235.63425724055028,25.586178648503815,952.6383935411149,-46.90147153251909,92.22610473632812,4381.2578125,True
1599567925.3837824,0.0,10,0.5,0.5,-12.135252849578857,-0.05075,-0.03,-0.2505,-0.3852358477276164,10,1,100,0.5076120621304283,-10,-1,-100,6368.86870817712,-0.02394600476291867,-0.01253348103238759,0.9996346836265261,255.86159660295786,27.82005920571003,1048.556831820477,-47.46448154462444,80.91172790527344,4381.2578125,True
1599567925.441628,0.0,10,0.5,0.5,-12.391846454620362,-0.05075,-0.03,-0.2505,-0.3230326371093247,10,1,100,0.46614518727598103,-10,-1,-100,6366.895262880949,-0.025846273888033778,-0.014282956055758925,0.9995638885496083,267.68107643145464,29.14745622665371,1106.8316897957634,-47.8389599445557,73.00682067871094,4381.2578125,True
1599567925.5015042,0.0,10,0.5,0.5,-12.943191734313965,-0.05075,-0.03,-0.2505,-0.24743060112621496,10,1,100,0.39152807004345824,-10,-1,-100,6365.970565086929,-0.026883774541677827,-0.015172213691011868,0.9995234197346786,272.7992890812131,29.725942825200935,1132.990338194094,-48.025952400477024,68.9459228515625,4381.2578125,True
1599567925.5593495,0.0,10,0.5,0.5,-9.97421753692627,-0.05075,-0.03,-0.2505,-0.45437762784527236,10,1,100,0.6766865660090875,-10,-1,-100,6363.031494006165,-0.030408092322505808,-0.01784937098309215,0.9993781806087293,285.88758812418405,31.194252253201917,1202.985256914313,-48.586049378587006,56.330963134765625,4381.2578125,True
1599567925.6181931,0.0,10,0.5,0.5,-11.600449523925782,-0.05075,-0.03,-0.2505,-0.284979561881601,10,1,100,0.46766304580510737,-10,-1,-100,6362.059964108048,-0.03169738523761289,-0.01872813879581604,0.9993220364759015,288.5875975236241,31.489472505587702,1219.5960807961314,-48.77253593179195,51.982421875,4381.2578125,True
1599567925.6770208,0.0,10,0.5,0.5,-8.419764141082762,-0.05075,-0.03,-0.2505,-0.47840365713788213,10,1,100,0.8114998286145252,-10,-1,-100,6359.084408974857,-0.03598090870000481,-0.021271347938951066,0.9991260701062613,290.72342407214984,31.673616379512843,1244.5404220313226,-49.33181051508992,38.50785827636719,4381.2578125,True
1599567925.7368615,0.0,10,0.5,0.5,-7.300950691223145,-0.05075,-0.03,-0.2505,-0.4786290203444098,10,1,100,0.9219544068603964,-10,-1,-100,6356.106533243437,-0.040861366267931604,-0.023569658038005786,0.9988867903654995,282.7616745367866,30.70334656450934,1226.1792863265082,-49.891570047673895,24.3929443359375,4381.2578125,True
1599567925.7932832,0.0,10,0.5,0.5,-7.630254878997803,-0.05075,-0.03,-0.2505,-0.3852359439087175,10,1,100,0.8434996181674146,-10,-1,-100,6354.10117201414,-0.04456366344086571,-0.02479338101984601,0.998698837567329,271.30101916613086,29.39447730531836,1186.7380187345357,-50.265442293628006,14.630355834960938,4381.2578125,True
1599567925.8501308,0.0,10,0.5,0.5,-9.811014072418214,-0.05075,-0.03,-0.2505,-0.2645855332178556,10,1,100,0.47579547726312577,-10,-1,-100,6354.10117201414,-0.04456366344086571,-0.02479338101984601,0.998698837567329,271.30101916613086,29.39447730531836,1186.7380187345357,-50.265442293628006,14.630355834960938,4381.2578125,True
1599567925.9254386,0.0,10,0.5,0.5,-4.986329719543457,-0.05075,-0.03,-0.2505,-0.40813462135216566,10,1,100,1.134471195954645,-10,-1,-100,6351.06149808201,-0.0505292680396059,-0.02608341898514933,0.9983819150632822,266.4239598444132,28.839176904961324,1180.7744469676895,-50.827178301209734,-0.54095458984375,4381.2578125,True
1599567925.9804559,0.0,10,0.5,0.5,-5.355558273315428,-0.05075,-0.03,-0.2505,-0.3380561733786991,10,1,100,1.0049518173673206,-10,-1,-100,6348.9932853059145,-0.05474864164785189,-0.026604457610342233,0.998145675276397,285.80573541097505,30.974183891314794,1277.7143686398708,-51.20072626981127,-11.0069580078125,4381.2578125,True
1599567926.0373032,0.0,10,0.5,0.5,-6.093340232849121,-0.05075,-0.03,-0.2505,-0.30425484775945794,10,1,100,0.8252304239640234,-10,-1,-100,6347.958953090361,-0.056922602590877426,-0.02675805251254454,0.9980199516743224,293.8701444407337,31.875096250099133,1319.4190580096013,-51.38712462028342,-16.345367431640625,4381.2578125,True
1599567926.0976496,0.0,10,0.5,0.5,-2.2128820343017583,-0.05075,-0.03,-0.2505,-0.24287542453284577,10,1,100,1.3335908244626213,-10,-1,-100,6344.8564887994435,-0.06349213769933985,-0.0263283484884349,0.9976349866139617,312.38752600494973,33.95066083195561,1420.4227164515778,-51.945002933332546,-32.77581787109375,4381.2578125,True
1599567926.1578746,0.0,10,0.5,0.5,-2.6185775299072267,-0.05075,-0.03,-0.2505,-0.20945000068191194,10,1,100,1.1586182858999161,-10,-1,-100,6342.788361529703,-0.06784050257177414,-0.025623699036238175,0.9973670799953794,317.6542201449427,34.51589589890511,1456.4015922484705,-52.316209168104265,-44.07861328125,4381.2578125,True
1599567926.21572,0.0,10,0.5,0.5,-1.660062614440918,-0.05075,-0.03,-0.2505,-0.15860851555952216,10,1,100,1.1910299300549956,-10,-1,-100,6340.657248378382,-0.07205418339335215,-0.024513845734898385,0.9970994263476449,315.7136265835923,34.24468451866864,1459.5312390676916,-52.6874107805219,-55.659149169921875,4381.2578125,True
1599567926.280547,0.0,10,0.5,0.5,-0.6656828384399414,-0.05075,-0.03,-0.2505,-0.11090151523106362,10,1,100,1.2117824530178105,-10,-1,-100,6338.5891064056195,-0.07603677362339799,-0.023065928451658876,0.9968381874715712,306.01986097130924,33.10302911968509,1426.572944705413,-53.05912640263081,-67.51766967773438,4381.2578125,True
1599567926.3403876,0.0,10,0.5,0.5,0.33810362243652303,-0.05075,-0.03,-0.2505,-0.06803119613245126,10,1,100,1.2260347167904504,-10,-1,-100,6336.457457394456,-0.07975046180780603,-0.02135827840189675,0.9965860162500518,288.37137271826407,31.12144418142478,1355.7279137989146,-53.43176764013184,-79.6546630859375,4381.2578125,True
1599567926.3982723,0.0,10,0.5,0.5,1.345809284210205,-0.05075,-0.03,-0.2505,-0.03049109483322937,10,1,100,1.2312166006853507,-10,-1,-100,6334.265221666312,-0.08313829628763982,-0.019466605962698353,0.9963478684388709,280.96065871455795,30.31396913762055,1332.2169661553673,-53.80513940311207,-92.05592346191406,4381.2578125,True
1599567926.4640565,0.0,10,0.5,0.5,0.4504113960266114,-0.05075,-0.03,-0.2505,-0.1103565503810729,10,1,100,1.0683874175359647,-10,-1,-100,6333.230366535718,-0.08470281266536087,-0.018477795863913977,0.9962349143583498,294.3301212472257,31.780602628057718,1401.5612646605498,-53.99142284877719,-98.33329772949219,4381.2578125,True
1599567926.554842,0.0,10,0.5,0.5,6.716879125595093,-0.05075,-0.03,-0.2505,0.2236389176287213,10,1,100,1.511070915797311,-10,-1,-100,6328.843750615721,-0.09011300558455179,-0.01454829659688999,0.9958252825122725,330.9028468416585,35.88145520236839,1602.1138920761805,-54.73335615165459,-123.2297592163086,4381.2578125,True
1599567926.6326056,0.0,10,0.5,0.5,2.6839747314453124,-0.05075,-0.03,-0.2505,-0.06464568623655333,10,1,100,1.0997346720076124,-10,-1,-100,6327.748286357615,-0.09125595716977815,-0.01360728013690546,0.995734498854139,335.67728269974543,36.413254398823454,1631.835397039729,-54.91825172269568,-129.32301330566406,4381.2578125,True
1599567926.699428,0.0,10,0.5,0.5,5.139716449737549,-0.05075,-0.03,-0.2505,0.027743326637669458,10,1,100,1.2241169060876265,-10,-1,-100,6325.553911063704,-0.09339256317932776,-0.01192372612667517,0.9955579610942054,338.5719143948919,36.7008307467941,1659.253188753768,-55.287851890374725,-141.3633575439453,4381.2578125,True
1599567926.7632568,0.0,10,0.5,0.5,4.281167278289795,-0.05075,-0.03,-0.2505,-0.057485984939730964,10,1,100,1.125819284874889,-10,-1,-100,6324.457937666681,-0.09440816303099483,-0.011181520155702063,0.9954707792598037,336.7452276929847,36.46518818856279,1656.9996920707547,-55.47271999020322,-147.28038024902344,4381.2578125,True
1599567926.8261228,0.0,10,0.5,0.5,8.352764247894289,-0.05075,-0.03,-0.2505,0.07535638942854074,10,1,100,1.3238125874171012,-10,-1,-100,6321.105046020122,-0.09710326925986533,-0.009312899349953798,0.9952307395798944,319.1959433444959,34.42407839041435,1590.144069490765,-56.02839438677387,-164.5759735107422,4381.2578125,True
1599567926.8920512,0.0,10,0.5,0.5,7.739542667388916,-0.05075,-0.03,-0.2505,-0.019004345318291413,10,1,100,1.248033719511346,-10,-1,-100,6318.849604200339,-0.09883786451725156,-0.008486806023959563,0.9950673598612212,298.70255518026386,32.16662626487599,1500.5893344129358,-56.40011837215476,-175.72230529785156,4381.2578125,True
1599567926.9538848,0.0,10,0.5,0.5,-99.8772841873169,-0.05075,-0.03,-0.2505,-0.04567839508982901,10,1,100,1.2714118767683638,-10,-1,-100,6316.5321726601105,-0.10060294919800838,-0.007992873488897817,0.9948945474702601,303.7012294546574,32.74279447153795,1538.6043668475402,-56.77208375662595,173.43905639648438,4381.2578125,True
1599567927.0137258,0.0,10,0.5,0.5,-9.962648231506348,-0.05075,-0.03,-0.2505,-0.07452870387131419,10,1,100,1.3018505130694775,-10,-1,-100,6314.276310807443,-0.1024619536236387,-0.00781982222318497,0.9947061869919303,324.159875051187,35.05558645321475,1655.9634184447611,-57.142716698835095,162.90765380859375,4381.2578125,True
1599567927.073565,0.0,10,0.5,0.5,-11.776832000732423,-0.05075,-0.03,-0.2505,-0.09425851586266777,10,1,100,1.225826875974522,-10,-1,-100,6313.117395996931,-0.10344018686260682,-0.00785417250534806,0.9946046650383685,332.0160791889044,35.96820045879194,1703.0503218707086,-57.327570603664554,157.75704956054688,4381.2578125,True
1599567927.1354005,0.0,10,0.5,0.5,-9.1036282119751,-0.05075,-0.03,-0.2505,-0.14885890254782536,10,1,100,1.4874766671470607,-10,-1,-100,6309.640762079507,-0.10668966800816913,-0.008392323943958984,0.9942569505108456,349.72278334506626,38.03969798240136,1815.546014142119,-57.880611169789205,142.1126708984375,4381.2578125,True
1599567927.1958175,0.0,10,0.5,0.5,-12.135618183135987,-0.05075,-0.03,-0.2505,-0.12824055987315144,10,1,100,1.2977398798621154,-10,-1,-100,6308.4814411193365,-0.1078988738421419,-0.00870328165649002,0.9941237779632902,352.52013840086465,38.36273637271427,1837.2886232162846,-58.064626292094246,136.77403259277344,4381.2578125,True
1599567927.2546608,0.0,10,0.5,0.5,-10.973715957641602,-0.05075,-0.03,-0.2505,-0.18402501883811068,10,1,100,1.4689913924274187,-10,-1,-100,6306.163369372953,-0.11053881483429483,-0.009498415581145501,0.9938264187052371,352.6098107755822,38.347672958986394,1852.247198269352,-58.43257732181311,125.88858032226562,4381.2578125,True
