Timestamp,Input Throttle,horizon,dT,dt,Input Roll,Roll P,Roll I,Roll D,Input Pitch,Pitch P,Pitch I,Pitch D,Input Yaw,Yaw P,Yaw I,Yaw D,Altitude,Direction X,Direction Y,Direction Z,Drag X,Drag Y,Drag Z,Vertical Velocity,Roll,Mass,Has Fuel
1599567055.81537,0.0,10,0.5,0.5,-2.7433157653808595,-0.05075,-0.0155,-0.001,-0.06715640987767307,10,1,100,0.6903616516418236,-10,-1,-100,6483.617967202095,-0.06725765579482894,-0.007002680480041459,0.997711065490946,205.07328487827735,21.498784590149874,-156.76528257985797,9.590823675229831,-35.944580078125,4381.2578125,True
1599567055.8752375,0.0,10,0.5,0.5,-2.827270603942871,-0.05075,-0.0155,-0.001,-0.06734493938008336,10,1,100,0.6998857102646521,-10,-1,-100,6483.997883144184,-0.06744477749243694,-0.006971933812147501,0.9976986489556428,204.61198484493104,21.456725373125007,-150.26659447552433,9.210801327900754,-35.941253662109375,4381.2578125,True
1599567055.933937,0.0,10,0.5,0.5,-2.9090194778442386,-0.05075,-0.0155,-0.001,-0.05202724289295339,10,1,100,0.7005502770199304,-10,-1,-100,6484.316760189482,-0.06755961620849907,-0.006798392387986223,0.9976920768046118,204.14956912305348,21.414367271858925,-143.7894181830672,8.830797566808037,-35.98065185546875,4381.2578125,True
1599567055.99178,0.0,10,0.5,0.5,-2.9874414077758793,-0.05075,-0.0155,-0.001,-0.05280965401654887,10,1,100,0.6980237788179879,-10,-1,-100,6484.53893610253,-0.0675796290428938,-0.006641559928610488,0.9976917777651269,203.94245744169066,21.395610932658254,-140.57585192974744,8.64080049289787,-36.083984375,4381.2578125,True
1599567056.0491102,0.0,10,0.5,0.5,-3.0331327682495117,-0.05075,-0.0155,-0.001,0.0017688275447684948,10,1,100,0.6987155240293075,-10,-1,-100,6485.016949213925,-0.06754267509513474,-0.005996779169594561,0.9976983640763295,203.4469915243039,21.351714642686414,-131.04561056383804,8.070815977108357,-36.81793212890625,4381.2578125,True
1599567056.1089518,0.0,10,0.5,0.5,-3.0961061874389655,-0.05075,-0.0155,-0.001,-0.028386044295941028,10,1,100,0.7011837623831572,-10,-1,-100,6485.175623358344,-0.06747011669575684,-0.005679298424341447,0.9977051312499441,203.31798943151995,21.34047966426921,-127.89890148052442,7.880820053140365,-37.2081298828125,4381.2578125,True
1599567056.1667967,0.0,10,0.5,0.5,-3.0949565048217775,-0.05075,-0.0155,-0.001,0.07932519418430631,10,1,100,0.6680881879619516,-10,-1,-100,6485.590080988128,-0.06704194918640619,-0.004406323489359693,0.9977404278481424,202.9728973292739,21.309552770300076,-118.49872481451543,7.310815323038263,-38.819091796875,4381.2578125,True
1599567056.2256804,0.0,10,0.5,0.5,-3.1013161560058595,-0.05075,-0.0155,-0.001,0.07400378450365808,10,1,100,0.6657574882554324,-10,-1,-100,6485.909322288353,-0.06657057059040414,-0.003293444251482755,0.9977762837210706,202.71006441226936,21.283909855771356,-112.22467639957681,6.930787602153619,-40.260284423828125,4381.2578125,True
1599567056.2842782,0.0,10,0.5,0.5,-3.1368610412597655,-0.05075,-0.0155,-0.001,0.032299422253488745,10,1,100,0.6874073049534082,-10,-1,-100,6486.005456798011,-0.06627834240893805,-0.0026578723790948214,0.9977976333114544,202.54317226492924,21.266829180051914,-109.07257960719087,6.740763187549037,-41.091064453125,4381.2578125,True
1599567056.3491051,0.0,10,0.5,0.5,-3.003446334838867,-0.05075,-0.0155,-0.001,0.29123838986188794,10,1,100,0.5422443963239529,-10,-1,-100,6486.517858317704,-0.06463276458151117,0.00027632709440610586,0.9979090787170382,201.37858716929406,21.142440525367057,-96.26432358359259,5.980564392165788,-45.15008544921875,4381.2578125,True
1599567056.40994,0.0,10,0.5,0.5,-3.077022723388672,-0.05075,-0.0155,-0.001,-0.0021539247787642265,10,1,100,0.7132654555247927,-10,-1,-100,6486.517858317704,-0.06463276458151117,0.00027632709440610586,0.9979090787170382,201.37858716929406,21.142440525367057,-96.26432358359259,5.980564392165788,-45.15008544921875,4381.2578125,True
1599567056.4717755,0.0,10,0.5,0.5,-2.8652235809326174,-0.05075,-0.0155,-0.001,0.2835795856299467,10,1,100,0.5217915506112878,-10,-1,-100,6486.868649216369,-0.0628944789834005,0.002867287182144889,0.9980160635869654,199.59860198135553,20.9499115794187,-86.34497985470483,5.410256838943536,-48.96710205078125,4381.2578125,True
1599567056.5336092,0.0,10,0.5,0.5,-2.698117286682129,-0.05075,-0.0155,-0.001,0.23372753560625836,10,1,100,0.539264114093988,-10,-1,-100,6487.0617920157965,-0.061477197469969026,0.00476056024260635,0.9980971351814487,197.7419818792782,20.74947394406096,-79.54590072046238,5.029941733067596,-51.87982177734375,4381.2578125,True
1599567056.5954473,0.0,10,0.5,0.5,-2.510382943725586,-0.05075,-0.0155,-0.001,0.26173037234291485,10,1,100,0.5001525176760652,-10,-1,-100,6487.254428231041,-0.05983872923463068,0.006725780674604017,0.9981853987901754,195.1788638224609,20.47373067765089,-72.59130729043316,4.649512170257703,-55.087615966796875,4381.2578125,True
1599567056.6622667,0.0,10,0.5,0.5,-2.302837966918945,-0.05075,-0.0155,-0.001,0.285740660737163,10,1,100,0.45881462002696005,-10,-1,-100,6487.448513202951,-0.05798045076915693,0.00871846792491032,0.9982796480173518,191.75369841553876,20.106864428609143,-65.49234718154224,4.268937995814931,-58.5909423828125,4381.2578125,True
1599567056.7330775,0.0,10,0.5,0.5,-2.1762220184326173,-0.05075,-0.0155,-0.001,0.2003899608827826,10,1,100,0.5322400408937284,-10,-1,-100,6487.544086057227,-0.0569673034669023,0.009740708838244861,0.9983285255501009,189.66210713879772,19.88362190315874,-61.89508279489553,4.078586184399116,-60.45318603515625,4381.2578125,True
1599567056.786934,0.0,10,0.5,0.5,-1.718262860107422,-0.05075,-0.0155,-0.001,0.5413567694223228,10,1,100,0.12793621658966303,-10,-1,-100,6487.805259970482,-0.052380319165023725,0.013755698830487913,0.998532464626892,178.3839799167642,18.68713451670428,-47.35460993381277,3.316652081517011,-68.64239501953125,4381.2578125,True
1599567056.8507645,0.0,10,0.5,0.5,-1.6802259490966798,-0.05075,-0.0155,-0.001,0.14167397243000243,10,1,100,0.585168483775382,-10,-1,-100,6487.805259970482,-0.052380319165023725,0.013755698830487913,0.998532464626892,178.3839799167642,18.68713451670428,-47.35460993381277,3.316652081517011,-68.64239501953125,4381.2578125,True
1599567056.9115987,0.0,10,0.5,0.5,-1.2781198242187501,-0.05075,-0.0155,-0.001,0.45547095477243443,10,1,100,0.1492949448651441,-10,-1,-100,6487.969390584738,-0.048430732676226454,0.016592899448980958,0.9986887101696504,166.40518327715031,17.425659432723805,-36.56112924183542,2.7444613785453504,-75.56246948242188,4381.2578125,True
1599567056.9824102,0.0,10,0.5,0.5,-0.9736836074829102,-0.05075,-0.0155,-0.001,0.37122452278639584,10,1,100,0.22617242720475184,-10,-1,-100,6488.100462312694,-0.045555310807436925,0.01838879538243967,0.99879255396785,156.61496960457396,16.398025342872124,-29.626242535505554,2.3626292146452594,-80.54653930664062,4381.2578125,True
1599567057.0412576,0.0,10,0.5,0.5,-0.7890996673583984,-0.05075,-0.0155,-0.001,0.29134917177166275,10,1,100,0.34226553753418126,-10,-1,-100,6488.13352827786,-0.044014025978599505,0.019278822614279077,0.9988448791057409,151.16923770310575,15.827104642794637,-26.285849343522713,2.1716343407828465,-83.14950561523438,4381.2578125,True
1599567057.1040897,0.0,10,0.5,0.5,-0.45173350219726566,-0.05075,-0.0155,-0.001,0.36911320538406633,10,1,100,0.16404873255214103,-10,-1,-100,6488.200644271215,-0.041011449487640496,0.02077760904377323,0.9989426169572238,147.99889271423982,15.494808788047276,-21.209147358770235,1.7895605032937496,-88.580810546875,4381.2578125,True
1599567057.1639333,0.0,10,0.5,0.5,-0.09955213699340816,-0.05075,-0.0155,-0.001,0.37787300866937656,10,1,100,0.11073523712035199,-10,-1,-100,6488.269237599219,-0.03781706001874855,0.022203494626032893,0.9990379746525805,155.95558133067647,16.32752597140153,-17.579427706749158,1.4074627705823555,-94.30470275878906,4381.2578125,True
1599567057.2227793,0.0,10,0.5,0.5,0.27029357337951665,-0.05075,-0.0155,-0.001,0.37613453878299374,10,1,100,0.06127705394093019,-10,-1,-100,6488.273389825132,-0.03448495896126224,0.023468092761498718,0.9991296393499584,164.7359630519448,17.245128379769906,-13.530606163530559,1.025441560794349,-100.29138946533203,4381.2578125,True
1599567057.2866044,0.0,10,0.5,0.5,0.8158066116333009,-0.05075,-0.0155,-0.001,0.42041604620352097,10,1,100,-0.15826653862815376,-10,-1,-100,6488.311631716322,-0.0294829742222588,0.025005066304757084,0.9992524710452831,176.2365305521096,18.4463889981306,-6.3897820993318915,0.45257518394024476,-109.5944595336914,4381.2578125,True
1599567057.346619,0.0,10,0.5,0.5,1.371562529373169,-0.05075,-0.0155,-0.001,0.3955215298293962,10,1,100,-0.2161381032310673,-10,-1,-100,6488.350408695755,-0.024435517032726367,0.026161195196700057,0.9993590432738494,185.61713174073668,19.427172734777624,1.789914413342335,-0.12034503350902348,-118.98583221435547,4381.2578125,True
1599567057.4094508,0.0,10,0.5,0.5,1.6121079990386964,-0.05075,-0.0155,-0.001,0.316323948396135,10,1,100,0.10702222964867025,-10,-1,-100,6488.322004673537,-0.022814315146998294,0.02647731573420179,0.999389042753564,187.63217880417557,19.637740559080935,4.681815216036386,-0.3113803279995482,-122.0623779296875,4381.2578125,True
1599567057.471056,0.0,10,0.5,0.5,2.001395121383667,-0.05075,-0.0155,-0.001,0.34465107724315763,10,1,100,-0.0855882366246124,-10,-1,-100,6488.327718217275,-0.01961636919750477,0.027010652287900196,0.9994426560451026,190.64453151998356,19.952309636757242,10.596981454188594,-0.6935558009500147,-128.0442657470703,4381.2578125,True
1599567057.5298982,0.0,10,0.5,0.5,2.2369219966888427,-0.05075,-0.0155,-0.001,0.31716495052289584,10,1,100,0.05958469092073726,-10,-1,-100,6488.298847124563,-0.0180586849028934,0.027233579863389628,0.9994659654172334,191.55632580370286,20.047348218251734,13.58297713881626,-0.8846901235987747,-130.93191528320312,4381.2578125,True
1599567057.5997212,0.0,10,0.5,0.5,2.607481049728394,-0.05075,-0.0155,-0.001,0.32786008060542643,10,1,100,-0.13297598251361897,-10,-1,-100,6488.241607549018,-0.014919667647273765,0.0275237964051172,0.999509801927297,192.01853387528092,20.094828498979474,19.503198960121736,-1.2670469308044296,-136.4898681640625,4381.2578125,True
1599567057.6560163,0.0,10,0.5,0.5,3.2180580661773686,-0.05075,-0.0155,-0.001,0.3372444616077631,10,1,100,-0.46287226536267134,-10,-1,-100,6488.124258063501,-0.00909480906459195,0.027864637633051983,0.9995703309010613,188.35847847102815,19.709266048805674,30.690979799339445,-2.032017574236508,-146.7202606201172,4381.2578125,True
1599567057.7168508,0.0,10,0.5,0.5,3.306362343978882,-0.05075,-0.0155,-0.001,0.30401892031616207,10,1,100,0.11612167121410938,-10,-1,-100,6488.124258063501,-0.00909480906459195,0.027864637633051983,0.9995703309010613,188.35847847102815,19.709266048805674,30.690979799339445,-2.032017574236508,-146.7202606201172,4381.2578125,True
1599567057.7752054,0.0,10,0.5,0.5,3.753279169845581,-0.05075,-0.0155,-0.001,0.32240984963707664,10,1,100,-0.3286821077638571,-10,-1,-100,6487.974772150046,-0.005080153474267754,0.02802538514634277,0.999594302618856,182.69212546226325,19.113517669702002,38.18204464584448,-2.605819638476787,-153.61495971679688,4381.2578125,True
1599567057.8390336,0.0,10,0.5,0.5,3.949553074264527,-0.05075,-0.0155,-0.001,0.3144133637075705,10,1,100,-0.0692861397309374,-10,-1,-100,6487.882963977987,-0.0038183725620400096,0.028093531294956786,0.9995980059655766,180.42866913213294,18.875753319352263,40.47958064533978,-2.797069831064941,-155.7644805908203,4381.2578125,True
1599567057.9028628,0.0,10,0.5,0.5,4.344241394042968,-0.05075,-0.0155,-0.001,0.3050646083360777,10,1,100,-0.35088975543242795,-10,-1,-100,6487.732557768817,-0.00013914485036416632,0.02806628870983463,0.999606054441832,173.01126260101208,18.09688667005236,46.78637137299945,-3.3707193376721594,-161.77133178710938,4381.2578125,True
1599567057.964698,0.0,10,0.5,0.5,4.607090948867798,-0.05075,-0.0155,-0.001,0.3134176295303933,10,1,100,-0.23377230728229265,-10,-1,-100,6487.549461376271,0.002114227332183648,0.028114676350212742,0.9996024684926055,167.6173059563959,17.530226973863797,50.476895962661146,-3.7530906333709515,-165.40383911132812,4381.2578125,True
1599567058.03152,0.0,10,0.5,0.5,4.763659938049317,-0.05075,-0.0155,-0.001,0.3086178063329169,10,1,100,-0.13035974896320787,-10,-1,-100,6487.518708841992,0.0031984972003582446,0.02811325446589441,0.9995996271202762,164.83336868561526,17.23769848033346,52.170850701531144,-3.9442742920749208,-167.10922241210938,4381.2578125,True
1599567058.0963457,0.0,10,0.5,0.5,5.073325595092774,-0.05075,-0.0155,-0.001,0.33217984597879135,10,1,100,-0.35685363467392905,-10,-1,-100,6487.243368120282,0.006219584393935019,0.028324674987175065,0.999579426337316,156.30940001194975,16.34260040775693,56.68014507210262,-4.5179041599659975,-171.77682495117188,4381.2578125,True
1599567058.156188,0.0,10,0.5,0.5,5.2782742774963385,-0.05075,-0.0155,-0.001,0.32770420148467544,10,1,100,-0.2616624363255418,-10,-1,-100,6487.058846299071,0.008077165536209076,0.028474993217757084,0.9995618711006083,150.71601769946062,15.756589869550808,59.28823699735351,-4.900456388000587,-174.51751708984375,4381.2578125,True
1599567058.2210126,0.0,10,0.5,0.5,5.408233602142334,-0.05075,-0.0155,-0.001,0.32311613075549983,10,1,100,-0.17535283978971838,-10,-1,-100,6486.905065477593,0.008957483105733367,0.028568807863153352,0.9995516928672018,149.1091926661936,15.588667344850984,60.95089330988972,-5.091785448501655,-175.77630615234375,4381.2578125,True
1599567058.279855,0.0,10,0.5,0.5,5.640078730010987,-0.05075,-0.0155,-0.001,0.3690157927923143,10,1,100,-0.35730295670857276,-10,-1,-100,6486.628310839413,0.011390157276605938,0.029070413548886422,0.9995124688433411,154.57287220339973,16.162989724973333,70.3267820084127,-5.665966085635755,-179.10403442382812,4381.2578125,True
1599567058.3386981,0.0,10,0.5,0.5,-12.847488475036622,-0.05075,-0.0155,-0.001,0.36218095504288406,10,1,100,-0.2775076976055143,-10,-1,-100,6486.3813196736155,0.0128576451070612,0.029463187669179998,0.999483167209269,157.72578902923203,16.49704890797108,76.62538238296675,-6.048906334975754,179.04928588867188,4381.2578125,True
1599567058.4045217,0.0,10,0.5,0.5,-12.952279244995118,-0.05075,-0.0155,-0.001,0.3479664841842773,10,1,100,-0.20843739667973452,-10,-1,-100,6486.227065389277,0.013543856349811936,0.029689579361608525,0.9994674045873162,159.16964703444796,16.650855203983294,79.78268250297033,-6.240412475103852,178.2377166748047,4381.2578125,True
1599567058.4653616,0.0,10,0.5,0.5,-13.395108325195315,-0.05075,-0.0155,-0.001,0.3920054104865876,10,1,100,-0.2805582874320728,-10,-1,-100,6485.980087503791,0.014806398295675609,0.030294230962732493,0.99943135339046,161.67137484424657,16.919263276577144,86.02867549012697,-6.62348757256321,176.83956909179688,4381.2578125,True
1599567058.525657,0.0,10,0.5,0.5,-13.839439085388186,-0.05075,-0.0155,-0.001,0.40431707943547274,10,1,100,-0.28163753061401153,-10,-1,-100,6485.732630168088,0.01594704339278956,0.030953837863591623,0.9993935919989395,163.81176082936324,17.15131946112426,92.23001857764756,-7.006640366953432,175.4365997314453,4381.2578125,True
1599567058.5834675,0.0,10,0.5,0.5,-14.229808160400392,-0.05075,-0.0155,-0.001,0.46975816201470827,10,1,100,-0.33039014024910535,-10,-1,-100,6485.267951269518,0.017412575215718408,0.03214577438858956,0.9993315022620447,167.39201524944747,17.54104543327897,102.01381505060614,-7.581493647114617,172.8529052734375,4381.2578125,True
1599567058.6463313,0.0,10,0.5,0.5,-14.704659485626221,-0.05075,-0.0155,-0.001,0.40194863802234704,10,1,100,-0.2317319762937472,-10,-1,-100,6485.11176050175,0.017834076884347256,0.03260923819498587,0.9993090529390926,168.71699316626888,17.68560523190375,105.43344769135864,-7.773137997551826,171.8474884033203,4381.2578125,True
1599567058.718152,0.0,10,0.5,0.5,-15.052170915985108,-0.05075,-0.0155,-0.001,0.5294392898668245,10,1,100,-0.30741762656282445,-10,-1,-100,6484.585094850394,0.01889200651310692,0.03418548759599678,0.9992369311268138,173.67619810340182,18.225321917418533,116.60648307779596,-8.348119384935789,168.39093017578125,4381.2578125,True
1599567058.7765498,0.0,10,0.5,0.5,-15.444619542694094,-0.05075,-0.0155,-0.001,0.5054153118078029,10,1,100,-0.2625482386445326,-10,-1,-100,6484.275174873415,0.019434336810795625,0.03539471378491666,0.99918442781541,177.19617234992276,18.609950235547597,124.46754345159292,-8.731456982644312,165.71908569335938,4381.2578125,True
1599567058.8393786,0.0,10,0.5,0.5,-15.899814241790773,-0.05075,-0.0155,-0.001,0.4565647567687796,10,1,100,-0.23427925132766605,-10,-1,-100,6484.119487228687,0.01966004885920058,0.036043623710337105,0.9991568143533235,179.1859999761541,18.827082471082957,128.64676830239185,-8.923122542371637,164.2728271484375,4381.2578125,True
1599567058.9012556,0.0,10,0.5,0.5,-16.267300157928467,-0.05075,-0.0155,-0.001,0.5533364503260018,10,1,100,-0.24702274291597826,-10,-1,-100,6483.746597015066,0.0199713619487775,0.03750648920592391,0.9990967960960322,183.17881595088633,19.26395005398656,137.20391951069158,-9.306434246691937,161.1610107421875,4381.2578125,True
1599567058.9620926,0.0,10,0.5,0.5,-16.62157462539673,-0.05075,-0.0155,-0.001,0.5828957052040924,10,1,100,-0.23812992422318824,-10,-1,-100,6483.311709915753,0.02016572894693827,0.039097418268388154,0.9990318990206396,187.06990237219557,19.691386503004438,145.9344038704293,-9.689704737918655,157.7552490234375,4381.2578125,True
1599567059.0268874,0.0,10,0.5,0.5,-16.299146825408936,-0.05075,-0.0155,-0.001,0.7211463045733228,10,1,100,-0.22549725965608614,-10,-1,-100,6482.720202643308,0.020220940100256338,0.041791782655258465,0.9989216988753209,192.40780010974734,20.280773996721624,159.07986707564078,-10.264500231479001,152.09674072265625,4381.2578125,True
1599567059.0857275,0.0,10,0.5,0.5,-16.05012476501465,-0.05075,-0.0155,-0.001,0.6763219627104344,10,1,100,-0.20622122721567537,-10,-1,-100,6482.284877237747,0.02008982532313226,0.04382270880521099,0.998837308630119,195.37366800929527,20.610128598964984,167.61705672779678,-10.64760247272524,147.95834350585938,4381.2578125,True
1599567059.1453047,0.0,10,0.5,0.5,-15.659886277770996,-0.05075,-0.0155,-0.001,0.8532436412378614,10,1,100,-0.16978632211267863,-10,-1,-100,6481.6309679358965,0.01963460054569453,0.04726508558465128,0.9986893882214262,199.1836622722825,21.031977636354878,180.19880341436908,-11.222096863219228,141.20257568359375,4381.2578125,True
1599567059.2061765,0.0,10,0.5,0.5,-15.613579308319093,-0.05075,-0.0155,-0.001,0.5106370880659387,10,1,100,-0.21567755557174206,-10,-1,-100,6481.6309679358965,0.01963460054569453,0.04726508558465128,0.9986893882214262,199.1836622722825,21.031977636354878,180.19880341436908,-11.222096863219228,141.20257568359375,4381.2578125,True
1599567059.7712815,0.0,10,0.5,0.5,-15.180910682678224,-0.05075,-0.0155,-0.001,0.9470759568357547,10,1,100,-0.134313247768317,-10,-1,-100,6480.976167818299,0.018892904997181596,0.05121896683601682,0.9985087258391979,200.81167125826374,21.213794647238487,191.0700043529708,-11.796424826717075,133.78981018066406,4381.2578125,True
1599567059.8351033,0.0,10,0.5,0.5,-14.854720922088623,-0.05075,-0.0155,-0.001,0.8754672849825914,10,1,100,-0.14211319688291862,-10,-1,-100,6480.477521621622,0.018288582374018186,0.05414549847619217,0.9983655606788094,200.31579955730507,21.161053307859632,196.8541397046789,-12.179257130967253,128.4832763671875,4381.2578125,True
1599567059.8909273,0.0,10,0.5,0.5,-14.655190844726564,-0.05075,-0.0155,-0.001,0.753682078754463,10,1,100,-0.16784283374692244,-10,-1,-100,6480.197457667906,0.01797365252821429,0.05568069808256841,0.9982868363731101,199.52177038248675,21.074877651166837,199.19152509535397,-12.370672462153252,125.72038269042969,4381.2578125,True
1599567059.9478002,0.0,10,0.5,0.5,-13.986619555664063,-0.05075,-0.0155,-0.001,1.380217926313102,10,1,100,-0.019574134866333165,-10,-1,-100,6479.199943055166,0.016340783300644104,0.0627536727168093,0.9978952627213306,192.14315659163432,20.275931596602025,203.8527204471626,-13.136486889373547,113.94577026367188,4381.2578125,True
1599567060.0196154,0.0,10,0.5,0.5,-13.758636104583742,-0.05075,-0.0155,-0.001,0.8872659550956319,10,1,100,-0.13741489722945924,-10,-1,-100,6478.919489044463,0.015930653902116496,0.06467798623777268,0.9977790198047249,189.15672409117056,19.95446796090689,203.6499231974281,-13.328013157567884,110.82014465332031,4381.2578125,True
1599567060.0802221,0.0,10,0.5,0.5,-13.51823383026123,-0.05075,-0.0155,-0.001,0.918217602238741,10,1,100,-0.13204006568822044,-10,-1,-100,6478.638571126852,0.015512620260395281,0.06668403941537507,0.9976535458263583,185.68068712116764,19.581615408630864,202.82120222796334,-13.519579857244153,107.62208557128906,4381.2578125,True
1599567060.1430538,0.0,10,0.5,0.5,-13.101554511260986,-0.05075,-0.0155,-0.001,1.1981608018025087,10,1,100,-0.07221334891026615,-10,-1,-100,6478.077306018444,0.014592940532382359,0.0710275835536415,0.9973675994642842,177.39624608608642,18.698136849259022,199.3469886298959,-13.90284638829566,101.01008605957031,4381.2578125,True
1599567060.2038922,0.0,10,0.5,0.5,-12.671776431274415,-0.05075,-0.0155,-0.001,1.275069061981313,10,1,100,-0.0744845548434227,-10,-1,-100,6477.516161149833,0.013782631742279193,0.0756488480437834,0.9970392624425104,167.81428349047107,17.684836062671017,193.86283910219493,-14.286277373955775,94.10755920410156,4381.2578125,True
1599567060.2717128,0.0,10,0.5,0.5,-12.22304312438965,-0.05075,-0.0155,-0.001,1.3642324442455191,10,1,100,-0.07159133073258295,-10,-1,-100,6476.955153837334,0.013025419162614911,0.08063164092882466,0.996658856849606,161.45916133618206,17.02190372202777,191.61219876736294,-14.669783986454336,86.91592407226562,4381.2578125,True
1599567060.3345425,0.0,10,0.5,0.5,-11.35685793991089,-0.05075,-0.0155,-0.001,2.084397841204019,10,1,100,-0.02452574395890189,-10,-1,-100,6475.70813037164,0.011915183466234899,0.09167807756453565,0.9957174089554911,185.73984126416997,19.62953737684452,232.15181849650799,-15.43600233349737,71.66505432128906,4381.2578125,True
1599567060.3983717,0.0,10,0.5,0.5,-10.847232622528077,-0.05075,-0.0155,-0.001,1.6463811280669014,10,1,100,-0.10825022189591241,-10,-1,-100,6475.083666287013,0.01167402755720722,0.0976979471212265,0.9951476414125151,195.0434428548393,20.64464750020737,249.9364396571482,-15.818591558290287,63.60528564453125,4381.2578125,True
1599567060.4593794,0.0,10,0.5,0.5,-10.314436992645264,-0.05075,-0.0155,-0.001,1.7460671445398646,10,1,100,-0.13340149441401203,-10,-1,-100,6474.460373684764,0.011690005460473848,0.10403453870407674,0.9945049816511551,203.0344502627235,21.521113668752257,266.5838671599812,-16.20085567906475,55.25611877441406,4381.2578125,True
1599567060.5172184,0.0,10,0.5,0.5,-9.98761566925049,-0.05075,-0.0155,-0.001,1.476009783703652,10,1,100,-0.14680058780883695,-10,-1,-100,6474.118039860274,0.011832339473317868,0.10729465591704059,0.9941568551059897,206.00647090431767,21.849186357404154,273.7366768281013,-16.391888100718187,50.97267150878906,4381.2578125,True
1599567060.5765681,0.0,10,0.5,0.5,-9.650620177459716,-0.05075,-0.0155,-0.001,1.5205071297438095,10,1,100,-0.1567704515355653,-10,-1,-100,6473.775268407306,0.012057952167105323,0.11061599838570509,0.9937900717408427,208.18249924136146,22.090768236468893,279.9135629944587,-16.58287577642877,46.616729736328125,4381.2578125,True
1599567060.646381,0.0,10,0.5,0.5,-8.851807909393312,-0.05075,-0.0155,-0.001,2.320402168749788,10,1,100,-0.2724304756096308,-10,-1,-100,6472.809750784072,0.013318402863161367,0.12086366250666453,0.9925797676915692,210.07767701361644,22.307830843359444,292.41823029335865,-17.155773680579106,33.113189697265625,4381.2578125,True
1599567060.7062206,0.0,10,0.5,0.5,-8.504400627136231,-0.05075,-0.0155,-0.001,1.6845402028415164,10,1,100,-0.21560606840654523,-10,-1,-100,6472.467174968217,0.013950056385946952,0.12434807958448983,0.9921405903552571,209.10016787659617,22.204216428481807,294.36734576819373,-17.346788639595438,28.466522216796875,4381.2578125,True
1599567060.766621,0.0,10,0.5,0.5,-7.642298310089112,-0.05075,-0.0155,-0.001,2.49765427703582,10,1,100,-0.43696867363311465,-10,-1,-100,6471.378188554081,0.01653809469406125,0.13485525574776186,0.9907272840802842,200.12456288416325,21.24476584857649,291.2633190707671,-17.92023195346669,14.088592529296875,4381.2578125,True
1599567060.8374293,0.0,10,0.5,0.5,-7.266350177001953,-0.05075,-0.0155,-0.001,1.83646234633611,10,1,100,-0.2990260003625672,-10,-1,-100,6471.035291268723,0.01763506416792229,0.13833837318783532,0.9902280035504634,195.67887749932623,20.771472152422263,287.91010582010205,-18.111537141768494,9.149505615234375,4381.2578125,True
1599567060.9102345,0.0,10,0.5,0.5,-6.350007746124268,-0.05075,-0.0155,-0.001,2.6248273971327363,10,1,100,-0.6283728267590591,-10,-1,-100,6469.883744353661,0.021622868991013487,0.14861480811774047,0.9886587330038231,176.6534373470036,18.764871170992652,268.3825816016578,-18.685820588588687,-6.1083984375,4381.2578125,True
1599567060.9840379,0.0,10,0.5,0.5,-5.39707827835083,-0.05075,-0.0155,-0.001,2.6799346700577416,10,1,100,-0.7776060983740247,-10,-1,-100,6468.733846667688,0.02659699634502481,0.158396194019528,0.9870173481279602,189.08310323627236,20.14027732037423,296.33461966928536,-19.259677126469267,-22.031097412109375,4381.2578125,True
1599567061.1047158,0.0,10,0.5,0.5,-4.699107856750489,-0.05075,-0.0155,-0.001,2.3687216565988978,10,1,100,-0.691627438440332,-10,-1,-100,6467.9872904006625,0.03032395901938445,0.16439850097474992,0.9859277815269462,201.25624945750315,21.487882193918683,321.8339254717833,-19.641472076992464,-33.019775390625,4381.2578125,True
1599567061.1944768,0.0,10,0.5,0.5,-4.270192565917969,-0.05075,-0.0155,-0.001,2.0873878405042094,10,1,100,-0.5356773191565956,-10,-1,-100,6467.5820118729025,0.03227742406489363,0.16723692664786038,0.9853882373263408,205.48420462916187,21.964332395536303,331.86827475139927,-19.83216812328153,-38.626251220703125,4381.2578125,True
1599567061.287228,0.0,10,0.5,0.5,-3.538408115386963,-0.05075,-0.0155,-0.001,2.398174924148779,10,1,100,-0.790454046503875,-10,-1,-100,6466.774316791678,0.03635073761069141,0.17258519403114436,0.9843236127800606,211.5576688268965,22.65705047788076,348.4114057805638,-20.213277818018224,-50.06341552734375,4381.2578125,True
1599567061.3510563,0.0,10,0.5,0.5,-2.7858543579101562,-0.05075,-0.0155,-0.001,2.4041820131159826,10,1,100,-0.850353676131533,-10,-1,-100,6465.963579971343,0.04057600255972503,0.17744251015372792,0.9832943321338822,212.2218138680456,22.757089718851194,356.2628454973251,-20.594256128313642,-61.800323486328125,4381.2578125,True
1599567061.421867,0.0,10,0.5,0.5,-2.006608630371094,-0.05075,-0.0155,-0.001,2.4012696222925753,10,1,100,-0.894089536304558,-10,-1,-100,6465.09411317436,0.044788825741880714,0.18177102442880197,0.9823203427430216,207.01013665469537,22.213663011076797,354.1227604646347,-20.975418761782485,-73.83773803710938,4381.2578125,True
1599567061.4906828,0.0,10,0.5,0.5,-1.2144320663452148,-0.05075,-0.0155,-0.001,2.3984871487777966,10,1,100,-0.9252150941392401,-10,-1,-100,6464.284049829468,0.04887301513972052,0.18562537186335118,0.9814044271918408,197.7098499620825,21.226116184352293,344.55103399033493,-21.356950284576346,-86.17474365234375,4381.2578125,True
1599567061.5575051,0.0,10,0.5,0.5,-0.39516992416381835,-0.05075,-0.0155,-0.001,2.396653150446956,10,1,100,-0.9472165678157717,-10,-1,-100,6463.410820867168,0.052754179845039925,0.18905694473513476,0.9805480447975476,182.74613202134387,19.637137429333947,324.35355121466955,-21.738847691836817,-98.81059265136719,4381.2578125,True
1599567061.636294,0.0,10,0.5,0.5,0.43650657310485846,-0.05075,-0.0155,-0.001,2.398197361743876,10,1,100,-0.9551891030102146,-10,-1,-100,6462.538399245008,0.05632206527423343,0.19214132045855786,0.979749732296818,175.6919988498311,18.914484733613403,317.4897369039179,-22.120758151272256,-111.7442855834961,4381.2578125,True
1599567061.6972544,0.0,10,0.5,0.5,1.294218395996094,-0.05075,-0.0155,-0.001,2.4075216160140647,10,1,100,-0.9526797859496585,-10,-1,-100,6461.603336651344,0.059507615508307646,0.1949811525666072,0.9790000989991333,194.05683854330292,20.945432913272185,356.9072751076045,-22.501944537754362,-124.94738006591797,4381.2578125,True
1599567061.7590883,0.0,10,0.5,0.5,2.156249496459961,-0.05075,-0.0155,-0.001,2.426090141399219,10,1,100,-0.9420567733178621,-10,-1,-100,6460.730674903374,0.062272556745797604,0.19768947167338174,0.9782847241298622,205.66751912683372,22.25310035445741,384.84669869356406,-22.88249702670604,-138.30068969726562,4381.2578125,True
1599567061.8368824,0.0,10,0.5,0.5,2.6690453063964847,-0.05075,-0.0155,-0.001,2.3069805579629636,10,1,100,-0.803302823685663,-10,-1,-100,6460.26136388653,0.06349230781922233,0.19903304439588915,0.9779338290939183,209.1164412401354,22.648973311690376,394.6457806332236,-23.072645891243056,-144.9853515625,4381.2578125,True
1599567061.896721,0.0,10,0.5,0.5,4.188245590209962,-0.05075,-0.0155,-0.001,2.7953130939498037,10,1,100,-1.1086920048761044,-10,-1,-100,6458.389046805794,0.0673472846706126,0.20466237488584793,0.9765130083893302,208.37812978433243,22.624090832490825,406.6331628730024,-23.833474048093915,-171.11749267578125,4381.2578125,True
1599567061.9665337,0.0,10,0.5,0.5,-13.609312457275394,-0.05075,-0.0155,-0.001,2.579655687519225,10,1,100,-0.8800044986591944,-10,-1,-100,6457.390038939542,0.06874095006026301,0.2077854030471343,0.9757560699608034,199.15002118733986,21.642812686625284,395.0673079547087,-24.214427960397686,176.26004028320312,4381.2578125,True
1599567062.037895,0.0,10,0.5,0.5,-12.975487020874024,-0.05075,-0.0155,-0.001,2.6583831304757477,10,1,100,-0.8696506254259816,-10,-1,-100,6456.3931723749265,0.06988434682832548,0.2113082233942576,0.9749179518268912,185.55295004445165,20.196511488408945,374.11846380352404,-24.595698255093858,163.946044921875,4381.2578125,True
1599567062.0981808,0.0,10,0.5,0.5,-12.700747636413576,-0.05075,-0.0155,-0.001,2.7348162393352378,10,1,100,-0.8647392561912706,-10,-1,-100,6455.3936249410035,0.07085250567509525,0.21517484677832818,0.9740019033623515,183.86994496433664,20.064160993934916,376.6921808838766,-24.97685859075157,151.63763427734375,4381.2578125,True
1599567062.1570241,0.0,10,0.5,0.5,-12.739691288757324,-0.05075,-0.0155,-0.001,2.5828850761508493,10,1,100,-0.8206308959403199,-10,-1,-100,6454.925699422485,0.0713079707335744,0.2172783994418529,0.9735015513320183,192.78800067322038,21.069710848410647,398.0825749236582,-25.16714923216933,145.39895629882812,4381.2578125,True
1599567062.2203684,0.0,10,0.5,0.5,-12.448686687469483,-0.05075,-0.0155,-0.001,2.8749757142396994,10,1,100,-0.8786557918643672,-10,-1,-100,6453.925645715557,0.07222913351732509,0.22181731400261173,0.9724093949978082,206.6846617425797,22.659721784378913,433.4482884472994,-25.547192850423396,132.71910095214844,4381.2578125,True
1599567062.2871897,0.0,10,0.5,0.5,-11.808868404388429,-0.05075,-0.0155,-0.001,3.262062480816091,10,1,100,-0.9651755808632876,-10,-1,-100,6452.3359264988685,0.0738353932628411,0.22943278841829834,0.9705199278223636,217.62617273188175,23.952702241897047,466.9087650522184,-26.116486429747376,113.17573547363281,4381.2578125,True
1599567062.348027,0.0,10,0.5,0.5,-11.832647932815552,-0.05075,-0.0155,-0.001,2.806065295361133,10,1,100,-0.8795971004850844,-10,-1,-100,6451.8065438241465,0.07450172200260961,0.23217661668482314,0.9698162259332611,218.88860305360623,24.115296719751935,473.1488485608281,-26.30622098477025,106.52085876464844,4381.2578125,True
1599567062.4113903,0.0,10,0.5,0.5,-11.498358345794678,-0.05075,-0.0155,-0.001,3.1670451709324023,10,1,100,-0.991704886569575,-10,-1,-100,6450.745158928214,0.07611300608817245,0.2379188271922043,0.9682982195438077,216.3720525427381,23.87656358022926,474.71762338112904,-26.685891528462875,92.99969482421875,4381.2578125,True
1599567062.477058,0.0,10,0.5,0.5,-11.515052896881105,-0.05075,-0.0155,-0.001,2.9243762827879887,10,1,100,-0.9388513171783839,-10,-1,-100,6450.216573651065,0.07708474058118023,0.24089636561985722,0.9674848235505693,212.56312668107176,23.474120744452694,469.8196072632063,-26.875880814737698,86.1331787109375,4381.2578125,True
1599567062.5398898,0.0,10,0.5,0.5,-10.792112859344483,-0.05075,-0.0155,-0.001,3.6462754850160453,10,1,100,-1.2460544821839452,-10,-1,-100,6448.566449062782,0.08074853486327244,0.2501278811914113,0.9648397365200763,191.3589395432341,21.19837865131282,432.33680491433546,-27.446424772040412,65.10824584960938,4381.2578125,True
1599567062.6136928,0.0,10,0.5,0.5,-10.435443029022219,-0.05075,-0.0155,-0.001,3.4141540694956705,10,1,100,-1.231525744666221,-10,-1,-100,6447.444159787614,0.0839349945512018,0.25636864110963387,0.9629278459704493,192.5054899256682,21.39618704016924,441.2102509417412,-27.826651115025882,50.73443603515625,4381.2578125,True
1599567062.6773472,0.0,10,0.5,0.5,-9.111458390045165,-0.05075,-0.0155,-0.001,3.8018215087242084,10,1,100,-1.5686044992938344,-10,-1,-100,6445.796565996716,0.0898823156327605,0.26552214208458425,0.9599058086079626,217.78519200512926,24.338339472412333,509.74082348693895,-28.395357358801142,28.63214111328125,4381.2578125,True
1599567062.7401795,0.0,10,0.5,0.5,-8.923824134063722,-0.05075,-0.0155,-0.001,2.8918928030982034,10,1,100,-0.9758721880184082,-10,-1,-100,6445.796565996716,0.0898823156327605,0.26552214208458425,0.9599058086079626,217.78519200512926,24.338339472412333,509.74082348693895,-28.395357358801142,28.63214111328125,4381.2578125,True
1599567062.799749,0.0,10,0.5,0.5,-7.951773468780518,-0.05075,-0.0155,-0.001,3.5301894387535357,10,1,100,-1.4956597097928417,-10,-1,-100,6444.61953381123,0.09459035691256656,0.27127906850389977,0.9578414959536936,226.1690105760328,25.35053121287904,536.6864511848569,-28.77399052026826,13.53277587890625,4381.2578125,True
1599567062.8700776,0.0,10,0.5,0.5,-6.965868537139894,-0.05075,-0.0155,-0.001,3.5464156172697394,10,1,100,-1.6024552302838682,-10,-1,-100,6443.491798336618,0.09982009700214596,0.2766110571724593,0.9557835901941487,227.4483421728145,25.55497087092404,547.1249771045024,-29.152759083524913,-1.860687255859375,4381.2578125,True
1599567062.922936,0.0,10,0.5,0.5,-5.133381636047364,-0.05075,-0.0155,-0.001,4.011480935916501,10,1,100,-2.357190320855916,-10,-1,-100,6441.128899121773,0.11141055157652328,0.28563637363778416,0.9518400869119094,203.87120571096386,23.031824018025496,503.81525584537394,-29.911540242977793,-33.537628173828125,4381.2578125,True
1599567062.9852808,0.0,10,0.5,0.5,-4.518171166229248,-0.05075,-0.0155,-0.001,3.320693644134935,10,1,100,-1.5356797134022813,-10,-1,-100,6440.472691263654,0.11444489097791173,0.2875102281489566,0.9509154723942549,194.42995080437728,22.008802773344097,483.6786527835792,-30.101337805354,-41.6435546875,4381.2578125,True
1599567063.0481129,0.0,10,0.5,0.5,-3.8732618316650393,-0.05075,-0.0155,-0.001,3.3277285588118355,10,1,100,-1.5720677876652291,-10,-1,-100,6439.881336020771,0.1174978700461323,0.28922738273666326,0.9500219848034684,200.9215854912822,22.793665375327592,503.1131713834517,-30.29087862321805,-49.824432373046875,4381.2578125,True
1599567063.1124654,0.0,10,0.5,0.5,-2.3667038162231444,-0.05075,-0.0155,-0.001,3.6276194877763803,10,1,100,-2.269478419983967,-10,-1,-100,6438.044655152829,0.12657577961654137,0.293468069392852,0.9475521432941287,225.88195747445857,25.789326120079988,576.610046013543,-30.85806888204771,-74.81692504882812,4381.2578125,True
1599567063.1713088,0.0,10,0.5,0.5,-1.260652732849121,-0.05075,-0.0155,-0.001,3.445171187383896,10,1,100,-2.005653324614947,-10,-1,-100,6436.799978765659,0.13238502286898093,0.29561682570966197,0.9460892653853138,231.14550920259038,26.478283086752405,597.5453929006483,-31.235823719291574,-91.85211181640625,4381.2578125,True
1599567063.2371323,0.0,10,0.5,0.5,-0.13749951820373513,-0.05075,-0.0155,-0.001,3.4245604940908945,10,1,100,-2.0324740578467546,-10,-1,-100,6435.546597455163,0.13786303568420996,0.2973415170181726,0.9447654765333384,226.82174399931225,26.057517187581684,593.7856824877111,-31.61393025158901,-109.18350982666016,4381.2578125,True
1599567063.2999644,0.0,10,0.5,0.5,0.5471904747009277,-0.05075,-0.0155,-0.001,3.3380726932325,10,1,100,-1.7748229028901588,-10,-1,-100,6434.893405868323,0.14045173861560092,0.2980859174036436,0.9441494028836132,220.57096233348346,25.37805934511602,581.0520137495863,-31.80318879656417,-117.9593276977539,4381.2578125,True
1599567063.3588068,0.0,10,0.5,0.5,1.6852208633422852,-0.05075,-0.0155,-0.001,3.415151440294723,10,1,100,-2.0545705668202268,-10,-1,-100,6433.648825726472,0.1453022932953362,0.2994337574770747,0.9429881592290947,201.15717387441344,23.23066399158007,536.5388470361213,-32.181971330835154,-135.7291717529297,4381.2578125,True
1599567063.41765,0.0,10,0.5,0.5,2.849959463500977,-0.05075,-0.0155,-0.001,3.4256673729745084,10,1,100,-2.0604426300003835,-10,-1,-100,6432.33570915903,0.14971488905340372,0.30072383728147145,0.9418867371857584,208.7143106166587,24.212711383475202,563.5118406128117,-32.56025113962062,-153.65667724609375,4381.2578125,True
1599567063.9996815,0.0,10,0.5,0.5,4.016117630767822,-0.05075,-0.0155,-0.001,3.4511948939077284,10,1,100,-2.065895288490985,-10,-1,-100,6431.024995089392,0.1537257961541607,0.30210193750415454,0.9407990215518962,227.16272980942477,26.46474873676419,620.681968160038,-32.937540301502054,-171.5299530029297,4381.2578125,True
1599567064.0555315,0.0,10,0.5,0.5,-13.455542975616455,-0.05075,-0.0155,-0.001,3.4911564354385693,10,1,100,-2.0760049979445236,-10,-1,-100,6429.645537158474,0.1574149766051974,0.3036948691020271,0.9396754501536623,234.6144663857748,27.428214490771325,648.6673103706283,-33.314646572482296,170.82318115234375,4381.2578125,True
1599567064.1154125,0.0,10,0.5,0.5,-12.089547026824953,-0.05075,-0.0155,-0.001,3.662449537157208,10,1,100,-2.282590291891147,-10,-1,-100,6427.67962663807,0.16260500293744673,0.30668378193802226,0.9378191035140544,227.06359847367037,26.679653682146732,638.9994435941818,-33.881024807743245,144.92169189453125,4381.2578125,True
1599567064.1852238,0.0,10,0.5,0.5,-11.526833750915529,-0.05075,-0.0155,-0.001,3.635454033438954,10,1,100,-2.1471737931920334,-10,-1,-100,6426.308318065014,0.16604836769499096,0.30913813125168005,0.9364088612310586,210.0117195260932,24.783444866762792,597.9573217855138,-34.259049422765294,127.95954895019531,4381.2578125,True
1599567064.2420752,0.0,10,0.5,0.5,-10.93336657333374,-0.05075,-0.0155,-0.001,3.700926554556717,10,1,100,-2.2052232354293118,-10,-1,-100,6424.9370111193275,0.1696622846788711,0.31194646195742587,0.9348283874753643,216.62681019033326,25.694316292970075,623.8785448627607,-34.63655899705209,110.83888244628906,4381.2578125,True
1599567064.3009143,0.0,10,0.5,0.5,-10.790365451049805,-0.05075,-0.0155,-0.001,3.5888873574595004,10,1,100,-2.0588618299029013,-10,-1,-100,6424.21859493677,0.17157793597301083,0.31346415317761595,0.9339706829231212,227.30533839301214,27.027969097437655,658.317904515362,-34.82486658879427,102.18403625488281,4381.2578125,True
1599567064.362751,0.0,10,0.5,0.5,-10.193477761840821,-0.05075,-0.0155,-0.001,3.7907773027109912,10,1,100,-2.325418270917227,-10,-1,-100,6422.782636176911,0.17570704760135533,0.31666301076419506,0.932122079470801,240.9322011246258,28.774613695638052,705.5823910463005,-35.2010720306731,84.6710205078125,4381.2578125,True
1599567064.424424,0.0,10,0.5,0.5,-9.125133684158325,-0.05075,-0.0155,-0.001,4.018100242464725,10,1,100,-2.6989130180704475,-10,-1,-100,6420.6952354192035,0.18282178859040948,0.32162007030089546,0.9290515184833674,242.9933363217266,29.185039228071624,723.5393134446754,-35.7656370622827,57.88200378417969,4381.2578125,True
1599567064.4932373,0.0,10,0.5,0.5,-8.95509677886963,-0.05075,-0.0155,-0.001,3.7027124506954525,10,1,100,-2.2826889423157937,-10,-1,-100,6419.974065798218,0.18546736148271203,0.3232379316337231,0.9279650302558785,237.85632261055042,28.626249711404565,712.1765489652519,-35.95407185160731,48.811859130859375,4381.2578125,True
1599567064.5600595,0.0,10,0.5,0.5,-7.819878983306886,-0.05075,-0.0155,-0.001,4.034402366096465,10,1,100,-2.986452575351274,-10,-1,-100,6417.769853825332,0.19423376525950292,0.32770243737252414,0.9245995657435834,210.56244688402356,25.533407337960313,640.8706591193694,-36.519698034335306,21.172698974609375,4381.2578125,True
1599567064.6234026,0.0,10,0.5,0.5,-7.6342365638732925,-0.05075,-0.0155,-0.001,3.732956505437563,10,1,100,-2.4638434364763633,-10,-1,-100,6417.048825148726,0.19741175936117172,0.32899613603808864,0.9234663717417838,224.6523679082981,27.316854817958042,687.4024118156473,-36.70780956501314,11.81488037109375,4381.2578125,True
1599567064.6822436,0.0,10,0.5,0.5,-5.952554905700683,-0.05075,-0.0155,-0.001,4.022202741852098,10,1,100,-3.64945843955218,-10,-1,-100,6414.053440314019,0.21103944860591714,0.332777287702794,0.9190873886205176,255.98916182677488,31.417332824482784,799.8517350338624,-37.458520298055014,-26.35369873046875,4381.2578125,True
1599567064.7440782,0.0,10,0.5,0.5,-5.685099320983887,-0.05075,-0.0155,-0.001,3.646995817241637,10,1,100,-2.2920519622777102,-10,-1,-100,6414.053440314019,0.21103944860591714,0.332777287702794,0.9190873886205176,255.98916182677488,31.417332824482784,799.8517350338624,-37.458520298055014,-26.35369873046875,4381.2578125,True
1599567064.8118966,0.0,10,0.5,0.5,-4.408899229431152,-0.05075,-0.0155,-0.001,3.7522699431588444,10,1,100,-3.077145854406238,-10,-1,-100,6412.555921572959,0.2181326344928415,0.3337106038422552,0.9170907188781542,253.03441700254567,31.19165221802098,798.9464397201835,-37.83417668970133,-45.88458251953125,4381.2578125,True
1599567064.8717368,0.0,10,0.5,0.5,-2.613845389556885,-0.05075,-0.0155,-0.001,3.683773721858546,10,1,100,-3.5290813200797158,-10,-1,-100,6410.28320446529,0.22864214019907905,0.3339140415275894,0.9144529428001726,223.41410620368083,27.773146161743213,716.461661420357,-38.398275308006454,-75.74209594726562,4381.2578125,True
1599567064.932576,0.0,10,0.5,0.5,-1.8317275756835938,-0.05075,-0.0155,-0.001,3.641772325113285,10,1,100,-2.8567568014803686,-10,-1,-100,6409.5064451637445,0.23203057716700984,0.3336971834715089,0.9136782809078514,232.24080466009323,28.957136167571797,748.5171670659375,-38.58593601230267,-85.84402465820312,4381.2578125,True
1599567065.0013902,0.0,10,0.5,0.5,-0.4933372219085691,-0.05075,-0.0155,-0.001,3.5804974722553604,10,1,100,-3.2388819634419073,-10,-1,-100,6407.936843199306,0.23852988257278454,0.3329246020033692,0.9122854292932187,255.27766916715618,31.99870185141542,830.9316171183503,-38.96037712789229,-106.27008819580078,4381.2578125,True
1599567065.059236,0.0,10,0.5,0.5,1.3960573543548584,-0.05075,-0.0155,-0.001,3.4710234858483577,10,1,100,-3.5737309624487774,-10,-1,-100,6405.599498333293,0.24742531217357724,0.33121225389114295,0.9105378398332258,261.5444629587287,33.00359074303743,864.026107669405,-39.522018213207296,-137.45582580566406,4381.2578125,True
1599567065.1210692,0.0,10,0.5,0.5,2.7608016208648687,-0.05075,-0.0155,-0.001,3.5046025785936044,10,1,100,-3.2767922506078735,-10,-1,-100,6403.974066019175,0.25275389304521406,0.3299521181017211,0.9095312360280302,245.46036195061257,31.134539230031447,818.9596204855173,-39.89714371401586,-158.57962036132812,4381.2578125,True
1599567065.1898875,0.0,10,0.5,0.5,3.6109159877777106,-0.05075,-0.0155,-0.001,3.5648775657988034,10,1,100,-3.025736492264074,-10,-1,-100,6403.196436544531,0.25525456282397435,0.32934839073459576,0.9090515638169673,232.41310828238747,29.5664170410906,779.2213607057927,-40.08481182940097,-169.2034149169922,4381.2578125,True
1599567065.263231,0.0,10,0.5,0.5,-12.563126573562624,-0.05075,-0.0155,-0.001,3.4189396712223825,10,1,100,-3.7965096143822112,-10,-1,-100,6399.948378104251,0.2644794539170445,0.3274713432198216,0.9070904794040933,265.4668700576963,34.124905178710904,906.9930446711659,-40.832911287807775,148.83526611328125,4381.2578125,True
1599567065.324065,0.0,10,0.5,0.5,-11.924369316482544,-0.05075,-0.0155,-0.001,3.5748035955584574,10,1,100,-3.122840500313674,-10,-1,-100,6399.09721540485,0.26668048324234356,0.3271832673301896,0.9065498493942691,269.34102580282723,34.69901850357605,924.567203936771,-41.01972863270948,138.5338134765625,4381.2578125,True
1599567065.3898895,0.0,10,0.5,0.5,-11.131964598464966,-0.05075,-0.0155,-0.001,3.5650677568420854,10,1,100,-3.394917871335485,-10,-1,-100,6397.471876609954,0.27110426687950784,0.3268379580061686,0.9053614889568048,266.2496801452555,34.46881628080516,922.6490622068612,-41.39372028345569,118.08392333984375,4381.2578125,True
1599567065.4517236,0.0,10,0.5,0.5,-10.844713479995729,-0.05075,-0.0155,-0.001,3.591269713846218,10,1,100,-3.2077675192416093,-10,-1,-100,6396.62497188116,0.27336991715037323,0.32676763943863857,0.904705365416221,258.21625826506346,33.52558411069155,899.0446528989085,-41.58087880184422,107.81185913085938,4381.2578125,True
1599567065.5135684,0.0,10,0.5,0.5,-10.020805723190309,-0.05075,-0.0155,-0.001,3.597997242932624,10,1,100,-3.5078458157542354,-10,-1,-100,6394.941822426161,0.2781073680170406,0.32677118460930915,0.9032590352516067,235.0614851864959,30.712019718664894,826.020320568835,-41.955208601422825,87.08897399902344,4381.2578125,True
1599567065.581393,0.0,10,0.5,0.5,-9.207829276657105,-0.05075,-0.0155,-0.001,3.605337742246453,10,1,100,-3.600987719801558,-10,-1,-100,6393.259198712767,0.28321591772551574,0.3268476328099702,0.9016425948641806,266.18393483549266,34.97360943023877,943.7757048310356,-42.32818732885245,66.10177612304688,4381.2578125,True
1599567065.648214,0.0,10,0.5,0.5,-8.364003776168824,-0.05075,-0.0155,-0.001,3.5949414603739434,10,1,100,-3.705053148719534,-10,-1,-100,6391.566746684606,0.2887595710501488,0.3268288463850588,0.8998893350282275,280.36024685183327,37.007797723572224,1002.9183450566292,-42.70067786583169,44.839385986328125,4381.2578125,True
1599567065.7130408,0.0,10,0.5,0.5,-7.504585891723632,-0.05075,-0.0155,-0.001,3.5636991294954807,10,1,100,-3.813706273928563,-10,-1,-100,6389.818887065514,0.29474134822128156,0.32653328822317,0.8980554266474122,278.2855549940225,36.916781385634565,1004.4982849648992,-43.073592958812625,23.295425415039062,4381.2578125,True
1599567065.776281,0.0,10,0.5,0.5,-6.074915602874756,-0.05075,-0.0155,-0.001,3.447801839331139,10,1,100,-4.2813097193577025,-10,-1,-100,6387.22835078591,0.30438725330253286,0.32521524086147524,0.8953119272847605,242.53057442289162,32.4752620811786,887.1513177145237,-43.63369437400662,-9.5621337890625,4381.2578125,True
1599567065.8411422,0.0,10,0.5,0.5,-5.764326529693604,-0.05075,-0.0155,-0.001,3.4982854152477136,10,1,100,-3.68832177098432,-10,-1,-100,6386.388973855181,0.30771851897276936,0.32448026383848544,0.8944394174344691,260.57342584772186,34.99271538429849,957.2170732770646,-43.81988050177333,-20.662109375,4381.2578125,True
1599567065.9139113,0.0,10,0.5,0.5,-4.25917251739502,-0.05075,-0.0155,-0.001,3.2215186432662932,10,1,100,-4.46265109091324,-10,-1,-100,6383.7353230327135,0.31773860525765746,0.3213004669149328,0.8920808195949315,292.782630385566,39.6025230718673,1089.2864958039686,-44.37727779526813,-54.4107666015625,4381.2578125,True
1599567065.9757466,0.0,10,0.5,0.5,-3.387979621887207,-0.05075,-0.0155,-0.001,3.3877007679212965,10,1,100,-3.8254687411277706,-10,-1,-100,6382.829449903918,0.32100679038101454,0.3199260989142985,0.8914044714733923,294.1780331536624,39.89222649794308,1099.190553627179,-44.56318478610632,-65.80999755859375,4381.2578125,True
1599567066.036586,0.0,10,0.5,0.5,-1.8912762329101565,-0.05075,-0.0155,-0.001,3.1770753123864997,10,1,100,-4.196793761811254,-10,-1,-100,6381.013713330263,0.32730416222015385,0.3167684940165109,0.8902413754661569,279.2602025088399,38.10380395885862,1052.4464716805576,-44.93534719698948,-88.83163452148438,4381.2578125,True
1599567066.0979295,0.0,10,0.5,0.5,-0.386965786743164,-0.05075,-0.0155,-0.001,3.0973053137216637,10,1,100,-4.217981116212965,-10,-1,-100,6379.2011152099585,0.3331705672090773,0.31318191636155973,0.8893337171218028,260.8345473675266,35.82280383831814,991.1677860423689,-45.30742929135736,-112.1478271484375,4381.2578125,True
1599567066.1862023,0.0,10,0.5,0.5,1.152209325408936,-0.05075,-0.0155,-0.001,3.032181616335171,10,1,100,-4.224983842080876,-10,-1,-100,6377.390749969869,0.3385129595704808,0.30934170826543333,0.888660049586037,292.9911176355432,40.440623850703034,1122.3107412598954,-45.678121127687184,-135.7527313232422,4381.2578125,True
1599567066.2490354,0.0,10,0.5,0.5,-14.67460544128418,-0.05075,-0.0155,-0.001,2.569192292549377,10,1,100,-4.698166025228289,-10,-1,-100,6373.689502367633,0.34761642193532094,0.3016574611221238,0.8877869110041211,286.01089115802444,39.881891761893094,1113.5995669396987,-46.42010289991249,176.29779052734375,4381.2578125,True
1599567066.3278246,0.0,10,0.5,0.5,-14.533358741760257,-0.05075,-0.0155,-0.001,3.335097989711543,10,1,100,-3.794259839165253,-10,-1,-100,6373.689502367633,0.34761642193532094,0.3016574611221238,0.8877869110041211,286.01089115802444,39.881891761893094,1113.5995669396987,-46.42010289991249,176.29779052734375,4381.2578125,True
1599567066.422571,0.0,10,0.5,0.5,-12.866095713043213,-0.05075,-0.0155,-0.001,2.7595992300851506,10,1,100,-4.44281060155037,-10,-1,-100,6370.908910253202,0.3534588317289264,0.2964485372939411,0.8872345343871063,282.8764800985522,39.78277608436452,1114.4226866175225,-46.9767662825117,140.1427459716797,4381.2578125,True
1599567066.5173194,0.0,10,0.5,0.5,-12.45709245223999,-0.05075,-0.0155,-0.001,3.103039329416702,10,1,100,-4.069486106478521,-10,-1,-100,6369.929918785463,0.3553228747829076,0.2948626844903611,0.8870184056439574,298.04758831031154,42.004780385162675,1178.7081477105946,-47.16170861355043,128.04087829589844,4381.2578125,True
1599567066.6160543,0.0,10,0.5,0.5,-10.78498899078369,-0.05075,-0.0155,-0.001,2.7784294975301185,10,1,100,-4.510402816893844,-10,-1,-100,6367.039001239464,0.36097948799804763,0.2904975948848387,0.8861743375943537,305.30028393360016,43.338852715799234,1221.6873225105624,-47.71688657021204,91.37440490722656,4381.2578125,True
1599567066.7137952,0.0,10,0.5,0.5,-9.713647537231447,-0.05075,-0.0155,-0.001,2.910338779210594,10,1,100,-4.392450764698747,-10,-1,-100,6365.0732898503775,0.3650011532018329,0.2877594002305077,0.885420061744882,277.4379167781192,39.638280368226944,1118.8131856295581,-48.0874933287297,66.60794067382812,4381.2578125,True
1599567066.79358,0.0,10,0.5,0.5,-9.279973180389407,-0.05075,-0.0155,-0.001,3.0285393815559463,10,1,100,-4.2288575834785735,-10,-1,-100,6364.148720236961,0.3671270357869596,0.28637517517215044,0.8849898296813364,278.2853271733438,39.870892839631516,1126.391301716875,-48.27252539940167,54.12446594238281,4381.2578125,True
1599567066.8883255,0.0,10,0.5,0.5,-7.518908948516846,-0.05075,-0.0155,-0.001,2.6681855116213358,10,1,100,-4.773101327082804,-10,-1,-100,6361.163561357302,0.3739653992194715,0.28187134532309477,0.8835714033808304,318.3217388017619,45.8938266895238,1302.7670171060543,-48.82600124876823,16.260772705078125,4381.2578125,True
1599567066.9760916,0.0,10,0.5,0.5,-6.395075601959229,-0.05075,-0.0155,-0.001,2.7287817693534273,10,1,100,-4.627683844467347,-10,-1,-100,6359.223000036553,0.3788176968279787,0.2783595543021481,0.8826171939740666,309.97132128686513,44.92794248976164,1278.2252852466709,-49.19542728299018,-9.335174560546875,4381.2578125,True
1599567067.046879,0.0,10,0.5,0.5,-4.564849710845947,-0.05075,-0.0155,-0.001,2.380862132018276,10,1,100,-4.955836821609205,-10,-1,-100,6356.250501207658,0.3861705879646214,0.27203576790920375,0.8814016212653051,296.19226606687806,43.291040512828076,1234.6971839594748,-49.74974176949335,-48.27587890625,4381.2578125,True
1599567067.1246707,0.0,10,0.5,0.5,-4.739379536437989,-0.05075,-0.0155,-0.001,3.009510177277087,10,1,100,-4.225313470784353,-10,-1,-100,6356.250501207658,0.3861705879646214,0.27203576790920375,0.8814016212653051,296.19226606687806,43.291040512828076,1234.6971839594748,-49.74974176949335,-48.27587890625,4381.2578125,True
1599567067.2227328,0.0,10,0.5,0.5,-2.3418605316162107,-0.05075,-0.0155,-0.001,2.17426922677537,10,1,100,-4.980376973308147,-10,-1,-100,6353.213510289323,0.3929997523820838,0.2644695971711999,0.8806855436531954,329.64690940938027,48.46962777545228,1388.9400262954584,-50.301996525455166,-87.87838745117188,4381.2578125,True
1599567067.3493962,0.0,10,0.5,0.5,-0.5870749671936034,-0.05075,-0.0155,-0.001,2.3186814906348907,10,1,100,-4.738805163779867,-10,-1,-100,6351.20894608309,0.39697071873820455,0.2589379060480565,0.8805483571479314,311.19608230857443,46.02986948626974,1320.695462756409,-50.670594862655285,-114.64002990722656,4381.2578125,True
1599567067.4601,0.0,10,0.5,0.5,1.8853574356079104,-0.05075,-0.0155,-0.001,1.9262770714993773,10,1,100,-4.881749598493583,-10,-1,-100,6348.167438074597,0.40184062675297605,0.2503758836087359,0.8808155468643366,321.35323735401624,47.86276224469924,1377.718281207305,-51.22271785748196,-155.30245971679688,4381.2578125,True
1599567067.5319095,0.0,10,0.5,0.5,2.9922029357910156,-0.05075,-0.0155,-0.001,2.4680941931311398,10,1,100,-4.545873959783394,-10,-1,-100,6347.133608735749,0.4031721120945211,0.2475582795886256,0.8810034882089642,332.6624226711166,49.6253416456705,1431.065060637366,-51.40633755889393,-168.9899139404297,4381.2578125,True
1599567067.616784,0.0,10,0.5,0.5,-13.113828504180908,-0.05075,-0.0155,-0.001,1.860399889796971,10,1,100,-4.780724973196954,-10,-1,-100,6344.0263335654745,0.40647920559596123,0.23951136346302945,0.8817079801102838,313.3802570334365,47.08881628672121,1362.2360022898247,-51.958114240174645,149.7716064453125,4381.2578125,True
1599567067.692102,0.0,10,0.5,0.5,-12.923970665740967,-0.05075,-0.0155,-0.001,2.6602666986798393,10,1,100,-4.454163428292353,-10,-1,-100,6344.0263335654745,0.40647920559596123,0.23951136346302945,0.8817079801102838,313.3802570334365,47.08881628672121,1362.2360022898247,-51.958114240174645,149.7716064453125,4381.2578125,True
1599567067.7748725,0.0,10,0.5,0.5,-10.252194596862795,-0.05075,-0.0155,-0.001,1.6058075675063286,10,1,100,-4.857626590235915,-10,-1,-100,6339.821071007638,0.4101112778228945,0.2299679748266422,0.8825664113009317,337.0832311257494,51.026708808806944,1484.6339621406169,-52.69306667742504,95.27828979492188,4381.2578125,True
1599567067.8387012,0.0,10,0.5,0.5,-9.720725600433349,-0.05075,-0.0155,-0.001,2.312274814644558,10,1,100,-4.599075256651242,-10,-1,-100,6338.784539655084,0.4110298351069701,0.227761781377089,0.8827111903651568,340.61327391903615,51.66008386262545,1505.2488332935586,-52.87654346294654,81.58863830566406,4381.2578125,True
1599567067.9115086,0.0,10,0.5,0.5,-7.731028394317628,-0.05075,-0.0155,-0.001,1.811986188192256,10,1,100,-4.846417350822581,-10,-1,-100,6335.555071047158,0.4140841679137974,0.22125407052149704,0.8829388077102548,298.0386685624467,45.55872183018538,1330.1495738742099,-53.427641510374,40.15252685546875,4381.2578125,True
1599567067.983193,0.0,10,0.5,0.5,-7.909528534698486,-0.05075,-0.0155,-0.001,2.4576791040126813,10,1,100,-4.543775428134772,-10,-1,-100,6335.555071047158,0.4140841679137974,0.22125407052149704,0.8829388077102548,298.0386685624467,45.55872183018538,1330.1495738742099,-53.427641510374,40.15252685546875,4381.2578125,True
1599567068.5974016,0.0,10,0.5,0.5,-5.87150696182251,-0.05075,-0.0155,-0.001,1.6954361776344293,10,1,100,-4.933618743874392,-10,-1,-100,6332.325360365096,0.41760282207511285,0.2143707545520472,0.8829796501549101,346.6764818483017,53.21520477283727,1561.8439203349712,-53.97696375556712,-1.87811279296875,4381.2578125,True
1599567068.6552446,0.0,10,0.5,0.5,-4.578945044708252,-0.05075,-0.0155,-0.001,1.8219412003319042,10,1,100,-4.852440756209459,-10,-1,-100,6330.192187864333,0.4200412504523611,0.20930878464308728,0.8830374740573872,338.38060342360563,52.16358438736266,1534.4152993906603,-54.34335848131745,-30.243194580078125,4381.2578125,True
1599567068.7202506,0.0,10,0.5,0.5,-3.255657020568848,-0.05075,-0.0155,-0.001,1.7142340617097864,10,1,100,-4.86484025612966,-10,-1,-100,6327.998545713723,0.4223497530384849,0.20377295539419987,0.8832311525066606,298.85228363303725,46.28026248544433,1363.5872841723392,-54.71039266912448,-58.889923095703125,4381.2578125,True
1599567068.7800899,0.0,10,0.5,0.5,-2.687032121276855,-0.05075,-0.0155,-0.001,1.940228210588459,10,1,100,-4.750177921686954,-10,-1,-100,6326.900509196683,0.4233873622343132,0.200837241910667,0.8834067827235575,327.9901763974836,50.85410027633426,1501.0224479428107,-54.893335014883526,-73.31912231445312,4381.2578125,True
1599567068.8449178,0.0,10,0.5,0.5,-0.5882912086486817,-0.05075,-0.0155,-0.001,1.2120360221570627,10,1,100,-4.909715883753647,-10,-1,-100,6323.543159174966,0.42576261093100004,0.19159095615596805,0.8843184407511017,353.3733231867356,55.03267256835919,1632.3324021668027,-55.44157158918003,-117.01882934570312,4381.2578125,True
1599567068.9242506,0.0,10,0.5,0.5,1.3062420082092288,-0.05075,-0.0155,-0.001,1.4410302293087305,10,1,100,-4.768245958969736,-10,-1,-100,6321.343280346482,0.42661830733419337,0.18531057135971785,0.8852439279597701,318.13971699808286,49.78098859061602,1478.5050965388307,-55.80755710447189,-146.48178100585938,4381.2578125,True
1599567068.9806461,0.0,10,0.5,0.5,-14.586021307373048,-0.05075,-0.0155,-0.001,1.0659548959122158,10,1,100,-4.707052216971738,-10,-1,-100,6317.982267837506,0.4268215981355344,0.17624062832507054,0.8869963721981126,357.3198745118797,56.07307210863787,1675.190551313744,-56.35523334967645,168.91905212402344,4381.2578125,True
1599567069.043478,0.0,10,0.5,0.5,-13.611958865356447,-0.05075,-0.0155,-0.001,1.6557617192663623,10,1,100,-4.670185488330471,-10,-1,-100,6316.820261428831,0.4266560646760941,0.17340594882088484,0.8876344852407645,357.70072044671696,56.213268426939564,1682.0969100502723,-56.537771063928716,153.98562622070312,4381.2578125,True
1599567069.106349,0.0,10,0.5,0.5,-12.196947199249268,-0.05075,-0.0155,-0.001,1.3478277701088373,10,1,100,-4.629028356861989,-10,-1,-100,6314.556313826935,0.4261172183090994,0.16807898230888052,0.8889170782286313,325.79137233235787,51.409757945155604,1541.2106975217475,-56.90338023841455,124.1854248046875,4381.2578125,True
1599567069.1701775,0.0,10,0.5,0.5,-10.806945494079589,-0.05075,-0.0155,-0.001,1.336651144227659,10,1,100,-4.61240607469643,-10,-1,-100,6312.2936050123535,0.42546530718269426,0.163183020779241,0.8901407608425184,339.1289690819211,53.61800262361811,1613.4033720002296,-57.26888378235691,94.23271179199219,4381.2578125,True
1599567069.232016,0.0,10,0.5,0.5,-10.141497911071777,-0.05075,-0.0155,-0.001,1.5662401935854047,10,1,100,-4.644228234607201,-10,-1,-100,6311.130921150907,0.4251516065767249,0.16087211170076843,0.890711106421249,356.23268447944594,56.357298970987515,1699.7009704978727,-57.45117421276213,79.17523193359375,4381.2578125,True
1599567069.296597,0.0,10,0.5,0.5,-8.71470540161133,-0.05075,-0.0155,-0.001,1.3024521426295925,10,1,100,-4.619798570543925,-10,-1,-100,6308.804957015207,0.42463747382117606,0.1564218472051508,0.8917484070878392,355.29858007916164,56.38259534965712,1705.3175877299368,-57.81588020351552,48.885711669921875,4381.2578125,True
1599567069.4591298,0.0,10,0.5,0.5,-6.492564831542969,-0.05075,-0.0155,-0.001,1.007989229548305,10,1,100,-4.625885044797358,-10,-1,-100,6305.318289657123,0.4242212336062821,0.149747295669703,0.8930913124631629,342.48823944329183,54.56284018123087,1657.5705034715245,-58.36345210164464,2.990447998046875,4381.2578125,True
1599567069.5359368,0.0,10,0.5,0.5,-2.608953352355957,-0.05075,-0.0155,-0.001,0.3086068269763158,10,1,100,-4.593885255075236,-10,-1,-100,6299.444657829823,0.42355022488566124,0.13737061394111827,0.8953962929478467,312.92733353224077,50.145092634304525,1535.9191270756776,-59.27481891122998,-74.79547119140625,4381.2578125,True
1599567069.6177049,0.0,10,0.5,0.5,-2.684450930786133,-0.05075,-0.0155,-0.001,1.539928337037833,10,1,100,-4.661002413402458,-10,-1,-100,6299.444657829823,0.42355022488566124,0.13737061394111827,0.8953962929478467,312.92733353224077,50.145092634304525,1535.9191270756776,-59.27481891122998,-74.79547119140625,4381.2578125,True
