Timestamp,Input Throttle,horizon,dT,dt,Input Roll,Roll P,Roll I,Roll D,Input Pitch,Pitch P,Pitch I,Pitch D,Input Yaw,Yaw P,Yaw I,Yaw D,Altitude,Direction X,Direction Y,Direction Z,Drag X,Drag Y,Drag Z,Vertical Velocity,Roll,Mass,Has Fuel
1599573154.504585,0.0,10,0.5,0.5,-10.811886672973634,-0.2,-0.0155,-0.2505,-0.06718808467946524,10,1,100,0.6903842845120112,-10,-1,-100,6483.617967325146,-0.06725772408787722,-0.007002589553555217,0.9977110615253615,205.0732590789693,21.49878138920366,-156.7652751007077,9.590824506203955,-35.944580078125,4381.2578125,True
1599573155.2056694,0.0,10,0.5,0.5,-10.895612286376954,-0.2,-0.0155,-0.2505,-0.06906543074676882,10,1,100,0.6894700925251356,-10,-1,-100,6483.77667497599,-0.0673501520809461,-0.006987492064972137,0.9977049323168227,204.84281368400474,21.477795211625395,-153.51330328674547,9.400810602503647,-35.94293212890625,4381.2578125,True
1599573155.2694986,0.0,10,0.5,0.5,-10.980527725219728,-0.2,-0.0155,-0.2505,-0.06774431597971593,10,1,100,0.7080467704556859,-10,-1,-100,6484.156591463601,-0.06754182900848557,-0.006955404675591608,0.9976921988669587,204.38116408255118,21.43560987391154,-147.02549834251928,9.0207985363856,-35.93951416015625,4381.2578125,True
1599573155.3452952,0.0,10,0.5,0.5,-11.044946493530276,-0.2,-0.0155,-0.2505,-0.054332989954070605,10,1,100,0.6975898780219572,-10,-1,-100,6484.316759964102,-0.06755961643957076,-0.0067979900807619955,0.9976920795302525,204.14954219032097,21.41436394750802,-143.7894145604103,8.830798607201249,-35.980621337890625,4381.2578125,True
1599573155.4190981,0.0,10,0.5,0.5,-11.092408830261231,-0.2,-0.0155,-0.2505,-0.05351745859195724,10,1,100,0.7048240349849709,-10,-1,-100,6484.538935774821,-0.06758013406163962,-0.006641291991187897,0.9976917453406633,203.94243123289192,21.395607671735185,-140.5758505875727,8.640801620145929,-36.083984375,4381.2578125,True
1599573155.507861,0.0,10,0.5,0.5,-10.87126887664795,-0.2,-0.0155,-0.2505,0.0014498783736029558,10,1,100,0.7053708094419445,-10,-1,-100,6485.015972030582,-0.06754232063670959,-0.00599309858098709,0.9976984101883727,203.44738058007684,21.35175495627051,-131.04587704422897,8.070817047663429,-36.817840576171875,4381.2578125,True
1599573155.5866504,0.0,10,0.5,0.5,-10.752927175903322,-0.2,-0.0155,-0.2505,0.012220773703933326,10,1,100,0.6962886506039372,-10,-1,-100,6485.3357544966275,-0.06736397760584885,-0.00530046634272791,0.9977143877772177,203.2002289218599,21.33017119447534,-124.76168342231524,7.690822982148341,-37.67156982421875,4381.2578125,True
1599573155.6664367,0.0,10,0.5,0.5,-10.80602388305664,-0.2,-0.0155,-0.2505,-0.010320804152548331,10,1,100,0.705430902987082,-10,-1,-100,6485.493927062955,-0.06722371898345327,-0.004870905500876008,0.9977260374900694,203.0876178869136,21.32012413766487,-121.62977969563939,7.5008218135314255,-38.208465576171875,4381.2578125,True
1599573155.7478237,0.0,10,0.5,0.5,-10.43770580596924,-0.2,-0.0155,-0.2505,0.056958389498426354,10,1,100,0.6815460342442745,-10,-1,-100,6485.750192511245,-0.06681796350271953,-0.0038643385155464408,0.9977576993645234,202.85125169683818,21.29792689977271,-115.36593428529935,7.120805815519045,-39.502777099609375,4381.2578125,True
1599573155.8256187,0.0,10,0.5,0.5,-9.717361083984375,-0.2,-0.0155,-0.2505,0.16460314198474793,10,1,100,0.6299636669719679,-10,-1,-100,6486.165058126091,-0.06591942066911996,-0.0019671759258115956,0.9978230104570271,202.34093668255903,21.24565327654762,-105.90577511588796,6.550731594160234,-41.995208740234375,4381.2578125,True
1599573155.9054024,0.0,10,0.5,0.5,-9.501979386901855,-0.2,-0.0155,-0.2505,0.13942156821389723,10,1,100,0.6363026825867019,-10,-1,-100,6486.420281983446,-0.06510026421628237,-0.0004696177185823686,0.9978786173970102,201.7727168366434,21.184935842254525,-99.50589431173037,6.1706337289092605,-44.024383544921875,4381.2578125,True
1599573155.9831955,0.0,10,0.5,0.5,-8.950978396606445,-0.2,-0.0155,-0.2505,0.17085672793102943,10,1,100,0.6062200301031723,-10,-1,-100,6486.675481242943,-0.06408405920009938,0.001171633947386337,0.9979438163696048,200.90072668282278,21.090744752277427,-92.99467332051181,5.790481825935512,-46.347991943359375,4381.2578125,True
1599573156.0599895,0.0,10,0.5,0.5,-8.94375329437256,-0.2,-0.0155,-0.2505,0.1032367365729807,10,1,100,0.6432866961382467,-10,-1,-100,6486.77206641878,-0.06350017532468902,0.002041536335000755,0.9979797392047228,200.31305142972468,21.027154757884528,-89.68900882592796,5.60038009229676,-47.620269775390625,4381.2578125,True
1599573156.1472628,0.0,10,0.5,0.5,-7.325892980957032,-0.2,-0.0155,-0.2505,0.3256592601709793,10,1,100,0.4746534457171163,-10,-1,-100,6487.061787627172,-0.061440016482927316,0.004846200591895129,0.9980990124804257,197.74498184755637,20.749767988212763,-79.54711837083528,5.0299425090984755,-51.8787841796875,4381.2578125,True
1599573156.2270553,0.0,10,0.5,0.5,-6.92307613067627,-0.2,-0.0155,-0.2505,0.265887691806545,10,1,100,0.4987747944284323,-10,-1,-100,6487.2544221674325,-0.059791993069571045,0.006841931848783651,0.9981874100254647,195.18243532602898,20.474082875554057,-72.59264421429309,4.649512828347896,-55.086181640625,4381.2578125,True
1599573156.3108294,0.0,10,0.5,0.5,-6.924827391052246,-0.2,-0.0155,-0.2505,0.18155830634335576,10,1,100,0.5627892097329835,-10,-1,-100,6487.351955363993,-0.05888281932473587,0.00787734473825334,0.998233820819674,193.58728207626328,20.303013229716054,-69.05969820192541,4.4592457609920295,-56.800384521484375,4381.2578125,True
1599573156.388623,0.0,10,0.5,0.5,-5.678390092468263,-0.2,-0.0155,-0.2505,0.29840139240000374,10,1,100,0.43522708008235966,-10,-1,-100,6487.544079878251,-0.056904514288345476,0.009868229562541457,0.998330854125479,189.66652241467395,19.884056967629505,-61.89652183694329,4.078586240074333,-60.45159912109375,4381.2578125,True
1599573156.4684076,0.0,10,0.5,0.5,-4.77997582244873,-0.2,-0.0155,-0.2505,0.32736122492814373,10,1,100,0.390046288525466,-10,-1,-100,6487.675159255392,-0.054704829298671084,0.011927606338599864,0.9984313265610383,184.63462050205635,19.34891069374652,-54.63712381686344,3.6977321132836702,-64.39773559570312,4381.2578125,True
1599573156.549198,0.0,10,0.5,0.5,-3.8170453872680667,-0.2,-0.0155,-0.2505,0.3511531801991715,10,1,100,0.3408019427296328,-10,-1,-100,6487.805254165432,-0.0522688206096275,0.014000786172171872,0.99853490093168,178.38462277434337,18.687170389193188,-47.35475820090516,3.3166507606801723,-68.63934326171875,4381.2578125,True
1599573156.628567,0.0,10,0.5,0.5,-2.789806240844727,-0.2,-0.0155,-0.2505,0.36177804927337076,10,1,100,0.2945744533090392,-10,-1,-100,6487.934857505024,-0.04964724384566711,0.015965843808195764,0.9986391956107176,170.76424249782062,17.883936071200036,-40.12475885450796,2.9352701721327343,-73.1778564453125,4381.2578125,True
1599573156.720321,0.0,10,0.5,0.5,-0.5610062637329103,-0.2,-0.0155,-0.2505,0.47613946879096536,10,1,100,0.08312042777161666,-10,-1,-100,6488.1004567298805,-0.0453564758070206,0.018775606364073792,0.998794406626323,156.61725670477333,16.398238423020814,-29.62662122281751,2.3626251797335818,-80.54159545898438,4381.2578125,True
1599573156.810082,0.0,10,0.5,0.5,0.02986570892333984,-0.2,-0.0155,-0.2505,0.38647429634035224,10,1,100,0.17336889299334957,-10,-1,-100,6488.167082230793,-0.04229416708154795,0.020497302370700375,0.9988949214138604,145.36538516172453,15.219088708040012,-23.054372828453364,1.9806029517999737,-85.8221435546875,4381.2578125,True
1599573156.9008389,0.0,10,0.5,0.5,1.272550437927246,-0.2,-0.0155,-0.2505,0.38641135542244054,10,1,100,0.13064239012315487,-10,-1,-100,6488.234695190913,-0.03914163629786063,0.02204433957890415,0.9989904801350491,152.05618216076704,15.919528348474618,-19.46521619219992,1.5985008334432536,-91.38102722167969,4381.2578125,True
1599573156.9995763,0.0,10,0.5,0.5,1.2336733169555665,-0.2,-0.0155,-0.2505,0.3110861103501443,10,1,100,0.26777675281641045,-10,-1,-100,6488.269240647089,-0.03754451937265342,0.02274777771911952,0.9990360091978256,155.92675958782692,16.324474261711494,-17.576090167152444,1.4074559014972392,-94.23517608642578,4381.2578125,True
1599573157.098311,0.0,10,0.5,0.5,3.1745233371734622,-0.2,-0.0155,-0.2505,0.38619182873310226,10,1,100,0.062491992658721796,-10,-1,-100,6488.273401487502,-0.03424809298204085,0.024053772034499273,0.9991238582768434,164.4195921207121,17.211964879172953,-13.504473571171312,1.0254307341974402,-99.98470306396484,4381.2578125,True
1599573157.1820867,0.0,10,0.5,0.5,4.3317766059875495,-0.2,-0.0155,-0.2505,0.37924944988361775,10,1,100,0.025740622225797427,-10,-1,-100,6488.341544866096,-0.03094046007762787,0.025162279931498537,0.9992044573553671,171.6820435854941,17.97007976985443,-8.84997049345475,0.6434959431323377,-105.59606170654297,4381.2578125,True
1599573157.2708495,0.0,10,0.5,0.5,6.562440648269654,-0.2,-0.0155,-0.2505,0.4168918638349356,10,1,100,-0.2026141332144611,-10,-1,-100,6488.318303995999,-0.025882970896201996,0.026496504569061444,0.9993137680744761,180.9202940047397,18.935629225210672,-1.0235033052009428,0.07060680743362768,-113.49989318847656,4381.2578125,True
1599573157.3665934,0.0,10,0.5,0.5,6.874010852432251,-0.2,-0.0155,-0.2505,0.3599375135109124,10,1,100,-0.06582601532798793,-10,-1,-100,6488.322041454725,-0.02255698320604836,0.027176552622985222,0.9993761141312975,185.11819291356346,19.374298061301886,4.619919972449942,-0.31143803248738955,-118.40390014648438,4381.2578125,True
1599573157.447378,0.0,10,0.5,0.5,6.784143045425415,-0.2,-0.0155,-0.2505,0.32426367337048095,10,1,100,0.08136234501608486,-10,-1,-100,6488.355657277396,-0.020900659350939012,0.027456607810471656,0.9994044712358646,186.76664121324248,19.546491205314318,7.521231866916874,-0.5025117587430952,-120.74546813964844,4381.2578125,True
1599573157.534146,0.0,10,0.5,0.5,8.288223945236206,-0.2,-0.0155,-0.2505,0.3512129786871788,10,1,100,-0.10527874846839225,-10,-1,-100,6488.29839655594,-0.01772668968848862,0.02794396455503085,0.9994522996709923,189.703920671983,19.853363627421505,13.452396772609948,-0.8847470515170053,-125.2069091796875,4381.2578125,True
1599573157.6149297,0.0,10,0.5,0.5,9.128301754379272,-0.2,-0.0155,-0.2505,0.3409491189578139,10,1,100,-0.13754734530970308,-10,-1,-100,6488.241647514631,-0.01457693052784651,0.028282819124593312,0.9994936694340549,191.39566791538672,20.029851856458716,19.440635773831417,-1.2671022031065626,-129.37344360351562,4381.2578125,True
1599573157.7046902,0.0,10,0.5,0.5,10.726431846237183,-0.2,-0.0155,-0.2505,0.3390761572933005,10,1,100,-0.32458771679337806,-10,-1,-100,6488.154118342674,-0.010041127500392249,0.02856519888837223,0.9995414974732106,192.11967533959634,20.104531099406806,28.356448378019465,-1.8408417637252008,-135.06968688964844,4381.2578125,True
1599573157.7854736,0.0,10,0.5,0.5,10.920037182998657,-0.2,-0.0155,-0.2505,0.32194086563019336,10,1,100,-0.18864757057245712,-10,-1,-100,6488.033453075099,-0.007182810658879616,0.02865879793439966,0.9995634449758525,191.65480233485835,20.054745575680602,34.1725388072899,-2.2234504560707085,-138.4973907470703,4381.2578125,True
1599573157.8672576,0.0,10,0.5,0.5,11.545161716079713,-0.2,-0.0155,-0.2505,0.3184573150219706,10,1,100,-0.2050603557020252,-10,-1,-100,6487.9748187889345,-0.0044641871432711325,0.028706206190390306,0.9995779233052843,190.65548994841467,19.948597751403994,39.8513826870228,-2.6061289683990503,-141.62887573242188,4381.2578125,True
1599573157.94956,0.0,10,0.5,0.5,12.111472345733642,-0.2,-0.0155,-0.2505,0.31482347141287725,10,1,100,-0.22055765790945525,-10,-1,-100,6487.853703737492,-0.0018818996837680398,0.028710852909870705,0.9995859869859961,189.273927897956,19.801858302849272,45.379929378265444,-2.9888580547300596,-144.46414184570312,4381.2578125,True
1599573158.045302,0.0,10,0.5,0.5,12.61398772621155,-0.2,-0.0155,-0.2505,0.3118610724955702,10,1,100,-0.23390606149486343,-10,-1,-100,6487.7326044570655,0.0005575596817400527,0.028683912591172485,0.9995883764258482,187.65604401981926,19.62965542911727,50.76218643313528,-3.371623471182133,-147.00311279296875,4381.2578125,True
1599573158.120101,0.0,10,0.5,0.5,13.052261901855468,-0.2,-0.0155,-0.2505,0.31205078348657994,10,1,100,-0.2441357447917877,-10,-1,-100,6487.549507477321,0.002839612571483659,0.02865794455349267,0.9995852433956861,185.9853316251836,19.45109300279775,56.03152179230092,-3.7544180003388776,-149.24530029296875,4381.2578125,True
1599573158.200888,0.0,10,0.5,0.5,13.00091935043335,-0.2,-0.0155,-0.2505,0.3133041114509279,10,1,100,-0.13822655612096116,-10,-1,-100,6487.518754852004,0.003925283861999709,0.02864376619165561,0.9995819760304606,185.16774031622916,19.36334332035165,58.63421213527728,-3.94582553281798,-150.25511169433594,4381.2578125,True
1599573158.279674,0.0,10,0.5,0.5,13.961505296325685,-0.2,-0.0155,-0.2505,0.31195555737799585,10,1,100,-0.3658927285513077,-10,-1,-100,6487.2434059120715,0.00695787545086468,0.028617283358805562,0.9995662254510063,182.89778748248943,19.117915625584615,66.3615986021118,-4.5200939927108035,-152.83929443359375,4381.2578125,True
1599573158.3644483,0.0,10,0.5,0.5,13.685090799713135,-0.2,-0.0155,-0.2505,0.3145691893243543,10,1,100,-0.1683661017321244,-10,-1,-100,6487.151139518479,0.007893754347111348,0.028615913187046656,0.9995593119744216,182.21649308201518,19.043569981663957,68.92069569269162,-4.711534350020394,-153.55223083496094,4381.2578125,True
1599573158.4445202,0.0,10,0.5,0.5,14.092786996459962,-0.2,-0.0155,-0.2505,0.31128853850452337,10,1,100,-0.2732378532272669,-10,-1,-100,6486.905086867744,0.00967464158998634,0.0285842326156019,0.9995445677686826,181.01961493150856,18.9116196411301,74.04596496935248,-5.094446570727451,-154.75611877441406,4381.2578125,True
1599573158.532286,0.0,10,0.5,0.5,14.392601982879638,-0.2,-0.0155,-0.2505,0.32355688978298414,10,1,100,-0.3564899309235099,-10,-1,-100,6486.628791988129,0.012028420178822332,0.02866668855000994,0.9995166522252535,179.74085758553232,18.766307531727755,81.83680905056224,-5.668905847486677,-156.00372314453125,4381.2578125,True
1599573158.6070857,0.0,10,0.5,0.5,14.320135943603516,-0.2,-0.0155,-0.2505,0.32257535530237746,10,1,100,-0.27667850145018147,-10,-1,-100,6486.380797895603,0.013422597221025507,0.028732633186319335,0.9994970083367047,179.31431133907927,18.71304184009891,87.17648429961409,-6.051946991017784,-156.46456909179688,4381.2578125,True
1599573158.6988404,0.0,10,0.5,0.5,14.306068367767335,-0.2,-0.0155,-0.2505,0.33085723655840465,10,1,100,-0.2742268413205652,-10,-1,-100,6486.1352477781475,0.014649010887413785,0.02886780556233547,0.9994758907957888,179.2552392036231,18.697436450847313,92.68364374531912,-6.435045061591737,-156.62777709960938,4381.2578125,True
1599573158.7736397,0.0,10,0.5,0.5,14.274959853363038,-0.2,-0.0155,-0.2505,0.32694442924844735,10,1,100,-0.21433068798680432,-10,-1,-100,6485.980003321427,0.0152020462828865,0.02895497165646694,0.9994651106492843,179.3717723783676,18.704610251994886,95.51513556624506,-6.626615196403292,-156.59786987304688,4381.2578125,True
1599573158.852431,0.0,10,0.5,0.5,14.174108951568606,-0.2,-0.0155,-0.2505,0.33800919508927163,10,1,100,-0.27087591086990614,-10,-1,-100,6485.732501586201,0.016203322354102025,0.02913458041446068,0.9994441598052202,179.90576454138048,18.74980313307335,101.36158069472745,-7.0097951582411255,-156.3156280517578,4381.2578125,True
1599573158.9312215,0.0,10,0.5,0.5,13.817468139648438,-0.2,-0.0155,-0.2505,0.359525881822985,10,1,100,-0.30386866705577886,-10,-1,-100,6485.26725161518,0.01739928405446738,0.029493057648558488,0.999413540264955,181.43400809977453,18.892015364763367,110.64473809957263,-7.58465074586465,-155.33499145507812,4381.2578125,True
1599573159.0110836,0.0,10,0.5,0.5,13.610810626220703,-0.2,-0.0155,-0.2505,0.3550750594117451,10,1,100,-0.2515000505335741,-10,-1,-100,6484.957244066638,0.017997207566885855,0.029777724827549708,0.9993945105031793,182.9083103206785,19.03334221549993,117.20975686524513,-7.967929912393656,-154.31002807617188,4381.2578125,True
1599573159.0878782,0.0,10,0.5,0.5,13.592802129364014,-0.2,-0.0155,-0.2505,0.34397452935840217,10,1,100,-0.21910208593464559,-10,-1,-100,6484.802482874249,0.018233454787544314,0.02993456839102416,0.9993855425919237,183.76592925519847,19.116280585733012,120.60726879743396,-8.159577262775626,-153.68617248535156,4381.2578125,True
1599573159.1672761,0.0,10,0.5,0.5,12.706760237121584,-0.2,-0.0155,-0.2505,0.38431289364023025,10,1,100,-0.2462862179000453,-10,-1,-100,6484.273737868294,0.01868510293388593,0.030442668319442808,0.9993618518204217,186.74900634220714,19.406854392371702,131.25442613347818,-8.734527994189648,-151.36956787109375,4381.2578125,True
1599573159.241082,0.0,10,0.5,0.5,12.421023334503174,-0.2,-0.0155,-0.2505,0.3727069357208248,10,1,100,-0.21338884534740876,-10,-1,-100,6483.902678889455,0.018786814817729997,0.030797407950435715,0.9993490757750961,188.99277911674093,19.626555158970685,138.69961152805155,-9.117815875214479,-149.4546661376953,4381.2578125,True
1599573159.3288152,0.0,10,0.5,0.5,11.896344763946535,-0.2,-0.0155,-0.2505,0.37756446257524845,10,1,100,-0.19585417671967598,-10,-1,-100,6483.528682971839,0.018711590294401812,0.031162045881528724,0.9993391833032126,191.3394343383241,19.8568758074041,146.3673682592501,-9.5010762213846,-147.24346923828125,4381.2578125,True
1599573159.4046845,0.0,10,0.5,0.5,11.30721787033081,-0.2,-0.0155,-0.2505,0.3806680184545078,10,1,100,-0.17719006904395423,-10,-1,-100,6483.155166035984,0.018467455048764556,0.03151948054748698,0.9993325149568778,193.6849799127754,20.08747931078713,154.18461281794575,-9.88429540891738,-144.73635864257812,4381.2578125,True
1599573159.4855056,0.0,10,0.5,0.5,10.6544522605896,-0.2,-0.0155,-0.2505,0.3822201081322102,10,1,100,-0.15741055842726986,-10,-1,-100,6482.719140273053,0.018061113949099247,0.03185599756146345,0.9993292708523461,195.9189854583949,20.3075669701678,162.05993958072992,-10.267458462846747,-141.93365478515625,4381.2578125,True
1599573160.1841228,0.0,10,0.5,0.5,10.652538790130615,-0.2,-0.0155,-0.2505,0.36620411787384877,10,1,100,-0.16911704383321266,-10,-1,-100,6482.5008800826035,0.017795033632128733,0.0320136056700032,0.9993290077997521,196.95333586567497,20.40968040757637,165.98174328707947,-10.459015069385197,-140.42152404785156,4381.2578125,True
1599573160.2479458,0.0,10,0.5,0.5,9.544163932800293,-0.2,-0.0155,-0.2505,0.3815681301490411,10,1,100,-0.12448724772506496,-10,-1,-100,6482.06386309606,0.017145059754491248,0.03229377803116514,0.9993313558707586,198.7662980267555,20.589222825597364,173.70181522284255,-10.842073816580175,-137.17604064941406,4381.2578125,True
1599573160.3257337,0.0,10,0.5,0.5,9.54663641204834,-0.2,-0.0155,-0.2505,0.3669736434694428,10,1,100,-0.14754899787459144,-10,-1,-100,6481.846571179107,0.016762970560361603,0.03241293102820992,0.9993339805691354,199.50603686058793,20.662848155275455,177.45759546056664,-11.033575459980526,-135.44273376464844,4381.2578125,True
1599573160.3995433,0.0,10,0.5,0.5,8.288729918670654,-0.2,-0.0155,-0.2505,0.37660558413050577,10,1,100,-0.0897484513883983,-10,-1,-100,6481.409537946689,0.015890735700818448,0.03260616060118788,0.999341944886602,200.55335571354954,20.768165368880975,184.64395519485066,-11.416523327415561,-131.755126953125,4381.2578125,True
1599573160.475307,0.0,10,0.5,0.5,7.38363362197876,-0.2,-0.0155,-0.2505,0.3707228315958706,10,1,100,-0.06515760357450574,-10,-1,-100,6480.973960186238,0.0148761567318948,0.032725772975604216,0.99935365298979,200.882570082194,20.8035864861368,191.21699371892157,-11.79940273142329,-127.77314758300781,4381.2578125,True
1599573160.55014,0.0,10,0.5,0.5,6.414629573822022,-0.2,-0.0155,-0.2505,0.36225212061700646,10,1,100,-0.040909749424920025,-10,-1,-100,6480.474896636559,0.013736429266109476,0.03275496757564341,0.9993690122322864,200.30522091732715,20.750172610046658,196.92471379823465,-12.182229902132937,-123.49717712402344,4381.2578125,True
1599573160.6373746,0.0,10,0.5,0.5,6.42976473236084,-0.2,-0.0155,-0.2505,0.3568567630751358,10,1,100,-0.08708838945349659,-10,-1,-100,6480.19313468528,0.013124618000807857,0.03273035732597458,0.9993780406391002,199.81661297412822,20.704710441498808,199.5676146323083,-12.373631425078788,-121.2490234375,4381.2578125,True
1599573160.7141697,0.0,10,0.5,0.5,3.712422077178956,-0.2,-0.0155,-0.2505,0.3331385938124891,10,1,100,0.0697354612783797,-10,-1,-100,6479.474787659012,0.01114790202280471,0.03249060742445564,0.9994098682270852,196.98818646542256,20.434381991944235,205.99022657702565,-12.947835144797793,-114.06414794921875,4381.2578125,True
1599573160.7903385,0.0,10,0.5,0.5,4.315772003173828,-0.2,-0.0155,-0.2505,0.34181618098686634,10,1,100,-0.050097758522076374,-10,-1,-100,6479.194970383891,0.010447156484871085,0.03235033234143919,0.9994219894112693,195.37123552271882,20.276326448554794,207.36052705987157,-13.139254951856117,-111.52245330810547,4381.2578125,True
1599573160.8681755,0.0,10,0.5,0.5,2.5117387950897214,-0.2,-0.0155,-0.2505,0.3152994360233001,10,1,100,0.04276060378329671,-10,-1,-100,6478.632400465081,0.008973239337213392,0.03198099290103368,0.9994481962907636,190.99388112495154,19.843053073854477,208.70644973243304,-13.522160616993517,-106.21891021728516,4381.2578125,True
1599573160.949956,0.0,10,0.5,0.5,-0.046689325714110996,-0.2,-0.0155,-0.2505,0.2628462483640165,10,1,100,0.14228339907631604,-10,-1,-100,6477.78999893961,0.006736823677235209,0.031168268980726478,0.9994914477950708,182.5916129500948,19.001607044433783,208.13554539856918,-14.096756298722674,-97.71367645263672,4381.2578125,True
1599573161.0257545,0.0,10,0.5,0.5,-0.7019160343170165,-0.2,-0.0155,-0.2505,0.26599650966044147,10,1,100,0.08840556244094475,-10,-1,-100,6477.226438927697,0.005203569964808322,0.03045883628013223,0.9995224770619626,174.7873293560137,18.206345088097667,204.74682655301896,-14.480023664968769,-91.67684936523438,4381.2578125,True
1599573161.1055396,0.0,10,0.5,0.5,-0.6695531421661377,-0.2,-0.0155,-0.2505,0.29230876149016205,10,1,100,0.01969143237477977,-10,-1,-100,6476.946122916648,0.004445232763012363,0.030054767879635857,0.9995383688650394,170.3906788388481,17.75428349017445,202.2844229404666,-14.67172195358754,-88.5484619140625,4381.2578125,True
1599573161.179343,0.0,10,0.5,0.5,-4.217513479232788,-0.2,-0.0155,-0.2505,0.18155040837840136,10,1,100,0.18804034179313994,-10,-1,-100,6476.039255430223,0.0022365886192103526,0.028682682635576398,0.999586065023005,168.0820417719935,17.51639308960265,207.5082106701607,-15.246931426742002,-79.09466552734375,4381.2578125,True
1599573161.2716064,0.0,10,0.5,0.5,-4.695346773910522,-0.2,-0.0155,-0.2505,0.20015712566481614,10,1,100,0.1267158215242744,-10,-1,-100,6475.412704956834,0.000798638806454219,0.02760805118718576,0.9996185060740435,179.78945500085194,18.72603632451138,227.6463067648048,-15.630171328181454,-72.95840454101562,4381.2578125,True
1599573161.3509793,0.0,10,0.5,0.5,-5.912946924209595,-0.2,-0.0155,-0.2505,0.18056178554248242,10,1,100,0.1331054184054617,-10,-1,-100,6474.78859677806,-0.0005538777968572046,0.026457626525526166,0.9996497822827861,189.59976184150045,19.731254826931366,246.06407811394843,-16.01312428098651,-67.03216552734375,4381.2578125,True
1599573161.4277766,0.0,10,0.5,0.5,-7.060070978927612,-0.2,-0.0155,-0.2505,0.1606449338726483,10,1,100,0.140138752164578,-10,-1,-100,6474.163516034954,-0.0018343865548932229,0.025236448491609966,0.999679827091403,198.0063539808937,20.587125881150545,263.23681011368666,-16.395775143819876,-61.38482666015625,4381.2578125,True
1599573161.5056775,0.0,10,0.5,0.5,-8.149039759445191,-0.2,-0.0155,-0.2505,0.1401081217245793,10,1,100,0.14618147388896774,-10,-1,-100,6473.475451188977,-0.0030398201646425088,0.023946400994734943,0.9997086222358824,204.62596114717957,21.257516003245176,278.5099407555192,-16.77813985124711,-56.033355712890625,4381.2578125,True
1599573161.5844681,0.0,10,0.5,0.5,-9.175044555282593,-0.2,-0.0155,-0.2505,0.12275877052526563,10,1,100,0.14994935194127648,-10,-1,-100,6472.787879762705,-0.004157024408356078,0.022623676628881817,0.9997354091977838,209.50286306362287,21.750142224720353,291.7766102130304,-17.160255610206935,-50.9798583984375,4381.2578125,True
1599573161.6592677,0.0,10,0.5,0.5,-9.090863360595703,-0.2,-0.0155,-0.2505,0.1800810259574947,10,1,100,0.09760910106182862,-10,-1,-100,6472.443608026719,-0.004683567639288681,0.02195115375995611,0.9997480737879793,211.35145923196688,21.937150938310463,297.69602063501424,-17.351235175741998,-48.565032958984375,4381.2578125,True
1599573161.7380905,0.0,10,0.5,0.5,-10.650337984848022,-0.2,-0.0155,-0.2505,0.09764118309382344,10,1,100,0.15567307084676874,-10,-1,-100,6471.756044637295,-0.005677682295475501,0.020599434252300344,0.9997716875528315,214.00003528164075,22.207200166325627,308.20391088144436,-17.733073440769076,-43.958984375,4381.2578125,True
1599573161.8118958,0.0,10,0.5,0.5,-12.440506588745118,-0.2,-0.0155,-0.2505,0.006547409145725935,10,1,100,0.20531097825842037,-10,-1,-100,6470.661722628516,-0.007021390681230615,0.018552081150110967,0.9998032408218636,216.69264986872585,22.492770654131267,322.3893088480498,-18.305618201316435,-37.6090087890625,4381.2578125,True
1599573161.8946383,0.0,10,0.5,0.5,-12.673033695983888,-0.2,-0.0155,-0.2505,0.06099316606858915,10,1,100,0.1605508938325121,-10,-1,-100,6469.911185389152,-0.007824920300185154,0.01719663680662849,0.9998215072225826,217.2935611905635,22.567932591495264,330.1861364411448,-18.687238472517514,-33.74798583984375,4381.2578125,True
1599573161.989386,0.0,10,0.5,0.5,-12.610220298767091,-0.2,-0.0155,-0.2505,0.1219675560060363,10,1,100,0.12308733866312084,-10,-1,-100,6469.5054021159885,-0.008203669313091907,0.01653041652205122,0.9998297080700337,217.3102120924356,22.578369266878013,333.6674068239706,-18.87804026610583,-31.929046630859375,4381.2578125,True
1599573162.070205,0.0,10,0.5,0.5,-14.485228314208985,-0.2,-0.0155,-0.2505,-0.02482735900645469,10,1,100,0.20407587792181664,-10,-1,-100,6468.347630980425,-0.009274754901784097,0.014601310005152444,0.9998503791406218,216.49510494416367,22.527289811646632,342.764078672001,-19.45045316176614,-26.9178466796875,4381.2578125,True
1599573162.1539445,0.0,10,0.5,0.5,-14.638844947814942,-0.2,-0.0155,-0.2505,0.028375946208677172,10,1,100,0.16810822187733046,-10,-1,-100,6467.597113112919,-0.009912332751365088,0.013343067529183876,0.9998618445607063,215.44029408615106,22.444762589258588,347.97630836557624,-19.83208821385155,-23.94879150390625,4381.2578125,True
1599573162.2448695,0.0,10,0.5,0.5,-14.580474717712402,-0.2,-0.0155,-0.2505,0.08524083641261379,10,1,100,0.13818839516808337,-10,-1,-100,6467.189873582334,-0.010211442867305099,0.01272808660651764,0.9998668522587919,214.81746908087976,22.39455647701719,350.406799418038,-20.02291647490163,-22.575653076171875,4381.2578125,True
1599573162.3326726,0.0,10,0.5,0.5,-16.437357650756837,-0.2,-0.0155,-0.2505,-0.10275979278078837,10,1,100,0.2384913011557327,-10,-1,-100,6465.5013601653045,-0.011387590248672455,0.010471287649503853,0.9998803303012265,212.07519304799715,22.171248960040543,359.5393969107447,-20.786300279254778,-17.823822021484375,4381.2578125,True
1599573162.4174488,0.0,10,0.5,0.5,-15.757889846801758,-0.2,-0.0155,-0.2505,0.06293278169605478,10,1,100,0.15191712494173826,-10,-1,-100,6465.095103831496,-0.011662188293348258,0.009938198468685558,0.999882605897016,211.40018454827546,22.116930091194316,361.79443404289316,-20.97716064779835,-16.8212890625,4381.2578125,True
1599573162.5106692,0.0,10,0.5,0.5,-16.362951641845704,-0.2,-0.0155,-0.2505,0.004354896338743447,10,1,100,0.18572210744392853,-10,-1,-100,6464.281130537856,-0.012212318025905269,0.00893257796302082,0.9998855276177213,210.15098809458857,22.01878443612768,366.4254913113245,-21.35889097679454,-15.03826904296875,4381.2578125,True
1599573162.6248758,0.0,10,0.5,0.5,-16.638054905700688,-0.2,-0.0155,-0.2505,-0.00015845766043182108,10,1,100,0.19038203377120735,-10,-1,-100,6463.404662756366,-0.0127479546126718,0.007989182081330315,0.9998868249071315,209.10781897887819,21.94183246134953,371.35534305549936,-21.740623140218204,-13.551513671875,4381.2578125,True
1599573162.7111933,0.0,10,0.5,0.5,-17.067281272888184,-0.2,-0.0155,-0.2505,-0.04899512510470376,10,1,100,0.22378053369403242,-10,-1,-100,6462.060427143588,-0.013532092170560513,0.006699043623182811,0.9998859961495721,208.07427869278396,21.881076343410438,379.6171078281913,-22.313193914940552,-11.87664794921875,4381.2578125,True
1599573162.8069098,0.0,10,0.5,0.5,-16.68761256866455,-0.2,-0.0155,-0.2505,0.07883341695735381,10,1,100,0.14601784805409407,-10,-1,-100,6462.060427143588,-0.013532092170560513,0.006699043623182811,0.9998859961495721,208.07427869278396,21.881076343410438,379.6171078281913,-22.313193914940552,-11.87664794921875,4381.2578125,True
1599573162.9142036,0.0,10,0.5,0.5,-17.05790334014893,-0.2,-0.0155,-0.2505,-0.006822575921861071,10,1,100,0.20387448531236438,-10,-1,-100,6461.183968735859,-0.014052873262117174,0.005929896045356717,0.9998836697766247,207.8166364510835,21.88524754171061,385.8856041297575,-22.694866133489505,-11.12994384765625,4381.2578125,True
1599573163.005955,0.0,10,0.5,0.5,-17.157846142578126,-0.2,-0.0155,-0.2505,-0.042769853022875684,10,1,100,0.23821776365352085,-10,-1,-100,6459.777245945064,-0.014833204781225538,0.004913514383211676,0.9998779092530868,208.16852914335195,21.968775373721,396.6858645720942,-23.267270248320955,-10.564453125,4381.2578125,True
1599573163.1096778,0.0,10,0.5,0.5,-17.044700555419922,-0.2,-0.0155,-0.2505,-0.008716193634884795,10,1,100,0.21731549048000343,-10,-1,-100,6458.836829587701,-0.015347523269856219,0.004307916862626956,0.9998729396187228,208.92306060821826,22.079448886866363,404.92669665939667,-23.648778427508663,-10.55743408203125,4381.2578125,True
1599573163.205422,0.0,10,0.5,0.5,-17.01544281616211,-0.2,-0.0155,-0.2505,0.02205611629347371,10,1,100,0.19518798013896554,-10,-1,-100,6458.367599524907,-0.015608985265039683,0.004045335707504613,0.9998699889675705,209.46203904203182,22.15204591295699,409.3855644047103,-23.8394975078237,-10.66455078125,4381.2578125,True
1599573163.3264532,0.0,10,0.5,0.5,-16.864386408996584,-0.2,-0.0155,-0.2505,-0.003601582179768921,10,1,100,0.2277088713262884,-10,-1,-100,6457.367616483709,-0.016137415596547827,0.0035812671720902886,0.9998633698377526,210.8527983902227,22.330911480256454,418.98516224935435,-24.22085422758321,-11.10040283203125,4381.2578125,True
1599573163.4541404,0.0,10,0.5,0.5,-16.654458786010743,-0.2,-0.0155,-0.2505,-0.0019945381564639986,10,1,100,0.23243450012576067,-10,-1,-100,6456.427206583205,-0.016656449045779637,0.0031802598314504145,0.9998562139890863,212.6502183533269,22.55391642535128,429.50651087049977,-24.602087741401235,-11.831878662109375,4381.2578125,True
1599573163.5559049,0.0,10,0.5,0.5,-15.78742297821045,-0.2,-0.0155,-0.2505,-0.02314274379614875,10,1,100,0.29507249327477736,-10,-1,-100,6454.4243208681,-0.017693193700297406,0.0026295948692690633,0.999840005264596,217.3567986352733,23.122146347104795,453.24585819796914,-25.364111978786315,-14.180389404296875,4381.2578125,True
1599573163.6536493,0.0,10,0.5,0.5,-16.37705463256836,-0.2,-0.0155,-0.2505,0.0312934541126112,10,1,100,0.19194611539043968,-10,-1,-100,6454.4243208681,-0.017693193700297406,0.0026295948692690633,0.999840005264596,217.3567986352733,23.122146347104795,453.24585819796914,-25.364111978786315,-14.180389404296875,4381.2578125,True
1599573163.753346,0.0,10,0.5,0.5,-15.233799510192872,-0.2,-0.0155,-0.2505,0.011961639846536597,10,1,100,0.2767522750242873,-10,-1,-100,6452.891641464084,-0.018459663115979998,0.0024587234552248044,0.9998265827215315,221.6693392749225,23.63552968177097,473.144390444546,-25.93517421209288,-16.715972900390625,4381.2578125,True
1599573163.8431408,0.0,10,0.5,0.5,-14.93388701171875,-0.2,-0.0155,-0.2505,0.027596445759017273,10,1,100,0.2550454880297028,-10,-1,-100,6451.826725536608,-0.018954639456699385,0.002449375241814355,0.9998173444204653,224.79382091407462,24.005868908292793,487.1934631651898,-26.315635788395763,-18.77496337890625,4381.2578125,True
1599573163.9318695,0.0,10,0.5,0.5,-14.378685452270508,-0.2,-0.0155,-0.2505,0.037591380955045356,10,1,100,0.2584497317759641,-10,-1,-100,6450.763274388504,-0.019430636030241078,0.002535603248115446,0.9998079921163004,228.0174427422748,24.387314211160813,501.67002329798294,-26.695885715914244,-21.1285400390625,4381.2578125,True
1599573164.0226567,0.0,10,0.5,0.5,-14.372915808105471,-0.2,-0.0155,-0.2505,0.03806123938674048,10,1,100,0.23654565697506325,-10,-1,-100,6450.231549306423,-0.019659343360027042,0.002621349505765704,0.999803300027271,229.63715042848565,24.578792547157235,509.0064416383136,-26.88592876543356,-22.4156494140625,4381.2578125,True
1599573164.1184556,0.0,10,0.5,0.5,-12.73829680480957,-0.2,-0.0155,-0.2505,0.06946201799946658,10,1,100,0.28401410845011527,-10,-1,-100,6448.571430209791,-0.020294403092715844,0.002986846059088399,0.9997895858398055,234.3412580274006,25.13445884955844,530.9872890059561,-27.45572566486217,-26.719024658203125,4381.2578125,True
1599573164.2057302,0.0,10,0.5,0.5,-13.078729234313965,-0.2,-0.0155,-0.2505,0.05113418263317442,10,1,100,0.24208663517338863,-10,-1,-100,6448.039215937373,-0.02048607411098737,0.003153699941327774,0.9997851643949309,235.8052871262572,25.307198564901242,538.1808765391886,-27.6455488426765,-28.300628662109375,4381.2578125,True
1599573164.2920122,0.0,10,0.5,0.5,-11.111193789672852,-0.2,-0.0155,-0.2505,0.10226413036250054,10,1,100,0.2785708943848016,-10,-1,-100,6446.322941373917,-0.020987561857841647,0.0037710135734176035,0.9997726250022514,239.6311194521857,25.75773943683065,558.7331828160078,-28.214713417994886,-33.486846923828125,4381.2578125,True
1599573164.3818164,0.0,10,0.5,0.5,-10.6524332321167,-0.2,-0.0155,-0.2505,0.09621480825039697,10,1,100,0.2576914300586664,-10,-1,-100,6445.190149231348,-0.021249237273597676,0.004277041450297119,0.9997650608176517,241.50688384768486,25.97774983178621,571.0529044108378,-28.593933283898615,-37.31195068359375,4381.2578125,True
1599573164.4637547,0.0,10,0.5,0.5,-10.659830233764648,-0.2,-0.0155,-0.2505,0.07617089790284437,10,1,100,0.24419569881793762,-10,-1,-100,6444.595921032247,-0.02136026028734397,0.0045538523519199755,0.9997614724069007,242.26040105483258,26.06502159768797,576.8221279981713,-28.783488479782818,-39.334808349609375,4381.2578125,True
1599573164.5555096,0.0,10,0.5,0.5,-9.205668948364256,-0.2,-0.0155,-0.2505,0.11458602931684675,10,1,100,0.24873082150882664,-10,-1,-100,6443.468496473855,-0.021499084991042278,0.005152977768538366,0.9997555882137719,243.35394291263358,26.188468773517798,587.4427480406896,-29.162510679454158,-43.6009521484375,4381.2578125,True
1599573164.6362948,0.0,10,0.5,0.5,-7.097618116760254,-0.2,-0.0155,-0.2505,0.1633547324022149,10,1,100,0.24400662291353675,-10,-1,-100,6441.680429246393,-0.021578882106001063,0.006138695099968187,0.9997483024589365,243.12651372449795,26.15482552387185,598.9299486874827,-29.730918504274797,-50.55126953125,4381.2578125,True
1599573164.7320373,0.0,10,0.5,0.5,-6.533384207153321,-0.2,-0.0155,-0.2505,0.14198291584852124,10,1,100,0.22988104517506847,-10,-1,-100,6440.4983094750205,-0.0215201749410775,0.006837167094739224,0.9997450351047631,241.45433915933344,25.957282701490204,602.8019321154748,-30.109863142926113,-55.552032470703125,4381.2578125,True
1599573165.5172567,0.0,10,0.5,0.5,-5.343832295227052,-0.2,-0.0155,-0.2505,0.14998006510444267,10,1,100,0.2188879354443688,-10,-1,-100,6439.246849773917,-0.02136453512497301,0.007540854090627703,0.9997433131351656,238.34765235062562,25.598333826648705,602.9595348915217,-30.488894463281945,-60.8466796875,4381.2578125,True
1599573165.5890653,0.0,10,0.5,0.5,-5.366335005187988,-0.2,-0.0155,-0.2505,0.11860120407044436,10,1,100,0.22220218990980056,-10,-1,-100,6438.648218274815,-0.0212514158790231,0.007890756940360415,0.9997430236205926,236.20010684615335,25.353370516869433,601.4592857881009,-30.67846476513856,-63.604156494140625,4381.2578125,True
1599573165.6718435,0.0,10,0.5,0.5,-2.06812477722168,-0.2,-0.0155,-0.2505,0.19789498197590405,10,1,100,0.18247974651825932,-10,-1,-100,6436.801534942235,-0.0207860197404919,0.00892491259613561,0.9997441109196389,227.1345964692955,24.337662001515163,589.7708741816577,-31.247486791665896,-72.31695556640625,4381.2578125,True
1599573165.7446487,0.0,10,0.5,0.5,-2.8054759689331057,-0.2,-0.0155,-0.2505,0.13118665534628696,10,1,100,0.2070237695651686,-10,-1,-100,6436.154559570132,-0.02058561289984655,0.009253216526082861,0.9997452728197613,223.18192062257927,23.90194833237145,583.2579810591197,-31.437284115365454,-75.36807250976562,4381.2578125,True
1599573165.816456,0.0,10,0.5,0.5,0.8251306533813478,-0.2,-0.0155,-0.2505,0.20054598733777212,10,1,100,0.14817340292930642,-10,-1,-100,6434.238039499847,-0.019868331040034888,0.01017666901088045,0.999750811367276,208.34554349242921,22.294422349221005,555.0360758978339,-32.00707837149541,-84.96176147460938,4381.2578125,True
1599573165.8942487,0.0,10,0.5,0.5,1.5483744125366212,-0.2,-0.0155,-0.2505,0.16883193921006234,10,1,100,0.15765098734745372,-10,-1,-100,6432.981677434989,-0.01930343396293272,0.010722038418228658,0.9997561779400999,206.18593454524387,22.0714353490734,556.2729610727753,-32.38712101599573,-91.72463989257812,4381.2578125,True
1599573165.9830139,0.0,10,0.5,0.5,4.632574745178223,-0.2,-0.0155,-0.2505,0.18947964489386163,10,1,100,0.11110380215274786,-10,-1,-100,6431.00752992474,-0.01836850384862494,0.011399676115699812,0.999766295416494,223.4201985155281,23.96118439976196,614.1397570013602,-32.95635992200394,-102.14408874511719,4381.2578125,True
1599573166.0608037,0.0,10,0.5,0.5,2.1198571922302247,-0.2,-0.0155,-0.2505,0.12240045752312424,10,1,100,0.2042976379396542,-10,-1,-100,6431.00752992474,-0.01836850384862494,0.011399676115699812,0.999766295416494,223.4201985155281,23.96118439976196,614.1397570013602,-32.95635992200394,-102.14408874511719,4381.2578125,True
1599573166.142585,0.0,10,0.5,0.5,6.687779634094239,-0.2,-0.0155,-0.2505,0.17903395223483487,10,1,100,0.09320471334591734,-10,-1,-100,6428.973318155506,-0.0173614141533568,0.011908847250945216,0.9997783557647912,236.4931155977578,25.427097542376046,662.0826944267963,-33.52446720003158,-112.08233642578125,4381.2578125,True
1599573166.217422,0.0,10,0.5,0.5,7.114257951354981,-0.2,-0.0155,-0.2505,0.15448240752537346,10,1,100,0.1163257887717852,-10,-1,-100,6427.65688851499,-0.016659903723305152,0.012143288647308683,0.9997874714901954,243.6416597830893,26.235896360774927,690.3221086194173,-33.90264681331072,-118.34346008300781,4381.2578125,True
1599573166.2982056,0.0,10,0.5,0.5,8.329682259368896,-0.2,-0.0155,-0.2505,0.14787449393881935,10,1,100,0.10949405094854303,-10,-1,-100,6426.28186271654,-0.015964478689608517,0.01229152150089537,0.9997970063564713,248.64215462243385,26.80574781501074,712.8742610573762,-34.28047861809887,-124.30685424804688,4381.2578125,True
1599573166.3741336,0.0,10,0.5,0.5,8.227079351043702,-0.2,-0.0155,-0.2505,0.13844355948641066,10,1,100,0.1416933012378026,-10,-1,-100,6425.55821703549,-0.01562990371290972,0.012336224084215672,0.9998017421895549,250.40234548225027,27.00661696895715,722.1408437806606,-34.4692968789351,-127.17669677734375,4381.2578125,True
1599573166.4529223,0.0,10,0.5,0.5,11.283710263824462,-0.2,-0.0155,-0.2505,0.13583466405776456,10,1,100,0.06346421524673057,-10,-1,-100,6423.461985423812,-0.014619681599779355,0.012349104231388387,0.9998168654981789,253.08838669345926,27.309285666203348,742.6911886470057,-35.03551198801403,-135.33871459960938,4381.2578125,True
1599573166.5307143,0.0,10,0.5,0.5,10.495284233856202,-0.2,-0.0155,-0.2505,0.13098524285345686,10,1,100,0.12857787881436533,-10,-1,-100,6422.804257318727,-0.014298846018585441,0.012313614907292374,0.9998219430930949,253.22096855090354,27.321218733660505,747.3574205455101,-35.22420825229959,-137.91024780273438,4381.2578125,True
1599573166.6174839,0.0,10,0.5,0.5,13.221941379547122,-0.2,-0.0155,-0.2505,0.11037189773200229,10,1,100,0.059389880940136974,-10,-1,-100,6420.648942373344,-0.013383910752171862,0.012091175658481675,0.9998373239703415,251.7580195601831,27.139525899475373,755.833164569921,-35.7903002030837,-145.17747497558594,4381.2578125,True
1599573166.696272,0.0,10,0.5,0.5,12.518915811157228,-0.2,-0.0155,-0.2505,0.1214635570232062,10,1,100,0.11946699246596698,-10,-1,-100,6419.921878078836,-0.013104201905928757,0.0119880509652578,0.9998422708239851,250.74997355266424,27.01849267101161,757.069088719066,-35.97902165996657,-147.45068359375,4381.2578125,True
1599573166.777056,0.0,10,0.5,0.5,13.983452403259278,-0.2,-0.0155,-0.2505,0.10052795246056712,10,1,100,0.08732813144961657,-10,-1,-100,6418.477026789449,-0.012563385338338206,0.011702826645805716,0.9998525917340709,248.12683134189786,26.707046231178463,757.6105014374336,-36.35653024884748,-151.7738800048828,4381.2578125,True
1599573166.8548481,0.0,10,0.5,0.5,15.646824227905274,-0.2,-0.0155,-0.2505,0.07254730389464607,10,1,100,0.06354919927709837,-10,-1,-100,6416.26067894476,-0.011860839183060528,0.011188886686131714,0.9998670558172214,243.05939731326396,26.11436304758085,754.638577505913,-36.92299644143641,-157.69931030273438,4381.2578125,True
1599573166.941618,0.0,10,0.5,0.5,15.860484229278565,-0.2,-0.0155,-0.2505,0.07712095284513944,10,1,100,0.08882972854639504,-10,-1,-100,6414.752841459354,-0.01145789991222494,0.010763438794550351,0.9998764248220463,239.2079647815984,25.670310564081223,750.9278762365913,-37.30078617427194,-161.2772674560547,4381.2578125,True
1599573167.0154195,0.0,10,0.5,0.5,15.796064344787599,-0.2,-0.0155,-0.2505,0.09424528747365357,10,1,100,0.10872475951683014,-10,-1,-100,6414.0394505898,-0.011277822233233935,0.010533385033786872,0.9998809221729383,237.20353974424205,25.441295876997554,748.7376276082417,-37.48972325672419,-162.95452880859375,4381.2578125,True
1599573167.0942085,0.0,10,0.5,0.5,17.510623679351806,-0.2,-0.0155,-0.2505,0.03363813576862605,10,1,100,0.07493084634534178,-10,-1,-100,6411.753283117432,-0.010811790661219556,0.009774734693604842,0.9998937742302267,231.1045931173431,24.75327458049345,741.5239729835115,-38.05668423138347,-167.53958129882812,4381.2578125,True
1599573167.1710029,0.0,10,0.5,0.5,17.63861516494751,-0.2,-0.0155,-0.2505,0.046198289456761917,10,1,100,0.09512869948220665,-10,-1,-100,6410.246914379997,-0.0105764267042947,0.009201523769519951,0.9999017307508211,227.1309424352347,24.3124702717547,736.6971417457577,-38.43476132448464,-170.22445678710938,4381.2578125,True
1599573167.2587712,0.0,10,0.5,0.5,17.587317151641845,-0.2,-0.0155,-0.2505,0.06974682037666995,10,1,100,0.10769725999283433,-10,-1,-100,6409.466631266056,-0.010481313181740188,0.008897350210818937,0.9999054851500778,225.2148186984838,24.10218617190609,734.4198916761175,-38.62382329991371,-171.4553985595703,4381.2578125,True
1599573167.3405507,0.0,10,0.5,0.5,18.797607917785644,-0.2,-0.0155,-0.2505,-0.005649806886579442,10,1,100,0.09136716074226993,-10,-1,-100,6407.111622523167,-0.010250153048429172,0.007938542867807175,0.9999159534178959,219.89102924641256,23.52678405983367,728.6262551099816,-39.19107225713613,-174.7021484375,4381.2578125,True
1599573167.4183419,0.0,10,0.5,0.5,18.462004740905762,-0.2,-0.0155,-0.2505,0.051967459283325294,10,1,100,0.10883729808015469,-10,-1,-100,6406.331828994327,-0.01020250753300916,0.007594670495740603,0.9999191116385865,218.2931749379385,23.357059000568814,727.1693181032074,-39.38016751945425,-175.63595581054688,4381.2578125,True
1599573167.4981284,0.0,10,0.5,0.5,19.01639168624878,-0.2,-0.0155,-0.2505,0.0064929048894070696,10,1,100,0.10795448232268805,-10,-1,-100,6404.762478073011,-0.01015406001503142,0.006872741940428772,0.9999248274162569,219.5170983804285,23.4948332465667,738.9783295455238,-39.758284824147765,-177.281005859375,4381.2578125,True
1599573167.5789142,0.0,10,0.5,0.5,19.257951500701907,-0.2,-0.0155,-0.2505,-0.004712903816891073,10,1,100,0.10918944482978246,-10,-1,-100,6403.135023338138,-0.010123925695926057,0.006119222546474242,0.9999300281739368,222.7258079157456,23.850063988669746,757.6420739507552,-40.13620959359718,-178.62930297851562,4381.2578125,True
1599573167.6527157,0.0,10,0.5,0.5,19.435810850524906,-0.2,-0.0155,-0.2505,-0.018412634951115586,10,1,100,0.11723427464861119,-10,-1,-100,6401.502688037115,-0.010171883367494545,0.005314737909022021,0.9999341410061546,225.42973112851436,24.15532675750247,774.8137327583189,-40.51395290452567,-179.68142700195312,4381.2578125,True
1599573167.7325037,0.0,10,0.5,0.5,-142.51282843933106,-0.2,-0.0155,-0.2505,-0.07939064005049293,10,1,100,0.1253337350405262,-10,-1,-100,6399.094960692688,-0.01029064812322473,0.004034382872959398,0.999938911292104,228.64104024945257,24.52823441337126,798.0127818718378,-41.08025716659489,179.2956085205078,4381.2578125,True
1599573167.8085911,0.0,10,0.5,0.5,-52.97627711181641,-0.2,-0.0155,-0.2505,-0.05200216028145061,10,1,100,0.12752449173977118,-10,-1,-100,6397.401107975282,-0.01041959319096258,0.0031255272525497536,0.9999408298280097,230.2642198037244,24.7236390507752,811.8643073412592,-41.45760685546603,178.98330688476562,4381.2578125,True
1599573167.901856,0.0,10,0.5,0.5,-53.536833666992194,-0.2,-0.0155,-0.2505,-0.06702446371807597,10,1,100,0.13080191265408236,-10,-1,-100,6395.710676074494,-0.010567390923620065,0.0021694628916455166,0.9999418101468851,231.4986296679475,24.878132916297545,824.4642749161654,-41.83482474908603,178.87747192382812,4381.2578125,True
1599573167.9816413,0.0,10,0.5,0.5,-53.97090086517334,-0.2,-0.0155,-0.2505,-0.08257467835323369,10,1,100,0.13488016126542146,-10,-1,-100,6394.086164824897,-0.01073904966771868,0.0011658617685056485,0.999941655087221,232.76278898158372,25.036381251180693,837.2773009037996,-42.2119153695649,178.5902557373047,4381.2578125,True
1599573168.061935,0.0,10,0.5,0.5,-54.32847591629029,-0.2,-0.0155,-0.2505,-0.09892195316255392,10,1,100,0.13881218069343515,-10,-1,-100,6392.329820920597,-0.010930700863550795,0.00011219066920377916,0.9999402518110198,234.38211503645994,25.234007262533805,851.4886583512949,-42.58886464601788,178.02413940429688,4381.2578125,True
1599573168.1437166,0.0,10,0.5,0.5,-54.62437921447754,-0.2,-0.0155,-0.2505,-0.11600883583536845,10,1,100,0.14187957014615127,-10,-1,-100,6390.646234563552,-0.011132406047803037,-0.0009930409366947655,0.9999375397520012,236.38902704082435,25.475303622546935,867.25499655146,-42.96565501358614,177.16375732421875,4381.2578125,True
1599573168.2244997,0.0,10,0.5,0.5,-54.86408337249756,-0.2,-0.0155,-0.2505,-0.1338128604980625,10,1,100,0.14515250374371147,-10,-1,-100,6388.886480090907,-0.01134472629073801,-0.002151532090077478,0.9999333318252042,238.7599542843322,25.758494649491137,884.5298791494296,-43.34226759479087,176.0067901611328,4381.2578125,True
1599573168.3072817,0.0,10,0.5,0.5,-55.04404900131226,-0.2,-0.0155,-0.2505,-0.15239164354517906,10,1,100,0.1481357502574215,-10,-1,-100,6387.192647980293,-0.011563826735569232,-0.0033647437094120776,0.9999274755756038,241.45098227538705,26.07948033118922,903.1869305144878,-43.71868262807648,174.55307006835938,4381.2578125,True
1599573168.3860688,0.0,10,0.5,0.5,-55.16504309463501,-0.2,-0.0155,-0.2505,-0.1718191300008647,10,1,100,0.15082704944087572,-10,-1,-100,6385.373820801149,-0.01178619370824671,-0.00463497007144991,0.999919798128984,244.40530824864956,26.432567710475357,923.0442124632826,-44.09488140578922,172.8027801513672,4381.2578125,True
1599573168.4658556,0.0,10,0.5,0.5,-55.70388337554932,-0.2,-0.0155,-0.2505,-0.11817671005773911,10,1,100,0.14106890439724942,-10,-1,-100,6384.5252006726805,-0.011898123939363887,-0.00529228640780323,0.9999152095809432,246.1234450039866,26.63660539886815,933.9707592818152,-44.28289113189159,171.8164825439453,4381.2578125,True
1599573168.5546181,0.0,10,0.5,0.5,-54.96260438156128,-0.2,-0.0155,-0.2505,-0.28064594089643063,10,1,100,0.1659637177456899,-10,-1,-100,6381.868019011337,-0.01222462587029999,-0.007357196971824511,0.9998982099069129,251.760210914006,27.30643867852244,968.9878145108429,-44.84652079036644,168.41322326660156,4381.2578125,True
1599573168.6314127,0.0,10,0.5,0.5,-54.609510831451416,-0.2,-0.0155,-0.2505,-0.234916030799244,10,1,100,0.15840948480481132,-10,-1,-100,6380.0531158318045,-0.0124510128010093,-0.008808305956555995,0.999883686248758,255.968479728997,27.805586306268253,994.4237322456179,-45.22191298603518,165.77450561523438,4381.2578125,True
1599573168.712707,0.0,10,0.5,0.5,-54.60573489761353,-0.2,-0.0155,-0.2505,-0.17315204967055323,10,1,100,0.14894058183045714,-10,-1,-100,6379.142005881178,-0.012568891420423592,-0.009555156265860967,0.9998753532101872,258.1428186731185,28.063468512184635,1007.5286109571774,-45.40949217450117,164.3443145751953,4381.2578125,True
1599573168.7954853,0.0,10,0.5,0.5,-53.552816932678226,-0.2,-0.0155,-0.2505,-0.2729882086865865,10,1,100,0.15624481589932226,-10,-1,-100,6377.330531726591,-0.012740636383701901,-0.011131053793413512,0.9998568776709926,262.4330921949087,28.573082570569948,1033.7389394054574,-45.78441150045871,161.2618408203125,4381.2578125,True
1599573168.8832502,0.0,10,0.5,0.5,-51.96590568161011,-0.2,-0.0155,-0.2505,-0.38940153480946893,10,1,100,0.1720871355559223,-10,-1,-100,6374.545466222451,-0.01303896963200038,-0.013610811859976648,0.9998223497559195,268.42774083001854,29.28516375174346,1071.8556398771248,-46.34619527540639,156.08489990234375,4381.2578125,True
1599573168.9580524,0.0,10,0.5,0.5,-51.50779651260376,-0.2,-0.0155,-0.2505,-0.3364445213263822,10,1,100,0.16192963737088134,-10,-1,-100,6372.660774268559,-0.013215924175345489,-0.015371234522888546,0.9997945111358804,271.8931826374617,29.69447186912436,1095.4716055941958,-46.72033938692628,152.26486206054688,4381.2578125,True
1599573169.0378442,0.0,10,0.5,0.5,-50.57242958908081,-0.2,-0.0155,-0.2505,-0.3659399330231534,10,1,100,0.162682432272804,-10,-1,-100,6370.780000861385,-0.013381741424651664,-0.017226687783155288,0.9997620568037504,274.71344255903904,30.023234602187955,1116.7029260809709,-47.09421371828849,148.15011596679688,4381.2578125,True
1599573169.1316004,0.0,10,0.5,0.5,-50.58329822235108,-0.2,-0.0155,-0.2505,-0.2896851151873466,10,1,100,0.1532744594767387,-10,-1,-100,6369.797138675232,-0.013445105521207671,-0.018206533170624012,0.9997438428354688,275.8167204633182,30.14921896877113,1126.1389418688027,-47.28106368278922,145.98208618164062,4381.2578125,True
1599573169.2123828,0.0,10,0.5,0.5,-47.953392607116704,-0.2,-0.0155,-0.2505,-0.5322851390638013,10,1,100,0.17000427769537757,-10,-1,-100,6366.901309881476,-0.013653088248441088,-0.021289263931325884,0.9996801290525598,277.55511909195263,30.331741751791615,1148.1862295701437,-47.84135714781485,139.037109375,4381.2578125,True
1599573169.2921686,0.0,10,0.5,0.5,-48.531611481475835,-0.2,-0.0155,-0.2505,-0.3459764918770461,10,1,100,0.15620009655956654,-10,-1,-100,6365.916999635403,-0.013714973722382099,-0.02238289119948447,0.9996553934618402,277.5159081291283,30.31638297996552,1153.0125828328544,-48.02806814363217,136.57504272460938,4381.2578125,True
1599573169.3749478,0.0,10,0.5,0.5,-45.56778330078125,-0.2,-0.0155,-0.2505,-0.6217331491299292,10,1,100,0.1707798249328139,-10,-1,-100,6363.03587908484,-0.013902124547737068,-0.025868439595753318,0.9995686843663821,275.13088226254797,29.997618101554007,1157.9876773298895,-48.58820263749654,128.748291015625,4381.2578125,True
1599573169.4532495,0.0,10,0.5,0.5,-44.9509477973938,-0.2,-0.0155,-0.2505,-0.5524090592922599,10,1,100,0.16701811100864394,-10,-1,-100,6361.031668808195,-0.014036539263587824,-0.02839007255508807,0.9994983638534977,271.3524004050808,29.529777138698286,1151.9339763495636,-48.96175809708733,123.16348266601562,4381.2578125,True
1599573169.534542,0.0,10,0.5,0.5,-43.63569540481568,-0.2,-0.0155,-0.2505,-0.6007877233794061,10,1,100,0.1693310101506667,-10,-1,-100,6359.089990602457,-0.014178319427959102,-0.03110447058564051,0.9994155728063205,265.5578127349199,28.83658715925943,1137.0445109028187,-49.335547260775826,117.28512573242188,4381.2578125,True
1599573169.6136255,0.0,10,0.5,0.5,-42.25485926055909,-0.2,-0.0155,-0.2505,-0.6540151782169595,10,1,100,0.1742962769494069,-10,-1,-100,6357.084387127659,-0.014350886159187415,-0.034036400826193414,0.9993175548769494,257.54192281924537,27.905603495697157,1112.2202760415735,-49.709674347470205,111.11326599121094,4381.2578125,True
1599573169.7046306,0.0,10,0.5,0.5,-40.81078147354126,-0.2,-0.0155,-0.2505,-0.7082699988338597,10,1,100,0.1823314297055683,-10,-1,-100,6355.080294258078,-0.01457934798556418,-0.03717419455318353,0.9992024428871448,247.1230464170386,26.728474270057454,1076.4195208739047,-50.08422749586563,104.64845275878906,4381.2578125,True
1599573170.4227273,0.0,10,0.5,0.5,-40.84475686187744,-0.2,-0.0155,-0.2505,-0.5793810928728168,10,1,100,0.1750818750164445,-10,-1,-100,6354.108297568746,-0.01471973516841142,-0.038833595721080326,0.9991372684671228,240.98194567185783,26.04776285626422,1054.1796594272748,-50.27168382305232,101.30609130859375,4381.2578125,True
1599573170.4885507,0.0,10,0.5,0.5,-38.49252970886231,-0.2,-0.0155,-0.2505,-0.801954118751522,10,1,100,0.20012366711470142,-10,-1,-100,6352.104291571421,-0.01507364543462664,-0.042344203962430924,0.9989893661116213,250.48068392045968,27.05858342267135,1105.143565386174,-50.646300574166965,94.40153503417969,4381.2578125,True
1599573170.581303,0.0,10,0.5,0.5,-40.13881075515747,-0.2,-0.0155,-0.2505,-0.4534050462343897,10,1,100,0.16490183089417684,-10,-1,-100,6352.104291571421,-0.01507364543462664,-0.042344203962430924,0.9989893661116213,250.48068392045968,27.05858342267135,1105.143565386174,-50.646300574166965,94.40153503417969,4381.2578125,True
1599573170.6662984,0.0,10,0.5,0.5,-36.81660959625245,-0.2,-0.0155,-0.2505,-0.8667398129652679,10,1,100,0.2180215505912157,-10,-1,-100,6350.036878251354,-0.015555071486496612,-0.04607984941380999,0.9988166434481609,263.4338357649561,28.46114535239981,1172.203936348731,-51.02025090640684,87.20452880859375,4381.2578125,True
1599573170.7481124,0.0,10,0.5,0.5,-35.16474794769287,-0.2,-0.0155,-0.2505,-0.9405588121900035,10,1,100,0.2423491717845957,-10,-1,-100,6347.970032200334,-0.016212162650647264,-0.0501244356484863,0.9986113892466426,274.65691349643544,29.68615998921792,1232.4434732565746,-51.393500385905696,79.71424865722656,4381.2578125,True
1599573170.8238783,0.0,10,0.5,0.5,-33.44825254135132,-0.2,-0.0155,-0.2505,-0.9918757522559815,10,1,100,0.26572876189049044,-10,-1,-100,6345.901803005836,-0.017019789810903022,-0.05424263027656547,0.9983827241170955,284.5424574748281,30.761998669671573,1287.4122379662385,-51.7660741262363,71.93472290039062,4381.2578125,True
1599573170.9007077,0.0,10,0.5,0.5,-31.672255818939206,-0.2,-0.0155,-0.2505,-1.0783453120233002,10,1,100,0.3085238424364555,-10,-1,-100,6343.834645951283,-0.018140208265859607,-0.05874673576299415,0.9981080872737502,291.84274392777274,31.537096076237933,1331.2613889037502,-52.138069098272446,63.86212158203125,4381.2578125,True
1599573170.988022,0.0,10,0.5,0.5,-29.835547670745854,-0.2,-0.0155,-0.2505,-1.1454459077608854,10,1,100,0.35321344664642385,-10,-1,-100,6341.766624383861,-0.019561309018635967,-0.06342378556353653,0.9977949582024696,295.58553288785413,31.89273104763974,1359.2590833516115,-52.50969588944053,55.50035095214844,4381.2578125,True
1599573171.0648212,0.0,10,0.5,0.5,-27.93727322845459,-0.2,-0.0155,-0.2505,-1.2182713937855085,10,1,100,0.4085705352229069,-10,-1,-100,6339.637205592007,-0.021351571426772797,-0.06830831769609173,0.9974357543877888,295.2333069620995,31.766807545774057,1368.5789158524212,-52.88123162001288,46.84967041015625,4381.2578125,True
1599573171.1446815,0.0,10,0.5,0.5,-23.91641412124634,-0.2,-0.0155,-0.2505,-1.57058980834281,10,1,100,0.6151771587292683,-10,-1,-100,6336.4123262231005,-0.024850960479439032,-0.0759205398426902,0.9968041439486715,285.9990017765436,30.59147792925792,1341.8836406166577,-53.439053936128694,33.33525085449219,4381.2578125,True
1599573171.2204456,0.0,10,0.5,0.5,-25.09747024154663,-0.2,-0.0155,-0.2505,-1.0978809852232094,10,1,100,0.42052188033103566,-10,-1,-100,6335.377313153236,-0.026253291985066336,-0.07850816490642926,0.9965677260994217,280.4172188089301,29.93079343341214,1321.0492231191695,-53.625285307063976,28.687591552734375,4381.2578125,True
1599573171.313132,0.0,10,0.5,0.5,-21.865770705413816,-0.2,-0.0155,-0.2505,-1.4126295743553923,10,1,100,0.6322945131000861,-10,-1,-100,6333.184344012407,-0.029442859509158294,-0.08368583434813429,0.9960571264507777,265.33673058008304,28.21615909636507,1260.2866548996337,-53.99836628949733,19.179534912109375,4381.2578125,True
1599573171.390923,0.0,10,0.5,0.5,-17.467839721679688,-0.2,-0.0155,-0.2505,-1.730832971657631,10,1,100,0.9489738093463084,-10,-1,-100,6329.958117171773,-0.03520830612050343,-0.09124798142480857,0.995205597384793,290.27200343109126,30.776996572455662,1395.8779573527327,-54.55739972653385,4.389068603515625,4381.2578125,True
1599573171.4756968,0.0,10,0.5,0.5,-16.433469843292237,-0.2,-0.0155,-0.2505,-1.5082928627098573,10,1,100,0.8667279256758886,-10,-1,-100,6327.766428513103,-0.03968362713318985,-0.09605511070638509,0.9945846497130036,307.3453261771314,32.558735030602726,1490.0845458241472,-54.92881046474417,-5.821502685546875,4381.2578125,True
1599573171.560472,0.0,10,0.5,0.5,-14.122538085174561,-0.2,-0.0155,-0.2505,-1.517372895529708,10,1,100,0.962328133114999,-10,-1,-100,6325.510856685112,-0.04459925852539969,-0.10046234193227822,0.9939407547698538,321.2274728465854,33.99002344555763,1569.9140149510495,-55.29922676586441,-16.3087158203125,4381.2578125,True
1599573171.6372645,0.0,10,0.5,0.5,-14.191960195922853,-0.2,-0.0155,-0.2505,-1.3059364786606373,10,1,100,0.7592125375606722,-10,-1,-100,6324.413604453788,-0.04719570247157408,-0.10250100479674971,0.9936126557587074,326.07277542205634,34.46738010989186,1599.8992722602447,-55.48412973279262,-21.6556396484375,4381.2578125,True
1599573171.718048,0.0,10,0.5,0.5,-10.475756065368653,-0.2,-0.0155,-0.2505,-1.520930989155535,10,1,100,1.1028042015884276,-10,-1,-100,6322.222044233698,-0.052652233993202506,-0.10626495897393179,0.992942848682538,330.5767837696876,34.82360663336347,1634.7279464788617,-55.85359787239338,-32.55584716796875,4381.2578125,True
1599573171.8018277,0.0,10,0.5,0.5,-8.023440568542481,-0.2,-0.0155,-0.2505,-1.498860340796735,10,1,100,1.1851694688610916,-10,-1,-100,6319.966020334978,-0.05833011778286407,-0.10944289485609827,0.992280126841687,327.4763943117154,34.31042711748958,1632.066053576639,-56.2230813773564,-43.72869873046875,4381.2578125,True
1599573171.8975716,0.0,10,0.5,0.5,-5.511991620635987,-0.2,-0.0155,-0.2505,-1.4798434994531315,10,1,100,1.2685040670309788,-10,-1,-100,6317.709969471674,-0.06421417320340608,-0.11211721154649636,0.9916180065099873,316.17416024434914,32.90371532175616,1588.2119742248312,-56.59318151169445,-55.17474365234375,4381.2578125,True
1599573171.974409,0.0,10,0.5,0.5,2.459589458465576,-0.2,-0.0155,-0.2505,-1.6068475880911497,10,1,100,1.9611021581366206,-10,-1,-100,6313.1346639205,-0.07582069477597135,-0.11566316489461259,0.9903904555932729,307.72046439619226,31.689359929511824,1571.1161890149049,-57.33598014051796,-78.88323974609375,4381.2578125,True
1599573172.054151,0.0,10,0.5,0.5,-0.5583460266113283,-0.2,-0.0155,-0.2505,-1.317492160742999,10,1,100,1.115897006508715,-10,-1,-100,6311.9767344300635,-0.07864205870505288,-0.11622012530332423,0.9901052010150794,321.48766160768537,33.06791053430412,1648.1721948888205,-57.52123371892796,-84.98114013671875,4381.2578125,True
1599573172.1329424,0.0,10,0.5,0.5,3.6370427169799804,-0.2,-0.0155,-0.2505,-1.3490971539810428,10,1,100,1.437798700104656,-10,-1,-100,6309.657851736061,-0.08408568788534465,-0.11697948746759258,0.9895682879946527,343.64703378837305,35.28960391032005,1776.149493084559,-57.89065992875454,-97.29351806640625,4381.2578125,True
1599573172.2167177,0.0,10,0.5,0.5,3.4770026725769045,-0.2,-0.0155,-0.2505,-1.301090649004343,10,1,100,1.1851164485805494,-10,-1,-100,6308.498848953401,-0.08668765500959422,-0.11720312697793976,0.9893172784782093,352.99375187455104,36.21514025983566,1831.7492436954274,-58.074854024747935,-103.3838119506836,4381.2578125,True
