Timestamp,Input Throttle,horizon,dT,dt,Input Roll,Roll P,Roll I,Roll D,Input Pitch,Pitch P,Pitch I,Pitch D,Input Yaw,Yaw P,Yaw I,Yaw D,Altitude,Direction X,Direction Y,Direction Z,Drag X,Drag Y,Drag Z,Vertical Velocity,Roll,Mass,Has Fuel
1599571658.8276277,0.0,10,0.5,0.5,-8.12204857635498,-0.15025,-0.03,-0.12575,-0.06857758342338183,10,1,100,0.6815937012780495,-10,-1,-100,6483.617967232014,-0.06725834227607602,-0.007001875724348747,0.9977110248617156,205.07316052396308,21.498771456171248,-156.7652026915199,9.590824739377247,-35.9444580078125,4381.2578125,True
1599571658.9179125,0.0,10,0.5,0.5,-8.284466644287109,-0.15025,-0.03,-0.12575,-0.06905816912010113,10,1,100,0.6894864614264083,-10,-1,-100,6483.776674953639,-0.06735086231642184,-0.006986777763477645,0.9977048893744673,204.84256058172897,21.477769082820675,-153.51311663957992,9.400810845975748,-35.94281005859375,4381.2578125,True
1599571659.0132346,0.0,10,0.5,0.5,-8.436037185668944,-0.15025,-0.03,-0.12575,-0.05058033775138465,10,1,100,0.7101911721725849,-10,-1,-100,6484.316760188667,-0.06756196803050472,-0.00679872044318515,0.9976919153106236,204.1493419025344,21.41434333226643,-143.78927431860006,8.830798701469355,-35.98046875,4381.2578125,True
1599571659.1039913,0.0,10,0.5,0.5,-8.574294738769531,-0.15025,-0.03,-0.12575,-0.053002969576596504,10,1,100,0.6982439105817698,-10,-1,-100,6484.538935897057,-0.06758385087609038,-0.00664360251365464,0.9976914781867183,203.94218574721725,21.39558233679083,-140.57568333075193,8.640801787026408,-36.0838623046875,4381.2578125,True
1599571659.1997356,0.0,10,0.5,0.5,-8.546475311279297,-0.15025,-0.03,-0.12575,0.001382962786047423,10,1,100,0.6991229238965639,-10,-1,-100,6485.016950659454,-0.06755029553777903,-0.006002129008499545,0.9976978159844412,203.44557584968732,21.351566504329824,-131.04471573527206,8.07081717308964,-36.81781005859375,4381.2578125,True
1599571659.3024616,0.0,10,0.5,0.5,-8.690621231079101,-0.15025,-0.03,-0.12575,-0.02845325899426327,10,1,100,0.7012811532591603,-10,-1,-100,6485.175625077798,-0.0674780015921216,-0.005684753175444556,0.9977045669347554,203.31647210927386,21.34032084513841,-127.89796368279596,7.880821229619446,-37.2080078125,4381.2578125,True
1599571659.4091756,0.0,10,0.5,0.5,-8.62192138671875,-0.15025,-0.03,-0.12575,0.026755694357957258,10,1,100,0.688892969515073,-10,-1,-100,6485.493929906166,-0.06723831633331212,-0.004889162157487612,0.9977249645619074,203.08511320392824,21.31986362442578,-121.6282812551463,7.500821979394116,-38.208526611328125,4381.2578125,True
1599571659.5059187,0.0,10,0.5,0.5,-8.336842735290528,-0.15025,-0.03,-0.12575,0.1208136841794954,10,1,100,0.6479044579776894,-10,-1,-100,6485.9093251548475,-0.0665866720692061,-0.003306380268096873,0.99777516653416,202.70833403361044,21.283730681936348,-112.22374109797168,6.930789164335609,-40.260223388671875,4381.2578125,True
1599571659.5827115,0.0,10,0.5,0.5,-8.2651480178833,-0.15025,-0.03,-0.12575,0.1060370807020259,10,1,100,0.6502664927225573,-10,-1,-100,6486.1650644433685,-0.06595520789763651,-0.0019988146000203813,0.9978205827158378,202.33659198099144,21.245205330940554,-105.90350367855186,6.550731816640604,-41.99542236328125,4381.2578125,True
1599571659.6759734,0.0,10,0.5,0.5,-8.357478012084961,-0.15025,-0.03,-0.12575,0.054594741084773545,10,1,100,0.6780095186127368,-10,-1,-100,6486.261186265969,-0.06557339960621339,-0.001275959066834937,0.9978469327469738,202.08335189039485,21.218288003559238,-102.71566025885944,6.360688741902649,-42.9732666015625,4381.2578125,True
1599571659.751771,0.0,10,0.5,0.5,-7.6900052795410145,-0.15025,-0.03,-0.12575,0.24649132316786543,10,1,100,0.5656461031642632,-10,-1,-100,6486.675002945121,-0.06414520338301878,0.0011268566723316065,0.9979399396140989,200.8946875349058,21.090123872762103,-92.99188590005222,5.790482368331261,-46.34832763671875,4381.2578125,True
1599571659.8345494,0.0,10,0.5,0.5,-7.732084182739257,-0.15025,-0.03,-0.12575,0.10367392150310671,10,1,100,0.645176249166225,-10,-1,-100,6486.77207771258,-0.06357267463367157,0.0020055048451700394,0.9979751965806752,200.30616017691267,21.026444851857377,-89.6859345974846,5.600380854095185,-47.620513916015625,4381.2578125,True
1599571659.9183254,0.0,10,0.5,0.5,-6.681678520202636,-0.15025,-0.03,-0.12575,0.3250531546895951,10,1,100,0.47810435285605773,-10,-1,-100,6487.061802873621,-0.06153679324752054,0.00480863959252883,0.9980932321492222,197.73783067340153,20.749031622048253,-79.54425864577999,5.029943634548036,-51.8790283203125,4381.2578125,True
1599571660.0040967,0.0,10,0.5,0.5,-6.736960754394531,-0.15025,-0.03,-0.12575,0.15187659324339425,10,1,100,0.5942761233252475,-10,-1,-100,6487.157880268525,-0.06074757642326949,0.005772059386038891,0.9981364712749169,196.5553342253377,20.621673020926586,-76.08661122689382,4.839744997243252,-53.4461669921875,4381.2578125,True
1599571660.0928595,0.0,10,0.5,0.5,-5.4624046630859375,-0.15025,-0.03,-0.12575,0.392601084406582,10,1,100,0.37647430881548866,-10,-1,-100,6487.447550966172,-0.05805630488245512,0.00882501306171366,0.9982743032893596,191.7473597848799,20.106184003124984,-65.49021520013326,4.268940275218876,-58.58941650390625,4381.2578125,True
1599571660.1736448,0.0,10,0.5,0.5,-4.995545364379883,-0.15025,-0.03,-0.12575,0.31610739136808763,10,1,100,0.4162207819334822,-10,-1,-100,6487.5786362327635,-0.05597965686520138,0.01089154906464058,0.998372501712776,187.28996572642694,19.631017218674778,-58.27269855908205,3.8881881096061437,-62.38763427734375,4381.2578125,True
1599571660.251435,0.0,10,0.5,0.5,-4.842970748901367,-0.15025,-0.03,-0.12575,0.2275933818202698,10,1,100,0.4986739427431154,-10,-1,-100,6487.675181673607,-0.05485182226117366,0.011950475978466631,0.998422988376428,184.62755469294183,19.348173287868388,-54.635081289496405,3.697735310614837,-64.39727783203125,4381.2578125,True
1599571660.3372073,0.0,10,0.5,0.5,-3.229956527709961,-0.15025,-0.03,-0.12575,0.44854101910720784,10,1,100,0.20835369790918823,-10,-1,-100,6487.839807552868,-0.051198503571814706,0.01490644293170252,0.9985772434775042,174.7534178993608,18.304008628715724,-43.727359244127165,3.126006156278835,-70.87249755859375,4381.2578125,True
1599571660.4140003,0.0,10,0.5,0.5,-2.6588812713623047,-0.15025,-0.03,-0.12575,0.36890170590870686,10,1,100,0.2738636331866933,-10,-1,-100,6487.969411725178,-0.04848683887355424,0.01685313474811259,0.9986816301030134,166.39492235601693,17.42454336349116,-36.558914979362484,2.7444645561461645,-75.55908203125,4381.2578125,True
1599571660.4983256,0.0,10,0.5,0.5,-1.7719418640136715,-0.15025,-0.03,-0.12575,0.3739566784909498,10,1,100,0.2284882830435287,-10,-1,-100,6488.100482762442,-0.04562506630021967,0.018651670741643835,0.9987844955262601,156.61487377980083,16.39797142772417,-29.62626656641923,2.3626327244695116,-80.5430908203125,4381.2578125,True
1599571660.572786,0.0,10,0.5,0.5,-0.8283296508789062,-0.15025,-0.03,-0.12575,0.37941114223912675,10,1,100,0.1824532199599353,-10,-1,-100,6488.1671085899,-0.04262308914488829,0.020318173470011594,0.9988845999907043,145.352635260305,15.217737028408342,-23.052455455424983,1.98061183242171,-85.82440185546875,4381.2578125,True
1599571660.659101,0.0,10,0.5,0.5,-0.6144451141357423,-0.15025,-0.03,-0.12575,0.30133757819626006,10,1,100,0.3086942465017816,-10,-1,-100,6488.200669551385,-0.04106123025791122,0.021105969625594696,0.998933688197505,148.01007944009163,15.495937596679411,-21.210793250320464,1.7895642418398112,-88.57650756835938,4381.2578125,True
1599571660.737894,0.0,10,0.5,0.5,1.5623718490600587,-0.15025,-0.03,-0.12575,0.4541327669966675,10,1,100,-0.06507990271525277,-10,-1,-100,6488.3013695112895,-0.036263876680846074,0.02319383106087356,0.9990730591146957,160.3029158552056,16.781969342369557,-15.617994938687147,1.2164431365460446,-97.27225494384766,4381.2578125,True
1599571660.8127654,0.0,10,0.5,0.5,2.293272386550903,-0.15025,-0.03,-0.12575,0.37712015948348593,10,1,100,0.04680440414615866,-10,-1,-100,6488.306998348911,-0.03294275159731484,0.02437505848694511,0.9991599629893883,168.80896683567954,17.67034893977561,-11.28374501027068,0.8344750519779258,-103.38896179199219,4381.2578125,True
1599571660.8885264,0.0,10,0.5,0.5,2.5388401374816896,-0.15025,-0.03,-0.12575,0.3184553712002283,10,1,100,0.1894633767474766,-10,-1,-100,6488.341068350594,-0.031245723840322027,0.024898673527070626,0.9992015616472418,172.67779823179637,18.07441034722637,-8.901696441902198,0.6435239467993981,-106.52271270751953,4381.2578125,True
1599571660.9703424,0.0,10,0.5,0.5,3.989906847000122,-0.15025,-0.03,-0.12575,0.36702076869417954,10,1,100,-0.00031834091802041,-10,-1,-100,6488.34526014165,-0.02800205624704416,0.02580157839488851,0.999274818755216,179.92370776851786,18.831972124410335,-3.771433275017966,0.261631607965894,-112.68697357177734,4381.2578125,True
1599571661.046459,0.0,10,0.5,0.5,4.996167829513549,-0.15025,-0.03,-0.12575,0.3603716359016782,10,1,100,-0.044694616770165174,-10,-1,-100,6488.350450179307,-0.024675281018697655,0.026548399768127257,0.9993429406246886,185.41807246587317,19.406307142165026,1.787903229018295,-0.12033887012422761,-118.59465026855469,4381.2578125,True
1599571661.1265757,0.0,10,0.5,0.5,6.711812595367431,-0.15025,-0.03,-0.12575,0.3744033151109633,10,1,100,-0.2572657821839688,-10,-1,-100,6488.327754650498,-0.019745907981204867,0.027341618169529017,0.9994311056965706,190.27717093543654,19.913871213364402,10.576451071454654,-0.6935488230040696,-126.91328430175781,4381.2578125,True
1599571661.2013748,0.0,10,0.5,0.5,7.262866664886475,-0.15025,-0.03,-0.12575,0.33617756615209127,10,1,100,-0.11644933329524601,-10,-1,-100,6488.268543035025,-0.016573402569373095,0.027703914293688302,0.9994787718906698,191.85111478307633,20.077858411320086,16.544466288561,-1.0758461383516864,-132.0908203125,4381.2578125,True
1599571661.283153,0.0,10,0.5,0.5,8.128777656555176,-0.15025,-0.03,-0.12575,0.330450790565732,10,1,100,-0.13890226438450837,-10,-1,-100,6488.211308300961,-0.013514201399900172,0.02797134846527932,0.9995173685462183,191.9604099665884,20.088375357597332,22.44126997774331,-1.4582572380778136,-136.97267150878906,4381.2578125,True
1599571661.3609972,0.0,10,0.5,0.5,8.94994289779663,-0.15025,-0.03,-0.12575,0.3243439184938979,10,1,100,-0.1603889026776762,-10,-1,-100,6488.153609784669,-0.010566968047623552,0.0281504809863239,0.9995478425800934,190.83213397502593,19.969106176251607,28.16531704222813,-1.840759479579343,-141.5587921142578,4381.2578125,True
1599571661.4357557,0.0,10,0.5,0.5,9.142725826263426,-0.15025,-0.03,-0.12575,0.31326924350064916,10,1,100,-0.026393949074331235,-10,-1,-100,6488.12428082258,-0.009134942870218184,0.02820552958959279,0.9995604038372712,189.8933660171939,19.87015906670098,30.941379942316598,-2.032035124439661,-143.74098205566406,4381.2578125,True
1599571661.5135448,0.0,10,0.5,0.5,10.717920131683348,-0.15025,-0.03,-0.12575,0.3215444677146112,10,1,100,-0.33326886029635683,-10,-1,-100,6487.974798182375,-0.00507235377727461,0.028324348939996895,0.999585915509159,185.8693643518001,19.44622474356769,38.84765450197792,-2.6059112914377227,-149.84283447265625,4381.2578125,True
1599571661.589342,0.0,10,0.5,0.5,11.128920852661132,-0.15025,-0.03,-0.12575,0.311307994762383,10,1,100,-0.2109573579827503,-10,-1,-100,6487.852704595774,-0.0025193696437255764,0.028334643579090258,0.9995953184913603,182.46259122344438,19.087165724321583,43.74124157010938,-2.988503068638946,-153.5406494140625,4381.2578125,True
1599571661.66913,0.0,10,0.5,0.5,11.294048660278321,-0.15025,-0.03,-0.12575,0.3087814911210497,10,1,100,-0.094173345406019,-10,-1,-100,6487.761389579042,-0.001287805438427275,0.028317434504170153,0.9995981514890145,180.63731169553034,18.89479344488487,46.07895927329851,-3.179790451882357,-155.27859497070312,4381.2578125,True
1599571661.752939,0.0,10,0.5,0.5,12.537343261718751,-0.15025,-0.03,-0.12575,0.31932871701787086,10,1,100,-0.35092043092689135,-10,-1,-100,6487.549481075723,0.002138628327122843,0.028394565797871068,0.9995945052380135,174.9438762698987,18.294543591229722,52.691856634062134,-3.753605956477517,-160.045166015625,4381.2578125,True
1599571661.8297048,0.0,10,0.5,0.5,12.854881759643554,-0.15025,-0.03,-0.12575,0.3127683749561699,10,1,100,-0.24612575674575762,-10,-1,-100,6487.426943591796,0.0042734886354543105,0.028402688421217362,0.9995874271845009,171.0040667725016,17.87878575595961,56.76275015775076,-4.136133650672758,-162.85263061523438,4381.2578125,True
1599571661.907532,0.0,10,0.5,0.5,13.64274813079834,-0.15025,-0.03,-0.12575,0.32875612231410967,10,1,100,-0.3559148168316495,-10,-1,-100,6487.15111772262,0.007186036035032705,0.028553730065101545,0.9995664287007006,165.16822128795624,17.262384463476035,62.446705407052576,-4.709987399001778,-166.50527954101562,4381.2578125,True
1599571661.9803362,0.0,10,0.5,0.5,13.597289695739745,-0.15025,-0.03,-0.12575,0.3197557067078925,10,1,100,-0.1672425085423626,-10,-1,-100,6487.0588552983245,0.008094120010186603,0.028608116770489217,0.9995579327263161,163.33943531785837,17.069125696272152,64.26885975306476,-4.901306892951538,-167.57443237304688,4381.2578125,True
1599571662.0770419,0.0,10,0.5,0.5,14.097702156066894,-0.15025,-0.03,-0.12575,0.33525925399188816,10,1,100,-0.26570658738938047,-10,-1,-100,6486.812815991463,0.009792353865681619,0.028797678566626333,0.9995372947093784,159.90003554924843,16.705741797804347,67.83927656377757,-5.2840212358204885,-169.48895263671875,4381.2578125,True
1599571662.8206785,0.0,10,0.5,0.5,14.40079750061035,-0.15025,-0.03,-0.12575,0.3433872479097436,10,1,100,-0.2698149978978943,-10,-1,-100,6486.628309578402,0.011352364234149412,0.029043147116821173,0.9995136914679288,156.83864241399186,16.382570344838964,71.37340593782585,-5.666851572777295,-171.10597229003906,4381.2578125,True
1599571662.8934948,0.0,10,0.5,0.5,14.65031555557251,-0.15025,-0.03,-0.12575,0.3510582342637675,10,1,100,-0.27269187609068596,-10,-1,-100,6486.381308941869,0.012776782250616627,0.029335225069188973,0.9994879681144043,154.26713291632825,16.111501036850502,74.96061946273659,-6.049803036692349,-172.42559814453125,4381.2578125,True
1599571662.9688032,0.0,10,0.5,0.5,14.852288757324219,-0.15025,-0.03,-0.12575,0.3661940772988877,10,1,100,-0.2725609502281183,-10,-1,-100,6486.134313975461,0.014050597734908176,0.029737322057588434,0.9994589898440731,152.2580965096704,15.900161157103467,78.68362514326823,-6.432865292181743,-173.44683837890625,4381.2578125,True
1599571663.0575688,0.0,10,0.5,0.5,14.904829650878906,-0.15025,-0.03,-0.12575,0.35037973297049274,10,1,100,-0.21160303206358108,-10,-1,-100,6485.980057085864,0.014637064417757261,0.02995781348667745,0.9994439883036608,151.47770663442,15.818240939899704,80.61931490933264,-6.624434297341008,-173.84593200683594,4381.2578125,True
1599571663.1363509,0.0,10,0.5,0.5,15.074199672698976,-0.15025,-0.03,-0.12575,0.3834399245019686,10,1,100,-0.27159504211467445,-10,-1,-100,6485.73306963651,0.01570000109893775,0.030457331827128533,0.9994127580251642,150.38048976711303,15.703383328699593,84.68232518194245,-7.007645386966883,-174.42071533203125,4381.2578125,True
1599571663.2061288,0.0,10,0.5,0.5,15.135750717163084,-0.15025,-0.03,-0.12575,0.39790356697871143,10,1,100,-0.2673715250407986,-10,-1,-100,6485.423586640856,0.01661246810248717,0.03104098170703358,0.9993800495097985,150.1367613144593,15.678211489180107,89.18849642746493,-7.390948231654076,-174.69754028320312,4381.2578125,True
1599571663.2809625,0.0,10,0.5,0.5,15.139186408996583,-0.15025,-0.03,-0.12575,0.41050559428886885,10,1,100,-0.26271494666694023,-10,-1,-100,6485.112641002284,0.01738649299342851,0.03168373055894036,0.9993467121471196,150.54881611100035,15.721779267910222,94.09355767185147,-7.7743335111478,-174.67684936523438,4381.2578125,True
1599571663.359754,0.0,10,0.5,0.5,15.014405113220215,-0.15025,-0.03,-0.12575,0.4730607346411053,10,1,100,-0.2802469472952741,-10,-1,-100,6484.584947146475,0.018237612896034604,0.032833748025568925,0.9992944183104636,151.7759038003553,15.850438836501747,101.91591533627579,-8.349550267801234,-174.0867919921875,4381.2578125,True
1599571663.4285715,0.0,10,0.5,0.5,14.900078979492186,-0.15025,-0.03,-0.12575,0.4529724969743849,10,1,100,-0.23656840604819024,-10,-1,-100,6484.274006336695,0.018604233726283927,0.03369270718193337,0.9992590674946165,153.6146028447805,16.04202908225168,107.91672528566833,-8.733103107376925,-173.32131958007812,4381.2578125,True
1599571663.5034091,0.0,10,0.5,0.5,14.720117225646971,-0.15025,-0.03,-0.12575,0.4710102234149476,10,1,100,-0.2211053168827039,-10,-1,-100,6483.9015428721905,0.018787397203446073,0.03463293611862304,0.9992234952412417,156.02078698918683,16.291780501617026,114.45249193363276,-9.116700977279445,-172.258056640625,4381.2578125,True
1599571663.5772176,0.0,10,0.5,0.5,14.486567535400392,-0.15025,-0.03,-0.12575,0.4884083968455273,10,1,100,-0.20377199074646946,-10,-1,-100,6483.529079064727,0.018788156451138835,0.03564055013084437,0.9991880485491899,158.95722643311873,16.595382395376152,121.54785298001013,-9.500329006014805,-170.89732360839844,4381.2578125,True
1599571663.661986,0.0,10,0.5,0.5,14.199444454193115,-0.15025,-0.03,-0.12575,0.505431471941117,10,1,100,-0.18377877932298958,-10,-1,-100,6483.155638071476,0.018600330397721538,0.03670532045826547,0.9991530148876857,162.416667836085,16.951677128518295,129.24671827749177,-9.883969976292631,-169.23931884765625,4381.2578125,True
1599571663.7397442,0.0,10,0.5,0.5,13.858794998168944,-0.15025,-0.03,-0.12575,0.5219830716001934,10,1,100,-0.16016944839311942,-10,-1,-100,6482.71871826984,0.018209655024209626,0.03781706248428618,0.9991187508244248,166.4111110667817,17.361573863208505,137.60803746798948,-10.267603262222533,-167.2843017578125,4381.2578125,True
1599571663.813461,0.0,10,0.5,0.5,13.785648712158203,-0.15025,-0.03,-0.12575,0.474226837257112,10,1,100,-0.1698562635905965,-10,-1,-100,6482.501478988677,0.01793877658891286,0.03838624424988909,0.9991019450220686,168.55768669869425,17.581194210291937,142.00959801274732,-10.459410222273952,-166.19552612304688,4381.2578125,True
1599571663.8904881,0.0,10,0.5,0.5,12.875451240539551,-0.15025,-0.03,-0.12575,0.6076074384129869,10,1,100,-0.07305107845111199,-10,-1,-100,6481.8473115250235,0.01680947477176489,0.04010857092843313,0.9990539245185798,175.45642655311056,18.284138467667375,156.0309021601644,-11.03475850277081,-162.48480224609375,4381.2578125,True
1599571663.9713051,0.0,10,0.5,0.5,12.521362548828124,-0.15025,-0.03,-0.12575,0.5632182023789856,10,1,100,-0.07522036501473547,-10,-1,-100,6481.410381092806,0.015801548930688015,0.04126201009125379,0.9990234019154007,180.30205012079784,18.775419452755006,165.96969378166747,-11.418236107408445,-159.6409454345703,4381.2578125,True
1599571664.046113,0.0,10,0.5,0.5,11.967454303741455,-0.15025,-0.03,-0.12575,0.5710649353242644,10,1,100,-0.0403506770999149,-10,-1,-100,6480.973446449265,0.014568992747912304,0.042372633240244,0.9989956478396687,185.19976349043003,19.270091104430428,176.26505833104747,-11.801618232500095,-156.50198364257812,4381.2578125,True
1599571664.123904,0.0,10,0.5,0.5,11.843993019104003,-0.15025,-0.03,-0.12575,0.5192467598488075,10,1,100,-0.08604509727693435,-10,-1,-100,6480.693697292707,0.01386645231085776,0.04290149914165703,0.9989830743669829,187.62463336967676,19.514368725341868,181.50587122778168,-11.993266338295175,-154.82205200195312,4381.2578125,True
1599571664.2007332,0.0,10,0.5,0.5,10.484482856750487,-0.15025,-0.03,-0.12575,0.6323526166319864,10,1,100,0.10758180104709311,-10,-1,-100,6479.975530053256,0.011471508438394448,0.04440136888541042,0.9989479080188564,194.54503147764163,20.20953667141092,197.32974384104767,-12.568007878309583,-149.3402862548828,4381.2578125,True
1599571664.282483,0.0,10,0.5,0.5,9.991811557769775,-0.15025,-0.03,-0.12575,0.5808258626785517,10,1,100,0.07273530195736053,-10,-1,-100,6479.4760717654135,0.009617557387232542,0.04528672665133367,0.9989277326108785,198.6496944879417,20.62092420243898,207.71221062323303,-12.950980580127254,-145.31832885742188,4381.2578125,True
1599571664.3585622,0.0,10,0.5,0.5,8.60021817779541,-0.15025,-0.03,-0.12575,0.6060059599989202,10,1,100,0.23208942181840847,-10,-1,-100,6478.632874853793,0.00649180974181784,0.04631082205914659,0.9989059836473511,203.54132775136006,21.111885448197278,222.39212605799983,-13.525148442471872,-138.73667907714844,4381.2578125,True
1599571664.4349551,0.0,10,0.5,0.5,9.331378704071044,-0.15025,-0.03,-0.12575,0.5046634464104579,10,1,100,-0.07925570805212959,-10,-1,-100,6478.632874853793,0.00649180974181784,0.04631082205914659,0.9989059836473511,203.54132775136006,21.111885448197278,222.39212605799983,-13.525148442471872,-138.73667907714844,4381.2578125,True
1599571664.5157397,0.0,10,0.5,0.5,7.927834774017334,-0.15025,-0.03,-0.12575,0.5605835699359221,10,1,100,0.17321776412181386,-10,-1,-100,6478.070891947718,0.004207604104469176,0.046810454544286374,0.9988949281145927,205.6419953646358,21.324977562185243,231.13496457678087,-13.907747095302607,-133.98292541503906,4381.2578125,True
1599571664.5885446,0.0,10,0.5,0.5,6.3067383918762205,-0.15025,-0.03,-0.12575,0.5496024934530428,10,1,100,0.34870946379533724,-10,-1,-100,6477.226184304105,0.0005484035743199414,0.04715666211542364,0.9988873552466522,206.63922579972558,21.434216541773473,241.98404445354038,-14.48144744250611,-126.30547332763672,4381.2578125,True
1599571664.6633446,0.0,10,0.5,0.5,5.63917619895935,-0.15025,-0.03,-0.12575,0.5136137628931776,10,1,100,0.26857812121851615,-10,-1,-100,6476.663687681314,-0.002033866181467723,0.047136252886035526,0.9988863984719282,206.09270273331362,21.390933975382247,247.82126618880017,-14.863848410644687,-120.8223876953125,4381.2578125,True
1599571664.7371469,0.0,10,0.5,0.5,5.41690209197998,-0.15025,-0.03,-0.12575,0.5046343550680694,10,1,100,0.15568894680831935,-10,-1,-100,6476.32042444055,-0.003337988609406326,0.04702967925912935,0.9988879151840945,205.18735927774205,21.30640660552739,249.96043029166532,-15.055052079867385,-117.97171783447266,4381.2578125,True
1599571664.819926,0.0,10,0.5,0.5,3.1692951908111566,-0.15025,-0.03,-0.12575,0.44341185992351095,10,1,100,0.457016142574451,-10,-1,-100,6475.412195817335,-0.00724549301673344,0.04637098267047513,0.9988980102078084,199.64988366140557,20.7673965455079,252.6536129744916,-15.628786930988827,-108.98233032226562,4381.2578125,True
1599571664.9027383,0.0,10,0.5,0.5,3.289878059387207,-0.15025,-0.03,-0.12575,0.473178562161334,10,1,100,0.2124659182600511,-10,-1,-100,6475.1314204669325,-0.008554754542568412,0.04603913911074221,0.9989030052235593,196.8706947539184,20.491912629669113,252.2454954254169,-15.820101410535468,-105.84003448486328,4381.2578125,True
1599571664.9775047,0.0,10,0.5,0.5,0.815450006484985,-0.15025,-0.03,-0.12575,0.35938974810731,10,1,100,0.5066193051191324,-10,-1,-100,6474.161637885845,-0.012398731076725102,0.04470016698324925,0.9989235038476953,186.67744855044737,19.46882187500644,248.04938372711743,-16.394334726105463,-95.97544860839844,4381.2578125,True
1599571665.0523455,0.0,10,0.5,0.5,-0.019979900360107328,-0.15025,-0.03,-0.12575,0.36570741027149295,10,1,100,0.39411083872601377,-10,-1,-100,6473.472624290502,-0.014848750741007269,0.04354008125238656,0.9989413275693256,176.90717088510377,18.46734085980763,240.68331337002266,-16.777439840885627,-89.03411865234375,4381.2578125,True
1599571665.129195,0.0,10,0.5,0.5,-1.3101714706420897,-0.15025,-0.03,-0.12575,0.33397656365420225,10,1,100,0.4049991929584351,-10,-1,-100,6472.786044694018,-0.017152784285078305,0.04219858347817142,0.9989619920415918,170.8923614078281,17.845022596663615,237.9350481386347,-17.160705226360047,-81.8087158203125,4381.2578125,True
1599571665.2069862,0.0,10,0.5,0.5,-1.5954763107299805,-0.15025,-0.03,-0.12575,0.3886362635887431,10,1,100,0.29452726774081706,-10,-1,-100,6472.441287927097,-0.018221574919503724,0.041479684808818,0.9989731777958876,178.3600775074188,18.622614062711428,251.17073205423836,-17.352275483318675,-78.10177612304688,4381.2578125,True
1599571665.281787,0.0,10,0.5,0.5,-3.3723303985595705,-0.15025,-0.03,-0.12575,0.28797351409748945,10,1,100,0.41760215862974026,-10,-1,-100,6471.752258094493,-0.02028959870009766,0.03991541660244016,0.9989970428895386,191.89928456905653,20.0237344670075,276.34551089158697,-17.735160818434526,-70.634033203125,4381.2578125,True
1599571665.358091,0.0,10,0.5,0.5,-4.64651946258545,-0.15025,-0.03,-0.12575,0.26147546470067173,10,1,100,0.4173478409037863,-10,-1,-100,6471.002677291632,-0.022145038155124776,0.03825873145480001,0.999022455579742,202.96969399826142,21.16048550733201,298.74691755961715,-18.117655590734245,-63.303558349609375,4381.2578125,True
1599571665.436575,0.0,10,0.5,0.5,-6.804668067932128,-0.15025,-0.03,-0.12575,0.134120134974062,10,1,100,0.5017722959469957,-10,-1,-100,6469.9073503816035,-0.024578665940333654,0.035602967350940345,0.9990637206386794,215.42947607037178,22.43446467178747,327.3659651957481,-18.690679640814874,-52.8291015625,4381.2578125,True
1599571665.5223732,0.0,10,0.5,0.5,-7.51664111328125,-0.15025,-0.03,-0.12575,0.2025622029513347,10,1,100,0.411476307239752,-10,-1,-100,6469.156298774993,-0.025949686938858723,0.03382132177043867,0.9990909527873205,220.22416142738652,22.926426201596733,341.6583205358709,-19.072320106198294,-46.216217041015625,4381.2578125,True
1599571665.594194,0.0,10,0.5,0.5,-8.643278060913085,-0.15025,-0.03,-0.12575,0.1873238565341235,10,1,100,0.4077367253801572,-10,-1,-100,6468.3432374728145,-0.027141517376676604,0.03207512114572495,0.9991168723617766,223.31586905255517,23.25180867753559,353.5653746500335,-19.45377469235123,-39.901214599609375,4381.2578125,True
1599571665.6719856,0.0,10,0.5,0.5,-8.89708624267578,-0.15025,-0.03,-0.12575,0.26779083819472504,10,1,100,0.3491218895553907,-10,-1,-100,6467.99847690179,-0.027674050154140487,0.03123218028519499,0.9991289695843573,224.0384751705727,23.333192336175223,358.2800425229962,-19.644465816758228,-36.85528564453125,4381.2578125,True
1599571665.7497783,0.0,10,0.5,0.5,-11.878236602783202,-0.15025,-0.03,-0.12575,-0.006526568432960789,10,1,100,0.48746733374036644,-10,-1,-100,6466.371886930312,-0.029398475539324186,0.02798553667793929,0.9991759301408394,222.14647028222876,23.185777581550663,369.45547548152376,-20.407279849487246,-25.41607666015625,4381.2578125,True
1599571665.8266757,0.0,10,0.5,0.5,-10.651434188842773,-0.15025,-0.03,-0.12575,0.3164663292620783,10,1,100,0.3167247696682564,-10,-1,-100,6466.371886930312,-0.029398475539324186,0.02798553667793929,0.9991759301408394,222.14647028222876,23.185777581550663,369.45547548152376,-20.407279849487246,-25.41607666015625,4381.2578125,True
1599571665.903444,0.0,10,0.5,0.5,-12.995101791381835,-0.15025,-0.03,-0.12575,0.07764839363685327,10,1,100,0.42214869307591313,-10,-1,-100,6465.08957656892,-0.030343647820486232,0.02582860503095947,0.9992057576891263,216.73530926410675,22.67436303577529,370.8988871894645,-20.97968412854413,-17.61602783203125,4381.2578125,True
1599571665.9785206,0.0,10,0.5,0.5,-12.883599838256837,-0.15025,-0.03,-0.12575,0.2218119314812515,10,1,100,0.3605518386021058,-10,-1,-100,6464.6833038273035,-0.030630932250384928,0.025193217494515262,0.9992132143750634,214.3726143935905,22.445933263858446,370.30935855489173,-21.170568311963333,-15.1639404296875,4381.2578125,True
1599571666.054579,0.0,10,0.5,0.5,-14.671300170898437,-0.15025,-0.03,-0.12575,0.08189832919712245,10,1,100,0.3984807888239762,-10,-1,-100,6463.401010948583,-0.03122562731837267,0.023358456501814177,0.9992393820844068,207.3140128356119,21.75902923971193,368.1675449137322,-21.74346830543271,-8.253662109375,4381.2578125,True
1599571666.13986,0.0,10,0.5,0.5,-15.158910919189452,-0.15025,-0.03,-0.12575,0.15013867442400897,10,1,100,0.37627518895119966,-10,-1,-100,6462.524509706069,-0.03155444826441058,0.022325910519694545,0.9992526559955672,201.83788568777277,21.212763044702715,364.99009848281764,-22.125595867667325,-4.016571044921875,4381.2578125,True
1599571666.2106698,0.0,10,0.5,0.5,-15.358004432678223,-0.15025,-0.03,-0.12575,0.199668702681966,10,1,100,0.3577578041495078,-10,-1,-100,6462.055255161598,-0.0316764825261485,0.021851989720962767,0.9992592711603959,199.37554336642236,20.965555902152595,363.7774913165399,-22.31670595266879,-2.0091552734375,4381.2578125,True
1599571666.2909667,0.0,10,0.5,0.5,-16.304958496093747,-0.15025,-0.03,-0.12575,0.15525912967080713,10,1,100,0.3762049093880907,-10,-1,-100,6461.179739592713,-0.03194867116027389,0.021029930128950595,0.9992682444918703,194.2389981012749,20.442080577450884,360.72935548492154,-22.698994804371956,1.7840576171875,4381.2578125,True
1599571667.008125,0.0,10,0.5,0.5,-16.937179473876956,-0.15025,-0.03,-0.12575,0.1596365463021478,10,1,100,0.3707513601269342,-10,-1,-100,6460.24026481621,-0.03214108403053972,0.020334026461625798,0.9992764773000511,188.94663209966964,19.89271537133089,357.0637864044545,-23.081345416189084,5.281219482421875,4381.2578125,True
1599571667.076908,0.0,10,0.5,0.5,-17.9277025680542,-0.15025,-0.03,-0.12575,0.1423121847111058,10,1,100,0.3768545443032616,-10,-1,-100,6458.833016729332,-0.032366943253608116,0.01955456629021569,0.9992847441653553,198.3403066991351,20.877097494456418,384.53647439837704,-23.654610523032975,9.972320556640625,4381.2578125,True
1599571667.1532962,0.0,10,0.5,0.5,-17.869049201965332,-0.15025,-0.03,-0.12575,0.19844595309997037,10,1,100,0.3622715170877718,-10,-1,-100,6458.362797901849,-0.0324354305788936,0.019366889132464343,0.9992861784536463,201.43443594265608,21.197618049743774,393.8296182022462,-23.845588059531494,11.388153076171875,4381.2578125,True
1599571667.2241063,0.0,10,0.5,0.5,-18.85131676483154,-0.15025,-0.03,-0.12575,0.17735109459714377,10,1,100,0.37475644836318317,-10,-1,-100,6456.892579369596,-0.03260843029071181,0.019012337227706035,0.9992873567233379,209.44496359203433,22.016407477342643,419.7759964354306,-24.418178422672693,15.192123413085938,4381.2578125,True
1599571667.2969117,0.0,10,0.5,0.5,-19.09275138473511,-0.15025,-0.03,-0.12575,0.20568274142830306,10,1,100,0.3683710704111699,-10,-1,-100,6455.891120398068,-0.03270473572484516,0.01895573519407287,0.9992852847732824,213.84578169242238,22.45759645857249,435.60366595570014,-24.799625069625414,17.358642578125,4381.2578125,True
1599571667.3691385,0.0,10,0.5,0.5,-19.441649063110354,-0.15025,-0.03,-0.12575,0.22048900716507325,10,1,100,0.36879851596727325,-10,-1,-100,6454.890155730303,-0.03279402554465428,0.0190451292791378,0.9992806587437372,217.59804122095096,22.827297135879355,450.38291453876667,-25.180858641226123,19.229705810546875,4381.2578125,True
1599571667.4399478,0.0,10,0.5,0.5,-19.53718399810791,-0.15025,-0.03,-0.12575,0.2218780922511534,10,1,100,0.36518618516487,-10,-1,-100,6454.421415091259,-0.032840392288736836,0.01914461384653881,0.9992772350028738,219.2563941197549,22.988335607973863,457.4126978550895,-25.3713995374208,20.054489135742188,4381.2578125,True
1599571667.5277114,0.0,10,0.5,0.5,-19.912543498992918,-0.15025,-0.03,-0.12575,0.24566584115501328,10,1,100,0.3690572546819819,-10,-1,-100,6453.357472999254,-0.03291626744717621,0.01945513739117052,0.9992687411134388,222.1832496028964,23.26813155911758,470.8142339710572,-25.75233881671121,21.482574462890625,4381.2578125,True
1599571667.598523,0.0,10,0.5,0.5,-20.247952857971192,-0.15025,-0.03,-0.12575,0.2964963697534129,10,1,100,0.37283171546056904,-10,-1,-100,6451.823341757874,-0.03301832012630574,0.020202137030938004,0.9992505512610038,225.7222199104708,23.59633780380414,489.44472045856133,-26.323421088431783,23.071319580078125,4381.2578125,True
1599571667.6744854,0.0,10,0.5,0.5,-20.313963966369627,-0.15025,-0.03,-0.12575,0.2973847772290907,10,1,100,0.3688562267485439,-10,-1,-100,6450.759419271955,-0.03307373463031403,0.02089080391022372,0.9992345582442533,227.5920112576745,23.76307585385269,500.991955831183,-26.703948093717848,23.761734008789062,4381.2578125,True
1599571667.7463248,0.0,10,0.5,0.5,-20.402275440216062,-0.15025,-0.03,-0.12575,0.3219043647404804,10,1,100,0.36708603707363063,-10,-1,-100,6449.633005830343,-0.03310699603375868,0.021739896528967663,0.9992153440137568,229.20894268403026,23.90306654637993,512.1071128012208,-27.084337108223256,24.157379150390625,4381.2578125,True
1599571667.8219402,0.0,10,0.5,0.5,-20.43325774383545,-0.15025,-0.03,-0.12575,0.2904688228839115,10,1,100,0.3646697631388666,-10,-1,-100,6449.100808493211,-0.03311438944475304,0.022224743192704857,0.9992044325370658,229.92155328803193,23.962996254462407,517.4929405741384,-27.27448399001498,24.244720458984375,4381.2578125,True
1599571667.903243,0.0,10,0.5,0.5,-20.415472755432127,-0.15025,-0.03,-0.12575,0.4286756826789126,10,1,100,0.3621722757620513,-10,-1,-100,6447.442219230696,-0.03309772680023946,0.023919511451600053,0.9991658508238627,231.56734534461046,24.091498363709412,532.6776422859945,-27.84475718623107,24.06494140625,4381.2578125,True
1599571667.9830282,0.0,10,0.5,0.5,-20.418957077026366,-0.15025,-0.03,-0.12575,0.3309415115933289,10,1,100,0.3612502716031037,-10,-1,-100,6446.912962307688,-0.033073594998126364,0.024567578656800256,0.9991509252324405,231.95432808272633,24.117564678474135,537.407542427671,-28.03479887688998,23.857864379882812,4381.2578125,True
1599571668.0578287,0.0,10,0.5,0.5,-20.17774844741821,-0.15025,-0.03,-0.12575,0.5078034841350716,10,1,100,0.34840368467549476,-10,-1,-100,6445.186537018628,-0.032934446965311275,0.02675951655606256,0.999099219535665,232.6244556599725,24.1451869159057,550.5344379122025,-28.604803098110644,22.795379638671875,4381.2578125,True
1599571668.1465912,0.0,10,0.5,0.5,-20.030756385803222,-0.15025,-0.03,-0.12575,0.4731771045511187,10,1,100,0.34444886926327845,-10,-1,-100,6444.064086438273,-0.032771787057876985,0.028430307757936004,0.9990584205009346,232.63933473580104,24.119405070029636,558.3063201297138,-28.98472498838864,21.719619750976562,4381.2578125,True
1599571668.2183993,0.0,10,0.5,0.5,-19.994635257720944,-0.15025,-0.03,-0.12575,0.4054927371228146,10,1,100,0.3502549146984737,-10,-1,-100,6443.469908614643,-0.03267671686279011,0.029325364438946552,0.9990356626144995,232.50841614853923,24.092475171305963,561.8648072949828,-29.174667652291262,21.071548461914062,4381.2578125,True
1599571668.2961915,0.0,10,0.5,0.5,-19.660746768951412,-0.15025,-0.03,-0.12575,0.5302133438956307,10,1,100,0.32385031566029654,-10,-1,-100,6442.277167367516,-0.03235039639911493,0.031263620800897736,0.9989875063619353,231.94219373747225,24.00796789206708,568.2369556438904,-29.55452679977261,19.55548095703125,4381.2578125,True
1599571668.3719897,0.0,10,0.5,0.5,-19.346144302368163,-0.15025,-0.03,-0.12575,0.5679859702741432,10,1,100,0.31311796978654916,-10,-1,-100,6441.088348481804,-0.031956689079692575,0.033358324566649174,0.9989324262457245,230.93463252397794,23.87945624240293,573.4950679020433,-29.934364966055004,17.745819091796875,4381.2578125,True
1599571668.4477854,0.0,10,0.5,0.5,-18.65678246307373,-0.15025,-0.03,-0.12575,0.7391540716860654,10,1,100,0.26433751187277055,-10,-1,-100,6439.24582946708,-0.031156279745589367,0.03680671419604458,0.9988365992606124,228.47930139044348,23.59397681992658,578.9036666146159,-30.504118553100955,14.48150634765625,4381.2578125,True
1599571668.5245843,0.0,10,0.5,0.5,-18.337670806884766,-0.15025,-0.03,-0.12575,0.670282735776966,10,1,100,0.2639602761040829,-10,-1,-100,6438.048269908759,-0.03042694862112995,0.03930104179606148,0.9987640506703028,226.12884812649423,23.334731935356327,580.5677527741676,-30.883975020848926,11.93890380859375,4381.2578125,True
1599571668.602373,0.0,10,0.5,0.5,-18.239546234130856,-0.15025,-0.03,-0.12575,0.5657806909716457,10,1,100,0.2902898047827759,-10,-1,-100,6437.39358972921,-0.030005716084530076,0.04060262907487658,0.9987247285986577,224.71404490339776,23.182283166073997,580.7297550680399,-31.07391458762311,10.5577392578125,4381.2578125,True
1599571668.6781707,0.0,10,0.5,0.5,-17.10723973083496,-0.15025,-0.03,-0.12575,0.8874363880152019,10,1,100,0.15236160492165507,-10,-1,-100,6435.5540869878605,-0.02837171075557475,0.04469332576884793,0.9985977932383596,219.39272682056014,22.62361213398187,578.1244367035157,-31.643794616082342,5.97467041015625,4381.2578125,True
1599571668.7604265,0.0,10,0.5,0.5,-16.6849533996582,-0.15025,-0.03,-0.12575,0.7969794860678447,10,1,100,0.16993146254798852,-10,-1,-100,6434.23256402323,-0.027050273722259,0.04757092018719387,0.9985015224044952,214.85390284779126,22.15895473366449,573.4668155635113,-32.02377248590269,2.55316162109375,4381.2578125,True
1599571668.8356292,0.0,10,0.5,0.5,-16.026022415161133,-0.15025,-0.03,-0.12575,0.8357665921101952,10,1,100,0.12361902174992101,-10,-1,-100,6432.922783119953,-0.025433420885876672,0.05051861303922937,0.9983992241777006,209.45144324386362,21.614877908576034,566.1829935095338,-32.40379575934184,-1.161590576171875,4381.2578125,True
1599571668.912424,0.0,10,0.5,0.5,-15.878251930236816,-0.15025,-0.03,-0.12575,0.7068177578666811,10,1,100,0.18251690967285877,-10,-1,-100,6432.319901521783,-0.024505809130355296,0.05200447250569954,0.9983461324401826,207.37316540231294,21.41114360610094,564.1025554332778,-32.59380982900013,-3.12908935546875,4381.2578125,True
1599571668.988223,0.0,10,0.5,0.5,-14.904398071289062,-0.15025,-0.03,-0.12575,0.8926732852347788,10,1,100,0.05376131715110927,-10,-1,-100,6431.018448453513,-0.02249953485507225,0.055023418483338984,0.9982315334378659,212.6577238856387,21.987800191870864,585.7395779848835,-32.97363760586988,-7.28387451171875,4381.2578125,True
1599571669.0636034,0.0,10,0.5,0.5,-12.80506898498535,-0.15025,-0.03,-0.12575,1.2551180562752782,10,1,100,-0.28704780761032445,-10,-1,-100,6428.316969121923,-0.017586636363354374,0.061039505423339024,0.9979804051178045,224.50556026281967,23.31121183322373,633.7100041873908,-33.732289647546345,-16.47491455078125,4381.2578125,True
1599571669.1433892,0.0,10,0.5,0.5,-13.167712142944335,-0.15025,-0.03,-0.12575,0.8155071168480188,10,1,100,0.04460047431772701,-10,-1,-100,6427.599863348296,-0.016148770988443827,0.06248514329707085,0.9979152389169671,227.48186377784393,23.6504103871763,645.9923281610644,-33.92171718487891,-18.956939697265625,4381.2578125,True
1599571669.2161942,0.0,10,0.5,0.5,-11.938372825622558,-0.15025,-0.03,-0.12575,0.9771604039335959,10,1,100,-0.15054228875851988,-10,-1,-100,6426.280405450729,-0.013081966363369493,0.065242455956941,0.9977836860245684,232.92796433240753,24.281916641815343,669.3962130767593,-34.30027838200044,-24.142974853515625,4381.2578125,True
1599571669.290564,0.0,10,0.5,0.5,-10.961916007995606,-0.15025,-0.03,-0.12575,0.9943242928148628,10,1,100,-0.21209256016437233,-10,-1,-100,6424.853525791201,-0.009750845430868913,0.06787928850868821,0.9976458906871403,237.95976166532535,24.874668576359632,691.9501885789156,-34.67845335255118,-29.623870849609375,4381.2578125,True
1599571669.3674736,0.0,10,0.5,0.5,-9.103962440490722,-0.15025,-0.03,-0.12575,1.1181391002032062,10,1,100,-0.488819239838782,-10,-1,-100,6422.748124552541,-0.004225653043546716,0.07137601794406823,0.9974405285122536,244.18884429174898,25.62401470268128,722.4885839717932,-35.24503816706913,-38.4010009765625,4381.2578125,True
1599571669.45276,0.0,10,0.5,0.5,-10.060810333251952,-0.15025,-0.03,-0.12575,0.771543495552124,10,1,100,0.06112199258933929,-10,-1,-100,6422.748124552541,-0.004225653043546716,0.07137601794406823,0.9974405285122536,244.18884429174898,25.62401470268128,722.4885839717932,-35.24503816706913,-38.4010009765625,4381.2578125,True
1599571669.5300658,0.0,10,0.5,0.5,-8.21017123413086,-0.15025,-0.03,-0.12575,0.9884963094315878,10,1,100,-0.3772454347818793,-10,-1,-100,6421.379832608276,-0.0002624455744556639,0.07332405925917679,0.9973081336558313,246.65748156954945,25.938529662509346,738.1424541030367,-35.622399894002235,-44.623870849609375,4381.2578125,True
1599571669.6088552,0.0,10,0.5,0.5,-6.120957649230956,-0.15025,-0.03,-0.12575,1.0470427925111678,10,1,100,-0.66852130318085,-10,-1,-100,6419.222128169844,0.005964080175483388,0.0756038347199335,0.9971200980440126,247.25749458985536,26.061747722867896,752.4872043350027,-36.18812574598995,-54.51593017578125,4381.2578125,True
1599571669.6841624,0.0,10,0.5,0.5,-6.2539316864013665,-0.15025,-0.03,-0.12575,0.8909298688462961,10,1,100,-0.2896793723618137,-10,-1,-100,6418.436157087213,0.00815199739429005,0.07623434472214012,0.9970566030187401,246.5210997928131,25.99741924657454,754.4209310917684,-36.376671345612365,-57.961181640625,4381.2578125,True
1599571669.7659442,0.0,10,0.5,0.5,-3.5453914794921877,-0.15025,-0.03,-0.12575,0.9430370632230303,10,1,100,-0.7797705715798678,-10,-1,-100,6416.274971484672,0.014566698671074194,0.07725921024373787,0.9969046221792434,241.14596715175188,25.452797550965766,750.2572889262942,-36.942420073972706,-68.74844360351562,4381.2578125,True
1599571669.8437374,0.0,10,0.5,0.5,-2.6301027755737305,-0.15025,-0.03,-0.12575,0.8689833401706542,10,1,100,-0.6134867580105303,-10,-1,-100,6414.7786260586,0.018852877677951123,0.07749747615220477,0.9968142806928975,234.76136775567076,24.784957440503682,738.4078860737213,-37.319809786398274,-76.31146240234375,4381.2578125,True
1599571669.9205303,0.0,10,0.5,0.5,-2.3271058807373044,-0.15025,-0.03,-0.12575,0.843134750320384,10,1,100,-0.4238710292837874,-10,-1,-100,6413.996502677794,0.0209924978648313,0.07746413255150962,0.9967741084124513,230.68588298068204,24.357430866377296,729.5410922814315,-37.50860359127499,-80.2047119140625,4381.2578125,True
1599571669.993438,0.0,10,0.5,0.5,-0.4218980407714841,-0.15025,-0.03,-0.12575,0.8005847499594303,10,1,100,-0.6457856495910425,-10,-1,-100,6412.49275973544,0.02492124797492171,0.07703338473918314,0.9967170054910257,220.73732063476294,23.31631778554583,705.6683205911563,-37.886417897674285,-88.21572875976562,4381.2578125,True
1599571670.0830958,0.0,10,0.5,0.5,2.2330844192504884,-0.15025,-0.03,-0.12575,0.7039501143456091,10,1,100,-0.875927312151435,-10,-1,-100,6410.209700211883,0.03055048753979084,0.07575258010532229,0.9966585244297406,201.37175203749658,21.30538715808298,654.1826635081858,-38.45370558241212,-100.78873443603516,4381.2578125,True
1599571670.1598907,0.0,10,0.5,0.5,2.0632404041290284,-0.15025,-0.03,-0.12575,0.7664800118221027,10,1,100,-0.5082411878057007,-10,-1,-100,6409.42359026114,0.032288739347464596,0.07514950833196543,0.9966493810306687,203.4339390426884,21.543628097168536,664.3918493204748,-38.64278863421814,-105.12828826904297,4381.2578125,True
1599571670.2336948,0.0,10,0.5,0.5,5.363051404953003,-0.15025,-0.03,-0.12575,0.5974813455973589,10,1,100,-0.8387241300101634,-10,-1,-100,6407.074953107163,0.03684016374503493,0.07306147930833616,0.9966467892771824,219.84679981696738,23.363366899695095,729.3350857622265,-39.20912534542863,-118.33599853515625,4381.2578125,True
1599571670.311251,0.0,10,0.5,0.5,5.1393372955322265,-0.15025,-0.03,-0.12575,0.722140884766554,10,1,100,-0.5333431571311518,-10,-1,-100,6406.295634508715,0.03816429906502733,0.07229500740533472,0.9966528574088059,223.88297720676596,23.8211141116406,746.5579045998585,-39.397625677569216,-122.67422485351562,4381.2578125,True
1599571670.3900068,0.0,10,0.5,0.5,8.304214637756347,-0.15025,-0.03,-0.12575,0.518302015627269,10,1,100,-0.786906591159245,-10,-1,-100,6403.942970311153,0.04163824717014901,0.06974606963938886,0.9966954109167228,232.25655938719575,24.78962889586751,786.3676121324158,-39.962513285028535,-135.2693634033203,4381.2578125,True
1599571670.465804,0.0,10,0.5,0.5,9.177412448883057,-0.15025,-0.03,-0.12575,0.5836709302555274,10,1,100,-0.6404907599358369,-10,-1,-100,6402.315411663731,0.043432897739142586,0.06802844158976819,0.9967375354268788,234.9567382466519,25.11392893651844,803.5127516742617,-40.33877247302491,-143.29391479492188,4381.2578125,True
1599571671.2057502,0.0,10,0.5,0.5,10.555666938781739,-0.15025,-0.03,-0.12575,0.5714857576760084,10,1,100,-0.6203317315853564,-10,-1,-100,6400.68685037049,0.044849060816546146,0.06636364716041956,0.9967870525239786,235.05710370060675,25.146935323131576,811.8741632494126,-40.71495469222753,-151.01617431640625,4381.2578125,True
1599571671.276077,0.0,10,0.5,0.5,12.87130419921875,-0.15025,-0.03,-0.12575,0.48415181690614917,10,1,100,-0.6429677164572553,-10,-1,-100,6398.216403684812,0.04631473405652531,0.06406615782045239,0.9968703390267956,231.0973339296279,24.737626464410702,810.0782888608065,-41.27936497257527,-162.03033447265625,4381.2578125,True
1599571671.3489127,0.0,10,0.5,0.5,12.714770263671875,-0.15025,-0.03,-0.12575,0.6357215384291584,10,1,100,-0.5348297970878575,-10,-1,-100,6397.374525731895,0.04663912695644041,0.06336764799644753,0.9968998610814125,228.86274686546946,24.500769337596445,806.186846095713,-41.46758243741156,-165.5496826171875,4381.2578125,True
1599571671.41672,0.0,10,0.5,0.5,14.407755935668945,-0.15025,-0.03,-0.12575,0.5668999606529174,10,1,100,-0.553249009950664,-10,-1,-100,6395.739597437321,0.04707816186503273,0.062119803344436446,0.996957760744084,223.29291953341638,23.909670021233122,794.2881154230874,-41.84417406693324,-172.3594970703125,4381.2578125,True
1599571671.5035017,0.0,10,0.5,0.5,15.599276535034178,-0.15025,-0.03,-0.12575,0.5727502287893971,10,1,100,-0.5276793102924683,-10,-1,-100,6394.052427361952,0.047224690045142056,0.061052141172389586,0.9970167825610593,216.54182454354998,23.19667394520165,777.7963948632646,-42.22098446267021,-178.86465454101562,4381.2578125,True
1599571671.5792634,0.0,10,0.5,0.5,-82.63332431030274,-0.15025,-0.03,-0.12575,0.5844159762439242,10,1,100,-0.5024617169440486,-10,-1,-100,6392.361354193417,0.047113488267069126,0.06020095548278172,0.9970738007701679,208.9364541697008,22.400080127666733,757.7621834525062,-42.59800184717086,174.93536376953125,4381.2578125,True
1599571671.6670578,0.0,10,0.5,0.5,-36.57430322265625,-0.15025,-0.03,-0.12575,0.5759355280658753,10,1,100,-0.4517984404264729,-10,-1,-100,6389.752743385616,0.04653834345600704,0.05936364492047338,0.997151011758062,208.50254012262315,22.40131862102709,767.1104622670366,-43.163587192295196,166.20761108398438,4381.2578125,True
1599571671.7458186,0.0,10,0.5,0.5,-37.740051734924315,-0.15025,-0.03,-0.12575,0.6408659731610421,10,1,100,-0.47753374631528284,-10,-1,-100,6388.910882971948,0.046240625336111625,0.059205182850501734,0.9971742831081055,212.15751926317364,22.815113000592373,784.2616854737018,-43.35194322173192,163.36196899414062,4381.2578125,True
1599571671.822613,0.0,10,0.5,0.5,-38.15732817840576,-0.15025,-0.03,-0.12575,0.6452872345907682,10,1,100,-0.4705495925466054,-10,-1,-100,6388.000180357951,0.045899138078063194,0.05911321954948396,0.9971955156328097,215.92705271317647,23.243766885649936,801.9640729381535,-43.54019574536891,160.46823120117188,4381.2578125,True
1599571671.8994067,0.0,10,0.5,0.5,-37.757819114685056,-0.15025,-0.03,-0.12575,0.6530641423551297,10,1,100,-0.416240118566892,-10,-1,-100,6386.247150129755,0.045091099088287304,0.059109981937407366,0.9972325720805402,222.93593483414762,24.050166435612834,835.766686915724,-43.91639260682528,154.48776245117188,4381.2578125,True
1599571671.9787264,0.0,10,0.5,0.5,-35.86936281585694,-0.15025,-0.03,-0.12575,0.749087067393122,10,1,100,-0.27150179675404207,-10,-1,-100,6382.671842338867,0.04303920780714773,0.059988082026457994,0.9972708040477873,234.70863403782934,25.431795486954464,896.2141353603304,-44.667627843269436,141.68397521972656,4381.2578125,True
1599571672.0520794,0.0,10,0.5,0.5,-38.357539508819585,-0.15025,-0.03,-0.12575,0.6606395019746631,10,1,100,-0.47650993956705995,-10,-1,-100,6382.671842338867,0.04303920780714773,0.059988082026457994,0.9972708040477873,234.70863403782934,25.431795486954464,896.2141353603304,-44.667627843269436,141.68397521972656,4381.2578125,True
1599571672.1448343,0.0,10,0.5,0.5,-37.38358929824829,-0.15025,-0.03,-0.12575,0.755801431288413,10,1,100,-0.3450054757194414,-10,-1,-100,6380.918914407608,0.04184669043239608,0.060856897816395715,0.9972689168363865,239.54557546131025,26.00591414794545,922.9860465373446,-45.04273331712756,134.8539276123047,4381.2578125,True
1599571672.2211428,0.0,10,0.5,0.5,-37.17989919662475,-0.15025,-0.03,-0.12575,0.7976874551849655,10,1,100,-0.317219723662213,-10,-1,-100,6379.110854778206,0.04051434274257801,0.06202979488828962,0.9972516696292134,242.96034577996193,26.418185251290787,944.5614291236977,-45.41759373658482,127.73878479003906,4381.2578125,True
1599571672.3034372,0.0,10,0.5,0.5,-35.882178501129154,-0.15025,-0.03,-0.12575,0.9411175975803006,10,1,100,-0.23368743509083628,-10,-1,-100,6376.3781228691805,0.03854970023675129,0.06440005716492908,0.9971792984457762,244.95299709955074,26.67765299204965,965.0682811782282,-45.9796534507853,116.53318786621094,4381.2578125,True
1599571672.3782375,0.0,10,0.5,0.5,-36.01773878097534,-0.15025,-0.03,-0.12575,0.9230946667555898,10,1,100,-0.28013090432045107,-10,-1,-100,6374.493562179268,0.037193761306094766,0.06638795266711073,0.9971004281718941,243.8762549321405,26.57746129214213,969.340976086322,-46.35437347084961,108.70805358886719,4381.2578125,True
1599571672.4630105,0.0,10,0.5,0.5,-34.565296916961664,-0.15025,-0.03,-0.12575,0.9828618465361741,10,1,100,-0.2682773138901289,-10,-1,-100,6372.616405337816,0.03586234757155043,0.06873284385147724,0.9969903149994717,240.68422136180385,26.242334879984277,965.1107847131965,-46.72923316395365,100.60018920898438,4381.2578125,True
1599571672.5447924,0.0,10,0.5,0.5,-34.23993654632569,-0.15025,-0.03,-0.12575,0.8934167533797897,10,1,100,-0.3291774649204797,-10,-1,-100,6371.695684125414,0.035215314636681,0.07004290844590602,0.9969221998689156,238.25500045061366,25.98423559031555,959.5785203684237,-46.916744437341386,96.44039916992188,4381.2578125,True
1599571672.619419,0.0,10,0.5,0.5,-31.00106694793701,-0.15025,-0.03,-0.12575,1.252196421323661,10,1,100,-0.1998629888857283,-10,-1,-100,6368.797930889297,0.033461539741665075,0.07448565712615338,0.9966605300906635,227.5138871508761,24.8450282820157,928.4562371085364,-47.47969672080128,83.53750610351562,4381.2578125,True
1599571672.6947312,0.0,10,0.5,0.5,-29.921342567443844,-0.15025,-0.03,-0.12575,1.1815099016483832,10,1,100,-0.2672334710802211,-10,-1,-100,6366.8239215560025,0.032490964764633624,0.07786793989516966,0.9964341027610133,217.43722027583857,23.784190149426227,895.11039643275,-47.85537564907213,74.58290100097656,4381.2578125,True
1599571672.785645,0.0,10,0.5,0.5,-28.258379840850832,-0.15025,-0.03,-0.12575,1.2534871570970196,10,1,100,-0.2786745464465844,-10,-1,-100,6364.935972523177,0.03172408832004802,0.08158002840930137,0.9961617746054099,227.20636576320808,24.91394201934704,943.4497472132011,-48.2307594057399,65.34634399414062,4381.2578125,True
1599571672.862476,0.0,10,0.5,0.5,-26.563730262756344,-0.15025,-0.03,-0.12575,1.3257295915705107,10,1,100,-0.30102181307308473,-10,-1,-100,6362.993466814165,0.03124037135747211,0.08559177469337753,0.9958403924837981,238.90125269279974,26.273763578721823,1000.5241787637359,-48.60546877071676,55.82774353027344,4381.2578125,True
1599571672.9464507,0.0,10,0.5,0.5,-24.79792043685913,-0.15025,-0.03,-0.12575,1.3934163790463518,10,1,100,-0.33113808543610757,-10,-1,-100,6361.052070169011,0.031085139173384832,0.08983087511716631,0.9954718117547354,248.37537819157404,27.399325417881432,1049.0124823986237,-48.979569376905744,46.026275634765625,4381.2578125,True
1599571673.018767,0.0,10,0.5,0.5,-22.980691307067868,-0.15025,-0.03,-0.12575,1.4590935730847296,10,1,100,-0.3686703691741904,-10,-1,-100,6359.048791404581,0.03129500481388716,0.09425532819614066,0.995056056602007,255.85993630769815,28.304512534076366,1089.668475169794,-49.35318165144508,35.941925048828125,4381.2578125,True
1599571673.1005492,0.0,10,0.5,0.5,-22.552439064025876,-0.15025,-0.03,-0.12575,1.268308036137531,10,1,100,-0.37473250276275266,-10,-1,-100,6358.076738468604,0.031549283281447744,0.09651384835631749,0.9948315032204603,258.8215282146737,28.667622043517433,1106.8532879580746,-49.53984818786492,30.793487548828125,4381.2578125,True
1599571673.178369,0.0,10,0.5,0.5,-18.562104606628417,-0.15025,-0.03,-0.12575,1.7964232614416245,10,1,100,-0.5021623748067526,-10,-1,-100,6355.040622453322,0.03294526292231673,0.10333890164906874,0.994100438113244,262.6280199193748,29.17560982958787,1137.0979007032292,-50.099621424184214,14.9219970703125,4381.2578125,True
1599571673.2581275,0.0,10,0.5,0.5,-18.777125061035154,-0.15025,-0.03,-0.12575,1.3661007930201423,10,1,100,-0.43657319990727256,-10,-1,-100,6354.069156480487,0.03362193236800579,0.1055978813395728,0.9938403559528235,262.06611859569887,29.136574504418046,1139.3433369188729,-50.28623018759036,9.489166259765625,4381.2578125,True
1599571673.356865,0.0,10,0.5,0.5,-16.128961555480956,-0.15025,-0.03,-0.12575,1.6314589452639872,10,1,100,-0.551769462870531,-10,-1,-100,6352.065727161244,0.03528636190484687,0.11003033240816773,0.9933016654640565,258.0122729197029,28.731334726562558,1130.9985927965652,-50.6596197572054,-1.590576171875,4381.2578125,True
1599571673.448482,0.0,10,0.5,0.5,-12.492591674804686,-0.15025,-0.03,-0.12575,1.8756383702678616,10,1,100,-0.7376066189514272,-10,-1,-100,6348.967380077578,0.0384888437688304,0.11624329413059628,0.9924747379530656,244.41428195227655,27.304208091573166,1084.719935728169,-51.220359557128155,-18.748382568359375,4381.2578125,True
1599571673.5272737,0.0,10,0.5,0.5,-11.086986366271972,-0.15025,-0.03,-0.12575,1.6730664778459423,10,1,100,-0.6964208189161203,-10,-1,-100,6346.902951322729,0.04102120427756066,0.12001191700441893,0.9919245941988449,231.38603869189132,25.933156308214066,1035.3347746010788,-51.59465916680376,-30.546722412109375,4381.2578125,True
1599571673.6060603,0.0,10,0.5,0.5,-10.597149864196778,-0.15025,-0.03,-0.12575,1.491883070333731,10,1,100,-0.5928972473071586,-10,-1,-100,6345.868036483182,0.042374472053131315,0.12175250320586556,0.9916555511271663,237.2133478861732,26.639229127225676,1065.711792269629,-51.78165132221179,-36.554290771484375,4381.2578125,True
1599571673.6908338,0.0,10,0.5,0.5,-7.670532249450684,-0.15025,-0.03,-0.12575,1.6658445070401178,10,1,100,-0.764590520033392,-10,-1,-100,6343.802538273623,0.04515588125231305,0.12487980147287822,0.991143774420453,250.55516983357015,28.258730927408525,1134.6729487272305,-52.15496720135981,-48.787506103515625,4381.2578125,True
1599571673.7736127,0.0,10,0.5,0.5,-3.680712303161621,-0.15025,-0.03,-0.12575,1.785002967033439,10,1,100,-0.9633576205185215,-10,-1,-100,6340.6408502798295,0.049478758246984125,0.12877034223666584,0.9904393224436258,262.6781434352987,29.804837187468177,1203.607019044619,-52.71368072654276,-67.67990112304688,4381.2578125,True
1599571673.84941,0.0,10,0.5,0.5,-0.3213519973754875,-0.15025,-0.03,-0.12575,1.7153403179061355,10,1,100,-0.9826995098481179,-10,-1,-100,6337.479343604296,0.05356776030961453,0.13163850115066136,0.9898493825174712,265.84614825785513,30.301364353225974,1232.3138206857188,-53.2717660193014,-87.22323608398438,4381.2578125,True
1599571673.9281983,0.0,10,0.5,0.5,-0.5717562942504879,-0.15025,-0.03,-0.12575,1.5160253402654582,10,1,100,-0.7091288578932392,-10,-1,-100,6336.383110339404,0.0547777810256017,0.13239997930032885,0.9896815852521373,264.08205199009046,30.138225308472457,1228.8729710500604,-53.4578530476569,-93.88147735595703,4381.2578125,True
1599571674.0040326,0.0,10,0.5,0.5,2.691127420425415,-0.15025,-0.03,-0.12575,1.5856678551901526,10,1,100,-0.8311163804516891,-10,-1,-100,6334.25351154129,0.05696566051999035,0.13369272218030195,0.9893842375728157,256.1526412898527,29.307778826527024,1201.2393331031692,-53.830328539756486,-107.3819580078125,4381.2578125,True
1599571674.0967944,0.0,10,0.5,0.5,5.123574424743652,-0.15025,-0.03,-0.12575,1.572003670106403,10,1,100,-0.8155207122699113,-10,-1,-100,6332.061752761365,0.05879102635178417,0.13471612873357866,0.9891386049889781,242.52831440861453,27.834955924297034,1146.1836844007782,-54.203327569421084,-121.01681518554688,4381.2578125,True
1599571674.180573,0.0,10,0.5,0.5,9.456689743041991,-0.15025,-0.03,-0.12575,1.615189265187718,10,1,100,-0.8397551512504844,-10,-1,-100,6328.77292227943,0.06064788192234396,0.13601262351239307,0.9888490282462785,244.4236729480405,28.226646218536306,1168.4146948038765,-54.76292618734873,-141.51022338867188,4381.2578125,True
1599571674.2703307,0.0,10,0.5,0.5,10.98250080871582,-0.15025,-0.03,-0.12575,1.5847169356648045,10,1,100,-0.7293519006055575,-10,-1,-100,6326.580442987615,0.061309210598792165,0.13689061368737585,0.9886870792015271,257.944385404164,29.9161520788042,1242.2636997554941,-55.13488274007406,-154.8547821044922,4381.2578125,True
1599571674.3570995,0.0,10,0.5,0.5,11.522467212677002,-0.15025,-0.03,-0.12575,1.5528792546550407,10,1,100,-0.6829812779907584,-10,-1,-100,6325.483949004323,0.06146812158376512,0.13738058281949253,0.9886092481325166,262.56103798021724,30.510950067713996,1269.169139325246,-55.32062317812349,-161.41175842285156,4381.2578125,True
1599571674.4448636,0.0,10,0.5,0.5,12.878588649749757,-0.15025,-0.03,-0.12575,1.5649026435207338,10,1,100,-0.6748967895979958,-10,-1,-100,6324.386968627572,0.0615205026598916,0.13791952314218212,0.9885309468543244,265.8604225147808,30.949226836182486,1289.8496922455217,-55.50627153584,-167.8902587890625,4381.2578125,True
1599571674.5346243,0.0,10,0.5,0.5,-83.39120713043212,-0.15025,-0.03,-0.12575,1.6475374076814986,10,1,100,-0.6507065240516382,-10,-1,-100,6322.131993424729,0.06133080483266991,0.13914599672796477,0.988370843344318,269.8597562509493,31.511990395330226,1318.9096300506849,-55.87743723136155,179.3892059326172,4381.2578125,True
1599571674.624384,0.0,10,0.5,0.5,-35.30366128921508,-0.15025,-0.03,-0.12575,1.7951273573959348,10,1,100,-0.569070301332938,-10,-1,-100,6318.778225380462,0.06040150030722532,0.14158973026221197,0.9880809719071156,265.64818332676543,31.153389058001327,1312.8101595826677,-56.43445777125428,160.90484619140625,4381.2578125,True
1599571674.739078,0.0,10,0.5,0.5,-34.99832828521728,-0.15025,-0.03,-0.12575,1.7846169000761674,10,1,100,-0.5600482397273067,-10,-1,-100,6316.522508921567,0.059464729503987915,0.14370410260132468,0.9878325145694313,256.7776366290361,30.216197440124375,1278.4377457773767,-56.80626084846437,148.89218139648438,4381.2578125,True
1599571674.8358228,0.0,10,0.5,0.5,-33.85866770935058,-0.15025,-0.03,-0.12575,1.8537993316840802,10,1,100,-0.5330622304406822,-10,-1,-100,6314.204454974737,0.05836243144462608,0.1462442217410894,0.9875254195225632,243.69388144115212,28.800905403545393,1222.292728179891,-57.17849372354624,136.7233428955078,4381.2578125,True
1599571674.9315634,0.0,10,0.5,0.5,-32.65238139724732,-0.15025,-0.03,-0.12575,1.9308912287308475,10,1,100,-0.5140914016831541,-10,-1,-100,6311.946656969842,0.057184621447029585,0.14924167071180905,0.9871458062480476,258.5416930533406,30.712423476644418,1306.220185182544,-57.55012052614955,124.30184936523438,4381.2578125,True
1599571675.8156207,0.0,10,0.5,0.5,-31.407213951110837,-0.15025,-0.03,-0.12575,2.013182074613239,10,1,100,-0.5048332313520908,-10,-1,-100,6309.629026026581,0.05602952084536216,0.1527005875127291,0.9866829396351731,273.3994410189796,32.646790681678155,1391.1769932988782,-57.92072888015282,111.61264038085938,4381.2578125,True
1599571675.891419,0.0,10,0.5,0.5,-30.124120140075682,-0.15025,-0.03,-0.12575,2.098649344034866,10,1,100,-0.5054655707090143,-10,-1,-100,6307.249144234345,0.054987688388460555,0.15660568300032654,0.9861293090552044,283.6971865132888,34.03663961655085,1453.794604201805,-58.290638411434145,98.65376281738281,4381.2578125,True
1599571675.9801471,0.0,10,0.5,0.5,-28.823124851226808,-0.15025,-0.03,-0.12575,2.185420898523045,10,1,100,-0.517561014207194,-10,-1,-100,6304.9315378355095,0.054155672180836986,0.16092588115759135,0.9854795908309285,289.96476288269423,34.93086358602846,1496.4236730752991,-58.6602041537714,85.42526245117188,4381.2578125,True
1599571676.0549495,0.0,10,0.5,0.5,-27.48194585418701,-0.15025,-0.03,-0.12575,2.2707684435281417,10,1,100,-0.541409968794244,-10,-1,-100,6302.549256806145,0.05362260570507779,0.16560737055745095,0.9847328647782833,289.7300092998364,35.035491137391844,1505.8866085399548,-59.02983733879037,71.92706298828125,4381.2578125,True
