Timestamp,Input Throttle,horizon,dT,dt,Input Roll,Roll P,Roll I,Roll D,Input Pitch,Pitch P,Pitch I,Pitch D,Input Yaw,Yaw P,Yaw I,Yaw D,Altitude,Direction X,Direction Y,Direction Z,Drag X,Drag Y,Drag Z,Vertical Velocity,Roll,Mass,Has Fuel
1599569043.5919209,0.0,10,0.5,0.5,-5.4341718750000005,-0.1005,-0.0155,-0.5,-0.06718256492770765,10,1,100,0.6903724083162859,-10,-1,-100,6483.617967058672,-0.06725802113271791,-0.007002485415434659,0.9977110422318266,205.07322268188946,21.49877752531888,-156.76523652106945,9.59082378518104,-35.944580078125,4381.2578125,True
1599569043.6507676,0.0,10,0.5,0.5,-5.518353115844727,-0.1005,-0.0155,-0.5,-0.06731676320104915,10,1,100,0.6999220797048864,-10,-1,-100,6483.997882920899,-0.06744543991694005,-0.006971500510936105,0.9976986072031154,204.61198892557042,21.456725207803423,-150.26659879749522,9.2108014245261,-35.941253662109375,4381.2578125,True
1599569043.7096107,0.0,10,0.5,0.5,-5.5768406753540045,-0.1005,-0.0155,-0.5,-0.05201813284247637,10,1,100,0.7005132464029418,-10,-1,-100,6484.316759884707,-0.06755988083629073,-0.006797916230394998,0.9976920621295483,204.14944105443925,21.414353222184545,-143.78932881805497,8.830797634701241,-35.980621337890625,4381.2578125,True
1599569043.7704525,0.0,10,0.5,0.5,-5.367854541015625,-0.1005,-0.0155,-0.5,-0.0107379426665309,10,1,100,0.6985595882785093,-10,-1,-100,6484.856803827453,-0.06758473943380898,-0.00625865795900322,0.9976939070657976,203.59210073395525,21.36441817857071,-134.20550188617108,8.260810712776419,-36.5008544921875,4381.2578125,True
1599569043.8293345,0.0,10,0.5,0.5,-5.520507998657227,-0.1005,-0.0155,-0.5,-0.0364174002835623,10,1,100,0.6982936852925237,-10,-1,-100,6485.016948822769,-0.06754348018674042,-0.005996183092475522,0.9976983131551265,203.4470468725286,21.351719753267048,-131.04564483599444,8.070815900627018,-36.817901611328125,4381.2578125,True
1599569043.8889084,0.0,10,0.5,0.5,-5.527150059509277,-0.1005,-0.0155,-0.5,-0.028333467421308496,10,1,100,0.701172613655895,-10,-1,-100,6485.175623077317,-0.06747074069253897,-0.0056786282031639655,0.9977050928666898,203.3179493661109,21.340474521208545,-127.89887308550816,7.8808198609892255,-37.208099365234375,4381.2578125,True
1599569043.9487505,0.0,10,0.5,0.5,-5.203191540527344,-0.1005,-0.0155,-0.5,0.025965238586371793,10,1,100,0.6866211117066414,-10,-1,-100,6485.493926443509,-0.0672109904612785,-0.004891154950808036,0.997726795953913,203.08735734163787,21.320097574404496,-121.62960400554658,7.5008205087860045,-38.208740234375,4381.2578125,True
1599569044.4643743,0.0,10,0.5,0.5,-5.006591009521484,-0.1005,-0.0155,-0.5,0.05778863596967297,10,1,100,0.6760564451555643,-10,-1,-100,6485.75019161182,-0.06681771056379439,-0.0038815200588628086,0.9977576496108892,202.8510960949542,21.297913284051212,-115.36582712825209,7.120804561187036,-39.50299072265625,4381.2578125,True
1599569044.515275,0.0,10,0.5,0.5,-5.277195098876953,-0.1005,-0.0155,-0.5,0.020430464286267373,10,1,100,0.6938717562181493,-10,-1,-100,6485.90931985667,-0.06656139738431979,-0.0032997612450718686,0.9977768748342346,202.711089770855,21.284018761307596,-112.22524392465299,6.93078759517083,-40.260345458984375,4381.2578125,True
1599569044.5731182,0.0,10,0.5,0.5,-4.6909819473266605,-0.1005,-0.0155,-0.5,0.105612663801033,10,1,100,0.6559115572814279,-10,-1,-100,6486.165058475104,-0.06592278232411422,-0.001993506181268534,0.9978227361128592,202.33991616795203,21.24555288005144,-105.90521947273146,6.550730155799642,-41.99554443359375,4381.2578125,True
1599569044.6320093,0.0,10,0.5,0.5,-4.414432218933106,-0.1005,-0.0155,-0.5,0.13859461333435905,10,1,100,0.6368307026136959,-10,-1,-100,6486.42028323852,-0.06510883106119876,-0.0005043533946159307,0.9978780415188511,201.77126465964665,21.18479306295607,-99.50515862812615,6.170632398361469,-44.0247802734375,4381.2578125,True
1599569044.6913104,0.0,10,0.5,0.5,-4.021290614318848,-0.1005,-0.0155,-0.5,0.1725000443752029,10,1,100,0.6079956395755552,-10,-1,-100,6486.674996191054,-0.06410869224008481,0.0011517456645115448,0.9979422573782465,200.89783714460816,21.09045341231234,-92.99331639059837,5.790480503836921,-46.348236083984375,4381.2578125,True
1599569044.75019,0.0,10,0.5,0.5,-4.40295816192627,-0.1005,-0.0155,-0.5,0.10450951387407013,10,1,100,0.644342456289331,-10,-1,-100,6486.772071058862,-0.06353293414344904,0.002031809762639454,0.9979776741131099,200.31041724952593,21.02688978774248,-89.6878103240377,5.60037879097051,-47.620391845703125,4381.2578125,True
1599569044.8105066,0.0,10,0.5,0.5,-3.3604931472778325,-0.1005,-0.0155,-0.5,0.2212467083600687,10,1,100,0.5577393812629285,-10,-1,-100,6486.96522611822,-0.06222587787053364,0.0038850882326347817,0.9980545306808973,198.74893131807235,20.858106872912753,-82.9648537991295,5.220111721853576,-50.385589599609375,4381.2578125,True
1599569044.8713756,0.0,10,0.5,0.5,-2.8840238250732426,-0.1005,-0.0155,-0.5,0.2513897484899668,10,1,100,0.5204686370668763,-10,-1,-100,6487.157872992801,-0.060703691640249406,0.005834692891819028,0.998138777014551,196.55764616602445,20.621912496269953,-76.08747167437942,4.83974268772908,-53.44561767578125,4381.2578125,True
1599569044.9342048,0.0,10,0.5,0.5,-2.37394732208252,-0.1005,-0.0155,-0.5,0.2856379699134244,10,1,100,0.4802000109715748,-10,-1,-100,6487.351968329516,-0.058960025546894175,0.00790765288948678,0.998229024028699,193.58188609807917,20.302453844591707,-69.05776096159754,4.459244919754067,-56.800018310546875,4381.2578125,True
1599569044.9940472,0.0,10,0.5,0.5,-0.6663330673217773,-0.1005,-0.0155,-0.5,0.42318445187763354,10,1,100,0.31965437647351985,-10,-1,-100,6487.578631938319,-0.055923105798539506,0.011030233376956956,0.9983741483980318,187.29165413656398,19.631183526655885,-58.273175691481384,3.8881849174053156,-62.3861083984375,4381.2578125,True
1599569045.0538878,0.0,10,0.5,0.5,-2.215057258605957,-0.1005,-0.0155,-0.5,0.22854555075274924,10,1,100,0.4985145247957171,-10,-1,-100,6487.675178105943,-0.054798532725385,0.012085024365951108,0.9984242950756053,184.62887703900262,19.3482997361138,-54.63542023612924,3.6977318306299067,-64.39584350585938,4381.2578125,True
1599569045.1134615,0.0,10,0.5,0.5,-0.6343287902832033,-0.1005,-0.0155,-0.5,0.3535239340814878,10,1,100,0.3446606843267759,-10,-1,-100,6487.805276507512,-0.05238844881628908,0.014165577345820857,0.9985263075398078,178.37607769098065,18.686257503700297,-47.35249055167136,3.3166508157585675,-68.6373291015625,4381.2578125,True
1599569045.1733017,0.0,10,0.5,0.5,-0.015911024475097513,-0.1005,-0.0155,-0.5,0.3624940211062512,10,1,100,0.30042663258550584,-10,-1,-100,6487.934885030962,-0.04980822019997946,0.01612265781084494,0.9986286602664801,170.7787176382,17.885426948250448,-40.128170166873815,2.9352709006930127,-73.12554931640625,4381.2578125,True
1599569045.2341394,0.0,10,0.5,0.5,2.115942686462402,-0.1005,-0.0155,-0.5,0.48539242403773497,10,1,100,0.08480937676351419,-10,-1,-100,6488.100488553173,-0.04551705055233818,0.019002610838432944,0.9987828086677999,156.8886144428654,16.426607849505615,-29.678029210223677,2.362630678328558,-80.3323974609375,4381.2578125,True
1599569045.2939801,0.0,10,0.5,0.5,1.6019911453247069,-0.1005,-0.0155,-0.5,0.38970403364940487,10,1,100,0.17739217833702248,-10,-1,-100,6488.16711566376,-0.0424754597783406,0.020733121892498086,0.9988823619291761,145.94864950431793,15.280050972220964,-23.14697914684009,1.9806105408000967,-85.38351440429688,4381.2578125,True
1599569045.3538191,0.0,10,0.5,0.5,2.169945240020752,-0.1005,-0.0155,-0.5,0.39128136949423803,10,1,100,0.1337013425915753,-10,-1,-100,6488.234730368829,-0.03933285441562214,0.022302851925484892,0.9989772316522081,151.03483144442907,15.812461558322305,-19.33451883394199,1.5985050290279683,-90.43431854248047,4381.2578125,True
1599569045.4166539,0.0,10,0.5,0.5,2.605873511123657,-0.1005,-0.0155,-0.5,0.3913825222612128,10,1,100,0.08983122852517061,-10,-1,-100,6488.3013845777605,-0.036099121303208796,0.02371237057866099,0.9990668530797507,157.7334251260183,16.512962240737004,-15.36721445647921,1.2164104612878268,-95.2552490234375,4381.2578125,True
1599569045.4764907,0.0,10,0.5,0.5,2.989165139389038,-0.1005,-0.0155,-0.5,0.3884415537544082,10,1,100,0.04723881203517544,-10,-1,-100,6488.307020157459,-0.032795911738894276,0.024948990292990105,0.9991506273113053,164.20840177458555,17.188727525394675,-10.97489445478713,0.8343779911054532,-99.79181671142578,4381.2578125,True
1599569045.536332,0.0,10,0.5,0.5,3.3410677879333495,-0.1005,-0.0155,-0.5,0.3825461874205256,10,1,100,0.00972799621826248,-10,-1,-100,6488.311698104255,-0.029477357245637645,0.026002219159889303,0.9992271863838444,169.4886152244283,17.738918363414733,-6.142593939095633,0.4523937034209977,-104.03553009033203,4381.2578125,True
1599569045.5981662,0.0,10,0.5,0.5,2.5003303890228272,-0.1005,-0.0155,-0.5,0.3298265302647254,10,1,100,0.1555590817110581,-10,-1,-100,6488.34529449651,-0.027813029091067264,0.026463980731771843,0.9992627748178192,171.96089919873208,17.996664533998523,-3.601323268332826,0.2614030908049352,-106.04702758789062,4381.2578125,True
1599569045.661996,0.0,10,0.5,0.5,3.8453674007415772,-0.1005,-0.0155,-0.5,0.3731861123329468,10,1,100,-0.045267212681848246,-10,-1,-100,6488.350491056219,-0.024499864525801836,0.027263911318326332,0.9993279920916074,176.6613745498001,18.48737190780663,1.7073660847719108,-0.1206168642931007,-109.84904479980469,4381.2578125,True
1599569045.723343,0.0,10,0.5,0.5,5.1076712230682375,-0.1005,-0.0155,-0.5,0.39369895487365114,10,1,100,-0.26060929087265955,-10,-1,-100,6488.3278064162005,-0.0195577857267346,0.02816380234106193,0.9994119737401392,182.22196447957762,19.068356215935783,10.132554956251553,-0.6938331049142166,-114.99951934814453,4381.2578125,True
1599569045.7861755,0.0,10,0.5,0.5,3.546786947631836,-0.1005,-0.0155,-0.5,0.3291821576509781,10,1,100,0.0489978829848951,-10,-1,-100,6488.298444895772,-0.017909443547278116,0.028382643091528863,0.9994366800367923,183.8823303210518,19.241850014679233,13.042319191230346,-0.8849565314404262,-116.56903076171875,4381.2578125,True
1599569045.8470132,0.0,10,0.5,0.5,4.581384380340577,-0.1005,-0.0155,-0.5,0.3471288964454509,10,1,100,-0.1385359495797668,-10,-1,-100,6488.2416901643155,-0.014735096521414113,0.02873359595801157,0.9994784927119874,186.56533083403505,19.522278866067598,18.952179534088124,-1.2672856370174221,-119.48662567138672,4381.2578125,True
1599569045.9128401,0.0,10,0.5,0.5,4.757852109146119,-0.1005,-0.0155,-0.5,0.341097492986527,10,1,100,-0.15933018562394846,-10,-1,-100,6488.183005053317,-0.01168827158298239,0.028988966727806015,0.9995113926891762,188.5368593459695,19.728522396235313,24.935907696184024,-1.6497277795099206,-122.10873413085938,4381.2578125,True
1599569045.9726808,0.0,10,0.5,0.5,5.53368978919983,-0.1005,-0.0155,-0.5,0.32928305032036825,10,1,100,-0.3558465533269651,-10,-1,-100,6488.03348887281,-0.007159906649103725,0.02910621263534924,0.999550681117672,190.48909970520828,19.932974471399636,33.96576076759953,-2.2235965369879804,-125.48919677734375,4381.2578125,True
1599569046.0325208,0.0,10,0.5,0.5,4.485657884216309,-0.1005,-0.0155,-0.5,0.31857477204650697,10,1,100,-0.06318104591882662,-10,-1,-100,6488.003190951189,-0.005733054910893942,0.029109266966344468,0.9995597944385674,190.92563565322538,19.97869898664217,36.97594933626699,-2.414937019746834,-126.46815490722656,4381.2578125,True
1599569046.0923982,0.0,10,0.5,0.5,5.541703842926026,-0.1005,-0.0155,-0.5,0.30865458783631383,10,1,100,-0.3737734402113354,-10,-1,-100,6487.853727279231,-0.0016399552611279823,0.029016953868622297,0.999577574245705,191.87806868689842,20.078350439341907,46.006639210214395,-2.9890963191098905,-128.96131896972656,4381.2578125,True
1599569046.1522374,0.0,10,0.5,0.5,5.116533201980592,-0.1005,-0.0155,-0.5,0.3014525207184602,10,1,100,-0.251316927969408,-10,-1,-100,6487.732620834722,0.0009394798032983085,0.028863861384552898,0.999582910459994,192.2630131398455,20.118458677492654,52.01266502848157,-3.3719727834642828,-130.25390625,4381.2578125,True
1599569046.213115,0.0,10,0.5,0.5,5.109169785308838,-0.1005,-0.0155,-0.5,0.29702242096695247,10,1,100,-0.26212580674090374,-10,-1,-100,6487.550002806471,0.0033550316352004106,0.028681811271999133,0.9995829617720002,192.53820787632694,20.14688960521336,58.012828166830296,-3.7549217697202195,-131.25022888183594,4381.2578125,True
1599569046.2729564,0.0,10,0.5,0.5,5.070403273010254,-0.1005,-0.0155,-0.5,0.29317717365721885,10,1,100,-0.27153131358678023,-10,-1,-100,6487.428432232584,0.005608157853050046,0.028479338166370653,0.9995786491632866,192.73275524239773,20.166657197486128,64.00669936200386,-4.137935652189746,-131.9501953125,4381.2578125,True
1599569046.3323073,0.0,10,0.5,0.5,4.898232039642334,-0.1005,-0.0155,-0.5,0.3002205352912587,10,1,100,-0.16810265673080074,-10,-1,-100,6487.336644972675,0.0066888229684236725,0.02835819733351963,0.9995754460226053,192.8241575739291,20.175843826104547,67.007431643546,-4.329464668914503,-132.1892547607422,4381.2578125,True
1599569046.3941433,0.0,10,0.5,0.5,4.958889168167115,-0.1005,-0.0155,-0.5,0.28552628349876585,10,1,100,-0.2862146166161842,-10,-1,-100,6487.152098584338,0.008721130337089402,0.028114308473730167,0.9995666698848493,193.0850460050018,20.20224288407587,73.04959727300837,-4.712561691215745,-132.4449462890625,4381.2578125,True
1599569046.453984,0.0,10,0.5,0.5,4.83124109992981,-0.1005,-0.0155,-0.5,0.2815076217778216,10,1,100,-0.29203353227701967,-10,-1,-100,6486.905057348544,0.010597372111080054,0.027856301980656435,0.9995557623986276,193.35731320684982,20.229699122112937,79.11614613081416,-5.095703510671095,-132.404296875,4381.2578125,True
1599569046.5138612,0.0,10,0.5,0.5,4.501718461608887,-0.1005,-0.0155,-0.5,0.25778031125036205,10,1,100,-0.38854575620236725,-10,-1,-100,6486.628738951404,0.01315740078799972,0.027406845340319185,0.9995377669868186,193.78680915448578,20.273096666004278,88.26401109906612,-5.670482674384846,-131.78836059570312,4381.2578125,True
1599569046.5756571,0.0,10,0.5,0.5,4.612385563659669,-0.1005,-0.0155,-0.5,0.2861980555139916,10,1,100,-0.21977364771454613,-10,-1,-100,6486.474459224497,0.013927820714972878,0.02725802981639785,0.9995313980164204,193.92666420084328,20.28729939709102,91.32245341362069,-5.862089365217585,-131.434814453125,4381.2578125,True
1599569046.6394897,0.0,10,0.5,0.5,4.240408537292481,-0.1005,-0.0155,-0.5,0.266158487359504,10,1,100,-0.30268863111166344,-10,-1,-100,6486.2269341496285,0.015362804381864019,0.02694224525035489,0.9995189341190062,194.18961410176286,20.314236296680132,97.44672786500851,-6.2453165762174345,-130.50564575195312,4381.2578125,True
1599569046.7013214,0.0,10,0.5,0.5,3.54054355545044,-0.1005,-0.0155,-0.5,0.2458445442347424,10,1,100,-0.36459794724368205,-10,-1,-100,6485.8251259374665,0.017210968899062717,0.02647246618165072,0.9995013712265817,194.4531850882167,20.342154942676864,106.59905556469602,-6.820175996653067,-128.55609130859375,4381.2578125,True
1599569046.7641537,0.0,10,0.5,0.5,4.035683602905274,-0.1005,-0.0155,-0.5,0.2732498901733352,10,1,100,-0.24229754464795694,-10,-1,-100,6485.732854979346,0.017762159414591132,0.026296846980167744,0.9994963639412764,194.4823771395526,20.345788743947214,109.62412941058399,-7.011796693142903,-127.75840759277344,4381.2578125,True
1599569046.8279836,0.0,10,0.5,0.5,2.726302533721924,-0.1005,-0.0155,-0.5,0.2373145139135192,10,1,100,-0.34001159486105015,-10,-1,-100,6485.2685330976965,0.019136257903725726,0.0258128415713707,0.999483617096075,194.26440877908016,20.326637371377657,118.5242050879866,-7.5866482902744945,-124.92018127441406,4381.2578125,True
1599569046.8938076,0.0,10,0.5,0.5,3.4785827529907225,-0.1005,-0.0155,-0.5,0.2672576758037685,10,1,100,-0.24582848595222428,-10,-1,-100,6485.112780211028,0.01951488169806919,0.025647655371194407,0.9994805486682925,194.0561762045443,20.306849796149102,121.40353870180594,-7.778259119439307,-123.82605743408203,4381.2578125,True
1599569046.9536476,0.0,10,0.5,0.5,2.566115365982056,-0.1005,-0.0155,-0.5,0.2415394140509372,10,1,100,-0.28409226556678524,-10,-1,-100,6484.8027320822,0.02019429521320015,0.025266257975822198,0.9994767664376905,193.36592949803602,20.240055037516967,126.96605461042685,-8.16146772795363,-121.41650390625,4381.2578125,True
1599569047.015484,0.0,10,0.5,0.5,1.2503303752899173,-0.1005,-0.0155,-0.5,0.21682995679654338,10,1,100,-0.2948853614757329,-10,-1,-100,6484.274412793107,0.020897785214996203,0.024697712495314515,0.9994765157674325,191.42964864881156,20.04961363820963,134.60372845251695,-8.736247837290595,-117.24687194824219,4381.2578125,True
1599569047.0753224,0.0,10,0.5,0.5,1.420595267105103,-0.1005,-0.0155,-0.5,0.2262729946095967,10,1,100,-0.259140739466428,-10,-1,-100,6483.902331871446,0.0212013007848372,0.024269804762224758,0.999480605825763,189.63234689023088,19.872452733463955,139.228909930986,-9.119421091414651,-114.09783935546875,4381.2578125,True
1599569047.1351619,0.0,10,0.5,0.5,1.9546847736358641,-0.1005,-0.0155,-0.5,0.24401230320160985,10,1,100,-0.24048094590192703,-10,-1,-100,6483.747049881611,0.02129794960803923,0.02404532462590549,0.9994839767130478,188.60429757307506,19.77112775241943,141.40434599051392,-9.311007036020253,-112.41249084472656,4381.2578125,True
1599569047.195002,0.0,10,0.5,0.5,0.6101637760162357,-0.1005,-0.0155,-0.5,0.21394052601285046,10,1,100,-0.24217664498613306,-10,-1,-100,6483.310501700151,0.021393827121879275,0.023570927910003266,0.9994932293510249,185.9382983698631,19.505905596239486,145.1868385292023,-9.694188865764186,-108.8202133178711,4381.2578125,True
1599569047.2578337,0.0,10,0.5,0.5,-1.196656174468994,-0.1005,-0.0155,-0.5,0.17062595437280417,10,1,100,-0.22503235053065407,-10,-1,-100,6482.720114256605,0.021318343997223228,0.022749241246006635,0.9995138819605994,180.17098320889033,18.924326002241695,149.096449893271,-10.26903402500419,-102.87865447998047,4381.2578125,True
1599569047.3236628,0.0,10,0.5,0.5,-0.8583502605438231,-0.1005,-0.0155,-0.5,0.18450804125930825,10,1,100,-0.21182415031516422,-10,-1,-100,6482.283054261352,0.021124234300472042,0.022132265981345507,0.9995318551840906,175.80856709875314,18.481869077169357,150.96656956973774,-10.65234815762713,-98.566162109375,4381.2578125,True
1599569047.386494,0.0,10,0.5,0.5,-0.090046603012085,-0.1005,-0.0155,-0.5,0.2092473018768461,10,1,100,-0.21659487049629397,-10,-1,-100,6482.06476561958,0.02098758360925268,0.021800227382904193,0.9995420308422744,173.19822027033248,18.214893793356342,151.4268237886265,-10.84403978081792,-96.33226013183594,4381.2578125,True
1599569047.447332,0.0,10,0.5,0.5,-2.8993725261688232,-0.1005,-0.0155,-0.5,0.12251187530905705,10,1,100,-0.17093879620533153,-10,-1,-100,6481.410375510692,0.02044536828350391,0.02071395806970243,0.9995763696971025,164.4091137364635,17.307931518090935,151.4458844425568,-11.419278372812848,-89.87503051757812,4381.2578125,True
1599569047.511161,0.0,10,0.5,0.5,-0.9448616535186768,-0.1005,-0.0155,-0.5,0.18656496238732145,10,1,100,-0.20065656647363272,-10,-1,-100,6481.193545105751,0.02022141670764433,0.020313376652504746,0.9995891461171981,161.53648741285107,17.0092862676139,151.32569440447193,-11.611075451065902,-87.84375,4381.2578125,True
1599569047.5710015,0.0,10,0.5,0.5,-2.3796086715698244,-0.1005,-0.0155,-0.5,0.13046299223299432,10,1,100,-0.16716846550718137,-10,-1,-100,6480.693472146639,0.01971274477988645,0.019444043161575414,0.9996165949396669,155.58869701549136,16.38649706024719,150.6237450146239,-11.994731761836139,-83.85604858398438,4381.2578125,True
1599569047.633055,0.0,10,0.5,0.5,-3.810207260131836,-0.1005,-0.0155,-0.5,0.0612205755665724,10,1,100,-0.12140271064640566,-10,-1,-100,6479.9770464787725,0.018834701210857067,0.01802955639541241,0.9996600367757442,163.3264349825185,17.195991388970878,165.7917611860959,-12.570178214826502,-78.25033569335938,4381.2578125,True
1599569047.692895,0.0,10,0.5,0.5,-2.1074550529479983,-0.1005,-0.0155,-0.5,0.144543141814882,10,1,100,-0.17316033377990184,-10,-1,-100,6479.695267643081,0.018508879162047718,0.017507199170339677,0.999675407004381,166.86557110670503,17.564330825163985,172.00098419730574,-12.761940069376347,-76.51901245117188,4381.2578125,True
1599569047.751737,0.0,10,0.5,0.5,-3.248092081451416,-0.1005,-0.0155,-0.5,0.07800493345925713,10,1,100,-0.1303637687414326,-10,-1,-100,6479.19665022986,0.01782606527334658,0.0164335839857605,0.9997060411512243,173.21570295175923,18.221145996239652,183.98203024005386,-13.145367928794087,-73.27496337890625,4381.2578125,True
1599569047.8145702,0.0,10,0.5,0.5,-4.274554382324219,-0.1005,-0.0155,-0.5,-0.005781683881244698,10,1,100,-0.07655494937165416,-10,-1,-100,6478.353753540665,0.016719310547833644,0.014702793424538634,0.9997521155368068,181.35432831637638,19.054279964373677,201.17022147220058,-13.720250975690814,-68.96551513671875,4381.2578125,True
1599569047.8764045,0.0,10,0.5,0.5,-3.6830749530792235,-0.1005,-0.0155,-0.5,0.029931701144133877,10,1,100,-0.10014357742476218,-10,-1,-100,6477.791660649236,0.015931861522008362,0.013462076536827166,0.9997824504779828,185.8753139936952,19.511782815120274,212.0279396936902,-14.103328560928322,-66.46514892578125,4381.2578125,True
1599569047.940234,0.0,10,0.5,0.5,-3.812181063079834,-0.1005,-0.0155,-0.5,0.013748670628001003,10,1,100,-0.08835346420439859,-10,-1,-100,6477.229571288452,0.01511371272605045,0.012195476511223878,0.9998114052361566,189.69372353569807,19.894139770292522,222.350500374692,-14.486268308478177,-64.26223754882812,4381.2578125,True
1599569048.0010715,0.0,10,0.5,0.5,-3.3582939643859864,-0.1005,-0.0155,-0.5,0.06834700853923512,10,1,100,-0.12326536273736019,-10,-1,-100,6476.948284099111,0.014692786099637837,0.011549403913932218,0.9998253514018651,191.37182855301194,20.06073867806998,227.32896042871891,-14.677688507098933,-63.27239990234375,4381.2578125,True
1599569048.0619833,0.0,10,0.5,0.5,-3.9691947372436527,-0.1005,-0.0155,-0.5,-0.01559533158478682,10,1,100,-0.06944906360719058,-10,-1,-100,6476.323212728137,0.013826608990360843,0.010208271936602302,0.9998522971258786,194.32590537588462,20.351378949450243,236.95740066865088,-15.06043452382119,-61.5162353515625,4381.2578125,True
1599569048.1228201,0.0,10,0.5,0.5,-4.382084692382813,-0.1005,-0.0155,-0.5,-0.10917426933325654,10,1,100,-0.0069135555501523005,-10,-1,-100,6475.417353117606,0.012476687689856993,0.008147894055982745,0.9998889658790832,197.8871263098383,20.695743181013505,250.65624636810668,-15.634332477394107,-59.439605712890625,4381.2578125,True
1599569048.694616,0.0,10,0.5,0.5,-3.995974809265137,-0.1005,-0.0155,-0.5,-0.05892017558600733,10,1,100,-0.038335883928630826,-10,-1,-100,6474.792295400635,0.01154218470103765,0.006742738182754979,0.9999106527355962,199.78115145215153,20.874967169985922,259.3591538823672,-16.016794949016813,-58.42681884765625,4381.2578125,True
1599569048.7514699,0.0,10,0.5,0.5,-3.766242562866211,-0.1005,-0.0155,-0.5,0.002777693445415619,10,1,100,-0.07842118640154472,-10,-1,-100,6474.44851921557,0.011064476151936418,0.006037760111905237,0.9999205582546618,200.60284296667996,20.951448324666664,263.5928419432798,-16.207988593549455,-58.03173828125,4381.2578125,True
1599569048.808317,0.0,10,0.5,0.5,-4.04466180267334,-0.1005,-0.0155,-0.5,-0.15790096966994266,10,1,100,0.036682477611278644,-10,-1,-100,6473.478235488641,0.009590862548145014,0.003947057470341767,0.9999462166001272,202.63941424898613,21.13589175212493,275.8751142903509,-16.781431045867315,-57.29132080078125,4381.2578125,True
1599569048.8641686,0.0,10,0.5,0.5,-3.777724139404297,-0.1005,-0.0155,-0.5,-0.10618143150599627,10,1,100,0.002123346755135036,-10,-1,-100,6472.791187293711,0.008573495022130409,0.0025289237265017587,0.999960049065907,203.6681776556619,21.224142839388186,283.7202379214294,-17.163621761968997,-57.168975830078125,4381.2578125,True
1599569048.9279966,0.0,10,0.5,0.5,-3.7114616134643557,-0.1005,-0.0155,-0.5,-0.0439667138905322,10,1,100,-0.04158412917656869,-10,-1,-100,6472.448398703244,0.008054367570815544,0.0018179401742962054,0.9999659105472332,204.08758275022802,21.258183410086918,287.53592628002366,-17.354689138281685,-57.219024658203125,4381.2578125,True
1599569048.9868402,0.0,10,0.5,0.5,-3.3986043579101564,-0.1005,-0.0155,-0.5,-0.19517461897602212,10,1,100,0.08273519647999868,-10,-1,-100,6471.352659962373,0.006460135057266889,-0.00019131232553125832,0.9999791148092223,204.96236846441292,21.319329285514858,298.51505794605623,-17.927793732446382,-57.81201171875,4381.2578125,True
1599569049.044686,0.0,10,0.5,0.5,-3.500805569458008,-0.1005,-0.0155,-0.5,-0.06936010256611458,10,1,100,-0.015770238902478945,-10,-1,-100,6471.009390748106,0.005914947390667673,-0.0008617250045003762,0.9999821352541165,205.1235056979408,21.325714571415116,302.0049987520171,-18.118800510033225,-58.15789794921875,4381.2578125,True
1599569049.106522,0.0,10,0.5,0.5,-2.793730781555176,-0.1005,-0.0155,-0.5,-0.21875535937962082,10,1,100,0.11464015130955613,-10,-1,-100,6469.914162713103,0.004242135751227506,-0.0028174595913989724,0.9999870330187881,205.1504516657245,21.295931021461488,311.8241831566196,-18.691756790144268,-59.639129638671875,4381.2578125,True
1599569049.1698976,0.0,10,0.5,0.5,-3.1549346923828128,-0.1005,-0.0155,-0.5,-0.09175756431365199,10,1,100,0.010652354315107547,-10,-1,-100,6469.507912420551,0.0036762420974572594,-0.003427813930247679,0.9999873675880613,204.9894693561553,21.2678319848683,314.841215900523,-18.882726541689117,-60.28033447265625,4381.2578125,True
1599569049.2287407,0.0,10,0.5,0.5,-2.055681774902344,-0.1005,-0.0155,-0.5,-0.23344077419676676,10,1,100,0.1464009396065026,-10,-1,-100,6468.351670151344,0.0019369428794651746,-0.0052583142500776826,0.999984299068505,204.17836920595866,21.14805321219252,323.35658744465684,-19.455612400908883,-62.647979736328125,4381.2578125,True
1599569049.2885828,0.0,10,0.5,0.5,-2.672259057617188,-0.1005,-0.0155,-0.5,-0.11284157677668596,10,1,100,0.03759136419691969,-10,-1,-100,6467.943961584242,0.0013545213166598438,-0.005813861647644169,0.9999821819836315,203.74220292036463,21.090546597874877,325.9178572775513,-19.646572512062384,-63.584320068359375,4381.2578125,True
1599569049.350416,0.0,10,0.5,0.5,-0.4400810317993167,-0.1005,-0.0155,-0.5,-0.2936351394956575,10,1,100,0.2413265930442449,-10,-1,-100,6466.380523612956,-0.001017829763243979,-0.007951067488485808,0.9999678717580713,200.70161308508156,20.726025789673635,333.89716890947574,-20.410461878251837,-68.06784057617188,4381.2578125,True
1599569049.4122903,0.0,10,0.5,0.5,-2.6662853271484375,-0.1005,-0.0155,-0.5,-0.0813134381715327,10,1,100,0.005299715645380656,-10,-1,-100,6466.380523612956,-0.001017829763243979,-0.007951067488485808,0.9999678717580713,200.70161308508156,20.726025789673635,333.89716890947574,-20.410461878251837,-68.06784057617188,4381.2578125,True
1599569049.4721305,0.0,10,0.5,0.5,0.698909489440918,-0.1005,-0.0155,-0.5,-0.28197324208302493,10,1,100,0.2656288516805744,-10,-1,-100,6464.69015154778,-0.0033748140069172045,-0.00976443104680953,0.9999466318342948,195.06471201048814,20.098107335193085,337.0534454340999,-21.17453985573637,-73.64401245117188,4381.2578125,True
1599569049.5319703,0.0,10,0.5,0.5,-1.1472582290649416,-0.1005,-0.0155,-0.5,-0.15092193426214362,10,1,100,0.09829053582716492,-10,-1,-100,6464.2844062258955,-0.003985407439744553,-0.010210392069847347,0.9999399304064817,193.2453163038825,19.900729092481697,337.0227655830425,-21.365602536201024,-75.1700439453125,4381.2578125,True
1599569049.5967977,0.0,10,0.5,0.5,-0.9253663696289063,-0.1005,-0.0155,-0.5,-0.1532617004194946,10,1,100,0.10493220140860715,-10,-1,-100,6463.8151854685275,-0.004589925906682018,-0.010626146935635695,0.9999330065466753,191.23030167498317,19.684328443216454,336.592723160009,-21.55668438080212,-76.76385498046875,4381.2578125,True
1599569049.6606271,0.0,10,0.5,0.5,1.1480981445312501,-0.1005,-0.0155,-0.5,-0.22154932125782212,10,1,100,0.22935838417686358,-10,-1,-100,6462.531060778303,-0.006260589755460272,-0.011615416244327985,0.9999129397709507,184.2587869181453,18.948286169885737,333.2575220613155,-22.130043613628846,-81.49490356445312,4381.2578125,True
1599569049.7240386,0.0,10,0.5,0.5,-0.1944274795532226,-0.1005,-0.0155,-0.5,-0.1583115862833736,10,1,100,0.12575929154675808,-10,-1,-100,6462.062818620936,-0.00682649646939761,-0.011930087396789782,0.9999055315181821,181.71727252639286,18.68380228505611,331.60468495999424,-22.321194937244197,-83.13824462890625,4381.2578125,True
1599569049.786381,0.0,10,0.5,0.5,2.1631279846191407,-0.1005,-0.0155,-0.5,-0.214617778116241,10,1,100,0.24638642953441808,-10,-1,-100,6460.717174549587,-0.008427505070846076,-0.012719742344958037,0.9998835858803556,185.8808432260172,19.113714675166623,348.2537418185113,-22.894555889375642,-88.37188720703125,4381.2578125,True
1599569049.8479595,0.0,10,0.5,0.5,0.6119475059509277,-0.1005,-0.0155,-0.5,-0.16078492030353878,10,1,100,0.1426133480718649,-10,-1,-100,6460.247956587933,-0.008928572379623013,-0.012939773655527603,0.999876413789727,189.28208349607775,19.467813886089047,357.703305153364,-23.085577256056872,-90.07396697998047,4381.2578125,True
1599569049.9097948,0.0,10,0.5,0.5,1.8348013874053954,-0.1005,-0.0155,-0.5,-0.185333700939416,10,1,100,0.2053753705284557,-10,-1,-100,6459.309519393719,-0.00994477421424461,-0.013355989707821137,0.9998613498904496,195.53128568777618,20.1242350978352,375.8765071460372,-23.467452934365518,-93.456787109375,4381.2578125,True
1599569049.9716291,0.0,10,0.5,0.5,3.947844498825073,-0.1005,-0.0155,-0.5,-0.2095814355339758,10,1,100,0.3011787169935409,-10,-1,-100,6457.367698853021,-0.011729261490373287,-0.013947945407983824,0.9998339258315785,206.89104627931354,21.33694081255576,411.1980570510918,-24.230476373393223,-99.71515655517578,4381.2578125,True
1599569050.032466,0.0,10,0.5,0.5,0.8677131156921387,-0.1005,-0.0155,-0.5,-0.15098555330965693,10,1,100,0.12380113255338614,-10,-1,-100,6457.367698853021,-0.011729261490373287,-0.013947945407983824,0.9998339258315785,206.89104627931354,21.33694081255576,411.1980570510918,-24.230476373393223,-99.71515655517578,4381.2578125,True
1599569050.0933032,0.0,10,0.5,0.5,3.351125246810913,-0.1005,-0.0155,-0.5,-0.18275373032402434,10,1,100,0.24872209569055237,-10,-1,-100,6455.897532717092,-0.01285516894459559,-0.014231295310005802,0.9998160905212544,213.98097634481599,22.108712621408163,435.7602297482546,-24.80209526256641,-103.76904296875,4381.2578125,True
1599569050.157135,0.0,10,0.5,0.5,2.7776608905792237,-0.1005,-0.0155,-0.5,-0.16881818361645246,10,1,100,0.21118715853237321,-10,-1,-100,6454.897072588792,-0.013528875969779983,-0.014358138556081314,0.9998053877491352,218.22591355838594,22.575676896716303,451.52844626181616,-25.18287851683645,-106.11173248291016,4381.2578125,True
1599569050.2309365,0.0,10,0.5,0.5,2.897970296478271,-0.1005,-0.0155,-0.5,-0.16514826166252294,10,1,100,0.2090417097792196,-10,-1,-100,6453.894167420687,-0.014113156941709821,-0.01443631699249039,0.9997961850061396,221.82739018746648,22.976624538460726,466.22541474567265,-25.563444013646738,-108.18283081054688,4381.2578125,True
1599569050.308729,0.0,10,0.5,0.5,2.980073952484131,-0.1005,-0.0155,-0.5,-0.1619940116346162,10,1,100,0.20518306167589984,-10,-1,-100,6452.83022345067,-0.014600585359765833,-0.014475249507102347,0.999788622689246,224.86551407601073,23.319016425830277,479.95991444455666,-25.943811848194876,-109.96293640136719,4381.2578125,True
1599569050.3805358,0.0,10,0.5,0.5,3.0251656051635742,-0.1005,-0.0155,-0.5,-0.15869904022949574,10,1,100,0.20270170388687447,-10,-1,-100,6451.829263075604,-0.015013562491185335,-0.014478088568282328,0.9997824652856901,227.40628602587648,23.609158051615363,492.82072751545553,-26.32400082948179,-111.44673156738281,4381.2578125,True
1599569050.45035,0.0,10,0.5,0.5,2.705775647735596,-0.1005,-0.0155,-0.5,-0.15748816825694226,10,1,100,0.18119879904143005,-10,-1,-100,6451.297043530969,-0.015186072506588308,-0.01446734524126683,0.9997800153651276,228.51158845755188,23.73676666324126,498.95538250425926,-26.514034016574335,-112.07725524902344,4381.2578125,True
1599569050.5221567,0.0,10,0.5,0.5,3.495986043548584,-0.1005,-0.0155,-0.5,-0.14618476495991412,10,1,100,0.2175474194546934,-10,-1,-100,6449.105164676672,-0.015667197644860912,-0.014353231638646751,0.9997742363451281,232.00969560779646,24.149090368142268,521.7986681008204,-27.273805222096996,-113.85698699951172,4381.2578125,True
1599569050.5989516,0.0,10,0.5,0.5,2.798757778930664,-0.1005,-0.0155,-0.5,-0.1526286365002293,10,1,100,0.17809592289021597,-10,-1,-100,6448.572939012898,-0.015739808142463268,-0.01430678768846489,0.9997737615409177,232.6830947961454,24.230805326451556,527.1308493108448,-27.46366665958903,-114.11639404296875,4381.2578125,True
1599569050.6737528,0.0,10,0.5,0.5,2.8790935241699223,-0.1005,-0.0155,-0.5,-0.14575069753584263,10,1,100,0.17984109741306228,-10,-1,-100,6447.446961537236,-0.015816414696011086,-0.014201174835913644,0.999774058304897,233.82033445802023,24.37212270671537,537.38718545931,-27.843303161190406,-114.412841796875,4381.2578125,True
1599569050.746558,0.0,10,0.5,0.5,2.686853497695923,-0.1005,-0.0155,-0.5,-0.1337004124298821,10,1,100,0.16966972790924623,-10,-1,-100,6445.789726731833,-0.01578987442810565,-0.013995384896787479,0.9997773797536805,235.03283575411382,24.53264566845888,551.7737534089056,-28.412563886637887,-114.30160522460938,4381.2578125,True
1599569050.826855,0.0,10,0.5,0.5,2.7650807792663574,-0.1005,-0.0155,-0.5,-0.15428415029137899,10,1,100,0.17272981599356307,-10,-1,-100,6445.789726731833,-0.01578987442810565,-0.013995384896787479,0.9997773797536805,235.03283575411382,24.53264566845888,551.7737534089056,-28.412563886637887,-114.30160522460938,4381.2578125,True
1599569050.901656,0.0,10,0.5,0.5,2.314382256317139,-0.1005,-0.0155,-0.5,-0.12647805985779118,10,1,100,0.1518569939953222,-10,-1,-100,6444.0069941224065,-0.015597453586772997,-0.013742816720494152,0.9997839038663282,235.66096748787712,24.63333058883211,564.9065896402878,-28.981626282795155,-113.52388000488281,4381.2578125,True
1599569050.9844356,0.0,10,0.5,0.5,2.1811366298675536,-0.1005,-0.0155,-0.5,-0.12958008390250123,10,1,100,0.1475615602812556,-10,-1,-100,6442.880024959915,-0.015381595626690895,-0.013541968889575389,0.9997899887449219,235.7325006632621,24.66543257219954,572.8695859777758,-29.360910818039486,-112.63529205322266,4381.2578125,True
1599569051.0642204,0.0,10,0.5,0.5,1.9210570068359374,-0.1005,-0.0155,-0.5,-0.12479680351705888,10,1,100,0.1386806724883767,-10,-1,-100,6441.691040641395,-0.015103472647876466,-0.013316708628966051,0.9997972546397925,235.49000328201782,24.666029119849284,580.0788610960647,-29.740138969200544,-111.45082092285156,4381.2578125,True
1599569051.151989,0.0,10,0.5,0.5,2.0933584861755374,-0.1005,-0.0155,-0.5,-0.13387748470313118,10,1,100,0.1488969998049431,-10,-1,-100,6441.092397253262,-0.014943052108842942,-0.01319553143999289,0.9998012718254005,235.2371633974365,24.653108074591692,583.3572358456362,-29.9297367200415,-110.74767303466797,4381.2578125,True
1599569051.2237957,0.0,10,0.5,0.5,0.9108036167144773,-0.1005,-0.0155,-0.5,-0.10072826802878919,10,1,100,0.10245359180199864,-10,-1,-100,6439.246657361626,-0.014375066555496918,-0.012785179804912623,0.9998149311942092,233.87072473501743,24.55283996841935,591.6307718096194,-30.498490762213464,-108.1947250366211,4381.2578125,True
1599569051.299592,0.0,10,0.5,0.5,0.9373727272033692,-0.1005,-0.0155,-0.5,-0.10724720489543968,10,1,100,0.11019064165627984,-10,-1,-100,6437.994188609649,-0.013929790147449536,-0.012472925167660435,0.9998251782607848,232.36955887303085,24.42558272769126,595.5821261846703,-30.877652554865932,-106.12330627441406,4381.2578125,True
1599569051.3798947,0.0,10,0.5,0.5,-0.2291687381744385,-0.1005,-0.0155,-0.5,-0.0806001247360362,10,1,100,0.07342779894143432,-10,-1,-100,6436.149906572071,-0.01319236521317824,-0.011948520501864766,0.9998415846312347,229.1142703369567,24.12997595414222,598.7388572964604,-31.44643843292651,-102.47590637207031,4381.2578125,True
1599569051.452213,0.0,10,0.5,0.5,1.576488457107544,-0.1005,-0.0155,-0.5,-0.13280476459694313,10,1,100,0.14691554807563542,-10,-1,-100,6436.149906572071,-0.01319236521317824,-0.011948520501864766,0.9998415846312347,229.1142703369567,24.12997595414222,598.7388572964604,-31.44643843292651,-102.47590637207031,4381.2578125,True
1599569051.522573,0.0,10,0.5,0.5,-0.10890158729553212,-0.1005,-0.0155,-0.5,-0.0892891650316267,10,1,100,0.08709280957664231,-10,-1,-100,6434.901828579605,-0.012650907635444514,-0.011554972009756479,0.9998532078049523,226.16483336385417,23.849828848268622,598.6276062856443,-31.825690958337226,-99.7000732421875,4381.2578125,True
1599569051.5923853,0.0,10,0.5,0.5,-0.47042141304016116,-0.1005,-0.0155,-0.5,-0.08241561462806826,10,1,100,0.0802866648932482,-10,-1,-100,6433.577090103645,-0.012099653037467236,-0.011136932388613897,0.9998647744236939,223.1269094766496,23.557937925150743,598.104316996019,-32.20500730211371,-96.824462890625,4381.2578125,True
1599569051.6602037,0.0,10,0.5,0.5,-1.8095570880889893,-0.1005,-0.0155,-0.5,-0.04544743963267325,10,1,100,0.0354089209313036,-10,-1,-100,6431.613174508908,-0.011193887750007158,-0.010423420644442662,0.999883017747131,217.73112933795952,23.023939445613664,594.6858341329946,-32.77411194671525,-92.24519348144531,4381.2578125,True
1599569051.7270257,0.0,10,0.5,0.5,-1.4174726078033446,-0.1005,-0.0155,-0.5,-0.06026674980987856,10,1,100,0.05818067928173408,-10,-1,-100,6430.292829891085,-0.010581483988080788,-0.009912512238694361,0.9998948816239274,213.99657780395484,22.64617208433966,591.7480794088988,-33.15360009300587,-89.14016723632812,4381.2578125,True
1599569051.7938473,0.0,10,0.5,0.5,-1.6849359649658204,-0.1005,-0.0155,-0.5,-0.051776873713635437,10,1,100,0.05086018059172152,-10,-1,-100,6428.976392310113,-0.00996256704518271,-0.009374168865912679,0.9999064317304613,209.97477794124384,22.230976362715158,587.769654959006,-33.533144657488286,-86.1700439453125,4381.2578125,True
1599569051.86067,0.0,10,0.5,0.5,-1.8649616539001466,-0.1005,-0.0155,-0.5,-0.04310331773047728,10,1,100,0.04386367718101558,-10,-1,-100,6427.601362723857,-0.00934098425299867,-0.008809499417867033,0.9999175659689111,205.9459892273187,21.807648587779823,583.5112209797152,-33.91272916566835,-83.46246337890625,4381.2578125,True
1599569051.924497,0.0,10,0.5,0.5,-2.0038593349456786,-0.1005,-0.0155,-0.5,-0.034315942924406,10,1,100,0.037237133258838456,-10,-1,-100,6426.284928310313,-0.008720760467953247,-0.008220265632335912,0.9999281852062148,204.76066321751682,21.678260650881313,587.1419262181099,-34.2922977860687,-81.04714965820312,4381.2578125,True
1599569051.988326,0.0,10,0.5,0.5,-1.4966174591064454,-0.1005,-0.0155,-0.5,-0.05962413833582502,10,1,100,0.06490646913994982,-10,-1,-100,6425.561282311217,-0.008413600358728913,-0.00791882298029559,0.9999332495579945,207.37023745803165,21.950122198486177,598.1671119736694,-34.482007272109584,-79.95083618164062,4381.2578125,True
1599569052.0521564,0.0,10,0.5,0.5,-2.695966892242432,-0.1005,-0.0155,-0.5,0.012473158884508687,10,1,100,-0.004735506260629643,-10,-1,-100,6423.468471256085,-0.007506269746509452,-0.0069934943238807775,0.9999473720909687,214.05574562287336,22.636203945073575,628.4331124982582,-35.05079623062931,-77.10830688476562,4381.2578125,True
1599569052.117981,0.0,10,0.5,0.5,-1.793645008850098,-0.1005,-0.0155,-0.5,-0.044822259831255575,10,1,100,0.05266685386462083,-10,-1,-100,6422.741409274051,-0.007208432550600099,-0.006677658466536063,0.9999517225234266,215.93241301972088,22.82530361731495,637.6390166588837,-35.240284492023065,-76.30960083007812,4381.2578125,True
1599569052.1838052,0.0,10,0.5,0.5,-2.6056854789733888,-0.1005,-0.0155,-0.5,0.030817239640582195,10,1,100,-0.014991972351157623,-10,-1,-100,6420.648604381597,-0.006328031163868682,-0.005707694839238096,0.9999636884613415,220.6148844541454,23.287136806652665,662.8072043682732,-35.808451206343705,-74.35983276367188,4381.2578125,True
1599569052.2516255,0.0,10,0.5,0.5,-2.4390846015930174,-0.1005,-0.0155,-0.5,0.043769991305558975,10,1,100,-0.021651582613712764,-10,-1,-100,6418.4869563303655,-0.005472872424881961,-0.004713473142167899,0.9999739150789679,224.01770216210565,23.608229753169088,684.5658723540548,-36.37621584036965,-73.0792236328125,4381.2578125,True
1599569052.3164492,0.0,10,0.5,0.5,-2.124821347808838,-0.1005,-0.0155,-0.5,0.014693121882509236,10,1,100,0.0041687490845909725,-10,-1,-100,6416.984011810506,-0.004936210023617327,-0.004079809920719487,0.9999794942805643,225.6483240454256,23.753168221191427,697.307481975599,-36.754532079886374,-72.59756469726562,4381.2578125,True
1599569052.382273,0.0,10,0.5,0.5,-1.9144457046508792,-0.1005,-0.0155,-0.5,-0.04803883918995966,10,1,100,0.057209221438415454,-10,-1,-100,6416.984011810506,-0.004936210023617327,-0.004079809920719487,0.9999794942805643,225.6483240454256,23.753168221191427,697.307481975599,-36.754532079886374,-72.59756469726562,4381.2578125,True
1599569052.4476206,0.0,10,0.5,0.5,-2.039467582702637,-0.1005,-0.0155,-0.5,0.0569141074125588,10,1,100,-0.02892115577040113,-10,-1,-100,6414.763290449977,-0.004158338661686688,-0.00313099468098566,0.9999864524541733,227.2053895039896,23.87576876946476,713.8593260599055,-37.32176215792649,-72.43206787109375,4381.2578125,True
1599569052.5084574,0.0,10,0.5,0.5,-1.8214923263549805,-0.1005,-0.0155,-0.5,0.032788477471529694,10,1,100,-0.006882599278832703,-10,-1,-100,6413.256932982709,-0.003656809962930817,-0.0024934348935869246,0.9999902052136942,227.6767007879824,23.897901318807737,723.1996955664977,-37.69977939134372,-72.69271850585938,4381.2578125,True
1599569052.5712886,0.0,10,0.5,0.5,-1.823480322265625,-0.1005,-0.0155,-0.5,0.005001173558255571,10,1,100,0.015579647505015518,-10,-1,-100,6412.4766558693955,-0.00341024445690598,-0.0021721888174580936,0.9999918258808347,227.74477269990126,23.891564049952663,727.3523702364558,-37.88875420640554,-72.93423461914062,4381.2578125,True
1599569052.6353264,0.0,10,0.5,0.5,-1.2540004241943359,-0.1005,-0.0155,-0.5,0.07071929205798326,10,1,100,-0.03562047376045789,-10,-1,-100,6410.191001303727,-0.002725466090843685,-0.0012882077408115208,0.9999954561673788,227.2720375180668,23.803182745338532,737.6514654843861,-38.45557082195872,-74.1046142578125,4381.2578125,True
1599569052.6961641,0.0,10,0.5,0.5,-1.157442317199707,-0.1005,-0.0155,-0.5,0.048311802929866005,10,1,100,-0.0162103807444186,-10,-1,-100,6408.683672701009,-0.002284566725721852,-0.0006943208588788697,0.9999971493326472,226.36871193316324,23.68478528124572,742.5825810244949,-38.83338202298979,-75.2550048828125,4381.2578125,True
1599569053.2260747,0.0,10,0.5,0.5,-1.323417855834961,-0.1005,-0.0155,-0.5,0.021661300974541428,10,1,100,0.003911130869746808,-10,-1,-100,6407.900956516736,-0.0020714189566678597,-0.00040242750532032125,0.9999977736353262,225.73268486626975,23.60720217938138,744.4236123200719,-39.02227486550037,-75.94125366210938,4381.2578125,True
1599569053.2754705,0.0,10,0.5,0.5,-1.2103974548339844,-0.1005,-0.0155,-0.5,0.02282468125748496,10,1,100,0.0027431371916521313,-10,-1,-100,6407.1182399643585,-0.0018717001455396717,-0.00013219848220507755,0.9999982396295138,224.9679022874528,23.51689469702297,745.8204964069737,-39.21116227722306,-76.70181274414062,4381.2578125,True
1599569053.3313503,0.0,10,0.5,0.5,-0.5404601654052734,-0.1005,-0.0155,-0.5,0.055574577705800626,10,1,100,-0.020341310177059646,-10,-1,-100,6405.48640288203,-0.00148433018754242,0.00040612196437798373,0.9999988159137211,223.03310622481087,23.296608652669196,747.191630703932,-39.58893050698468,-78.44467163085938,4381.2578125,True
1599569053.3921876,0.0,10,0.5,0.5,-0.8137571090698243,-0.1005,-0.0155,-0.5,0.031989288461771535,10,1,100,-0.0028162119496821167,-10,-1,-100,6404.71052411187,-0.001295120702555023,0.0006764382907745514,0.9999989325462326,221.85145726199093,23.165673852268277,747.1125929779447,-39.77781591339308,-79.4268798828125,4381.2578125,True
1599569053.4510825,0.0,10,0.5,0.5,0.7293329681396483,-0.1005,-0.0155,-0.5,0.08909144023042632,10,1,100,-0.04156163877962035,-10,-1,-100,6402.295973547152,-0.0007741910080407347,0.0014369670142942072,0.9999986678761542,217.37938400523916,22.684089826898152,743.4864478026468,-40.34450388217989,-82.7967529296875,4381.2578125,True
1599569053.5128713,0.0,10,0.5,0.5,-0.2019062484741212,-0.1005,-0.0155,-0.5,0.03998260179060352,10,1,100,-0.007338809954813199,-10,-1,-100,6401.505935678142,-0.00061551883781288,0.0016768975253727656,0.9999984045743523,215.59502174481761,22.49604417715953,741.1731790807299,-40.53341652641841,-84.02554321289062,4381.2578125,True
1599569053.5716228,0.0,10,0.5,0.5,1.5761981140136718,-0.1005,-0.0155,-0.5,0.09258137817128657,10,1,100,-0.039891579236331104,-10,-1,-100,6399.036212453619,-0.00017855788943182542,0.002368816055080975,0.9999971784098081,217.00730788634115,22.64873433454693,757.4975067431365,-41.10005143872049,-87.97979736328125,4381.2578125,True
1599569053.6336286,0.0,10,0.5,0.5,0.4001650131225586,-0.1005,-0.0155,-0.5,0.04717841222839893,10,1,100,-0.010325046399257201,-10,-1,-100,6398.19441735046,-5.326937312562862e-05,0.0025806584362906707,0.9999966686766556,219.2545244923796,22.888754953729205,769.2118344068668,-41.28881676524074,-89.27438354492188,4381.2578125,True
1599569053.6924713,0.0,10,0.5,0.5,1.3297214195251466,-0.1005,-0.0155,-0.5,0.07351094310135106,10,1,100,-0.024690889777109006,-10,-1,-100,6396.559166835388,0.00018817605869340275,0.00300830829327746,0.9999954573251738,223.46535213736277,23.344427124780353,791.8824619282695,-41.66616468629113,-91.85810089111328,4381.2578125,True
1599569053.7523112,0.0,10,0.5,0.5,2.2237436458587645,-0.1005,-0.0155,-0.5,0.09322750078683069,10,1,100,-0.03126419721185559,-10,-1,-100,6394.023527385085,0.0004647804805270028,0.003572416400375184,0.9999935108890293,229.17926088762246,23.976929560762112,824.2979026334184,-42.23172684327699,-95.45237731933594,4381.2578125,True
1599569053.817139,0.0,10,0.5,0.5,1.127018593978882,-0.1005,-0.0155,-0.5,0.05723410102865756,10,1,100,-0.012495977318875005,-10,-1,-100,6393.178315260098,0.0005431194584338623,0.0037541503751540375,0.9999928056622281,230.86024644206864,24.167059208102252,834.4332992155964,-42.42012857365647,-96.5666275024414,4381.2578125,True
1599569053.8786504,0.0,10,0.5,0.5,2.379204838562012,-0.1005,-0.0155,-0.5,0.09271600675706007,10,1,100,-0.022705969214055564,-10,-1,-100,6390.576758238138,0.0007047779661098289,0.004238147151683496,0.9999907706557792,235.5731329373695,24.70930368940032,863.9958338709331,-42.98498705010041,-99.52639770507812,4381.2578125,True
1599569053.9404843,0.0,10,0.5,0.5,1.4408565963745117,-0.1005,-0.0155,-0.5,0.06098608863937875,10,1,100,-0.010417509101762208,-10,-1,-100,6389.734963587485,0.0007376847192383595,0.004385717378700547,0.9999901106032644,236.9661725146762,24.87313260082133,873.3088621960043,-43.17316161889646,-100.36929321289062,4381.2578125,True
1599569053.9993293,0.0,10,0.5,0.5,2.3054889335632325,-0.1005,-0.0155,-0.5,0.09210294076844147,10,1,100,-0.012513567408726542,-10,-1,-100,6387.1299880523,0.0007846350113214441,0.00479913479042178,0.9999881762566807,240.5057970971566,25.30118918171973,899.1645459385029,-43.73738198485341,-102.45438385009766,4381.2578125,True
1599569054.0581725,0.0,10,0.5,0.5,1.627103405380249,-0.1005,-0.0155,-0.5,0.06435379460447342,10,1,100,-0.007086965165816436,-10,-1,-100,6386.225693502463,0.0007760936603579051,0.004918955930041694,0.999987600698723,241.61698991397924,25.437633136248913,907.6130464755531,-43.92535933838314,-103.00137329101562,4381.2578125,True
1599569054.1200075,0.0,10,0.5,0.5,1.9083475078582766,-0.1005,-0.0155,-0.5,0.07845493086540752,10,1,100,-0.0037594557631909793,-10,-1,-100,6384.476673363941,0.0007366693606686395,0.005152910942144882,0.999986452321768,243.53063576121542,25.679105276093168,923.4652309383575,-44.30118098457667,-103.87301635742188,4381.2578125,True
1599569054.1788495,0.0,10,0.5,0.5,1.9553596950531007,-0.1005,-0.0155,-0.5,0.08679556976108017,10,1,100,0.007889449988455526,-10,-1,-100,6381.8126144477865,0.0005937006830284466,0.005438261294547739,0.9999850363048396,245.68744083840113,25.96805361067727,944.7766732835058,-44.864616231441694,-104.62583923339844,4381.2578125,True
1599569054.239684,0.0,10,0.5,0.5,1.684196570968628,-0.1005,-0.0155,-0.5,0.07631334176171019,10,1,100,0.009328860998582576,-10,-1,-100,6379.993768902379,0.0004499415500157887,0.005599587319247458,0.9999842209627389,246.68586627601397,26.115175466377185,957.4246537522974,-45.24006811882247,-104.75814056396484,4381.2578125,True
1599569054.2995243,0.0,10,0.5,0.5,1.544231741333008,-0.1005,-0.0155,-0.5,0.07470109367496722,10,1,100,0.014952340842705063,-10,-1,-100,6378.171993651777,0.00026767142058213035,0.005728846060110487,0.9999835542021829,247.34499886697347,26.22686405554972,968.8317649112329,-45.61540378550293,-104.59525299072266,4381.2578125,True
1599569054.3633535,0.0,10,0.5,0.5,1.530084655761719,-0.1005,-0.0155,-0.5,0.06791402210454457,10,1,100,0.00827639141057831,-10,-1,-100,6377.267697917065,0.00016258948378733076,0.005782180139557732,0.9999832698387976,247.54826458276798,26.269436960412733,974.063046974482,-45.80303361260174,-104.40319061279297,4381.2578125,True
1599569054.4241912,0.0,10,0.5,0.5,1.0284620517730714,-0.1005,-0.0155,-0.5,0.07629470735074029,10,1,100,0.03828559776599414,-10,-1,-100,6374.479125362937,-0.00020547579744195854,0.005904844837894114,0.9999825451412324,247.63567248632086,26.341779430216608,987.7485333353749,-46.365798712284786,-103.38482666015625,4381.2578125,True
1599569054.484031,0.0,10,0.5,0.5,1.255970613861084,-0.1005,-0.0155,-0.5,0.06707240141505096,10,1,100,0.0169239846422313,-10,-1,-100,6373.574829461402,-0.0003452035744744904,0.005930563878363885,0.9999823544676061,247.48326250501162,26.346484410771225,991.5965461142223,-46.55335352991137,-102.89816284179688,4381.2578125,True
1599569054.544869,0.0,10,0.5,0.5,0.7875224494934083,-0.1005,-0.0155,-0.5,0.06825583436063898,10,1,100,0.03686716427596901,-10,-1,-100,6371.693482926348,-0.0006525759306829674,0.005963164744908404,0.9999820072435703,246.88365670380142,26.324006672274905,998.1032892596262,-46.928427798626444,-101.70414733886719,4381.2578125,True
1599569054.6067038,0.0,10,0.5,0.5,-0.01970935745239255,-0.1005,-0.0155,-0.5,0.0638357317957159,10,1,100,0.06221077709718055,-10,-1,-100,6368.797487759613,-0.0011611379522926684,0.0059511851026621135,0.9999816174083049,245.55149250800068,26.24177262800731,1006.0604156901778,-47.49097958510681,-99.36225128173828,4381.2578125,True
1599569054.6670516,0.0,10,0.5,0.5,-0.005734188079833946,-0.1005,-0.0155,-0.5,0.06042829707779999,10,1,100,0.05293659705159255,-10,-1,-100,6366.882448972086,-0.0015373874506474019,0.005908270521082395,0.9999813642159919,244.2022924582892,26.134964144911113,1009.4154409833247,-47.86599679803372,-97.44355010986328,4381.2578125,True
1599569054.726401,0.0,10,0.5,0.5,0.31367776679992676,-0.1005,-0.0155,-0.5,0.06117908232460342,10,1,100,0.03714769496523261,-10,-1,-100,6365.898074782919,-0.0017337938109929735,0.005875183208625373,0.9999812379146351,243.39448662389518,26.066114337073145,1010.5145245802197,-48.053507174382595,-96.39221954345703,4381.2578125,True
1599569054.785243,0.0,10,0.5,0.5,-0.4666588165283203,-0.1005,-0.0155,-0.5,0.05491602925791281,10,1,100,0.06186377276508444,-10,-1,-100,6363.946414937964,-0.0021347907884224538,0.005787510376452274,0.9999809735149625,241.72192483954015,25.919276999814844,1012.4085697297784,-48.42853459327586,-94.2366714477539,4381.2578125,True
1599569054.8505785,0.0,10,0.5,0.5,-0.7067661655426025,-0.1005,-0.0155,-0.5,0.05102500330753369,10,1,100,0.0688647680094544,-10,-1,-100,6362.003056909423,-0.002560498459696753,0.005672117339398824,0.9999806352787667,239.84400592449455,25.745711768864346,1013.3417972912451,-48.80357507354702,-92.06884765625,4381.2578125,True
1599569054.9164424,0.0,10,0.5,0.5,-1.6338047172546386,-0.1005,-0.0155,-0.5,0.03757799743075452,10,1,100,0.10041499576707186,-10,-1,-100,6359.026495852391,-0.003231588922279263,0.005444903134088467,0.9999799547305425,236.67170163905436,25.436804039898202,1013.0119134222978,-49.36616668974197,-88.7528076171875,4381.2578125,True
1599569054.9782777,0.0,10,0.5,0.5,-1.2665253787994384,-0.1005,-0.0155,-0.5,0.04013074175622684,10,1,100,0.08426596381860117,-10,-1,-100,6357.021614662139,-0.0036916806338746647,0.005261809662152456,0.9999793422132163,234.3958384660776,25.205713058061853,1011.9317974094749,-49.74125088338808,-86.64425659179688,4381.2578125,True
1599569055.0406694,0.0,10,0.5,0.5,-1.38272006149292,-0.1005,-0.0155,-0.5,0.035913506003520584,10,1,100,0.08986964906569145,-10,-1,-100,6355.078745601233,-0.00415738453746434,0.005057495608529122,0.9999785687163387,232.225739297626,24.979582378496197,1011.1642136411389,-50.11634481555897,-84.74093627929688,4381.2578125,True
1599569055.10453,0.0,10,0.5,0.5,-1.435165683746338,-0.1005,-0.0155,-0.5,0.03144048117105039,10,1,100,0.0955485499239707,-10,-1,-100,6353.010877119028,-0.004628785449675653,0.004831862015148511,0.9999776134767856,234.54833278474302,25.23084346174079,1029.9826321564155,-50.49132221959394,-83.116943359375,4381.2578125,True
1599569055.1842828,0.0,10,0.5,0.5,-1.451240895843506,-0.1005,-0.0155,-0.5,0.027020223962064653,10,1,100,0.10110103540843424,-10,-1,-100,6351.005997413886,-0.005103914708930879,0.004587555230051009,0.9999764519185715,237.96674058123688,25.595162029665836,1053.8434496020543,-50.86606740356391,-81.78903198242188,4381.2578125,True
1599569055.2439446,0.0,10,0.5,0.5,-1.4363563644409179,-0.1005,-0.0155,-0.5,0.02284420225375714,10,1,100,0.10617793136170052,-10,-1,-100,6348.9376420089975,-0.005577957327121461,0.004328744873082172,0.9999750738692842,240.80645799879449,25.8933799762599,1075.3915474007888,-51.240600245521435,-80.75955200195312,4381.2578125,True
1599569055.303057,0.0,10,0.5,0.5,-1.389371929550171,-0.1005,-0.0155,-0.5,0.018661066028066296,10,1,100,0.11129793830512248,-10,-1,-100,6346.870263858931,-0.0060514353891668905,0.004056909164903841,0.9999734604567054,243.09993204458686,26.12992501971581,1094.709575002258,-51.61494134922182,-80.02862548828125,4381.2578125,True
1599569055.3638947,0.0,10,0.5,0.5,-1.3107434043884276,-0.1005,-0.0155,-0.5,0.014531967805583128,10,1,100,0.11628346710335494,-10,-1,-100,6344.802398015163,-0.006523089300157104,0.0037739315930429454,0.9999716029699609,244.8725482185656,26.308427980502948,1111.85330164802,-51.98911226508434,-79.59591674804688,4381.2578125,True
1599569055.4236672,0.0,10,0.5,0.5,-1.1832624912261964,-0.1005,-0.0155,-0.5,0.026660759679425224,10,1,100,0.09545892585236121,-10,-1,-100,6343.767733125831,-0.006758197666512661,0.00362885122803668,0.9999705786687254,245.56912364251545,26.376788360976395,1119.6176361394064,-52.176140831429755,-79.49127197265625,4381.2578125,True
1599569055.4835062,0.0,10,0.5,0.5,-1.1453839279174804,-0.1005,-0.0155,-0.5,0.008561370506061632,10,1,100,0.12372366101105897,-10,-1,-100,6341.6998678515665,-0.007224681585662155,0.003334382502953511,0.9999683424335541,246.588247673069,26.47285293728357,1133.5220119905966,-52.55009814775494,-79.50527954101562,4381.2578125,True
1599569055.544854,0.0,10,0.5,0.5,-0.9849563507080079,-0.1005,-0.0155,-0.5,0.004776698276094785,10,1,100,0.12835423328220485,-10,-1,-100,6339.569015453919,-0.007686613820875781,0.003034402764274973,0.999965853600928,247.1094376907455,26.51552642400884,1145.2191860610276,-52.923941613574065,-79.8165283203125,4381.2578125,True
1599569055.6091933,0.0,10,0.5,0.5,-0.7891436889648438,-0.1005,-0.0155,-0.5,9.955990053093361e-05,10,1,100,0.1339489488380078,-10,-1,-100,6337.439140169648,-0.008153363244396743,0.002721365835125552,0.9999630577355327,247.12589209767143,26.50499878692955,1154.623167571668,-53.29769436007392,-80.42483520507812,4381.2578125,True
1599569055.6720257,0.0,10,0.5,0.5,-0.5596320739746095,-0.1005,-0.0155,-0.5,-0.0028353647772193236,10,1,100,0.13753123705905718,-10,-1,-100,6335.307800615672,-0.008606191083597592,0.0024124151695801913,0.9999600560662822,246.62135442533193,26.44051675932649,1161.6019905110438,-53.67138035945214,-81.32958984375,4381.2578125,True
1599569055.733369,0.0,10,0.5,0.5,0.12284301910400375,-0.1005,-0.0155,-0.5,-0.024067956211078937,10,1,100,0.1667086564869544,-10,-1,-100,6332.019239789341,-0.009279057653537308,0.0019409319882665477,0.9999550649264592,244.83162803455699,26.23902061265932,1167.1287569970184,-54.231837890454756,-83.22824096679688,4381.2578125,True
1599569055.7932982,0.0,10,0.5,0.5,-0.3695393249511719,-0.1005,-0.0155,-0.5,0.005421399359399923,10,1,100,0.12416705003491055,-10,-1,-100,6330.9840883691795,-0.009499785138278595,0.0017830240831920269,0.9999532863626408,243.9602823433358,26.14457200276559,1167.6252216575526,-54.418649918721485,-83.9888916015625,4381.2578125,True
1599569055.856098,0.0,10,0.5,0.5,0.25246648101806635,-0.1005,-0.0155,-0.5,-0.013721609303299652,10,1,100,0.1503339507065523,-10,-1,-100,6328.791227057576,-0.009934331157395284,0.0014679936645059745,0.9999495757582261,242.60934812370985,26.00173897879343,1170.4299232322692,-54.792262415167436,-85.65237426757812,4381.2578125,True
1599569055.9239151,0.0,10,0.5,0.5,0.46773039398193356,-0.1005,-0.0155,-0.5,-0.01608075497786658,10,1,100,0.15279924242057455,-10,-1,-100,6326.5983665382955,-0.010347824395964954,0.0011627562788485695,0.9999457837943547,246.2131407647308,26.3959933131482,1197.251601892669,-55.165674147996405,-87.38330078125,4381.2578125,True
1599569055.9907374,0.0,10,0.5,0.5,1.2265072959899903,-0.1005,-0.0155,-0.5,-0.037636266114737096,10,1,100,0.1800676653193251,-10,-1,-100,6323.245355679421,-0.010967716285556206,0.0006919396023576105,0.9999396133862617,251.51011966651478,26.98734418937333,1237.5142405368326,-55.725314770058425,-90.06912994384766,4381.2578125,True
1599569056.0525713,0.0,10,0.5,0.5,0.9516724628448486,-0.1005,-0.0155,-0.5,-0.024735100956970974,10,1,100,0.16157926303157863,-10,-1,-100,6320.989507692982,-0.011359137412582014,0.0003840095724279629,0.9999354091809582,254.92688374796882,27.376928360331323,1264.1551228949545,-56.09808381460781,-91.82074737548828,4381.2578125,True
1599569056.116438,0.0,10,0.5,0.5,1.0592600021362304,-0.1005,-0.0155,-0.5,-0.02775831823057122,10,1,100,0.1640556293669213,-10,-1,-100,6318.73414844519,-0.011733304549521255,7.953924423701612e-05,0.9999311592494039,258.09249427884583,27.7450937472175,1289.8238869671495,-56.470596299346354,-93.42655181884766,4381.2578125,True
1599569056.1792336,0.0,10,0.5,0.5,0.7023934818267823,-0.1005,-0.0155,-0.5,-0.014157635854874877,10,1,100,0.14677936481508438,-10,-1,-100,6317.574486603728,-0.011912300793573085,-7.065044774049916e-05,0.9999290435317487,259.53802833386294,27.916250546909655,1302.0681889372845,-56.656759900614205,-94.13339233398438,4381.2578125,True
1599569056.2410684,0.0,10,0.5,0.5,1.391778876876831,-0.1005,-0.0155,-0.5,-0.04938069286227244,10,1,100,0.18664254688495097,-10,-1,-100,6314.159953085124,-0.012433575682461992,-0.000524573364867295,0.9999225625109843,263.2276482925761,28.36587577190388,1335.880662596965,-57.21490699306041,-95.83300018310547,4381.2578125,True
1599569056.306226,0.0,10,0.5,0.5,1.0354563781738282,-0.1005,-0.0155,-0.5,-0.03748283669874827,10,1,100,0.17083492900370226,-10,-1,-100,6311.90312878415,-0.012759865225769587,-0.0008261173796778053,0.999918248343081,265.1830434296286,28.614918116623638,1356.1055005925368,-57.586743064461906,-96.6150131225586,4381.2578125,True
1599569056.3697536,0.0,10,0.5,0.5,0.994804381942749,-0.1005,-0.0155,-0.5,-0.04028172383863378,10,1,100,0.17198653447146767,-10,-1,-100,6309.584293060354,-0.013063185156536022,-0.0011227486102779029,0.9999140426202264,266.81703606381063,28.83126894322074,1374.8470761536912,-57.958390330454954,-97.15899658203125,4381.2578125,True
1599569056.4315867,0.0,10,0.5,0.5,0.9021905101776123,-0.1005,-0.0155,-0.5,-0.04328609111129003,10,1,100,0.17313900146735683,-10,-1,-100,6307.265456493245,-0.013345967404919955,-0.0014169406309398262,0.999909934660755,268.1331446375066,29.0146171715937,1392.088299425843,-58.32986555418548,-97.4217529296875,4381.2578125,True
