Timestamp,Input Throttle,horizon,dT,dt,Input Roll,Roll P,Roll I,Roll D,Input Pitch,Pitch P,Pitch I,Pitch D,Input Yaw,Yaw P,Yaw I,Yaw D,Altitude,Direction X,Direction Y,Direction Z,Drag X,Drag Y,Drag Z,Vertical Velocity,Roll,Mass,Has Fuel
1599569818.0317485,0.0,10,0.5,0.5,-8.121834632873535,-0.15025,-0.001,-0.001,-0.06718386083504035,10,1,100,0.6903622838608754,-10,-1,-100,6483.617966943188,-0.06725825578817364,-0.007002456264839877,0.9977110266177234,205.07316433220757,21.49877153639527,-156.76519583101518,9.590824095491392,-35.944549560546875,4381.2578125,True
1599569818.0935512,0.0,10,0.5,0.5,-8.127490841674804,-0.15025,-0.001,-0.001,-0.0690738632666358,10,1,100,0.6894790479313299,-10,-1,-100,6483.776675248286,-0.0673507163742716,-0.006987447673855814,0.9977048945348908,204.8425962655699,21.47777249152734,-153.51313314788567,9.400810171677,-35.94287109375,4381.2578125,True
1599569818.1593754,0.0,10,0.5,0.5,-8.133407228088378,-0.15025,-0.001,-0.001,-0.067756975253983,10,1,100,0.7080688490465622,-10,-1,-100,6484.156591804,-0.06754254172052253,-0.006955479565869953,0.9976921500953789,204.38123887292025,21.435617851621384,-147.02554305135564,9.020797968404338,-35.939483642578125,4381.2578125,True
1599569818.226196,0.0,10,0.5,0.5,-8.090861131286621,-0.15025,-0.001,-0.001,-0.018468372833245747,10,1,100,0.7015033898127906,-10,-1,-100,6484.69714051811,-0.06759584009524315,-0.006472016282452586,0.997691793795588,203.75656846462616,21.378966454319563,-137.381493695721,8.450805748487774,-36.256500244140625,4381.2578125,True
1599569818.2940154,0.0,10,0.5,0.5,-8.011649772644043,-0.15025,-0.001,-0.001,-0.015120317142943977,10,1,100,0.6978121830469246,-10,-1,-100,6485.016949539771,-0.0675492859743038,-0.005996183685540916,0.9976979200868222,203.44642833631974,21.35165547606033,-131.045252935028,8.070816375488054,-36.817840576171875,4381.2578125,True
1599569818.3618343,0.0,10,0.5,0.5,-7.8883981643676755,-0.15025,-0.001,-0.001,0.012340517057512795,10,1,100,0.6893520429627151,-10,-1,-100,6485.335756240878,-0.0673686452399804,-0.005308513574084754,0.9977140298312757,203.19879307340273,21.330021435485243,-124.76079220097988,7.6908223744886275,-37.671600341796875,4381.2578125,True
1599569818.4326448,0.0,10,0.5,0.5,-7.813260818481445,-0.15025,-0.001,-0.001,-0.010459685892130775,10,1,100,0.6983665229346965,-10,-1,-100,6485.493928523501,-0.06722513198557716,-0.004885807578144925,0.9977258694219725,203.08623943612216,21.319981107289934,-121.62894432367457,7.500821204219671,-38.2086181640625,4381.2578125,True
1599569818.5074444,0.0,10,0.5,0.5,-7.508657836914062,-0.15025,-0.001,-0.001,0.12082324001359726,10,1,100,0.6475137004006859,-10,-1,-100,6485.909322506632,-0.06657125324764177,-0.0033036066121674215,0.9977762045791584,202.70956257929515,21.283858352623728,-112.22440693841432,6.930788202047927,-40.26031494140625,4381.2578125,True
1599569818.5812478,0.0,10,0.5,0.5,-7.253234657287597,-0.15025,-0.001,-0.001,0.106088572658775,10,1,100,0.6495819789383739,-10,-1,-100,6486.165060921339,-0.06593510124236344,-0.0019961903403115594,0.9978219168009312,202.33862308442752,21.24541615340817,-105.9045513501631,6.550730777248557,-41.995513916015625,4381.2578125,True
1599569818.6560476,0.0,10,0.5,0.5,-6.952816073608399,-0.15025,-0.001,-0.001,0.13713320088345823,10,1,100,0.6296410150266611,-10,-1,-100,6486.420285150874,-0.06511555874632907,-0.0005235914817270083,0.9978775926240219,201.7698325252623,21.184641824388667,-99.50446196610278,6.170633095450482,-44.02496337890625,4381.2578125,True
1599569818.736831,0.0,10,0.5,0.5,-6.789263697814941,-0.15025,-0.001,-0.001,0.07680393255290752,10,1,100,0.665022236100191,-10,-1,-100,6486.51785921352,-0.0646329716153787,0.0002671628516918742,0.9979090678033626,201.379372945643,21.142524449987267,-96.2647062386012,5.980564908387944,-45.150115966796875,4381.2578125,True
1599569818.814624,0.0,10,0.5,0.5,-6.415746751403809,-0.15025,-0.001,-0.001,0.18638224383719523,10,1,100,0.5916478074372871,-10,-1,-100,6486.772069979459,-0.06352960240319087,0.001975588149096627,0.9979779990911412,200.30882494872824,21.026727752956916,-89.68710780358492,5.600379513793786,-47.621002197265625,4381.2578125,True
1599569818.892417,0.0,10,0.5,0.5,-5.772931057739258,-0.15025,-0.001,-0.001,0.3236385218942552,10,1,100,0.476204909843709,-10,-1,-100,6487.061792439199,-0.061480532335779485,0.00476833818741699,0.9980968926385052,197.7419852422608,20.74947919685504,-79.54590763708984,5.029942117135234,-51.879638671875,4381.2578125,True
1599569818.9692094,0.0,10,0.5,0.5,-5.290453733825683,-0.15025,-0.001,-0.001,0.26382302670360414,10,1,100,0.5002622214329049,-10,-1,-100,6487.254429139895,-0.05984195511565704,0.00675276661347205,0.9981850232051168,195.1799215919436,20.473848687099572,-72.59170816471917,4.649512672625706,-55.087188720703125,4381.2578125,True
1599569819.047002,0.0,10,0.5,0.5,-4.761932405090331,-0.15025,-0.001,-0.001,0.2875966734308881,10,1,100,0.45906724011890865,-10,-1,-100,6487.448515085853,-0.057984888617218115,0.008760893986592027,0.998279018826202,191.7536376877014,20.106862328985112,-65.49233305949205,4.268938471408243,-58.590301513671875,4381.2578125,True
1599569819.1257927,0.0,10,0.5,0.5,-4.188727059936523,-0.15025,-0.001,-0.001,0.31244677037201773,10,1,100,0.41555097319946865,-10,-1,-100,6487.578623380978,-0.055909738826057896,0.01079895877282761,0.9983774254227831,187.29442651234496,19.63150949099045,-58.27405651385319,3.888186028182583,-62.38885498046875,4381.2578125,True
1599569819.2065783,0.0,10,0.5,0.5,-3.5707865005493167,-0.15025,-0.001,-0.001,0.33329594314259114,10,1,100,0.3696145333173134,-10,-1,-100,6487.770733924117,-0.05361605220463258,0.012826639719731614,0.9984792417769588,181.66216500389498,19.033851483622765,-50.99196390194537,3.507224839525276,-66.48318481445312,4381.2578125,True
1599569819.2813756,0.0,10,0.5,0.5,-2.9079574951171874,-0.15025,-0.001,-0.001,0.3488825928780837,10,1,100,0.32281639561491443,-10,-1,-100,6487.8397922315635,-0.05111781682402498,0.014795580626059844,0.9985830258907286,174.75861499527923,18.304586130411238,-43.728620915984656,3.126003340432425,-70.8739013671875,4381.2578125,True
1599569819.3551779,0.0,10,0.5,0.5,-2.2003347885131834,-0.15025,-0.001,-0.001,0.3616917359382302,10,1,100,0.2753252765484005,-10,-1,-100,6487.969396057422,-0.048429004883253045,0.016685519853052087,0.9986872508013965,166.40089171920835,17.42520421002622,-36.56018460499983,2.7444613551060297,-75.56118774414062,4381.2578125,True
1599569819.428492,0.0,10,0.5,0.5,-1.4478018676757813,-0.15025,-0.001,-0.001,0.3707624592995017,10,1,100,0.2277595283924938,-10,-1,-100,6488.100467078853,-0.04556812913236951,0.018469124171608082,0.9987904870690897,156.61750795563728,16.398284337413923,-29.626722905642875,2.3626293194116825,-80.54541015625,4381.2578125,True
1599569819.50033,0.0,10,0.5,0.5,-1.0553476913452147,-0.15025,-0.001,-0.001,0.28724179917980075,10,1,100,0.3479387945806044,-10,-1,-100,6488.1335344768595,-0.04407764216928908,0.01931403780952231,0.9988413935176537,151.16534892431068,15.826690818089055,-26.285174433836502,2.1716345515354867,-83.14895629882812,4381.2578125,True
1599569819.5731046,0.0,10,0.5,0.5,0.1947158531188965,-0.15025,-0.001,-0.001,0.4585598127240004,10,1,100,-0.016479707994883186,-10,-1,-100,6488.235190139501,-0.03942844520620798,0.02162226226261176,0.9989884261007572,152.04674245668605,15.918561333922705,-19.46408839112958,1.598507302312067,-91.40592956542969,4381.2578125,True
1599569819.6439161,0.0,10,0.5,0.5,0.6296472347259521,-0.15025,-0.001,-0.001,0.30553146571107825,10,1,100,0.26962941691825537,-10,-1,-100,6488.269244946423,-0.03782480470006913,0.02231162072519968,0.9990352725154485,155.95703769052534,16.32766982911284,-17.57959517758182,1.4074631132907425,-94.3071517944336,4381.2578125,True
1599569819.7117624,0.0,10,0.5,0.5,1.5423556365966795,-0.15025,-0.001,-0.001,0.3787975174988877,10,1,100,0.06047401720002765,-10,-1,-100,6488.273397944518,-0.03448704217671875,0.023588416814225344,0.9991267339602616,164.77557003598056,17.249264235166585,-13.533869279244026,1.0254423490190843,-100.33271789550781,4381.2578125,True
1599569819.7805505,0.0,10,0.5,0.5,2.930482461547851,-0.15025,-0.001,-0.001,0.42277878805311253,10,1,100,-0.15381182836343088,-10,-1,-100,6488.311644036905,-0.029527709389404185,0.0251336651272864,0.9992479238184507,176.23088718279487,18.445799312524382,-6.389606731005338,0.45257723974661035,-109.52033996582031,4381.2578125,True
1599569819.8493664,0.0,10,0.5,0.5,3.3809340660095213,-0.15025,-0.001,-0.001,0.31734361811407147,10,1,100,0.15037511499634443,-10,-1,-100,6488.345235553337,-0.02781043104895964,0.025565050438677264,0.9992862493404674,179.77305263164223,18.816243584626914,-3.768205883905034,0.2616268023942885,-112.52560424804688,4381.2578125,True
1599569819.9171844,0.0,10,0.5,0.5,4.263669777297974,-0.15025,-0.001,-0.001,0.3561917163330104,10,1,100,-0.04604990861077385,-10,-1,-100,6488.350421513896,-0.0244891317137427,0.026296959713144902,0.9993541676191441,185.21863132004012,19.38547892258009,1.7860717488852582,-0.12034506925777189,-118.34859466552734,4381.2578125,True
1599569819.9830098,0.0,10,0.5,0.5,5.503045153427124,-0.15025,-0.001,-0.001,0.37485506193951834,10,1,100,-0.2556739677979385,-10,-1,-100,6488.327729642042,-0.019590574435017525,0.02711975281363518,0.9994402075165043,190.12257205345517,19.897746805244164,10.567968829727574,-0.6935563837329615,-126.5470199584961,4381.2578125,True
1599569820.0508273,0.0,10,0.5,0.5,6.27153724899292,-0.15025,-0.001,-0.001,0.33328263428412375,10,1,100,-0.12125697336127514,-10,-1,-100,6488.268519691774,-0.016387974351408856,0.027478611587952232,0.9994880490540424,191.7903092621065,20.071567386772294,16.539339267205296,-1.075854192351978,-131.64535522460938,4381.2578125,True
1599569820.1186466,0.0,10,0.5,0.5,6.998421670532226,-0.15025,-0.001,-0.001,0.3294045430926459,10,1,100,-0.13981000325288956,-10,-1,-100,6488.211286624428,-0.013336984031415249,0.027759779561286207,0.9995256472425581,192.01130145202927,20.093806310214358,22.447350044443546,-1.4582662992135023,-136.4478302001953,4381.2578125,True
1599569820.1844704,0.0,10,0.5,0.5,7.345610156249999,-0.15025,-0.001,-0.001,0.3147146757031788,10,1,100,-0.0005184795997368319,-10,-1,-100,6488.182924118126,-0.011858944087450588,0.02787339651042223,0.9995411143180173,191.65568729411052,20.05603431023516,25.346031239046482,-1.6495089224640611,-138.7380828857422,4381.2578125,True
1599569820.2492974,0.0,10,0.5,0.5,8.321041329956055,-0.15025,-0.001,-0.001,0.32470127401929244,10,1,100,-0.32951752387097355,-10,-1,-100,6488.033414816367,-0.007553660734182234,0.028059690668237013,0.9995777088196374,189.1125893047955,19.78778383245917,33.717684538807454,-2.223339614091273,-145.1656036376953,4381.2578125,True
1599569820.3151207,0.0,10,0.5,0.5,8.912139434814453,-0.15025,-0.001,-0.001,0.31163934422560646,10,1,100,-0.19958963909973956,-10,-1,-100,6487.974780961289,-0.0048499064422877,0.028104451969575464,0.9995932263610987,186.4475398723229,19.506890775920816,38.96895483167592,-2.6059401414200085,-149.0806427001953,4381.2578125,True
1599569820.8728771,0.0,10,0.5,0.5,9.193000508117676,-0.15025,-0.001,-0.001,0.30699407169602205,10,1,100,-0.07654816924924805,-10,-1,-100,6487.882969876984,-0.003540483992167847,0.02809764810121022,0.999598913136805,184.90569403784616,19.34431003969554,41.48696825579039,-2.797244944248975,-150.92724609375,4381.2578125,True
1599569820.9257443,0.0,10,0.5,0.5,9.72091256866455,-0.15025,-0.001,-0.001,0.3176290763619638,10,1,100,-0.21821802847603222,-10,-1,-100,6487.761374474037,-0.0010903253701649894,0.02818404532576221,0.9996021562500066,181.51547920209174,18.98671757958113,46.30392127480758,-3.1798489044601834,-154.39633178710938,4381.2578125,True
1599569820.9845865,0.0,10,0.5,0.5,9.721931082153318,-0.15025,-0.001,-0.001,0.30929439192661234,10,1,100,0.023954095322329626,-10,-1,-100,6487.761374474037,-0.0010903253701649894,0.02818404532576221,0.9996021562500066,181.51547920209174,18.98671757958113,46.30392127480758,-3.1798489044601834,-154.39633178710938,4381.2578125,True
1599569821.0464163,0.0,10,0.5,0.5,10.206168890380859,-0.15025,-0.001,-0.001,0.307330088455686,10,1,100,-0.23930476997736838,-10,-1,-100,6487.640771148843,0.0012786460364879065,0.028163807117038257,0.999602503514766,178.00497892026382,18.616266231172432,50.87951066644503,-3.5624295505944246,-157.57022094726562,4381.2578125,True
1599569821.10922,0.0,10,0.5,0.5,10.842739059448242,-0.15025,-0.001,-0.001,0.3105592812540765,10,1,100,-0.3642872388998112,-10,-1,-100,6487.426931256661,0.0045450354166034455,0.028173067909634673,0.9995927275133712,172.48512466507543,18.033276346667684,57.25666855033083,-4.136273672464435,-161.7740020751953,4381.2578125,True
1599569821.170057,0.0,10,0.5,0.5,11.209832081604004,-0.15025,-0.001,-0.001,0.31075881448296616,10,1,100,-0.2614416407329242,-10,-1,-100,6487.243366769748,0.006557578860780762,0.02818234319126132,0.9995812891864948,168.82756608634799,17.646459082341686,61.23577380593801,-4.518859289519673,-164.20556640625,4381.2578125,True
1599569821.2304044,0.0,10,0.5,0.5,11.533389826202393,-0.15025,-0.001,-0.001,0.31886427618637136,10,1,100,-0.2678910374202287,-10,-1,-100,6487.05883661937,0.0084249350951791,0.02826382152494986,0.9995649938155338,165.3545387577281,17.27879252156629,65.06503080388478,-4.9015028871783475,-166.33934020996094,4381.2578125,True
1599569821.2914734,0.0,10,0.5,0.5,11.678740003967285,-0.15025,-0.001,-0.001,0.31726101150398134,10,1,100,-0.18046634179346677,-10,-1,-100,6486.905052475282,0.009307978148819214,0.028322859383950745,0.9995554897948877,163.72264443093422,17.105941153793793,66.94340096919464,-5.09285602005511,-167.294677734375,4381.2578125,True
1599569821.3513145,0.0,10,0.5,0.5,11.935971632385252,-0.15025,-0.001,-0.001,0.3249106584227219,10,1,100,-0.2780299173691994,-10,-1,-100,6486.7210264561,0.010978443500783914,0.028445663806964165,0.9995350509056106,160.71593499071537,16.787395348177178,70.66495913803828,-5.4756391881769515,-168.98281860351562,4381.2578125,True
1599569821.4154248,0.0,10,0.5,0.5,12.235195639038084,-0.15025,-0.001,-0.001,0.3486778460563104,10,1,100,-0.35889687873805565,-10,-1,-100,6486.380792272743,0.013215355192982364,0.028773018648973782,0.9994986081956039,157.0262706045367,16.396446584297593,76.3053747706146,-6.05002462827227,-170.95657348632812,4381.2578125,True
1599569821.4782476,0.0,10,0.5,0.5,12.378138740539551,-0.15025,-0.001,-0.001,0.3497202010024565,10,1,100,-0.2820184882626857,-10,-1,-100,6486.135258414317,0.014533593852809166,0.029079482126057127,0.9994714394963979,155.23831887494975,16.206899680768263,80.2278844084681,-6.4330814623708426,-171.90023803710938,4381.2578125,True
1599569821.5400589,0.0,10,0.5,0.5,12.433754006958008,-0.15025,-0.001,-0.001,0.33974894379376314,10,1,100,-0.2186967950427044,-10,-1,-100,6485.980023070937,0.01513990989806554,0.029266544917849458,0.9994569788024145,154.5581223240447,16.134707350246355,82.26295805655545,-6.624646533477364,-172.26031494140625,4381.2578125,True
1599569821.603888,0.0,10,0.5,0.5,12.53093706893921,-0.15025,-0.001,-0.001,0.39807380432585193,10,1,100,-0.33480123837610876,-10,-1,-100,6485.577800941188,0.016731846482903892,0.029965843915595942,0.9994108732206683,153.42634008509106,16.013780644818436,88.77388074567088,-7.1994831865765905,-172.89341735839844,4381.2578125,True
1599569821.6659021,0.0,10,0.5,0.5,12.539718944549561,-0.15025,-0.001,-0.001,0.38883574238587393,10,1,100,-0.27482353406149884,-10,-1,-100,6485.267339785467,0.01761760772821224,0.030515968079011278,0.9993790049776589,153.45500966012077,16.01524716603462,93.53868825141,-7.582817292729427,-172.9434356689453,4381.2578125,True
1599569821.7307286,0.0,10,0.5,0.5,12.503659155273438,-0.15025,-0.001,-0.001,0.4061538026643252,10,1,100,-0.2674060264266196,-10,-1,-100,6484.957369188545,0.01834055973481936,0.031171379538318437,0.99934577047501,154.11820500798547,16.082845603877868,98.71594241801195,-7.966229098231956,-172.6951904296875,4381.2578125,True
1599569821.7935607,0.0,10,0.5,0.5,12.4693056640625,-0.15025,-0.001,-0.001,0.381371004150735,10,1,100,-0.22927998435811814,-10,-1,-100,6484.802629356855,0.01863864706355017,0.03153918423153896,0.9993287150350727,154.68332433882665,16.1408710930902,101.4748006306147,-8.157960823615527,-172.45919799804688,4381.2578125,True
1599569821.8563936,0.0,10,0.5,0.5,12.365277164459227,-0.15025,-0.001,-0.001,0.4293439440364269,10,1,100,-0.2543379604049638,-10,-1,-100,6484.429673214327,0.01912645253718335,0.0323066180961182,0.9992949820951441,156.28178270125892,16.305255595703315,107.3700865851449,-8.54146876160118,-171.76438903808594,4381.2578125,True
1599569821.9182296,0.0,10,0.5,0.5,12.216369958496093,-0.15025,-0.001,-0.001,0.44689717711940163,10,1,100,-0.24093721320472059,-10,-1,-100,6484.119217340718,0.019438358431900386,0.0331601848223344,0.9992610031238194,158.47817475587644,16.531001183747257,113.79844197827776,-8.92502462717217,-170.77169799804688,4381.2578125,True
1599569821.9820569,0.0,10,0.5,0.5,11.908143586730956,-0.15025,-0.001,-0.001,0.5160313098933926,10,1,100,-0.22800832569040874,-10,-1,-100,6483.529020120623,0.01959516446761933,0.034560249120986875,0.9992104976981488,162.81617243347088,16.975700106972823,124.50332979739447,-9.500414130804167,-168.7249755859375,4381.2578125,True
1599569822.0448885,0.0,10,0.5,0.5,11.784481350708008,-0.15025,-0.001,-0.001,0.43165079303661436,10,1,100,-0.20861369189470322,-10,-1,-100,6483.311291243532,0.01955356717379665,0.03506038052532385,0.9991938889565926,164.5140977459399,17.149294933800803,128.36042912316404,-9.692216601980627,-167.89401245117188,4381.2578125,True
1599569822.106723,0.0,10,0.5,0.5,11.499960643768311,-0.15025,-0.001,-0.001,0.4956119813127642,10,1,100,-0.18905636562547995,-10,-1,-100,6482.936866527889,0.019332195566073265,0.036090795002798506,0.9991615088316108,168.24050039099095,17.52937384692537,136.50482142459086,-10.075815154106655,-166.00941467285156,4381.2578125,True
1599569822.1685581,0.0,10,0.5,0.5,11.171333788299561,-0.15025,-0.001,-0.001,0.5101777671205373,10,1,100,-0.16333780340704596,-10,-1,-100,6482.500914901961,0.018892781173690545,0.03715357775068546,0.9991309596243361,172.340689638426,17.946177241383282,145.20083454810663,-10.459387305222638,-163.82810974121094,4381.2578125,True
1599569822.2313902,0.0,10,0.5,0.5,10.797884084320069,-0.15025,-0.001,-0.001,0.5252005581671274,10,1,100,-0.141595175226132,-10,-1,-100,6482.0654473357135,0.018292241586901924,0.03824914468297638,0.9991007941287742,176.72433926854544,18.39023336239567,154.4046270628456,-10.842911181683832,-161.3501739501953,4381.2578125,True
1599569822.2962162,0.0,10,0.5,0.5,10.37965834503174,-0.15025,-0.001,-0.001,0.5367099809598147,10,1,100,-0.10993688106845081,-10,-1,-100,6481.628999276552,0.017457075292838804,0.03934221546429494,0.9990732909074195,181.28721720456633,18.85082058099967,164.0485158087379,-11.226365466175762,-158.5762939453125,4381.2578125,True
1599569822.3600464,0.0,10,0.5,0.5,9.667873085784912,-0.15025,-0.001,-0.001,0.6046466468408325,10,1,100,-0.014073344893807516,-10,-1,-100,6480.974803599296,0.015826492453407733,0.04094549836678899,0.9990360295305257,188.17912654767503,19.54358705867627,179.10185317979682,-11.801371014691124,-153.86143493652344,4381.2578125,True
1599569822.4248726,0.0,10,0.5,0.5,9.41067670288086,-0.15025,-0.001,-0.001,0.5021009206367876,10,1,100,-0.10561101568080367,-10,-1,-100,6480.693584798486,0.015178590576789825,0.041461908840993655,0.9990247847292696,190.41815911817656,19.767987647357348,184.20882132883855,-11.992981796826584,-152.14224243164062,4381.2578125,True
1599569822.487705,0.0,10,0.5,0.5,8.856917887878419,-0.15025,-0.001,-0.001,0.5590238177547634,10,1,100,-0.010658078615735478,-10,-1,-100,6480.194127944182,0.013729525857897253,0.04243983313260726,0.9990046850157379,194.6872025401094,20.19511997593633,194.4268270703921,-12.376102340409956,-148.48309326171875,4381.2578125,True
1599569822.5495396,0.0,10,0.5,0.5,8.260433374786377,-0.15025,-0.001,-0.001,0.5558224708270812,10,1,100,0.02703711931554595,-10,-1,-100,6479.696125766495,0.012074416974691707,0.043290540048334804,0.9989895583023103,198.52764162721476,20.578867747736744,204.47404197500092,-12.759077485203417,-144.5305938720703,4381.2578125,True
1599569822.6113772,0.0,10,0.5,0.5,7.619387763214111,-0.15025,-0.001,-0.001,0.5603138711435788,10,1,100,0.06441749898238167,-10,-1,-100,6479.195185142569,0.010236645394312894,0.04409553146984982,0.998974872154181,201.7395463390456,20.90010076162972,214.09826195597813,-13.14190482369927,-140.2834930419922,4381.2578125,True
1599569822.6772008,0.0,10,0.5,0.5,6.934225202178955,-0.15025,-0.001,-0.001,0.5488089624949408,10,1,100,0.10347329595382035,-10,-1,-100,6478.633688924019,0.008219399002476627,0.04471408333592234,0.9989660115496756,204.1260707130945,21.140205945517202,223.02577649707123,-13.524590694806452,-135.7442169189453,4381.2578125,True
1599569822.7440257,0.0,10,0.5,0.5,5.822709437561035,-0.15025,-0.001,-0.001,0.5583655971160572,10,1,100,0.26610887434782743,-10,-1,-100,6477.790447837906,0.0049173371773811566,0.04535450561726151,0.9989588523133961,205.6599061502699,21.30008832472374,234.37484122854994,-14.098401909578326,-128.3865966796875,4381.2578125,True
1599569822.8098526,0.0,10,0.5,0.5,5.02920047454834,-0.15025,-0.001,-0.001,0.5164119262549739,10,1,100,0.19623295689717518,-10,-1,-100,6477.2259955281625,0.0025638028208354695,0.04554688912827412,0.9989589119707739,205.5395690686375,21.29739341423278,240.69056189792514,-14.480853535918026,-123.11648559570312,4381.2578125,True
1599569822.8746793,0.0,10,0.5,0.5,4.615299687957764,-0.15025,-0.001,-0.001,0.5002021771788869,10,1,100,0.09590007790335484,-10,-1,-100,6476.945718927775,0.0013511877406039887,0.04556679159088699,0.9989603804935422,205.00148442415008,21.249292568064895,243.28142996639895,-14.672071116452372,-120.37202453613281,4381.2578125,True
1599569822.9375126,0.0,10,0.5,0.5,3.750746318054199,-0.15025,-0.001,-0.001,0.48141802104204734,10,1,100,0.24260910625969573,-10,-1,-100,6476.320213421015,-0.0010695070866220035,0.0454074672766475,0.9989679764988024,202.64274620174527,21.02492954362084,246.8573337536804,-15.054532185644524,-114.6649169921875,4381.2578125,True
1599569823.0018513,0.0,10,0.5,0.5,2.8446903759002686,-0.15025,-0.001,-0.001,0.45904321932495146,10,1,100,0.2753599094755945,-10,-1,-100,6475.757195563288,-0.0035510309748088397,0.04505370583735404,0.9989782549031471,198.40660330127912,20.610124742156344,247.950044159851,-15.43708798147328,-108.66576385498047,4381.2578125,True
1599569823.0636854,0.0,10,0.5,0.5,1.8946826972961424,-0.15025,-0.001,-0.001,0.43119291794740655,10,1,100,0.30565788648288233,-10,-1,-100,6475.1316687347135,-0.006064782006473837,0.04447518523686361,0.9989920802075264,192.8441097802148,20.058666418747528,247.089109604185,-15.819797111954967,-102.37493896484375,4381.2578125,True
1599569823.1285126,0.0,10,0.5,0.5,0.9003849430084229,-0.15025,-0.001,-0.001,0.40025373746997495,10,1,100,0.323108583747952,-10,-1,-100,6474.444609262398,-0.008489340762594229,0.04366525279899033,0.9990101484927051,185.46559924402368,19.3152570712114,243.50594306193435,-16.20270361138558,-95.7923812866211,4381.2578125,True
1599569823.1903489,0.0,10,0.5,0.5,-0.13809339294433592,-0.15025,-0.001,-0.001,0.3704765662205345,10,1,100,0.34364316930387173,-10,-1,-100,6473.818088642787,-0.010859964167193408,0.04265713500805026,0.9990307452782383,175.79674574321353,18.325185912409815,236.3884048244352,-16.5858343908167,-88.917724609375,4381.2578125,True
1599569823.255174,0.0,10,0.5,0.5,-1.778665055847168,-0.15025,-0.001,-0.001,0.26730753266485535,10,1,100,0.47682927474147996,-10,-1,-100,6472.786253910628,-0.014205009692496478,0.040803339806726104,0.9990662166044115,177.2417186117609,18.47909725513222,246.7824650842895,-17.16070153395598,-78.06228637695312,4381.2578125,True
1599569823.3180056,0.0,10,0.5,0.5,-2.9131056060791014,-0.15025,-0.001,-0.001,0.29528099005376035,10,1,100,0.37004793346072795,-10,-1,-100,6472.097706729546,-0.016253001017413515,0.039375368501478845,0.9990922981953673,190.71198074791113,19.871078200146187,271.6039586615099,-17.54361185295805,-70.53121948242188,4381.2578125,True
1599569823.3808384,0.0,10,0.5,0.5,-3.4833452285766597,-0.15025,-0.001,-0.001,0.35383947535829163,10,1,100,0.27340708249442613,-10,-1,-100,6471.753431741265,-0.017214010485808177,0.038614416012962935,0.9991059026544545,196.60491753542394,20.476407389488916,283.1227941427956,-17.734922370496292,-66.75436401367188,4381.2578125,True
1599569823.442675,0.0,10,0.5,0.5,-4.605446867370605,-0.15025,-0.001,-0.001,0.2609612810242521,10,1,100,0.37242430350677325,-10,-1,-100,6471.002870207187,-0.018967692604767217,0.0370844211563702,0.9991321095554623,206.81026863297296,21.520614342389923,304.394366414289,-18.117240710264355,-59.351287841796875,4381.2578125,True
1599569823.5065024,0.0,10,0.5,0.5,-6.204615585327149,-0.15025,-0.001,-0.001,0.14142425727708713,10,1,100,0.4549827324906016,-10,-1,-100,6469.908520839526,-0.021292906162377872,0.03461450967810431,0.9991738826985543,217.09989980746175,22.571795806817274,329.8900076945906,-18.690049010226794,-48.771484375,4381.2578125,True
1599569823.5723267,0.0,10,0.5,0.5,-6.7121907852172855,-0.15025,-0.001,-0.001,0.2945328210110649,10,1,100,0.29916975350757646,-10,-1,-100,6469.501257363241,-0.021969669502266437,0.033770988260819465,0.9991880973940035,219.09950573028064,22.777789765570475,336.41147561970644,-18.880852920339564,-45.39300537109375,4381.2578125,True
1599569824.127888,0.0,10,0.5,0.5,-7.704015711975098,-0.15025,-0.001,-0.001,0.1985493274805217,10,1,100,0.3673414655161951,-10,-1,-100,6468.750207197736,-0.023185651590956535,0.03214215201211542,0.9992143451854226,222.00330063666073,23.08455835314006,347.9337029933138,-19.262341761543855,-38.85894775390625,4381.2578125,True
1599569824.1812665,0.0,10,0.5,0.5,-8.64772081222534,-0.15025,-0.001,-0.001,0.18840077901924873,10,1,100,0.36540468888627514,-10,-1,-100,6467.999650978018,-0.02425563313802449,0.030580870030759478,0.9992379469622015,222.57088645003114,23.160218991946728,355.9166503405425,-19.643769882501054,-32.622528076171875,4381.2578125,True
1599569824.2411041,0.0,10,0.5,0.5,-9.103091248321533,-0.15025,-0.001,-0.001,0.2538931254632367,10,1,100,0.3113704987158016,-10,-1,-100,6467.592879962991,-0.024720586587326007,0.02976953893829588,0.9992510531143711,222.07572989377562,23.120928798418333,358.66962399808295,-19.83449494642173,-29.61669921875,4381.2578125,True
1599569824.301942,0.0,10,0.5,0.5,-9.550155174255371,-0.15025,-0.001,-0.001,0.250072206243102,10,1,100,0.31463070453595227,-10,-1,-100,6467.186598971253,-0.025158154097942635,0.02900986205574656,0.9992624756218413,221.11141670689682,23.034880564921483,360.6462627307081,-20.025242616865572,-26.684783935546875,4381.2578125,True
1599569824.362821,0.0,10,0.5,0.5,-10.406655705261231,-0.15025,-0.001,-0.001,0.16524079600750177,10,1,100,0.3579465392073505,-10,-1,-100,6466.372087843949,-0.025936724704669782,0.027560458681243818,0.9992835970978777,217.94049439010456,22.737768214299415,362.4562894523335,-20.406836437334544,-21.043731689453125,4381.2578125,True
1599569824.425653,0.0,10,0.5,0.5,-11.602222947692871,-0.15025,-0.001,-0.001,0.08362380920969131,10,1,100,0.38127096511843667,-10,-1,-100,6465.090757000027,-0.026845891205420542,0.025512885625466213,0.999313960070832,211.08902000975743,22.07684393584683,361.245018527566,-20.979547887217855,-13.139556884765625,4381.2578125,True
1599569824.4864895,0.0,10,0.5,0.5,-11.976128915405273,-0.15025,-0.001,-0.001,0.2174889804023175,10,1,100,0.3186365685466639,-10,-1,-100,6464.683506264933,-0.0270933727007342,0.024881013933670457,0.9993232131304324,208.5885780661901,21.832762644845683,360.33078650506553,-21.170542293062216,-10.65313720703125,4381.2578125,True
1599569824.5483248,0.0,10,0.5,0.5,-13.040264352416992,-0.15025,-0.001,-0.001,0.09190976631335027,10,1,100,0.36727939988091585,-10,-1,-100,6463.401213122765,-0.027751582197498976,0.023177440814937608,0.9993461141780687,199.83198281815783,20.959647298560196,354.9034117757629,-21.74378562263506,-3.63818359375,4381.2578125,True
1599569824.6081653,0.0,10,0.5,0.5,-13.998968338012695,-0.15025,-0.001,-0.001,0.10046247891017462,10,1,100,0.35440973731419967,-10,-1,-100,6462.05643663567,-0.02822497218068523,0.02171913262182563,0.9993656138889087,191.34371148766002,20.09466559638563,349.15035967167466,-22.317324776212146,2.70989990234375,4381.2578125,True
1599569824.6690028,0.0,10,0.5,0.5,-13.997768392944336,-0.15025,-0.001,-0.001,0.24500376051574438,10,1,100,0.30776394559740483,-10,-1,-100,6462.05643663567,-0.02822497218068523,0.02171913262182563,0.9993656138889087,191.34371148766002,20.09466559638563,349.15035967167466,-22.317324776212146,2.70989990234375,4381.2578125,True
1599569824.7298393,0.0,10,0.5,0.5,-14.586724572753907,-0.15025,-0.001,-0.001,0.15611905944555993,10,1,100,0.3422824549776127,-10,-1,-100,6461.180435066461,-0.028533090172615832,0.02092204611722304,0.9993738693559433,188.21405917954283,19.77087002998374,349.56670013048665,-22.699753189040194,6.572021484375,4381.2578125,True
1599569824.792672,0.0,10,0.5,0.5,-15.379630966186523,-0.15025,-0.001,-0.001,0.12765043336373605,10,1,100,0.3515128042397335,-10,-1,-100,6459.7726965977345,-0.02889224839622506,0.019948816426744915,0.9993834512867333,199.59527959772836,20.95666931247592,380.46544120181704,-23.273033020323844,11.80987548828125,4381.2578125,True
1599569824.855526,0.0,10,0.5,0.5,-15.620528018188477,-0.15025,-0.001,-0.001,0.19537800940845143,10,1,100,0.3265082019718104,-10,-1,-100,6459.302476926707,-0.028987226201381236,0.01968943290272041,0.9993858448813048,202.86864567469416,21.293428595781226,390.01469983316525,-23.46400406734136,13.4078369140625,4381.2578125,True
1599569824.9173605,0.0,10,0.5,0.5,-16.073052170562743,-0.15025,-0.001,-0.001,0.17453024930871097,10,1,100,0.34187283564099236,-10,-1,-100,6458.364482203382,-0.029209369385230274,0.019273268340005558,0.9993874893491569,208.71210864123353,21.88847759846084,408.0618056398798,-23.845757528387065,16.381851196289062,4381.2578125,True
1599569824.980192,0.0,10,0.5,0.5,-16.665198208618165,-0.15025,-0.001,-0.001,0.17301192552678313,10,1,100,0.3523119084824839,-10,-1,-100,6456.8937825463945,-0.02950253547339088,0.018889985424716114,0.9993861960480018,215.9109177151612,22.608003771223128,432.71564720705885,-24.417924470367204,20.288055419921875,4381.2578125,True
1599569825.0440228,0.0,10,0.5,0.5,-17.003385941314693,-0.15025,-0.001,-0.001,0.2008602726699496,10,1,100,0.3435436389836376,-10,-1,-100,6455.891839381424,-0.029686096911939443,0.01880259545144225,0.9993824083174689,219.82061208050303,22.99065788767151,447.7364918629048,-24.799076711745347,22.522506713867188,4381.2578125,True
1599569825.1053717,0.0,10,0.5,0.5,-17.427825816345216,-0.15025,-0.001,-0.001,0.22269517154862417,10,1,100,0.3572026353843903,-10,-1,-100,6454.422141592368,-0.029974561636348145,0.018927749365703073,0.9993714354326213,224.58954436527463,23.446981241600348,468.47021941754207,-25.370404983651543,25.319915771484375,4381.2578125,True
1599569825.1682043,0.0,10,0.5,0.5,-17.654822192382813,-0.15025,-0.001,-0.001,0.23784695284250268,10,1,100,0.3492961066413587,-10,-1,-100,6453.35771715024,-0.03016230549820521,0.019184681176400868,0.9993608874351613,227.16455430662617,23.68717235339545,481.2793485482993,-25.751049005380594,26.8154296875,4381.2578125,True
1599569825.2310364,0.0,10,0.5,0.5,-17.752726524353026,-0.15025,-0.001,-0.001,0.23223413596386944,10,1,100,0.3412366128274072,-10,-1,-100,6452.888495431864,-0.030257522044038705,0.019370859723264505,0.9993544176884075,228.38697458338655,23.800399993142054,487.6105975698489,-25.941304094517225,27.452484130859375,4381.2578125,True
1599569825.2948658,0.0,10,0.5,0.5,-17.913775955200197,-0.15025,-0.001,-0.001,0.2659807422596827,10,1,100,0.3530532974841543,-10,-1,-100,6451.824570889934,-0.030449659173618353,0.019849035071192078,0.999339198702299,230.61155515967948,24.003940419345575,499.9212270395741,-26.321688539777913,28.505126953125,4381.2578125,True
1599569825.3567026,0.0,10,0.5,0.5,-18.0298712020874,-0.15025,-0.001,-0.001,0.28653038654206614,10,1,100,0.3553222006271791,-10,-1,-100,6450.7596785026835,-0.0306429332409065,0.02047225496964848,0.9993207179974061,232.5014388149578,24.172856479813234,511.64940570843214,-26.701919100526005,29.262603759765625,4381.2578125,True
1599569825.4185348,0.0,10,0.5,0.5,-18.10133960113525,-0.15025,-0.001,-0.001,0.30958006600414956,10,1,100,0.35700877011908444,-10,-1,-100,6449.63376034447,-0.0308320513492146,0.021248769955307396,0.9992986912755293,234.09806999093448,24.31158108849982,522.8560040481736,-27.08201087669706,29.725128173828125,4381.2578125,True
1599569825.4819334,0.0,10,0.5,0.5,-18.12803925704956,-0.15025,-0.001,-0.001,0.33481954517810203,10,1,100,0.3580881669221312,-10,-1,-100,6448.568887522793,-0.03101202614320149,0.022182960704280014,0.9992728208496845,235.43153049276458,24.423249442823256,533.581575423667,-27.46197827878314,29.892868041992188,4381.2578125,True
1599569825.5477552,0.0,10,0.5,0.5,-18.11032989959717,-0.15025,-0.001,-0.001,0.3619261140091734,10,1,100,0.3585532830053599,-10,-1,-100,6447.4425024775555,-0.031178027193089996,0.023276381531081625,0.9992427836532853,236.52040916803878,24.509730498352447,543.8441760843485,-27.841834711835276,29.7659912109375,4381.2578125,True
1599569825.6110957,0.0,10,0.5,0.5,-18.048081220245358,-0.15025,-0.001,-0.001,0.39150008188744106,10,1,100,0.35793837313636545,-10,-1,-100,6446.319059330854,-0.031321557459808816,0.024535615524166363,0.9992081683058552,237.36999728657557,24.571476806578698,553.6333013513828,-28.221593567557512,29.344741821289062,4381.2578125,True
1599569825.6729696,0.0,10,0.5,0.5,-17.941198013305662,-0.15025,-0.001,-0.001,0.4233448802655166,10,1,100,0.35601452617438833,-10,-1,-100,6445.191722746473,-0.031432896346274844,0.025964739475771857,0.9991685570169029,237.97496867395267,24.607852018295937,562.9140449013452,-28.601268442250838,28.629302978515625,4381.2578125,True
1599569825.7358022,0.0,10,0.5,0.5,-17.871745704650877,-0.15025,-0.001,-0.001,0.36684281277373954,10,1,100,0.34963163208524095,-10,-1,-100,6444.603402286535,-0.031474499206402315,0.026743776869102214,0.9991466990880177,238.18041514578536,24.615960329110933,567.3439993331322,-28.79107867125095,28.161346435546875,4381.2578125,True
1599569825.8008773,0.0,10,0.5,0.5,-17.697610375976563,-0.15025,-0.001,-0.001,0.4758077167003409,10,1,100,0.35010753360120705,-10,-1,-100,6443.4697412061505,-0.03151528278614511,0.028435477237368553,0.9990986991209588,238.3814436703136,24.61039989535919,575.7298186695176,-29.17065350495264,27.00506591796875,4381.2578125,True
1599569825.8627856,0.0,10,0.5,0.5,-17.353178816223146,-0.15025,-0.001,-0.001,0.6226208895600368,10,1,100,0.34078938979219114,-10,-1,-100,6441.682365912944,-0.03146641839011302,0.03129964205627976,0.9990146129666208,238.08888361425437,24.540718966071022,586.9028834676323,-29.73993085761012,24.720062255859375,4381.2578125,True
1599569825.9235888,0.0,10,0.5,0.5,-17.21779023666382,-0.15025,-0.001,-0.001,0.45162637901339986,10,1,100,0.3410174038207369,-10,-1,-100,6441.088211781229,-0.03142297007002874,0.03233808835729051,0.9989829052558278,237.81121023942774,24.499040604304724,590.1834796123876,-29.92967545721032,23.811630249023438,4381.2578125,True
1599569825.9854243,0.0,10,0.5,0.5,-16.910197302246093,-0.15025,-0.001,-0.001,0.5937714594852608,10,1,100,0.324511946046229,-10,-1,-100,6439.896011841134,-0.031232537153005314,0.034563004768602565,0.9989143743706724,236.9442545560238,24.38411018926171,595.9491754661999,-30.309156064726892,21.775054931640625,4381.2578125,True
1599569826.0502512,0.0,10,0.5,0.5,-16.55915312194824,-0.15025,-0.001,-0.001,0.637829168816604,10,1,100,0.3062416090251281,-10,-1,-100,6438.655004101805,-0.0308927863428721,0.03697337090935396,0.9988386284057965,235.60762975679347,24.222133029001117,600.4826474640931,-30.68864044568704,19.445587158203125,4381.2578125,True
1599569826.1140807,0.0,10,0.5,0.5,-15.948854064941406,-0.15025,-0.001,-0.001,0.8284316998028701,10,1,100,0.26510914114202727,-10,-1,-100,6436.804278038442,-0.03020993523018312,0.04088306804540851,0.9987071315258454,232.56042330184687,23.876643121766733,604.4515477149456,-31.25791283564039,15.401947021484375,4381.2578125,True
1599569826.1814783,0.0,10,0.5,0.5,-15.240280972290039,-0.15025,-0.001,-0.001,0.9099104695318596,10,1,100,0.21133348671722046,-10,-1,-100,6434.894038713421,-0.029101021079252182,0.045161054159956984,0.9985557619679066,228.03719024178164,23.389218358953464,604.2590685361168,-31.827291268109338,10.70001220703125,4381.2578125,True
1599569826.2512925,0.0,10,0.5,0.5,-14.983890823364257,-0.15025,-0.001,-0.001,0.6488827299729338,10,1,100,0.2662090558643087,-10,-1,-100,6434.23598179128,-0.028593674303482895,0.04665725783843911,0.9985016284818087,226.15322732437966,23.191246508188065,603.1024775865487,-32.01711552472165,8.98638916015625,4381.2578125,True
1599569826.3226526,0.0,10,0.5,0.5,-14.713319091796874,-0.15025,-0.001,-0.001,0.6695910177461419,10,1,100,0.2552140906670597,-10,-1,-100,6433.57109538652,-0.02803497562658703,0.04818558957834814,0.9984448853585277,224.06071686144338,22.97381858068913,601.3285064675873,-32.20695761866889,7.199615478515625,4381.2578125,True
1599569826.3874393,0.0,10,0.5,0.5,-13.835793211364745,-0.15025,-0.001,-0.001,1.039443946273192,10,1,100,0.08418978589960985,-10,-1,-100,6431.665823709103,-0.025975390350359142,0.05291708064659992,0.998261018808201,216.42641741978727,22.19627530229338,591.9027805607665,-32.77659211486743,1.400146484375,4381.2578125,True
1599569826.4552584,0.0,10,0.5,0.5,-13.198836604309081,-0.15025,-0.001,-0.001,0.9292642104327683,10,1,100,0.10430316792825015,-10,-1,-100,6430.294114871067,-0.024290888216645105,0.056193008288481776,0.9981243903287492,210.1215875531046,21.566830384164522,581.8422595117477,-33.15643165750044,-2.831787109375,4381.2578125,True
1599569826.5190878,0.0,10,0.5,0.5,-12.863437284851074,-0.15025,-0.001,-0.001,0.7870661094380631,10,1,100,0.1673614977331358,-10,-1,-100,6429.6326866335,-0.02333934781564903,0.05785318019837604,0.9980522453180866,209.43682352057039,21.510021816377517,583.5301074683646,-33.346334982226104,-5.05755615234375,4381.2578125,True
1599569826.5849125,0.0,10,0.5,0.5,-11.785975277709962,-0.15025,-0.001,-0.001,1.1621331555632786,10,1,100,-0.11637380871840383,-10,-1,-100,6427.60350585205,-0.01990228745661539,0.06274798822837997,0.9978309420574637,219.10845693935167,22.5653476732878,621.7328440609616,-33.91554471332134,-12.176300048828125,4381.2578125,True
1599569826.6507363,0.0,10,0.5,0.5,-11.016231449890135,-0.15025,-0.001,-0.001,1.0342871056322664,10,1,100,-0.06387522731751169,-10,-1,-100,6426.290944426903,-0.017265420308968746,0.0660079315291279,0.997669714001984,225.67882589418096,23.298660784369133,648.1015940702749,-34.294546382196216,-17.288787841796875,4381.2578125,True
1599569826.7145653,0.0,10,0.5,0.5,-10.19953453063965,-0.15025,-0.001,-0.001,1.0541727592990204,10,1,100,-0.12927596132963654,-10,-1,-100,6424.905649473309,-0.014286413608128878,0.06912370872063239,0.9975057951104458,231.89549786763905,24.006279919413988,673.8804405379932,-34.673133154225276,-22.6964111328125,4381.2578125,True
1599569826.7794223,0.0,10,0.5,0.5,-9.774991145324707,-0.15025,-0.001,-0.001,0.9086974779449649,10,1,100,-0.01023509292977906,-10,-1,-100,6424.192496577511,-0.01267551211348656,0.07060450330258936,0.9974238494772699,234.6838925361016,24.329834864726408,685.9877930488241,-34.862271726854246,-25.511199951171875,4381.2578125,True
1599569826.8502026,0.0,10,0.5,0.5,-8.88882734375,-0.15025,-0.001,-0.001,1.078484673848708,10,1,100,-0.23057020593568303,-10,-1,-100,6422.752032258548,-0.00922395011204596,0.07346718067144137,0.997254978482695,239.9486806559641,24.94732975741792,709.5506577733539,-35.240247526919745,-31.3616943359375,4381.2578125,True
1599569827.402881,0.0,10,0.5,0.5,-7.960742053222656,-0.15025,-0.001,-0.001,1.0800256690444345,10,1,100,-0.29738323651194093,-10,-1,-100,6421.373576717568,-0.0054968453518314375,0.07605789084807572,0.9970882518267479,244.48815303335095,25.488640218227374,731.2828091662977,-35.61784288928803,-37.5086669921875,4381.2578125,True
1599569827.455185,0.0,10,0.5,0.5,-6.987833735656738,-0.15025,-0.001,-0.001,1.0849518394339204,10,1,100,-0.36693465733575836,-10,-1,-100,6419.937013624352,-0.0014972797704668518,0.07843113743672989,0.9969184093162637,247.57590505124713,25.8722720551993,748.9154824089075,-35.995126126939645,-43.951019287109375,4381.2578125,True
1599569827.5130289,0.0,10,0.5,0.5,-6.989161024475098,-0.15025,-0.001,-0.001,0.8506517353543424,10,1,100,0.030368131215088225,-10,-1,-100,6419.937013624352,-0.0014972797704668518,0.07843113743672989,0.9969184093162637,247.57590505124713,25.8722720551993,748.9154824089075,-35.995126126939645,-43.951019287109375,4381.2578125,True
1599569827.572914,0.0,10,0.5,0.5,-5.438444534301757,-0.15025,-0.001,-0.001,1.159942740191313,10,1,100,-0.6661620564638454,-10,-1,-100,6417.716466530459,0.004812560016996279,0.08121967924725677,0.9966846055643959,248.94224829844995,26.08482708354546,765.7017635399878,-36.56067772196555,-54.1737060546875,4381.2578125,True
1599569827.6347485,0.0,10,0.5,0.5,-4.356719064331054,-0.15025,-0.001,-0.001,1.0452866818655753,10,1,100,-0.5251836554934088,-10,-1,-100,6416.279363607289,0.009240698498382756,0.08268963793481199,0.9965325048735096,247.36086973680372,25.948216620120917,769.2301490265462,-36.93763378465963,-61.3592529296875,4381.2578125,True
1599569827.6956236,0.0,10,0.5,0.5,-3.7980429275512693,-0.15025,-0.001,-0.001,0.9673289485630805,10,1,100,-0.33606189133265624,-10,-1,-100,6415.492935323622,0.011517371946987227,0.0832946787500791,0.9964584018589818,245.74410023631123,25.788443696107606,768.37967265759,-37.12613481483496,-65.06326293945312,4381.2578125,True
1599569827.755459,0.0,10,0.5,0.5,-2.6417784088134764,-0.15025,-0.001,-0.001,0.9893182735033739,10,1,100,-0.5858024268487232,-10,-1,-100,6413.997678613639,0.01582888026004317,0.08402593999930488,0.9963378382641837,240.75806788013372,25.277904467686657,760.9989717936285,-37.50325514560968,-72.697509765625,4381.2578125,True
1599569827.818386,0.0,10,0.5,0.5,-1.4443219177246096,-0.15025,-0.001,-0.001,0.9600971940213099,10,1,100,-0.6374260979203649,-10,-1,-100,6412.490161611931,0.020187653644773488,0.08440869676833666,0.9962266963649337,233.36334846427837,24.510288002742133,745.6208728282348,-37.880612734428354,-80.62841796875,4381.2578125,True
1599569827.882731,0.0,10,0.5,0.5,0.4373559398651123,-0.15025,-0.001,-0.001,0.8977224579096998,10,1,100,-0.8947698043209249,-10,-1,-100,6410.204364808509,0.02645832308248532,0.08417571896821664,0.9960995961628769,217.60107134112576,22.876407141784867,706.5078586877498,-38.447220390779826,-93.0833969116211,4381.2578125,True
1599569827.9445662,0.0,10,0.5,0.5,1.7437558540344238,-0.15025,-0.001,-0.001,0.8517506179707608,10,1,100,-0.692762508223698,-10,-1,-100,6408.638592115953,0.030286925483888585,0.08353365768169388,0.9960445924651421,204.00299346606906,21.476418074074687,669.411619333775,-38.825341343672115,-101.7584228515625,4381.2578125,True
1599569828.0073977,0.0,10,0.5,0.5,3.089307361984253,-0.15025,-0.001,-0.001,0.8132381921836678,10,1,100,-0.6956511673735206,-10,-1,-100,6407.073243065737,0.03375781468143909,0.08259070129859938,0.9960116394937055,210.02445455023656,22.158363748061195,696.4231888597358,-39.20327201370031,-110.66544342041016,4381.2578125,True
1599569828.074219,0.0,10,0.5,0.5,3.7596737312316892,-0.15025,-0.001,-0.001,0.8467262057789637,10,1,100,-0.5258098431879745,-10,-1,-100,6406.293475791346,0.035333470404767975,0.08203196579169751,0.9960031638792646,215.64245003841967,22.780084039407882,718.7650618379596,-39.39200105102448,-115.10813903808594,4381.2578125,True
1599569828.1380491,0.0,10,0.5,0.5,5.7247056419372555,-0.15025,-0.001,-0.001,0.6823010097587962,10,1,100,-0.8343568017480889,-10,-1,-100,6403.948231244693,0.039537374549090516,0.08002597643218977,0.996008352931761,227.91643872767287,24.170190045946004,771.3960467055824,-39.957365479119595,-128.08241271972656,4381.2578125,True
1599569828.2018776,0.0,10,0.5,0.5,6.3526891967773444,-0.15025,-0.001,-0.001,0.8030318813554778,10,1,100,-0.5468332240184103,-10,-1,-100,6403.102982494631,0.040707950651550695,0.0792984532662476,0.9960193863893071,230.61650386655194,24.48485354429036,784.4723773075931,-40.145602322926734,-132.2645263671875,4381.2578125,True
1599569828.26471,0.0,10,0.5,0.5,8.186137446594238,-0.15025,-0.001,-0.001,0.6241766497756819,10,1,100,-0.7519288365021074,-10,-1,-100,6400.692170440569,0.04360398413942578,0.07701285848828476,0.9960761578286232,236.0885887788158,25.13361110156345,815.1618921713183,-40.709892325008404,-144.36251831054688,4381.2578125,True
1599569828.3285398,0.0,10,0.5,0.5,9.34518262710571,-0.15025,-0.001,-0.001,0.686684113851503,10,1,100,-0.6209415882466198,-10,-1,-100,6399.06409391237,0.04501470933913412,0.0755084554357774,0.9961285806063475,236.5019088125383,25.20562023259608,824.6633538471075,-41.085940261842616,-152.0507354736328,4381.2578125,True
1599569828.3943906,0.0,10,0.5,0.5,10.46316896057129,-0.15025,-0.001,-0.001,0.6803707889324783,10,1,100,-0.5953132313395055,-10,-1,-100,6397.369587488705,0.04603374960572052,0.0740905008190653,0.9961884819579164,234.71543176168137,25.032116611734633,826.4757245036265,-41.46203123671084,-159.43569946289062,4381.2578125,True
1599569828.4561977,0.0,10,0.5,0.5,11.535402716064452,-0.15025,-0.001,-0.001,0.6810424196565428,10,1,100,-0.5688589482312546,-10,-1,-100,6395.744897445082,0.04669219739313708,0.07281658911880057,0.9962517669001667,231.07621760774208,24.654546807384474,821.6170860583128,-41.83825945058862,-166.51632690429688,4381.2578125,True
1599569828.521024,0.0,10,0.5,0.5,12.055147993469237,-0.15025,-0.001,-0.001,0.742584800619565,10,1,100,-0.5268859528564849,-10,-1,-100,6394.903009633999,0.04688511856579208,0.07222850204335968,0.9962855158786782,228.67398412843016,24.4028948361671,817.0279080539958,-42.02644323982574,-169.94268798828125,4381.2578125,True
1599569828.581863,0.0,10,0.5,0.5,13.061249564361571,-0.15025,-0.001,-0.001,0.6876902835815845,10,1,100,-0.5260531915070951,-10,-1,-100,6393.2016547698295,0.04703436107822644,0.07120569747163619,0.9963521051945144,222.90964240713535,23.79896440203317,804.1672926146351,-42.40296698639685,-176.56643676757812,4381.2578125,True
1599569828.6456914,0.0,10,0.5,0.5,-39.97165785980225,-0.15025,-0.001,-0.001,0.6633686715842638,10,1,100,-0.4743108601082916,-10,-1,-100,6390.610569123528,0.046684426317182795,0.07006597680664833,0.9964493580877886,212.46854087976217,22.713174241171437,777.6155296413996,-42.96813796070903,174.0700225830078,4381.2578125,True
1599569828.7085238,0.0,10,0.5,0.5,-38.33719302520751,-0.15025,-0.001,-0.001,0.7104935131649106,10,1,100,-0.40566551326598,-10,-1,-100,6388.008768271073,0.045730503734362334,0.06946966087511248,0.996535341694462,208.12240225175478,22.300285250156712,772.6303184744695,-43.53357521863049,165.39364624023438,4381.2578125,True
1599569828.7693627,0.0,10,0.5,0.5,-38.37391958007812,-0.15025,-0.001,-0.001,0.768868875826837,10,1,100,-0.5020974748809856,-10,-1,-100,6388.008768271073,0.045730503734362334,0.06946966087511248,0.996535341694462,208.12240225175478,22.300285250156712,772.6303184744695,-43.53357521863049,165.39364624023438,4381.2578125,True
1599569828.8327413,0.0,10,0.5,0.5,-37.54038335113525,-0.15025,-0.001,-0.001,0.7582402691853902,10,1,100,-0.40091702560866194,-10,-1,-100,6386.2557073712815,0.044805051350809144,0.06938263382887849,0.9965834423150022,215.66861862508935,23.15740418824252,808.1892642063516,-43.910139257035276,159.68862915039062,4381.2578125,True
1599569828.8970807,0.0,10,0.5,0.5,-36.67598823928833,-0.15025,-0.001,-0.001,0.7858035468746658,10,1,100,-0.3666454289041783,-10,-1,-100,6384.49241893203,0.04364844639508434,0.06956310796532952,0.996622188764378,223.15775960856547,24.018664948216124,844.0505757059381,-44.28628060704078,153.7428741455078,4381.2578125,True
1599569828.9599123,0.0,10,0.5,0.5,-35.2834987411499,-0.15025,-0.001,-0.001,0.8635130963834299,10,1,100,-0.25568553503437075,-10,-1,-100,6381.828273566323,0.04158822061628567,0.07044039831265828,0.9966486693873248,232.9638928157369,25.168600876886767,893.3195514204192,-44.84972260115166,144.2999267578125,4381.2578125,True
1599569829.0217483,0.0,10,0.5,0.5,-33.79732103652953,-0.15025,-0.001,-0.001,0.9476350798133337,10,1,100,-0.19612976420756711,-10,-1,-100,6379.102230587392,0.03917698698142762,0.07200728762061365,0.996634393456587,241.55830300649973,26.18877619413668,938.8683807795102,-45.41232757230416,134.21559143066406,4381.2578125,True
1599569829.0833364,0.0,10,0.5,0.5,-33.83677050094604,-0.15025,-0.001,-0.001,0.7907378276979514,10,1,100,-0.43656745143094317,-10,-1,-100,6379.102230587392,0.03917698698142762,0.07200728762061365,0.996634393456587,241.55830300649973,26.18877619413668,938.8683807795102,-45.41232757230416,134.21559143066406,4381.2578125,True
1599569829.1481628,0.0,10,0.5,0.5,-32.79618497085571,-0.15025,-0.001,-0.001,0.9516275832053382,10,1,100,-0.23759252074986298,-10,-1,-100,6377.283479291829,0.03737495598470117,0.0734706574902246,0.9965967966801297,245.86452024952936,26.707870903798003,964.1432205355843,-45.787027781754446,127.13685607910156,4381.2578125,True
1599569829.2099981,0.0,10,0.5,0.5,-31.14653508377075,-0.15025,-0.001,-0.001,1.1216752548736983,10,1,100,-0.10390213492386452,-10,-1,-100,6374.491772736539,0.03453002444615086,0.07634575242735887,0.9964833182236663,249.3644086894432,27.147289279178914,990.8853921774091,-46.34877229689723,115.98686218261719,4381.2578125,True
1599569829.2758222,0.0,10,0.5,0.5,-30.00909395675659,-0.15025,-0.001,-0.001,1.095214593087832,10,1,100,-0.17326885711060278,-10,-1,-100,6372.614639816922,0.032585697191559175,0.07871425084946786,0.9963645111362343,249.3697897843722,27.17501509170854,999.6332668494287,-46.723234223880986,108.19944763183594,4381.2578125,True
1599569829.3396747,0.0,10,0.5,0.5,-28.789770326995846,-0.15025,-0.001,-0.001,1.1637238388899178,10,1,100,-0.14753340650896812,-10,-1,-100,6370.701971615665,0.030596985344756987,0.08148238049136515,0.9962050221501962,247.2560144231061,26.96617562692785,999.8714566902737,-47.097803734964394,100.12986755371094,4381.2578125,True
1599569829.4044898,0.0,10,0.5,0.5,-27.528142008972164,-0.15025,-0.001,-0.001,1.235556311146076,10,1,100,-0.132504135774149,-10,-1,-100,6368.789912609034,0.028666193494065375,0.08464096380485844,0.9959990745963299,242.87362131573286,26.510580288943093,990.775291604272,-47.472579798921586,91.7783203125,4381.2578125,True
1599569829.4683187,0.0,10,0.5,0.5,-26.223349896240233,-0.15025,-0.001,-0.001,1.3110544304816958,10,1,100,-0.12102200586027734,-10,-1,-100,6366.877012703801,0.026822058185347164,0.08818495762660367,0.995742933915725,236.08032910191162,25.800013654063868,971.5118804655106,-47.847631376064044,83.14505004882812,4381.2578125,True
1599569829.5317218,0.0,10,0.5,0.5,-25.555474057006837,-0.15025,-0.001,-0.001,1.1693165209922411,10,1,100,-0.20691100282703828,-10,-1,-100,6365.906213657698,0.025942728779997037,0.09010115072028817,0.9955946752882558,231.74695510535827,25.347616126624615,957.8449442829556,-48.03527132421546,78.72286987304688,4381.2578125,True
1599569829.5955102,0.0,10,0.5,0.5,-23.481952151489256,-0.15025,-0.001,-0.001,1.6725705870994756,10,1,100,-0.03232136033757907,-10,-1,-100,6362.992583613144,0.023572255950333736,0.0963995104584717,0.9950635573332886,229.16423353361185,25.160966178277008,959.5507009314118,-48.59834295791132,65.03399658203125,4381.2578125,True
1599569829.6603372,0.0,10,0.5,0.5,-22.054128177642824,-0.15025,-0.001,-0.001,1.5522750806613432,10,1,100,-0.12806690583165692,-10,-1,-100,6361.049878053484,0.022304072850282308,0.10100809733270479,0.9946355576830722,242.67718014468576,26.736898546912162,1024.8465714372485,-48.97296663274063,55.55574035644531,4381.2578125,True
1599569829.7251635,0.0,10,0.5,0.5,-20.579520508575442,-0.15025,-0.001,-0.001,1.6342390412159147,10,1,100,-0.1446267151623101,-10,-1,-100,6359.046787675121,0.02131706185699708,0.1059164843054927,0.9941465089342462,254.13452559337904,28.10339884118502,1082.3149288423874,-49.34688882527305,45.79560852050781,4381.2578125,True
1599569829.7869978,0.0,10,0.5,0.5,-19.82635344467163,-0.15025,-0.001,-0.001,1.428373088215503,10,1,100,-0.2004585369043017,-10,-1,-100,6358.075334366644,0.02094357744723264,0.10847631907467355,0.993878390329381,258.93492355338014,28.686452561939078,1107.370889842735,-49.53362206679419,40.80992126464844,4381.2578125,True
1599569829.8498306,0.0,10,0.5,0.5,-17.49622913970947,-0.15025,-0.001,-0.001,2.0455163759141555,10,1,100,-0.17975779448218882,-10,-1,-100,6355.100657367613,0.020430795215007097,0.11638201178793074,0.9929943655122502,270.75441227660724,30.14153528863318,1172.3648586411755,-50.093121933913025,25.428253173828125,4381.2578125,True
1599569829.9146574,0.0,10,0.5,0.5,-15.898083148956298,-0.15025,-0.001,-0.001,1.854208624982849,10,1,100,-0.24717869137685905,-10,-1,-100,6353.035030262894,0.020590364274963736,0.12179344719209761,0.9923418731062849,274.5696378879429,30.64453723283002,1198.6935795280629,-50.46581611386892,14.820175170898438,4381.2578125,True
1599569829.9964387,0.0,10,0.5,0.5,-15.08103254852295,-0.15025,-0.001,-0.001,1.6159937588411135,10,1,100,-0.25624199421356275,-10,-1,-100,6352.0632952644955,0.020828725567000345,0.12450818132519478,0.9919999379911004,275.0180950694185,30.72890810058418,1205.5959287749997,-50.65216488136379,9.4097900390625,4381.2578125,True
1599569830.060268,0.0,10,0.5,0.5,-12.557965408325195,-0.15025,-0.001,-0.001,2.236987250239234,10,1,100,-0.37957415456738886,-10,-1,-100,6348.965117993997,0.022175499344593643,0.13258240245814437,0.9909238889981635,269.9874919192771,30.26638216721132,1198.280360296143,-51.211543678343126,-7.2474365234375,4381.2578125,True
1599569830.6542222,0.0,10,0.5,0.5,-10.831225567626953,-0.15025,-0.001,-0.001,2.006646862413423,10,1,100,-0.3980373682994124,-10,-1,-100,6346.899247521302,0.023573587171014557,0.1377850168363609,0.9901815869441798,261.0365988736485,29.34569767770956,1168.1858409784024,-51.58491819815701,-18.70855712890625,4381.2578125,True
1599569830.715807,0.0,10,0.5,0.5,-9.055710784912108,-0.15025,-0.001,-0.001,2.0367747416883755,10,1,100,-0.44969899093544596,-10,-1,-100,6344.833879424492,0.025317180374465086,0.14274346511977573,0.9894358713648329,247.52029677389262,27.935217438630072,1116.8685612333218,-51.95871232990392,-30.4559326171875,4381.2578125,True
1599569830.7756886,0.0,10,0.5,0.5,-7.23633367614746,-0.15025,-0.001,-0.001,2.0576895430849818,10,1,100,-0.4977516845503408,-10,-1,-100,6342.7679929068545,0.02733967645446964,0.14739342328612245,0.9887000156080523,253.67535276145742,28.776433234008472,1153.97791626923,-52.332284641253395,-42.4903564453125,4381.2578125,True
1599569830.8335347,0.0,10,0.5,0.5,-5.373891452026367,-0.15025,-0.001,-0.001,2.0695668772487976,10,1,100,-0.5408399797090474,-10,-1,-100,6340.640028808266,0.029566596100912806,0.1516822756453563,0.9879869956887347,268.7294922873996,30.655269462249215,1232.2301814596494,-52.70480808481145,-54.8125,4381.2578125,True
1599569830.8985066,0.0,10,0.5,0.5,-4.426984022521973,-0.15025,-0.001,-0.001,1.8653615472373428,10,1,100,-0.4464600361041769,-10,-1,-100,6339.606284311973,0.030726466725589017,0.15367875280972598,0.9876430150501792,274.57444570110215,31.407325035355985,1263.981365210386,-52.890749209344875,-61.08154296875,4381.2578125,True
1599569830.9673603,0.0,10,0.5,0.5,-2.4935416458129884,-0.15025,-0.001,-0.001,2.07564788856308,10,1,100,-0.5890867945829688,-10,-1,-100,6337.4791345587,0.033068947457039505,0.15736200581801946,0.9869871548500585,283.11597799176354,32.543806594010455,1313.4666384969184,-53.26220071308738,-73.83541870117188,4381.2578125,True
1599569831.0271964,0.0,10,0.5,0.5,0.48004852523803715,-0.15025,-0.001,-0.001,2.238128984396742,10,1,100,-0.7311856632054416,-10,-1,-100,6334.255922590615,0.036479260227644424,0.16214307698155286,0.9860927370994059,286.4658133168468,33.122096494613736,1344.5247590002148,-53.8190148372525,-93.50404357910156,4381.2578125,True
1599569831.088368,0.0,10,0.5,0.5,1.485509194946289,-0.15025,-0.001,-0.001,1.9193370565039674,10,1,100,-0.5097323651194703,-10,-1,-100,6333.1599625651725,0.037551743250128576,0.16354979590829108,0.9858201310772838,284.2715302324437,32.92527561873272,1339.4271545585736,-54.004729952100796,-100.203125,4381.2578125,True
1599569831.1482072,0.0,10,0.5,0.5,3.5489958198547362,-0.15025,-0.001,-0.001,2.0688002612909147,10,1,100,-0.6137241853890841,-10,-1,-100,6331.029948100331,0.03945668856486051,0.16614942738637425,0.9853108836842692,274.65685507332796,31.929338849848893,1304.288132194181,-54.376549557615434,-113.81425476074219,4381.2578125,True
1599569831.2140305,0.0,10,0.5,0.5,6.63914437713623,-0.15025,-0.001,-0.001,2.1997094774978265,10,1,100,-0.6735767551845349,-10,-1,-100,6327.742182585876,0.04171563679185013,0.169664956835548,0.9846185089002959,248.21205077219915,29.069826537889746,1192.5649173725358,-54.93541199929258,-134.25350952148438,4381.2578125,True
1599569831.2794018,0.0,10,0.5,0.5,9.637610258483887,-0.15025,-0.001,-0.001,2.21575046634203,10,1,100,-0.6053496125379012,-10,-1,-100,6324.3922535208985,0.043131215576464696,0.1729730084566738,0.983981725739022,275.65609259739057,32.58176977909784,1339.522848244179,-55.49284485097242,-154.12924194335938,4381.2578125,True
1599569831.344257,0.0,10,0.5,0.5,9.631276594543458,-0.15025,-0.001,-0.001,1.888464103391482,10,1,100,-0.4657474969169894,-10,-1,-100,6324.3922535208985,0.043131215576464696,0.1729730084566738,0.983981725739022,275.65609259739057,32.58176977909784,1339.522848244179,-55.49284485097242,-154.12924194335938,4381.2578125,True
1599569831.4080832,0.0,10,0.5,0.5,11.58933060913086,-0.15025,-0.001,-0.001,2.1449091377017298,10,1,100,-0.5169777151218795,-10,-1,-100,6322.13748034637,0.043580750255416426,0.17527684554736978,0.9835541396497391,287.87247330428124,34.21706403351501,1409.2681417625993,-55.86329091260509,-166.9932861328125,4381.2578125,True
1599569831.4729092,0.0,10,0.5,0.5,-40.03179006271362,-0.15025,-0.001,-0.001,2.3282585032020546,10,1,100,-0.47353137932393574,-10,-1,-100,6318.785709038959,0.04357968684375401,0.17901270675049522,0.9828811025329878,297.4678911225104,35.6032758577427,1472.4496729257253,-56.41827447025274,174.30064392089844,4381.2578125,True
1599569831.5357423,0.0,10,0.5,0.5,-37.887174937438964,-0.15025,-0.001,-0.001,2.267978694588346,10,1,100,-0.43052012136040263,-10,-1,-100,6316.530657594558,0.043174969496444386,0.18183610010129814,0.9823805549322175,296.033275769923,35.58112621057786,1476.3310727486091,-56.78839705855912,162.22637939453125,4381.2578125,True
1599569831.5975769,0.0,10,0.5,0.5,-37.02652876281738,-0.15025,-0.001,-0.001,2.1578583909449196,10,1,100,-0.43965495134003485,-10,-1,-100,6315.372185497428,0.04287877172345879,0.18337613007136822,0.9821072272697803,293.09926952256563,35.30773846312056,1467.2124218019867,-56.97360164250098,156.30868530273438,4381.2578125,True
1599569831.6594117,0.0,10,0.5,0.5,-33.42191363754272,-0.15025,-0.001,-0.001,2.7839006911891797,10,1,100,-0.2886389125413178,-10,-1,-100,6310.799348965171,0.04122770991869589,0.19044380175160397,0.9808320112584293,267.3050946677825,32.578074572261364,1358.3987361818608,-57.715623959215826,132.2852325439453,4381.2578125,True
1599569831.728227,0.0,10,0.5,0.5,-33.46851601791382,-0.15025,-0.001,-0.001,2.0799635956426092,10,1,100,-0.45421993798671273,-10,-1,-100,6310.799348965171,0.04122770991869589,0.19044380175160397,0.9808320112584293,267.3050946677825,32.578074572261364,1358.3987361818608,-57.715623959215826,132.2852325439453,4381.2578125,True
1599569831.7910597,0.0,10,0.5,0.5,-31.617952845764158,-0.15025,-0.001,-0.001,2.540891404853236,10,1,100,-0.3504716872130974,-10,-1,-100,6308.482060790178,0.0402812022146916,0.19460960546638847,0.9800533282471704,282.75539199583085,34.72196327571807,1447.4895408997106,-58.0861974991609,119.89639282226562,4381.2578125,True
