Timestamp,Input Throttle,horizon,dT,dt,Input Roll,Roll P,Roll I,Roll D,Input Pitch,Pitch P,Pitch I,Pitch D,Input Yaw,Yaw P,Yaw I,Yaw D,Altitude,Direction X,Direction Y,Direction Z,Drag X,Drag Y,Drag Z,Vertical Velocity,Roll,Mass,Has Fuel
1599572680.8494847,0.0,10,0.5,0.5,-10.811470840454101,-0.2,-0.00825,-0.2505,-0.06858729898111476,10,1,100,0.6815770901882694,-10,-1,-100,6483.617967279046,-0.067258107147936,-0.007002709487316933,0.9977110348606518,205.07317680850846,21.498772027317372,-156.76520491526577,9.590824060031757,-35.944671630859375,4381.2578125,True
1599572680.9242811,0.0,10,0.5,0.5,-10.857159870147708,-0.2,-0.00825,-0.2505,-0.06735169098129443,10,1,100,0.6999203097839423,-10,-1,-100,6483.997883285512,-0.0674455019442068,-0.006972021534220509,0.9976985993691784,204.61207001113578,21.456733005958178,-150.26666049757364,9.210801610714064,-35.94134521484375,4381.2578125,True
1599572681.0011106,0.0,10,0.5,0.5,-10.883176107025148,-0.2,-0.00825,-0.2505,-0.05215780800551182,10,1,100,0.7007006556289654,-10,-1,-100,6484.3167602753965,-0.06756164081036756,-0.006799658984776445,0.9976919310732656,204.14952754719866,21.414361545444205,-143.78939336642208,8.8307979188021,-35.980743408203125,4381.2578125,True
1599572681.0759017,0.0,10,0.5,0.5,-10.891032444763184,-0.2,-0.00825,-0.2505,-0.05300284115431987,10,1,100,0.6982108503257303,-10,-1,-100,6484.538936208468,-0.06758316733065668,-0.006644466369375755,0.997691518737241,203.94221953492104,21.395584586515177,-140.57569467625086,8.640800996284797,-36.084136962890625,4381.2578125,True
1599572681.153692,0.0,10,0.5,0.5,-10.630783402252197,-0.2,-0.00825,-0.2505,0.0015934514833682162,10,1,100,0.698971039362443,-10,-1,-100,6485.016950319288,-0.06754820846095268,-0.0060010118165148936,0.9976979640105987,203.4462225690831,21.3516327129514,-131.04511997715903,8.070816349652413,-36.81805419921875,4381.2578125,True
1599572681.8438978,0.0,10,0.5,0.5,-10.682706938934327,-0.2,-0.00825,-0.2505,-0.02855219587652251,10,1,100,0.7013284781940708,-10,-1,-100,6485.175624319934,-0.06747645147018115,-0.005684649006443558,0.9977046723668611,203.31691248495005,21.340365371023907,-127.89822812141198,7.88082039178854,-37.208282470703125,4381.2578125,True
1599572681.9111805,0.0,10,0.5,0.5,-10.373278569030763,-0.2,-0.00825,-0.2505,0.026928674248427285,10,1,100,0.6886777636809072,-10,-1,-100,6485.493929365184,-0.06723486911802357,-0.00488750704250967,0.9977252049786012,203.08566187327511,21.319919576824837,-121.62859571443677,7.5008210250912555,-38.20880126953125,4381.2578125,True
1599572681.9800096,0.0,10,0.5,0.5,-10.666636267089846,-0.2,-0.00825,-0.2505,-0.053274272849212476,10,1,100,0.7195594858084681,-10,-1,-100,6485.493929365184,-0.06723486911802357,-0.00488750704250967,0.9977252049786012,203.08566187327511,21.319919576824837,-121.62859571443677,7.5008210250912555,-38.20880126953125,4381.2578125,True
1599572682.0572698,0.0,10,0.5,0.5,-10.12626291656494,-0.2,-0.00825,-0.2505,0.05669035917736301,10,1,100,0.6827237353846805,-10,-1,-100,6485.75019590056,-0.06683887605133638,-0.003883385381320339,0.9977562247193319,202.8489218396108,21.297684794128767,-115.36459632175223,7.120804989679232,-39.503143310546875,4381.2578125,True
1599572682.1310718,0.0,10,0.5,0.5,-9.369260057830811,-0.2,-0.00825,-0.2505,0.16372867321817267,10,1,100,0.6313416028097429,-10,-1,-100,6486.165063044173,-0.06595100944362012,-0.0019939415749760225,0.9978208699713406,202.3370859630912,21.24525459637852,-105.9037443804937,6.55073061383891,-41.995697021484375,4381.2578125,True
1599572682.221399,0.0,10,0.5,0.5,-9.119118811035156,-0.2,-0.00825,-0.2505,0.13954065852852193,10,1,100,0.638015031097084,-10,-1,-100,6486.420289266389,-0.06514457004881423,-0.0004943437558643995,0.9978757140132263,201.7681153652512,21.184459876251864,-99.50361203391368,6.170632906061933,-44.02484130859375,4381.2578125,True
1599572682.3061714,0.0,10,0.5,0.5,-8.573967731475829,-0.2,-0.00825,-0.2505,0.17079794204239063,10,1,100,0.6080390131911986,-10,-1,-100,6486.675002879812,-0.06414085546993639,0.00114716741551638,0.9979401959368637,200.8956785315213,21.090222435451132,-92.99232391675382,5.790481015068211,-46.34844970703125,4381.2578125,True
1599572682.3929412,0.0,10,0.5,0.5,-7.968017856597901,-0.2,-0.00825,-0.2505,0.203904001097905,10,1,100,0.5758763388591313,-10,-1,-100,6486.86914527847,-0.06293900394655072,0.0029330333909583675,0.9980130655945061,199.59586992548938,20.949616220150553,-86.34380313662027,5.410257216888343,-48.96649169921875,4381.2578125,True
1599572682.4826992,0.0,10,0.5,0.5,-7.973683047485351,-0.2,-0.00825,-0.2505,0.12994514422484293,10,1,100,0.6208419741758572,-10,-1,-100,6486.965232253191,-0.062259392552592,0.003875346767627124,0.9980524784430992,198.74548738975167,20.85773810535986,-82.96342457980394,5.220112333392391,-50.385894775390625,4381.2578125,True
1599572682.5764525,0.0,10,0.5,0.5,-6.1996628753662115,-0.2,-0.00825,-0.2505,0.35912483617706176,10,1,100,0.4276395473279576,-10,-1,-100,6487.254437968368,-0.05989001810926504,0.006805883570403435,0.9981817798776423,195.175638309324,20.473371792504896,-72.59011502149774,4.649512689985692,-55.08685302734375,4381.2578125,True
1599572682.699121,0.0,10,0.5,0.5,-6.589795278930665,-0.2,-0.00825,-0.2505,0.17850825278380372,10,1,100,0.5646333460120002,-10,-1,-100,6487.351971434546,-0.05898840150368791,0.007816396364455082,0.9982280663435152,193.5805912268324,20.3023138341238,-69.05731317728659,4.459245812693405,-56.801361083984375,4381.2578125,True
1599572682.7858894,0.0,10,0.5,0.5,-4.486402946472167,-0.2,-0.00825,-0.2505,0.4188347028978079,10,1,100,0.3196893258581204,-10,-1,-100,6487.578632359393,-0.055949702633552055,0.010907556591564891,0.9983740060640697,187.29162025955597,19.63118167512928,-58.273189232017735,3.888186424010531,-62.387847900390625,4381.2578125,True
1599572682.8995855,0.0,10,0.5,0.5,-4.021264604949952,-0.2,-0.00825,-0.2505,0.3326498777448845,10,1,100,0.37038148919895353,-10,-1,-100,6487.770743642119,-0.053658346206058374,0.012919844693334438,0.9984757681063325,181.6588671283445,19.03346960758945,-50.991044905522855,3.5072253061978054,-66.482421875,4381.2578125,True
1599572682.998323,0.0,10,0.5,0.5,-4.051606607818604,-0.2,-0.00825,-0.2505,0.24835382662880548,10,1,100,0.4616364285494137,-10,-1,-100,6487.805273143342,-0.052417227559624635,0.013966681274127994,0.9985275990522994,178.3776001007509,18.686424256133122,-47.352925700890694,3.316652857795839,-68.64007568359375,4381.2578125,True
1599572683.0980918,0.0,10,0.5,0.5,-1.4505123794555668,-0.2,-0.00825,-0.2505,0.4567455640812964,10,1,100,0.15069797766910736,-10,-1,-100,6487.969406568212,-0.04847533528076546,0.016796593900185283,0.998683141092694,166.39496601174375,17.42454412473711,-36.55888802664134,2.7444617906588524,-75.56027221679688,4381.2578125,True
1599572683.2017782,0.0,10,0.5,0.5,-0.9110898696899414,-0.2,-0.00825,-0.2505,0.3747260589656638,10,1,100,0.22552279028919087,-10,-1,-100,6488.100477437838,-0.04558790939122411,0.018606527572390556,0.9987870341814792,156.61218617133073,16.397687960827582,-29.625721557800976,2.3626297688977007,-80.54415893554688,4381.2578125,True
1599572683.3144758,0.0,10,0.5,0.5,-0.9566375038146974,-0.2,-0.00825,-0.2505,0.2905766175839166,10,1,100,0.3455759832180105,-10,-1,-100,6488.134032120928,-0.0440721482097736,0.019469562469717417,0.9988386165389349,151.16270804967638,15.826376506646245,-26.284720334052352,2.171634991223535,-83.1474609375,4381.2578125,True
1599572683.414049,0.0,10,0.5,0.5,2.1398624351501465,-0.2,-0.00825,-0.2505,0.4550846091810813,10,1,100,-0.011762447338822202,-10,-1,-100,6488.234711446799,-0.03946389659181117,0.021733010122666787,0.9989846230732476,152.04603366881582,15.91845037688699,-19.464004447345314,1.5985078733313514,-91.40110778808594,4381.2578125,True
1599572683.532245,0.0,10,0.5,0.5,2.7443893650054934,-0.2,-0.00825,-0.2505,0.37900932509832275,10,1,100,0.08725285004473327,-10,-1,-100,6488.301358317025,-0.036196057012927406,0.023082005427566856,0.9990781082989251,160.27182730760552,16.778713456715337,-15.614923026545753,1.2164397914795018,-97.25473022460938,4381.2578125,True
1599572683.6229675,0.0,10,0.5,0.5,2.683075193405151,-0.2,-0.00825,-0.2505,0.31290536278090914,10,1,100,0.2271140281710122,-10,-1,-100,6488.273406969034,-0.03452045295648985,0.023689959084899577,0.9991231776744219,164.7233488991465,17.243757945599235,-13.52957801956628,1.0254422356024513,-100.2876968383789,4381.2578125,True
1599572683.71472,0.0,10,0.5,0.5,5.9639233198165895,-0.2,-0.00825,-0.2505,0.42159100204104727,10,1,100,-0.14716301046009705,-10,-1,-100,6488.311654449208,-0.029617721249584516,0.025215346334371946,0.9992432020770619,175.91093196381664,18.41222534235816,-6.377953090753201,0.4525736061226002,-109.17407989501953,4381.2578125,True
1599572683.8085046,0.0,10,0.5,0.5,7.510980403137208,-0.2,-0.00825,-0.2505,0.39648361262665444,10,1,100,-0.21474082871682626,-10,-1,-100,6488.350433958229,-0.02457304924120404,0.026357995793788787,0.9993504997290609,184.52670610386926,19.31297856108212,1.7795279597237859,-0.12035386866966036,-117.45352172851562,4381.2578125,True
1599572683.896264,0.0,10,0.5,0.5,5.482409404754639,-0.2,-0.00825,-0.2505,0.28376371060519284,10,1,100,0.2865887067819867,-10,-1,-100,6488.350433958229,-0.02457304924120404,0.026357995793788787,0.9993504997290609,184.52670610386926,19.31297856108212,1.7795279597237859,-0.12035386866966036,-117.45352172851562,4381.2578125,True
1599572683.9800475,0.0,10,0.5,0.5,8.95676999130249,-0.2,-0.00825,-0.2505,0.3768995177054478,10,1,100,-0.23974257198064808,-10,-1,-100,6488.3277420928935,-0.019814660613329954,0.027192468448245237,0.9994338141590318,189.48140564039502,19.830588666467325,10.532441447548077,-0.6935649001232842,-125.0724105834961,4381.2578125,True
1599572684.069805,0.0,10,0.5,0.5,9.217082664299012,-0.2,-0.00825,-0.2505,0.33339572165003567,10,1,100,-0.11721772697216093,-10,-1,-100,6488.270000822609,-0.016632353694381846,0.027543567454361793,0.9994822243054009,191.40664896160155,20.031432620116163,16.506316014166863,-1.0758603795130068,-129.7833709716797,4381.2578125,True
1599572684.166515,0.0,10,0.5,0.5,9.093153310585024,-0.2,-0.00825,-0.2505,0.3108202713516234,10,1,100,0.023317780655225495,-10,-1,-100,6488.240160081536,-0.015045891093392882,0.027647747026705662,0.9995044888571302,191.90241051874295,20.082965925565404,19.49142898687494,-1.2670522298955484,-132.02850341796875,4381.2578125,True
1599572684.253283,0.0,10,0.5,0.5,10.49540183582306,-0.2,-0.00825,-0.2505,0.32978743285704365,10,1,100,-0.139410575831927,-10,-1,-100,6488.181960848044,-0.012152069141063194,0.027906665179381805,0.9995366652875505,192.0155806452969,20.093930151696682,25.393692789121292,-1.6495161123022508,-136.29527282714844,4381.2578125,True
1599572684.3370917,0.0,10,0.5,0.5,12.104579087638857,-0.2,-0.00825,-0.2505,0.31827396740106717,10,1,100,-0.3264861029889436,-10,-1,-100,6488.033420079737,-0.007849653554853063,0.028029707357024272,0.9995762694484839,190.52293282396005,19.935788553569857,33.96962100352098,-2.2233713409926192,-142.1424560546875,4381.2578125,True
1599572684.4158845,0.0,10,0.5,0.5,12.271167735481264,-0.2,-0.00825,-0.2505,0.306809058220764,10,1,100,-0.19629774687126772,-10,-1,-100,6487.974778916687,-0.005150637389401777,0.02803161316484707,0.9995937672864208,188.70703058330682,19.743910764501603,39.44235492458394,-2.6060104191102083,-145.67063903808594,4381.2578125,True
1599572684.5026484,0.0,10,0.5,0.5,12.171956845664978,-0.2,-0.00825,-0.2505,0.30584097262788024,10,1,100,-0.07210682647301073,-10,-1,-100,6487.882965449477,-0.0038542178059061496,0.028020045295898598,0.9995999310057602,187.6133798173677,19.628308207850736,42.096103594616274,-2.7973418738003737,-147.32359313964844,4381.2578125,True
1599572684.5844247,0.0,10,0.5,0.5,13.829995652008057,-0.2,-0.00825,-0.2505,0.30487960296373384,10,1,100,-0.3492480191745191,-10,-1,-100,6487.732551086345,-0.00018406755557876076,0.027996852885170474,0.9996079943396116,183.87247799445439,19.232284138551023,49.73449753448113,-3.371362093555955,-151.83702087402344,4381.2578125,True
1599572684.6671216,0.0,10,0.5,0.5,13.345623173713685,-0.2,-0.00825,-0.2505,0.3045179029255092,10,1,100,-0.11280166100451719,-10,-1,-100,6487.6407546942355,0.0009761624579970245,0.02796995205093305,0.9996082877253091,182.59320437444666,19.09651657537574,52.195760207540516,-3.56270813871226,-153.19338989257812,4381.2578125,True
1599572684.761837,0.0,10,0.5,0.5,14.66789194355011,-0.2,-0.00825,-0.2505,0.2996322685967819,10,1,100,-0.35842830434379086,-10,-1,-100,6487.426904678228,0.004240659944605498,0.027899616474767738,0.9996017347943104,178.6731853357112,18.679681105989875,59.319286016506325,-4.136761285246251,-156.8172607421875,4381.2578125,True
1599572684.843254,0.0,10,0.5,0.5,14.713707825660705,-0.2,-0.00825,-0.2505,0.30402477385717736,10,1,100,-0.25489913518783985,-10,-1,-100,6487.243337427848,0.006241016386299274,0.027874205434547432,0.9995919559429531,176.14278745762098,18.40973270649701,63.90020670020637,-4.519489467846398,-158.86192321777344,4381.2578125,True
1599572684.930056,0.0,10,0.5,0.5,15.016595755004882,-0.2,-0.00825,-0.2505,0.3080438071676631,10,1,100,-0.2614945174825995,-10,-1,-100,6487.058802547399,0.008095793284155405,0.027887021394454932,0.9995782971677835,173.83779021975374,18.162779794575357,68.41668703262563,-4.902258668865882,-160.60931396484375,4381.2578125,True
1599572685.0088112,0.0,10,0.5,0.5,15.257467534255982,-0.2,-0.00825,-0.2505,0.31441838906769487,10,1,100,-0.2664048584481107,-10,-1,-100,6486.812754669692,0.009804113430094227,0.027956310780789227,0.9995610656920255,171.79203292669166,17.9424620774095,72.90419403740891,-5.285086287982837,-162.05917358398438,4381.2578125,True
1599572685.0960917,0.0,10,0.5,0.5,15.195487435531616,-0.2,-0.00825,-0.2505,0.31202753553989365,10,1,100,-0.18647208139061947,-10,-1,-100,6486.7195183280855,0.01060787922176734,0.02799728558742759,0.9995517119679963,170.89989613282486,17.84583522049333,75.15939155607927,-5.476526043717723,-162.67279052734375,4381.2578125,True
1599572685.1728866,0.0,10,0.5,0.5,15.515756364440918,-0.2,-0.00825,-0.2505,0.32318215316929755,10,1,100,-0.27271805518619313,-10,-1,-100,6486.47299206513,0.012101938841100083,0.028135858644267913,0.9995308482156197,169.41064676780468,17.683221906719286,79.72870032827784,-5.859460352350031,-163.67660522460938,4381.2578125,True
1599572685.254671,0.0,10,0.5,0.5,15.600267826080323,-0.2,-0.00825,-0.2505,0.33100933859342857,10,1,100,-0.2735593992808394,-10,-1,-100,6486.2279354044,0.013449685630084859,0.028332893880444632,0.9995080555357276,168.36054955131655,17.566273261330974,84.42998763920782,-6.2424705934452875,-164.3829345703125,4381.2578125,True
1599572685.3334906,0.0,10,0.5,0.5,15.623208529281618,-0.2,-0.00825,-0.2505,0.33560343580996754,10,1,100,-0.2743075304179404,-10,-1,-100,6485.979952176451,0.014664801791299677,0.028553507451014187,0.9994846876269126,167.79091507195213,17.499254509769017,89.32609719094907,-6.6255596915680375,-164.79234313964844,4381.2578125,True
1599572685.4172332,0.0,10,0.5,0.5,15.560146935653686,-0.2,-0.00825,-0.2505,0.3665892857175825,10,1,100,-0.32298034248240926,-10,-1,-100,6485.577707012184,0.016195097484265404,0.029035269821460177,0.9994471831587052,167.88642997987768,17.497201397707837,97.16173388022682,-7.200336908221391,-164.8480224609375,4381.2578125,True
1599572685.5019119,0.0,10,0.5,0.5,15.406225914001466,-0.2,-0.00825,-0.2505,0.3608007228823381,10,1,100,-0.26356890616387846,-10,-1,-100,6485.267226961791,0.0170312812703932,0.029419668298875865,0.9994220422701676,168.601744663613,17.563129877677262,102.79308717736394,-7.583609424157176,-164.51348876953125,4381.2578125,True
1599572685.5826952,0.0,10,0.5,0.5,15.373762413787842,-0.2,-0.00825,-0.2505,0.34624642234863784,10,1,100,-0.22126436383778741,-10,-1,-100,6485.111499260529,0.017392266037715463,0.02963549171326745,0.9994094489812403,169.15276780532645,17.615980975511846,105.74791882174314,-7.775268561675626,-164.23468017578125,4381.2578125,True
1599572685.6604874,0.0,10,0.5,0.5,15.097880197906495,-0.2,-0.00825,-0.2505,0.37920240510657155,10,1,100,-0.2509230209258655,-10,-1,-100,6484.802483799052,0.017978102157815402,0.030129716592115104,0.9993843044699481,170.63132523459984,17.76025183490105,111.95922863496212,-8.158625422959956,-163.45367431640625,4381.2578125,True
1599572685.7432663,0.0,10,0.5,0.5,14.51867593803406,-0.2,-0.00825,-0.2505,0.4195189410683685,10,1,100,-0.25893435997675657,-10,-1,-100,6484.274748086464,0.018572840725849343,0.03094347543512243,0.9993485632727794,173.73481460100254,18.06690400648779,122.07901982414671,-8.733729574445414,-161.7252960205078,4381.2578125,True
1599572685.8180666,0.0,10,0.5,0.5,14.266116184997559,-0.2,-0.00825,-0.2505,0.4051137685826002,10,1,100,-0.2208128851224509,-10,-1,-100,6483.902737760101,0.018757428700439515,0.031549521493403315,0.9993261662550846,176.32795853050519,18.32436192079832,129.37644399547204,-9.117154354079577,-160.20156860351562,4381.2578125,True
1599572685.9008443,0.0,10,0.5,0.5,13.826116612243654,-0.2,-0.00825,-0.2505,0.4156350205801128,10,1,100,-0.20360316333561757,-10,-1,-100,6483.528770281817,0.01876064455630451,0.032192853645715495,0.9993055880910391,179.26557107175861,18.616351121773985,137.10304851153268,-9.500575097574064,-158.38101196289062,4381.2578125,True
1599572685.9796352,0.0,10,0.5,0.5,13.818432874298097,-0.2,-0.00825,-0.2505,0.38819481743189516,10,1,100,-0.1968168155487256,-10,-1,-100,6483.309558337089,0.018694462385996816,0.0325244305118716,0.9992960915044033,180.83974588032268,18.772828099295285,141.11878124656118,-9.69227779007827,-157.3594970703125,4381.2578125,True
1599572686.0619218,0.0,10,0.5,0.5,12.48840126800537,-0.2,-0.00825,-0.2505,0.465746184013064,10,1,100,-0.15435109541493114,-10,-1,-100,6482.71929241519,0.01824225157218724,0.03352688683923541,0.9992713185699097,185.8508114801581,19.270625020919443,153.7052221346191,-10.267326207331035,-153.8507080078125,4381.2578125,True
1599572686.1407044,0.0,10,0.5,0.5,12.138128898620606,-0.2,-0.00825,-0.2505,0.4400630218290378,10,1,100,-0.14216889285512074,-10,-1,-100,6482.282317051198,0.01771604665823289,0.03420000566883973,0.9992579753512377,189.29499792285006,19.61230253053683,162.450577959155,-10.650620146728315,-151.14141845703125,4381.2578125,True
1599572686.2214901,0.0,10,0.5,0.5,11.451940448379515,-0.2,-0.00825,-0.2505,0.4442878024915614,10,1,100,-0.11679950795953464,-10,-1,-100,6481.84679818945,0.017004273923890034,0.034845205794304945,0.999248050436664,192.68017007200396,19.947722528071232,171.36240377204732,-11.033835435014172,-148.13674926757812,4381.2578125,True
1599572686.3022804,0.0,10,0.5,0.5,11.464177558517456,-0.2,-0.00825,-0.2505,0.4139288430506314,10,1,100,-0.14117524996397546,-10,-1,-100,6481.629523656564,0.016578069841400877,0.03515047906256228,0.9992445203362418,194.30626329334,20.108742727012384,175.83886494497443,-11.22540806929135,-146.52377319335938,4381.2578125,True
1599572686.3800716,0.0,10,0.5,0.5,9.47418342475891,-0.2,-0.00825,-0.2505,0.47697542859101916,10,1,100,-0.01655283204562069,-10,-1,-100,6480.974267060636,0.015058092522997502,0.035995941165196395,0.999238483080591,198.6815232029973,20.542147905308177,189.10004547090503,-11.799968873958102,-141.24252319335938,4381.2578125,True
1599572686.460856,0.0,10,0.5,0.5,9.026211355209352,-0.2,-0.00825,-0.2505,0.4459049192546458,10,1,100,-0.033610332757272016,-10,-1,-100,6480.475242809509,0.013833485125022825,0.03647630167412226,0.9992387673151368,200.96879110252468,20.769485198859105,197.55485841007254,-12.182873924387163,-137.35360717773438,4381.2578125,True
1599572686.5386484,0.0,10,0.5,0.5,8.09461071510315,-0.2,-0.00825,-0.2505,0.43937911717304495,10,1,100,-0.004357863753606167,-10,-1,-100,6479.974744410138,0.012458041969587786,0.036847897949602124,0.9992432284519017,202.53902795186696,20.927005291963134,205.42980286337425,-12.565674738606528,-133.17105102539062,4381.2578125,True
1599572686.6194324,0.0,10,0.5,0.5,7.102339839935303,-0.2,-0.00825,-0.2505,0.43089237579349304,10,1,100,0.024773969013987318,-10,-1,-100,6479.475211753976,0.010948363165628958,0.037103192894302,0.9992514630567431,203.19598894397402,20.995604733764637,212.45299760176883,-12.948385107695106,-128.69503784179688,4381.2578125,True
1599572686.7077103,0.0,10,0.5,0.5,6.0490381599426275,-0.2,-0.00825,-0.2505,0.42036734482604143,10,1,100,0.05402711752248712,-10,-1,-100,6478.914145758026,0.009317089326075306,0.037234548315778784,0.9992631186320298,202.84969628665206,20.96670581080715,218.4427265422391,-13.331032756938564,-123.92578125,4381.2578125,True
1599572686.7901225,0.0,10,0.5,0.5,6.091573848724366,-0.2,-0.00825,-0.2505,0.40882586904507023,10,1,100,-0.01420388811292328,-10,-1,-100,6478.632876807125,0.00846298002792138,0.03724445646941243,0.9992703480196662,202.49681279329528,20.936056012068363,221.23562007286648,-13.522343534389988,-121.43135833740234,4381.2578125,True
1599572687.5191731,0.0,10,0.5,0.5,4.340399828147889,-0.2,-0.00825,-0.2505,0.3976722544535948,10,1,100,0.09575144335098025,-10,-1,-100,6478.070820188033,0.0066962244547987574,0.037147776452831835,0.9992873477046836,200.72811582105257,20.769286751918287,225.59955605877906,-13.904968459053334,-116.22295379638672,4381.2578125,True
1599572687.5905674,0.0,10,0.5,0.5,4.391423855972291,-0.2,-0.00825,-0.2505,0.39582668938459953,10,1,100,0.019872673827384765,-10,-1,-100,6477.7895440241555,0.005790386408644867,0.037039815946573525,0.9992970146357301,199.26533226842471,20.62793181275428,227.0841033364955,-14.096296962676444,-113.50899505615234,4381.2578125,True
1599572687.6718597,0.0,10,0.5,0.5,2.4960151224136355,-0.2,-0.00825,-0.2505,0.37045797180423096,10,1,100,0.13611590869019588,-10,-1,-100,6477.226010167156,0.0039209821045244906,0.036708463680810134,0.9993183249563328,195.06389783082463,20.215443627413723,228.42901564406262,-14.479024181933195,-107.8614730834961,4381.2578125,True
1599572687.7511272,0.0,10,0.5,0.5,1.2014421218872071,-0.2,-0.00825,-0.2505,0.348825978465234,10,1,100,0.15808455357292656,-10,-1,-100,6476.663445943501,0.0020337025944078386,0.036208885992592074,0.9993421739469084,189.67825399927887,19.68102817088773,228.0968058342265,-14.861885539034876,-101.92129516601562,4381.2578125,True
1599572687.830914,0.0,10,0.5,0.5,1.2651635025024417,-0.2,-0.00825,-0.2505,0.3647377096275496,10,1,100,0.07654563833875255,-10,-1,-100,6476.319173842319,0.001072478966655185,0.03589841437120577,0.9993548687200655,186.48752720968085,19.361429084443152,227.2012859874295,-15.053378485758628,-98.84139251708984,4381.2578125,True
1599572687.9087071,0.0,10,0.5,0.5,-2.3586538942337034,-0.2,-0.00825,-0.2505,0.26722520938183003,10,1,100,0.28946497673405436,-10,-1,-100,6475.412814941374,-0.0017242768498442053,0.03472977882843349,0.9993952518057475,173.68248809622762,18.057565202092675,219.83571036579252,-15.628150529176633,-89.1624755859375,4381.2578125,True
1599572687.9954755,0.0,10,0.5,0.5,-1.4932355257034302,-0.2,-0.00825,-0.2505,0.3326942839804623,10,1,100,0.11217822727673209,-10,-1,-100,6475.131527504651,-0.0026409409952544787,0.03426414403394234,0.9994093224821755,168.8344918855065,17.557802756246154,216.37261687850213,-15.819833570891973,-85.789794921875,4381.2578125,True
1599572688.0732665,0.0,10,0.5,0.5,-5.40344795627594,-0.2,-0.00825,-0.2505,0.2020928650120628,10,1,100,0.3141088798414728,-10,-1,-100,6474.162171806907,-0.005296278893520695,0.03265590291552462,0.9994526209053903,178.29027979740007,18.53622013784811,236.96817699255948,-16.39478912632491,-75.32147216796875,4381.2578125,True
1599572688.15405,0.0,10,0.5,0.5,-5.906020973396301,-0.2,-0.00825,-0.2505,0.22799285523815638,10,1,100,0.2323163799695904,-10,-1,-100,6473.474105907488,-0.006951886400328188,0.03143336298263553,0.9994816731521788,190.14977839639928,19.754113942256584,258.7606848840119,-16.777715709240194,-68.48272705078125,4381.2578125,True
1599572688.2368321,0.0,10,0.5,0.5,-7.1929861177444465,-0.2,-0.00825,-0.2505,0.20610486097085373,10,1,100,0.2372797644634813,-10,-1,-100,6472.786529172678,-0.008487315833073642,0.030128255082427367,0.9995100068111564,199.85095676091126,20.743042494808925,278.2991067199734,-17.160290893192613,-61.924835205078125,4381.2578125,True
1599572688.3131423,0.0,10,0.5,0.5,-8.420286381530762,-0.2,-0.00825,-0.2505,0.1867351357656551,10,1,100,0.24043467173377417,-10,-1,-100,6472.09797935409,-0.009896432387243994,0.02877217421799722,0.9995370041257972,207.57127316875275,21.5265806915489,295.63080022200194,-17.54252799304836,-55.662994384765625,4381.2578125,True
1599572688.3964272,0.0,10,0.5,0.5,-8.261667339134217,-0.2,-0.00825,-0.2505,0.2440472401962016,10,1,100,0.17392737844161557,-10,-1,-100,6471.754194691428,-0.01055775144579556,0.028068006747188266,0.9995502593074791,210.55908707224071,21.82931267851398,303.22410737057544,-17.733534884639212,-52.64410400390625,4381.2578125,True
1599572688.475218,0.0,10,0.5,0.5,-11.434089782333373,-0.2,-0.00825,-0.2505,0.0806555191573432,10,1,100,0.3060553330205974,-10,-1,-100,6470.660345836193,-0.012345251869874601,0.025950631409008128,0.999586994456082,216.43016427479918,22.427474649477507,321.97646425652016,-18.306215575401154,-44.034912109375,4381.2578125,True
1599572688.555002,0.0,10,0.5,0.5,-11.747622152900696,-0.2,-0.00825,-0.2505,0.1337958024074259,10,1,100,0.2432148190524415,-10,-1,-100,6469.910285751219,-0.013384187370259221,0.024518618069546756,0.9996097743101543,218.70530429381907,22.667498008505596,332.3063202098936,-18.68781578426846,-38.668701171875,4381.2578125,True
1599572688.6437657,0.0,10,0.5,0.5,-12.73896183872223,-0.2,-0.00825,-0.2505,0.12307600748259423,10,1,100,0.24326719840083758,-10,-1,-100,6469.158765360946,-0.014315134101080962,0.023129962596104354,0.9996299724227815,219.41192401469044,22.75424663632055,340.35813628783166,-19.06935453500359,-33.600128173828125,4381.2578125,True
1599572688.72056,0.0,10,0.5,0.5,-13.672400841522219,-0.2,-0.00825,-0.2505,0.11224274585038466,10,1,100,0.24369045274097548,-10,-1,-100,6468.345728396787,-0.015151308338494946,0.021780672016113993,0.999647958124338,218.80520159714942,22.712889868713038,346.38943449823336,-19.45089893790479,-28.8292236328125,4381.2578125,True
1599572688.8013434,0.0,10,0.5,0.5,-14.54232578353882,-0.2,-0.00825,-0.2505,0.10177838214715731,10,1,100,0.24288067176464587,-10,-1,-100,6467.595196836744,-0.015891898698642253,0.020470685552286434,0.999664142894388,217.12541163645065,22.566203906140696,350.66499621437424,-19.832499905901333,-24.3558349609375,4381.2578125,True
1599572688.879136,0.0,10,0.5,0.5,-15.35388935470581,-0.2,-0.00825,-0.2505,0.09512108615810383,10,1,100,0.24322617745226355,-10,-1,-100,6466.7821712846635,-0.01655625729802416,0.01923180740207149,0.9996779621099643,214.60757987928488,22.33626198081481,353.4701398156031,-20.21418780724433,-20.179443359375,4381.2578125,True
1599572688.9599197,0.0,10,0.5,0.5,-16.10094515762329,-0.2,-0.00825,-0.2505,0.08907520013140201,10,1,100,0.24351522868793518,-10,-1,-100,6465.969639778021,-0.01715261105560063,0.01806279566119103,0.9996897135345933,211.46513132608712,22.042825874492284,355.08289347963904,-20.59597974561662,-16.29986572265625,4381.2578125,True
1599572689.041702,0.0,10,0.5,0.5,-16.78626559524536,-0.2,-0.00825,-0.2505,0.08432190130368597,10,1,100,0.24407228882731463,-10,-1,-100,6465.0926601019455,-0.017690541632250624,0.016969000968612685,0.999699503722436,208.06585473835494,21.721949006150442,356.0719033302695,-20.977879950223976,-12.716949462890625,4381.2578125,True
1599572689.117499,0.0,10,0.5,0.5,-16.686315760040284,-0.2,-0.00825,-0.2505,0.13550305426331144,10,1,100,0.21868087600304764,-10,-1,-100,6464.685910767643,-0.017940371834621667,0.01645188832418698,0.9997036953162691,206.4925199264517,21.57388831110304,356.70895946631947,-21.168866867031277,-11.036651611328125,4381.2578125,True
1599572689.1992807,0.0,10,0.5,0.5,-17.71602458267212,-0.2,-0.00825,-0.2505,0.07895783588737541,10,1,100,0.2459535027326658,-10,-1,-100,6463.810403616633,-0.01840811049845789,0.01547893874028584,0.9997107301231447,203.19505237453868,21.2595447018327,357.5777298857522,-21.550906289778467,-7.898345947265625,4381.2578125,True
1599572689.2825654,0.0,10,0.5,0.5,-18.837218901062016,-0.2,-0.00825,-0.2505,0.031145954737144987,10,1,100,0.2685323414352961,-10,-1,-100,6462.527179937577,-0.01903145294555777,0.014171230260834439,0.9997184503807437,198.62652362642254,20.819606368395164,359.1924558617103,-22.12409392951576,-3.7464599609375,4381.2578125,True
1599572689.3638577,0.0,10,0.5,0.5,-18.91057557220459,-0.2,-0.00825,-0.2505,0.07654039712265771,10,1,100,0.2482555963197433,-10,-1,-100,6461.589182833093,-0.019407715486347465,0.01340578966588162,0.9997217739866603,195.99287303927443,20.563528830767094,360.7977030790389,-22.50626788708883,-1.3487548828125,4381.2578125,True
1599572689.4436438,0.0,10,0.5,0.5,-18.830806636047363,-0.2,-0.00825,-0.2505,0.1135728398404786,10,1,100,0.23130451254326667,-10,-1,-100,6461.182441737852,-0.019590195645355503,0.013056695720998943,0.9997228350555099,194.7362775897546,20.43998234498052,361.6526842134208,-22.69736154309024,-0.26092529296875,4381.2578125,True
1599572689.5211918,0.0,10,0.5,0.5,-19.465981690216065,-0.2,-0.00825,-0.2505,0.07866091270420394,10,1,100,0.25375040649986,-10,-1,-100,6460.243473959155,-0.019955344769927955,0.012431113948844108,0.999723587608647,192.3960761343962,20.20749580292224,363.5755469861154,-23.079550126585332,1.692840576171875,4381.2578125,True
1599572689.6060436,0.0,10,0.5,0.5,-20.071984002685546,-0.2,-0.00825,-0.2505,0.05409938327936452,10,1,100,0.2718134991419974,-10,-1,-100,6458.835761198541,-0.020447141146802857,0.011647616213993236,0.9997230853868757,189.4708046320703,19.912042885713742,367.3279924901319,-23.65280271797548,4.068511962890625,4381.2578125,True
1599572689.6838038,0.0,10,0.5,0.5,-19.790442267608643,-0.2,-0.00825,-0.2505,0.10780069086722008,10,1,100,0.2404815537576972,-10,-1,-100,6458.366525526973,-0.020605251765515347,0.011431560223416851,0.9997223329657782,188.68543841198482,19.83157457462167,368.8910672613401,-23.843870778297788,4.712493896484375,4381.2578125,True
1599572689.7632954,0.0,10,0.5,0.5,-20.130035412597657,-0.2,-0.00825,-0.2505,0.08942041447885615,10,1,100,0.2608266145978526,-10,-1,-100,6457.365555883269,-0.020930262886103123,0.011075143398615607,0.9997195933331601,189.51944621262527,19.92101517426157,376.7275439856255,-24.225952569513993,5.77880859375,4381.2578125,True
1599572689.8471007,0.0,10,0.5,0.5,-20.352013273620607,-0.2,-0.00825,-0.2505,0.08458138109095739,10,1,100,0.28060560001539525,-10,-1,-100,6455.894868674106,-0.021402102270587395,0.010713489301872282,0.9997135445543277,193.2349344770121,20.309775776363058,393.6232821732996,-24.798847426163167,6.82403564453125,4381.2578125,True
1599572689.923077,0.0,10,0.5,0.5,-20.1967131690979,-0.2,-0.00825,-0.2505,0.11168038468190906,10,1,100,0.25016967865670625,-10,-1,-100,6455.425148988259,-0.021550982825368346,0.010636754257174948,0.9997111655864073,194.18765911037724,20.408508040048915,398.75474364283525,-24.98975514261994,7.02471923828125,4381.2578125,True
1599572690.0021267,0.0,10,0.5,0.5,-20.24238801574707,-0.2,-0.00825,-0.2505,0.11071617451100052,10,1,100,0.2693834419068452,-10,-1,-100,6454.423699740204,-0.021857716985633432,0.010563516064139123,0.9997052827391374,195.6797187246684,20.561847588577116,408.25705381086215,-25.371491946269,7.204620361328125,4381.2578125,True
1599572690.079131,0.0,10,0.5,0.5,-20.157883393859866,-0.2,-0.00825,-0.2505,0.12071669475083313,10,1,100,0.27230013000218,-10,-1,-100,6453.358776789159,-0.022159945562661848,0.010592318275083348,0.9996983242989953,196.6297102275877,20.657937320132948,416.7197352994349,-25.75313335936132,7.08941650390625,4381.2578125,True
1599572690.1569228,0.0,10,0.5,0.5,-20.01076868591309,-0.2,-0.00825,-0.2505,0.13003875502727852,10,1,100,0.2735027480245246,-10,-1,-100,6452.358309222967,-0.02244278762142072,0.010706501662078285,0.9996907982501086,197.04232865758604,20.698040042987675,424.0999522207503,-26.13469149684111,6.678955078125,4381.2578125,True
1599572690.238706,0.0,10,0.5,0.5,-19.80249194946289,-0.2,-0.00825,-0.2505,0.1429843524197662,10,1,100,0.276138982749377,-10,-1,-100,6451.2938790224725,-0.022721123379486466,0.010930445888372482,0.999682087418323,196.90817393391626,20.681968681669492,430.324490138064,-26.51617862264254,5.97369384765625,4381.2578125,True
1599572690.3154988,0.0,10,0.5,0.5,-19.53377595214844,-0.2,-0.00825,-0.2505,0.15583258384734816,10,1,100,0.27722659700301305,-10,-1,-100,6450.22993992595,-0.022981196991184626,0.01125276660692034,0.9996725663078598,196.21084911887138,20.608839339546563,435.30308674696477,-26.897606612499832,4.9736328125,4381.2578125,True
1599572690.399275,0.0,10,0.5,0.5,-18.862337296295166,-0.2,-0.00825,-0.2505,0.19772310814486582,10,1,100,0.28975296745839724,-10,-1,-100,6448.57129062945,-0.023328752867576213,0.011927679614979392,0.9996566909437687,196.85192641659654,20.68225290702384,446.5346037463993,-27.46962723766854,2.921112060546875,4381.2578125,True
1599572690.4780643,0.0,10,0.5,0.5,-19.0009920249939,-0.2,-0.00825,-0.2505,0.16066592019147238,10,1,100,0.2665250858143561,-10,-1,-100,6448.038103269879,-0.02343093054778567,0.01220409876509224,0.9996509648207204,198.48069620881085,20.857430512372336,453.53236354367175,-27.66023579182984,2.089691162109375,4381.2578125,True
1599572690.5648658,0.0,10,0.5,0.5,-17.884552791595457,-0.2,-0.00825,-0.2505,0.2415497793951234,10,1,100,0.28293989497689714,-10,-1,-100,6446.317937651998,-0.023670476086924394,0.013189994404735587,0.9996327988863818,203.89871163639597,21.446528069347703,476.11076850950866,-28.231816559424743,-0.846038818359375,4381.2578125,True
1599572690.6466475,0.0,10,0.5,0.5,-16.993674771118165,-0.2,-0.00825,-0.2505,0.2762234876791529,10,1,100,0.2747089727402482,-10,-1,-100,6444.596800025902,-0.023810927090171134,0.014399556106078789,0.9996127712944921,209.93004429246477,22.113463275615302,500.71908528682746,-28.80297520117893,-4.44384765625,4381.2578125,True
1599572690.724406,0.0,10,0.5,0.5,-17.885629881286622,-0.2,-0.00825,-0.2505,0.15563592422525335,10,1,100,0.2609047548975326,-10,-1,-100,6444.596800025902,-0.023810927090171134,0.014399556106078789,0.9996127712944921,209.93004429246477,22.113463275615302,500.71908528682746,-28.80297520117893,-4.44384765625,4381.2578125,True
1599572690.8071842,0.0,10,0.5,0.5,-15.957240136718749,-0.2,-0.00825,-0.2505,0.3131883117364769,10,1,100,0.25560008965784736,-10,-1,-100,6442.875176368514,-0.023760648365933265,0.015828429809045454,0.9995923631155905,216.28531017565086,22.82921924193172,526.740481298508,-29.373636095904434,-8.703399658203125,4381.2578125,True
1599572690.8860097,0.0,10,0.5,0.5,-16.305234062194824,-0.2,-0.00825,-0.2505,0.22798730209227952,10,1,100,0.2543973976617949,-10,-1,-100,6442.280957805924,-0.023702276933589,0.016348064984299804,0.999585385467111,218.69352325619695,23.10166631926849,536.2696241950872,-29.563729646232538,-10.27032470703125,4381.2578125,True
1599572690.9657633,0.0,10,0.5,0.5,-14.367025511169436,-0.2,-0.00825,-0.2505,0.36178135070758344,10,1,100,0.23024260021014165,-10,-1,-100,6440.493419434992,-0.023428220807923793,0.018031537634025416,0.9995628955300051,225.9567130042763,23.931910809545776,565.4412158739433,-30.133582448245225,-15.41217041015625,4381.2578125,True
1599572691.043304,0.0,10,0.5,0.5,-14.798441842651368,-0.2,-0.00825,-0.2505,0.25938443787826104,10,1,100,0.24009979376658247,-10,-1,-100,6439.842561590252,-0.02326779387766261,0.01862442716626218,0.9995557715709491,228.27960913901825,24.200674103761912,575.0799924118797,-30.323384914996357,-17.273193359375,4381.2578125,True
1599572691.1226115,0.0,10,0.5,0.5,-13.469378456115724,-0.2,-0.00825,-0.2505,0.33807952885158116,10,1,100,0.21716229587783265,-10,-1,-100,6438.648755590431,-0.022912931532529105,0.019871833039618612,0.9995399480862339,233.33522210768126,24.78393867724965,595.6349918835685,-30.702750358149768,-21.21563720703125,4381.2578125,True
1599572691.2128873,0.0,10,0.5,0.5,-11.522681167602538,-0.2,-0.00825,-0.2505,0.4262008319610373,10,1,100,0.1631816522915074,-10,-1,-100,6436.8021366131725,-0.022099658336585375,0.021799105619635245,0.9995180859272083,240.01771713041285,25.56396794356093,624.7484264692533,-31.27121183432308,-27.681060791015625,4381.2578125,True
1599572691.2930627,0.0,10,0.5,0.5,-11.009689898681641,-0.2,-0.00825,-0.2505,0.3801728773413455,10,1,100,0.16822427663729372,-10,-1,-100,6435.487723626196,-0.021407278465717307,0.023123761626739844,0.9995033867260885,243.8741549178136,26.016349577916642,642.9455235618437,-31.64982167950682,-32.35882568359375,4381.2578125,True
1599572691.3748422,0.0,10,0.5,0.5,-9.913019567108156,-0.2,-0.00825,-0.2505,0.39168861683051504,10,1,100,0.14430574710109242,-10,-1,-100,6434.233366847853,-0.02056224072558275,0.024422755935044067,0.9994902316925767,246.83980264345115,26.366905405827453,659.019182504476,-32.02818367631856,-37.331146240234375,4381.2578125,True
1599572691.4606369,0.0,10,0.5,0.5,-8.755867900848388,-0.2,-0.00825,-0.2505,0.40281017937030994,10,1,100,0.12087567849858988,-10,-1,-100,6432.919923831592,-0.019583849643038893,0.025694553364291217,0.999477995135745,248.68896517862544,26.588478564285293,672.2737168359707,-32.40635373467142,-42.5977783203125,4381.2578125,True
1599572691.537409,0.0,10,0.5,0.5,-8.807666863250734,-0.2,-0.00825,-0.2505,0.34504623957185554,10,1,100,0.15880234519925066,-10,-1,-100,6432.261736286222,-0.019043033881138788,0.026315337940658847,0.9994722936878594,249.12531396108247,26.64271963177753,677.621426802103,-32.595388457259745,-45.3414306640625,4381.2578125,True
1599572691.6201859,0.0,10,0.5,0.5,-6.889616268157959,-0.2,-0.00825,-0.2505,0.41340696249603437,10,1,100,0.08227099778958341,-10,-1,-100,6430.955610745703,-0.01785997811496811,0.027490316144090518,0.9994625074008684,248.88177824651018,26.622476748402814,685.2960589596245,-32.97340848266381,-51.04974365234375,4381.2578125,True
1599572691.6965404,0.0,10,0.5,0.5,-5.580320610046387,-0.2,-0.00825,-0.2505,0.41562452430941366,10,1,100,0.05639985069430542,-10,-1,-100,6429.632390040206,-0.016554644872356753,0.02856803608520908,0.9994547568786615,246.97061296059397,26.411941327326737,688.3261339409041,-33.35143857270223,-57.0526123046875,4381.2578125,True
1599572691.7853036,0.0,10,0.5,0.5,-2.7405071746826173,-0.2,-0.00825,-0.2505,0.46660731548388623,10,1,100,-0.051547902893165964,-10,-1,-100,6427.595791139873,-0.014393132921061445,0.0300001523413567,0.9994462609786541,240.54253016131193,25.699349219298036,682.5816792479008,-33.9187078212821,-66.6085205078125,4381.2578125,True
1599572691.866598,0.0,10,0.5,0.5,-2.056168272399902,-0.2,-0.00825,-0.2505,0.4093753886411097,10,1,100,-0.005411771668003468,-10,-1,-100,6426.286227889359,-0.012855755147282518,0.030770905407731718,0.9994437857828632,233.6358858536235,24.94137597145496,670.9118447629403,-34.297162088647006,-73.34738159179688,4381.2578125,True
1599572691.9503765,0.0,10,0.5,0.5,-0.5294512718200686,-0.2,-0.00825,-0.2505,0.40017546727054415,10,1,100,-0.02569985044926973,-10,-1,-100,6424.848727570032,-0.011283167399226872,0.031376912111757076,0.9994439351558305,224.48119234725178,23.949447564105878,652.2821686778183,-34.67590803966312,-80.38076782226562,4381.2578125,True
1599572692.030693,0.0,10,0.5,0.5,1.0586657928466796,-0.2,-0.00825,-0.2505,0.38928109974425484,10,1,100,-0.04432984320281186,-10,-1,-100,6423.4663954988355,-0.00969475111608345,0.03181832842965737,0.9994466497901425,213.00899968883533,22.723530183863403,626.2490030501958,-35.05496425589006,-87.70855712890625,4381.2578125,True
1599572692.1105134,0.0,10,0.5,0.5,0.9728751762390138,-0.2,-0.00825,-0.2505,0.3636294268279955,10,1,100,0.025665548832675314,-10,-1,-100,6422.75008022564,-0.008898335247385224,0.03197731058050072,0.9994489838095104,206.3957192737663,22.023727666219113,610.3522034224854,-35.24460161239057,-91.48280334472656,4381.2578125,True
1599572692.8241236,0.0,10,0.5,0.5,3.5442412639617924,-0.2,-0.00825,-0.2505,0.3690882494911335,10,1,100,-0.06716909035308752,-10,-1,-100,6421.367249968112,-0.007341741322532931,0.03216341678824705,0.999455658573635,214.74892673582698,22.94233889625502,642.4391527141994,-35.62361517515779,-99.18099975585938,4381.2578125,True
1599572692.8899124,0.0,10,0.5,0.5,3.398664167404175,-0.2,-0.00825,-0.2505,0.35503806638353896,10,1,100,0.0038651364296824753,-10,-1,-100,6420.646534819854,-0.0065844402701497095,0.032197838348080855,0.9994598262821972,220.91283166142586,23.620903205228,664.6747851535894,-35.81291164251855,-103.02516174316406,4381.2578125,True
1599572692.9637156,0.0,10,0.5,0.5,5.869432247924806,-0.2,-0.00825,-0.2505,0.34696318208018295,10,1,100,-0.08478041445007875,-10,-1,-100,6419.20217144629,-0.005101933768506124,0.032149810558823086,0.9994700395473861,231.19799106071792,24.76887374056901,703.5507618124112,-36.19108330482008,-110.53654479980469,4381.2578125,True
1599572693.0405107,0.0,10,0.5,0.5,5.686677975845338,-0.2,-0.00825,-0.2505,0.3442526136040861,10,1,100,-0.014703270875055394,-10,-1,-100,6418.433113381383,-0.004403939254160015,0.03207620333460772,0.9994757238165829,235.30046609701623,25.23364802678873,720.0613555882267,-36.37997443285687,-114.18817901611328,4381.2578125,True
1599572693.1243317,0.0,10,0.5,0.5,8.014886588859557,-0.2,-0.00825,-0.2505,0.3238174796975617,10,1,100,-0.0959980536109793,-10,-1,-100,6416.9887426580535,-0.0030425880697558883,0.031819344743270334,0.9994890054212435,242.3995286783116,26.04314135461132,750.0636448437956,-36.75741369242295,-121.2710952758789,4381.2578125,True
1599572693.2040792,0.0,10,0.5,0.5,9.350223278808594,-0.2,-0.00825,-0.2505,0.31077121172823663,10,1,100,-0.09618382860082925,-10,-1,-100,6415.481378806406,-0.0018155909083922288,0.03146427876173515,0.999503228004621,247.49094583092108,26.628664533352385,774.2523846642631,-37.134479324726435,-128.05606079101562,4381.2578125,True
1599572693.2822075,0.0,10,0.5,0.5,12.033984710693359,-0.2,-0.00825,-0.2505,0.26491707890260996,10,1,100,-0.15607217000365933,-10,-1,-100,6413.2576795186615,-0.00016713360532014587,0.03072330472881531,0.9995279138737939,250.87759119137493,27.024022314950738,797.6674186034659,-37.699667841049546,-137.67359924316406,4381.2578125,True
1599572693.359999,0.0,10,0.5,0.5,12.397763831710817,-0.2,-0.00825,-0.2505,0.27546188138866323,10,1,100,-0.0941430651343715,-10,-1,-100,6411.757632608758,0.0007569369699864379,0.030145597085742225,0.9995452316042368,250.6994772801569,27.007078463066396,805.6603615265458,-38.07636544106743,-143.71112060546875,4381.2578125,True
1599572693.4450352,0.0,10,0.5,0.5,13.522529248428345,-0.2,-0.00825,-0.2505,0.26480166025448854,10,1,100,-0.08934828624443933,-10,-1,-100,6410.1921536695445,0.0015424666809301186,0.029524616595388756,0.9995628633614965,248.90836219954838,26.804583664311487,808.4320033133758,-38.45310260627489,-149.44900512695312,4381.2578125,True
1599572693.5220957,0.0,10,0.5,0.5,13.37792840538025,-0.2,-0.00825,-0.2505,0.29168111998894886,10,1,100,-0.04917048089624682,-10,-1,-100,6409.412344939425,0.0018811161715344296,0.02920653279432094,0.9995716281708297,247.49733919446967,26.644693897499526,808.1027737104398,-38.64150893117362,-152.20550537109375,4381.2578125,True
1599572693.6011693,0.0,10,0.5,0.5,15.120010260772705,-0.2,-0.00825,-0.2505,0.24846159976778265,10,1,100,-0.07949471868533994,-10,-1,-100,6407.850284499349,0.0024548547325129047,0.028526979862054304,0.9995900085075842,243.81890784480433,26.22948066798879,804.5044670371087,-39.018428137318594,-157.49404907226562,4381.2578125,True
1599572693.6789637,0.0,10,0.5,0.5,17.16384421157837,-0.2,-0.00825,-0.2505,0.20192599466087152,10,1,100,-0.08786385855889337,-10,-1,-100,6405.494253933313,0.003043612335839235,0.027489459365318346,0.9996174598553947,236.64188715216704,25.428815364675316,793.149477304499,-39.58412203787109,-164.86476135253906,4381.2578125,True
1599572693.766763,0.0,10,0.5,0.5,16.407866901397707,-0.2,-0.00825,-0.2505,0.2663339317092934,10,1,100,-0.04340088123540329,-10,-1,-100,6404.708096995717,0.0031658848608259993,0.027136065958710185,0.9996267358856168,233.92961229245162,25.129746958702142,788.1408723039698,-39.77277460341342,-167.17190551757812,4381.2578125,True
1599572693.849505,0.0,10,0.5,0.5,17.85403685188293,-0.2,-0.00825,-0.2505,0.22527315578156532,10,1,100,-0.04900350594505637,-10,-1,-100,6403.079629653366,0.0033204584548750565,0.02644607739390534,0.9996447266634907,228.18821062278377,24.503172643871252,776.788159468704,-40.15020582407954,-171.56121826171875,4381.2578125,True
1599572693.9262996,0.0,10,0.5,0.5,19.515006663703918,-0.2,-0.00825,-0.2505,0.1806508904042723,10,1,100,-0.033032908894820356,-10,-1,-100,6400.668913269998,0.0033087704783638402,0.025418276400598912,0.999671427651478,219.1535249215754,23.535236793670293,757.5987122031208,-40.71663005544271,-177.58377075195312,4381.2578125,True
1599572694.0090811,0.0,10,0.5,0.5,-142.4869594818115,-0.2,-0.00825,-0.2505,0.20923891008148188,10,1,100,-0.015709482103131993,-10,-1,-100,6399.04044914816,0.003134885384749095,0.024749622102242855,0.9996887659163829,216.4306654374711,23.257133016363902,755.827158326879,-41.09434025288425,178.77532958984375,4381.2578125,True
1599572694.0908928,0.0,10,0.5,0.5,-51.96664750289917,-0.2,-0.00825,-0.2505,0.20411338417837938,10,1,100,-0.002541895268672774,-10,-1,-100,6397.411987051717,0.0028526022590650234,0.02410126310158141,0.9997054525095178,222.3103051938488,23.913647521147382,784.2230560270858,-41.4717981902619,175.43350219726562,4381.2578125,True
1599572694.1716454,0.0,10,0.5,0.5,-52.35983902778626,-0.2,-0.00825,-0.2505,0.23339304548473916,10,1,100,-0.010893681585303804,-10,-1,-100,6396.5667509329505,0.0026691613514448903,0.02378404460524449,0.9997135563749726,224.9489152760023,24.213089559433282,797.5128236180341,-41.660416778586786,173.8746795654297,4381.2578125,True
1599572694.2534258,0.0,10,0.5,0.5,-50.81261847686768,-0.2,-0.00825,-0.2505,0.16321493733359455,10,1,100,0.05187472342462701,-10,-1,-100,6394.034462748328,0.0019300366404440723,0.02286346458218279,0.9997367338183919,232.18859309907126,25.050828268932715,835.5191318804407,-42.22583824519467,168.99185180664062,4381.2578125,True
1599572694.3352084,0.0,10,0.5,0.5,-50.68344188690186,-0.2,-0.00825,-0.2505,0.1909811623452156,10,1,100,0.04768238298918673,-10,-1,-100,6392.333741435083,0.0012958649344386823,0.022285049472244352,0.9997508176061131,237.54930024224925,25.676174106187375,863.2280890777434,-42.60239256209654,165.4068603515625,4381.2578125,True
1599572694.4229727,0.0,10,0.5,0.5,-50.09746749572754,-0.2,-0.00825,-0.2505,0.18635672217486,10,1,100,0.06570575860372983,-10,-1,-100,6390.587613735697,0.0005560283790625684,0.021723469446498972,0.9997638629734767,242.78271953631747,26.293647889547362,890.8461404380666,-42.97860902066206,161.53106689453125,4381.2578125,True
1599572694.504754,0.0,10,0.5,0.5,-50.409033592987065,-0.2,-0.00825,-0.2505,0.21146080037588946,10,1,100,0.03679746685392689,-10,-1,-100,6389.745801281766,0.0001479785504038101,0.021447346052572126,0.9997699682675258,245.33579522356632,26.597053569226834,904.556724034445,-43.16658853252204,159.48330688476562,4381.2578125,True
1599572694.5865362,0.0,10,0.5,0.5,-49.24564853553772,-0.2,-0.00825,-0.2505,0.1812714649794391,10,1,100,0.09638493837641171,-10,-1,-100,6387.982589100837,-0.0007620477315036182,0.020927369112046124,0.9997807082082065,250.8100094751751,27.245237746420486,933.6110034176628,-43.54227600083204,155.16824340820312,4381.2578125,True
1599572694.670347,0.0,10,0.5,0.5,-46.309123042678834,-0.2,-0.00825,-0.2505,0.12795863689562992,10,1,100,0.24092080936868632,-10,-1,-100,6384.480594372144,-0.0028997359671743862,0.01997564499884846,0.9997962618144762,260.1379797632153,28.358783285181545,986.6976044731042,-44.29262997217316,145.66018676757812,4381.2578125,True
1599572694.7481413,0.0,10,0.5,0.5,-47.7994162273407,-0.2,-0.00825,-0.2505,0.19745953443530623,10,1,100,0.09406565750217949,-10,-1,-100,6383.624630445265,-0.003502387351341341,0.019748149812115874,0.9997988517006005,261.98457149407204,28.579961786805445,998.3193964555296,-44.48003237060591,143.10040283203125,4381.2578125,True
1599572694.8309212,0.0,10,0.5,0.5,-47.51920700416566,-0.2,-0.00825,-0.2505,0.19605338334912814,10,1,100,0.10377653674066306,-10,-1,-100,6382.720817334368,-0.004132341004725055,0.0195337074748378,0.999800659146666,263.58353372307937,28.771411289258385,1009.0575628542782,-44.66737408949465,140.4677734375,4381.2578125,True
1599572694.9067183,0.0,10,0.5,0.5,-44.39178520851136,-0.2,-0.00825,-0.2505,0.1465508625882332,10,1,100,0.2702542207340877,-10,-1,-100,6379.994249932235,-0.006211853065569133,0.018893478720056325,0.999802205110264,266.6077077663569,29.132158596610363,1034.7405099846233,-45.2291308139685,132.13194274902344,4381.2578125,True
1599572694.9911816,0.0,10,0.5,0.5,-43.77696661911011,-0.2,-0.00825,-0.2505,0.17053495669723687,10,1,100,0.22961593161849148,-10,-1,-100,6378.1724815907655,-0.007724639169535935,0.018534224147956406,0.9997983859183479,266.84863980596555,29.160122272440997,1045.116089609793,-45.60352587294204,126.21136474609375,4381.2578125,True
1599572695.0739603,0.0,10,0.5,0.5,-42.42246061515808,-0.2,-0.00825,-0.2505,0.16699450737054816,10,1,100,0.26114610136590555,-10,-1,-100,6376.363907946739,-0.009377088261281355,0.018180215743493208,0.9997907530934962,265.3836628081149,28.987915691472402,1048.811018086395,-45.977954597577565,119.99984741210938,4381.2578125,True
1599572695.174459,0.0,10,0.5,0.5,-39.495815191268925,-0.2,-0.00825,-0.2505,0.1533574117582708,10,1,100,0.3960987430576126,-10,-1,-100,6373.568552413024,-0.012095877701063868,0.01773867382372295,0.999769488028924,259.50109544414,28.31141415541792,1039.5179834786084,-46.539899925238934,110.13922119140625,4381.2578125,True
1599572695.2582352,0.0,10,0.5,0.5,-41.92030625724793,-0.2,-0.00825,-0.2505,0.19705696617044433,10,1,100,0.1255589733429115,-10,-1,-100,6373.568552413024,-0.012095877701063868,0.01773867382372295,0.999769488028924,259.50109544414,28.31141415541792,1039.5179834786084,-46.539899925238934,110.13922119140625,4381.2578125,True
1599572695.3454309,0.0,10,0.5,0.5,-38.753464739608766,-0.2,-0.00825,-0.2505,0.17038428593213728,10,1,100,0.3453402805754746,-10,-1,-100,6371.694584845565,-0.014082387852196145,0.017499817453940865,0.9997476895404456,252.8224914728311,27.560350745601326,1021.9252431241677,-46.91487802392647,103.20372009277344,4381.2578125,True
1599572695.4337049,0.0,10,0.5,0.5,-37.189786819458014,-0.2,-0.00825,-0.2505,0.1728958939511175,10,1,100,0.388205860457449,-10,-1,-100,6369.781575466739,-0.0162650565645138,0.017309096762128454,0.9997178817567647,243.74228881506033,26.559263715049934,994.1305442647384,-47.29022368551263,95.97932434082031,4381.2578125,True
1599572695.516481,0.0,10,0.5,0.5,-35.56643157768249,-0.2,-0.00825,-0.2505,0.18201118702019942,10,1,100,0.4142201539891657,-10,-1,-100,6367.8099941040855,-0.018471700781606357,0.017221869954154204,0.9996810508684842,232.2969907904024,25.321282533418504,955.9979064830259,-47.66597264432674,88.46714782714844,4381.2578125,True
1599572695.6032517,0.0,10,0.5,0.5,-32.08161975708008,-0.2,-0.00825,-0.2505,0.19459888136747971,10,1,100,0.6044541504487291,-10,-1,-100,6364.914684971445,-0.022192984615127954,0.017259509872829884,0.9996047122502086,253.10841932901002,27.65278149298483,1055.6594570272266,-48.228760251494826,76.65931701660156,4381.2578125,True
1599572695.6830359,0.0,10,0.5,0.5,-31.276861929702765,-0.2,-0.00825,-0.2505,0.2119147456958777,10,1,100,0.524152511315594,-10,-1,-100,6362.9719862370985,-0.0248289635650611,0.017453407329101653,0.9995393444686854,265.49895073867833,29.069724823853385,1117.112876344944,-48.603063965828596,68.42889404296875,4381.2578125,True
1599572695.7757885,0.0,10,0.5,0.5,-29.442614279556274,-0.2,-0.00825,-0.2505,0.23321798169924562,10,1,100,0.5715155430901878,-10,-1,-100,6361.028348983149,-0.02763706596971451,0.01782523470769364,0.9994590804991477,276.0640129616225,30.291689384938632,1171.6868407963134,-48.976701772027425,59.9127197265625,4381.2578125,True
1599572695.855577,0.0,10,0.5,0.5,-29.549941356658938,-0.2,-0.00825,-0.2505,0.22518584204525616,10,1,100,0.45402064283895044,-10,-1,-100,6360.056791603682,-0.029102273414475317,0.01809121127684314,0.9994127104237998,280.824243487399,30.84232613875599,1197.0226339872302,-49.16329419387976,55.54780578613281,4381.2578125,True
1599572695.941347,0.0,10,0.5,0.5,-26.556064590072634,-0.2,-0.00825,-0.2505,0.27221387808559994,10,1,100,0.6383510350900163,-10,-1,-100,6358.051697647665,-0.0320905768081358,0.018760938497228645,0.9993088722045974,287.9487997882915,31.665035115129307,1237.9031460802696,-49.5361429716495,46.60443115234375,4381.2578125,True
1599572696.0111585,0.0,10,0.5,0.5,-22.452936131668093,-0.2,-0.00825,-0.2505,0.3655653750605235,10,1,100,0.8578250182835128,-10,-1,-100,6355.074177566334,-0.03678178565999815,0.020217903467575012,0.9991187800372074,291.6395128130785,32.076513790036664,1269.8068925523753,-50.095052822459635,32.65794372558594,4381.2578125,True
1599572696.0919425,0.0,10,0.5,0.5,-21.534654512023927,-0.2,-0.00825,-0.2505,0.35808913722250335,10,1,100,0.7425302386364006,-10,-1,-100,6353.06871654815,-0.0399759448849366,0.02147219743332257,0.9989699037348128,288.7476752820865,31.731917314196128,1267.936292811599,-50.46782481991416,23.006546020507812,4381.2578125,True
1599572696.1916795,0.0,10,0.5,0.5,-21.659050412368778,-0.2,-0.00825,-0.2505,0.3170304911145622,10,1,100,0.6029485077134131,-10,-1,-100,6352.034755099914,-0.0415854556563227,0.022235810143375796,0.998887490473839,285.55181791436706,31.364205244820276,1259.263513616264,-50.654359742515524,18.075592041015625,4381.2578125,True
1599572696.2714632,0.0,10,0.5,0.5,-18.286536755371095,-0.2,-0.00825,-0.2505,0.44039342390067626,10,1,100,0.793339245783694,-10,-1,-100,6349.967359439004,-0.04475446936930886,0.02404717927539846,0.9987085514004416,275.52357526077367,30.238830034321875,1225.511739171953,-51.02785285969401,8.00347900390625,4381.2578125,True
1599572696.3477674,0.0,10,0.5,0.5,-13.692734194564819,-0.2,-0.00825,-0.2505,0.607552771345717,10,1,100,0.9863861124825437,-10,-1,-100,6346.926659331773,-0.04936446297582692,0.027207383388089187,0.9984101902946915,260.52194531381764,28.62420610935792,1173.871299428829,-51.589134836621334,-7.63311767578125,4381.2578125,True
1599572696.4415169,0.0,10,0.5,0.5,-15.1190176071167,-0.2,-0.00825,-0.2505,0.4243565884789732,10,1,100,0.6914378857805846,-10,-1,-100,6345.892281596549,-0.05084593440973987,0.02840579863407951,0.9983024599578829,270.65830214594837,29.77399306302628,1224.7878733878977,-51.77600825915114,-12.98583984375,4381.2578125,True
1599572696.5183518,0.0,10,0.5,0.5,-8.962290974044802,-0.2,-0.00825,-0.2505,0.7554333059510968,10,1,100,0.9838597744398484,-10,-1,-100,6342.7286443631165,-0.054825059292204395,0.03249492239039797,0.9979670800644921,295.2134299062676,32.634619666581735,1352.9510874671269,-52.335071662596555,-29.4644775390625,4381.2578125,True
1599572696.6031272,0.0,10,0.5,0.5,-7.901872936630248,-0.2,-0.00825,-0.2505,0.6737141971739206,10,1,100,0.8447701085491683,-10,-1,-100,6340.659933118965,-0.05715072486295947,0.03545573252993016,0.9977357794919477,306.68818468928816,34.00686267628129,1417.208990351788,-52.70666978161046,-40.802001953125,4381.2578125,True
1599572696.6799202,0.0,10,0.5,0.5,-8.057597103500365,-0.2,-0.00825,-0.2505,0.5490520773258639,10,1,100,0.7325118057554834,-10,-1,-100,6339.564056366449,-0.05821760566652763,0.036998058387411416,0.9976180902860664,310.54388071733445,34.473692647420044,1440.908286382549,-52.89223807024848,-46.57611083984375,4381.2578125,True
1599572696.761701,0.0,10,0.5,0.5,-4.122204705047608,-0.2,-0.00825,-0.2505,0.7406539349469243,10,1,100,0.8105668714485587,-10,-1,-100,6337.432829551748,-0.05987062032857023,0.040124819829758046,0.9973993721950609,313.2711176790368,34.82029979239831,1465.447066875739,-53.26320598741123,-58.33538818359375,4381.2578125,True
1599572696.8460555,0.0,10,0.5,0.5,-1.5569607749938963,-0.2,-0.00825,-0.2505,0.773002696949507,10,1,100,0.799225431086284,-10,-1,-100,6335.303518377128,-0.06124500234211516,0.04324198817615798,0.9971856297333448,308.77279904738697,34.323468379303776,1456.2477400984176,-53.634368577393765,-70.37615966796875,4381.2578125,True
1599572696.927278,0.0,10,0.5,0.5,3.886265001296997,-0.2,-0.00825,-0.2505,0.9591409428322689,10,1,100,0.8162884874396096,-10,-1,-100,6332.076754566398,-0.06262731994247522,0.04774701246753886,0.9968941977949553,287.8574810503331,31.99724083489204,1374.561468466491,-54.1923996114176,-88.96536254882812,4381.2578125,True
1599572697.0125642,0.0,10,0.5,0.5,2.1772318603515624,-0.2,-0.00825,-0.2505,0.6634116860196726,10,1,100,0.7124697234577154,-10,-1,-100,6330.979329031077,-0.06291957320200575,0.04913015511137586,0.996808585018613,277.1484868891693,30.82586318153453,1328.9555336406386,-54.3788750246923,-95.30317687988281,4381.2578125,True
1599572697.0893586,0.0,10,0.5,0.5,9.400269611740113,-0.2,-0.00825,-0.2505,0.9341995024540368,10,1,100,0.7471319869028954,-10,-1,-100,6327.691350585781,-0.06348097481694816,0.05282481553247827,0.9965840178832137,291.03749959662673,32.53400527615705,1412.9710555192598,-54.93781129855883,-114.65306091308594,4381.2578125,True
1599572697.1716478,0.0,10,0.5,0.5,10.3976747505188,-0.2,-0.00825,-0.2505,0.7941108560292459,10,1,100,0.7144186900557921,-10,-1,-100,6325.497818932985,-0.06367692221787882,0.054883903096657735,0.9964602384228559,308.3077029636415,34.61372529973386,1508.9295797687982,-55.30878563408935,-127.40191650390625,4381.2578125,True
1599572697.2494397,0.0,10,0.5,0.5,10.126302147674561,-0.2,-0.00825,-0.2505,0.6908746654754914,10,1,100,0.7029043758620616,-10,-1,-100,6324.402253717999,-0.06373736930856183,0.05579212958659715,0.9964059343609993,314.6863298444993,35.39612185142552,1546.271586845204,-55.493904963928145,-133.669189453125,4381.2578125,True
1599572697.321248,0.0,10,0.5,0.5,16.921436940765382,-0.2,-0.00825,-0.2505,0.8260384566231638,10,1,100,0.7372662223768133,-10,-1,-100,6321.0500613566255,-0.06409298214577247,0.05782165510520044,0.9962674067942586,323.05603915933733,36.45950705443342,1606.2367370977167,-56.04857668433457,-152.01663208007812,4381.2578125,True
1599572697.4020333,0.0,10,0.5,0.5,20.37989256591797,-0.2,-0.00825,-0.2505,0.7674562382374102,10,1,100,0.7731875138820492,-10,-1,-100,6317.635311643942,-0.0647343983543265,0.05911108837977403,0.9961502581941452,313.71213623911405,35.42997370659102,1578.4635355717542,-56.60372996325022,-169.67120361328125,4381.2578125,True
1599572698.1972504,0.0,10,0.5,0.5,18.645425645446778,-0.2,-0.00825,-0.2505,0.6697247654151663,10,1,100,0.7501452316661801,-10,-1,-100,6316.4776907074265,-0.06510113445696647,0.05937332764386613,0.9961107620425099,307.0681950476634,34.687546956255375,1551.2656229140132,-56.789135129615104,-175.40191650390625,4381.2578125,True
1599572698.2929947,0.0,10,0.5,0.5,-139.80488167266847,-0.2,-0.00825,-0.2505,0.6835462566170967,10,1,100,0.8185097838800732,-10,-1,-100,6314.221544856089,-0.06604976908968326,0.059717035741006994,0.9960277624873249,289.23603488864217,32.71927545437051,1473.0744379262217,-57.16061316578066,173.36843872070312,4381.2578125,True
1599572698.387741,0.0,10,0.5,0.5,-47.709267340850836,-0.2,-0.00825,-0.2505,0.666166408021768,10,1,100,0.8652341836812192,-10,-1,-100,6311.901957066148,-0.06733131407328974,0.05985368791853093,0.9959337478907496,286.2476227658007,32.49271138997287,1469.6959145128515,-57.53250469727984,162.44769287109375,4381.2578125,True
1599572698.4794962,0.0,10,0.5,0.5,-48.22929077529908,-0.2,-0.00825,-0.2505,0.6552027141678242,10,1,100,0.8237562701901172,-10,-1,-100,6310.743891421123,-0.06811375001598455,0.05986314568147831,0.9958799731131649,296.7303094454743,33.76233404120775,1529.6256620338365,-57.717985221100186,157.10317993164062,4381.2578125,True
1599572698.5830047,0.0,10,0.5,0.5,-42.462440595245354,-0.2,-0.00825,-0.2505,0.640526018567216,10,1,100,1.0767330806691364,-10,-1,-100,6307.265403366648,-0.07111985694090409,0.059727304475775914,0.9956779675420979,320.23846250206503,36.717809300662054,1670.3271721275778,-58.272646443738225,140.87974548339844,4381.2578125,True
