Timestamp,Input Throttle,horizon,dT,dt,Input Roll,Roll P,Roll I,Roll D,Input Pitch,Pitch P,Pitch I,Pitch D,Input Yaw,Yaw P,Yaw I,Yaw D,Altitude,Direction X,Direction Y,Direction Z,Drag X,Drag Y,Drag Z,Vertical Velocity,Roll,Mass,Has Fuel
1599569749.2961466,0.0,10,0.5,0.5,-5.434174942016602,-0.1005,-0.03,-0.5,-0.06718516014007689,10,1,100,0.6903905237859809,-10,-1,-100,6483.617967248894,-0.06725837762569345,-0.007002291908555018,0.9977110195578613,205.0732506567078,21.49878005905529,-156.76527309218602,9.590824872125754,-35.944549560546875,4381.2578125,True
1599569749.3560216,0.0,10,0.5,0.5,-5.596754959106446,-0.1005,-0.03,-0.5,-0.06732292717025501,10,1,100,0.6998900636233056,-10,-1,-100,6483.997883166769,-0.06744547262209165,-0.0069713808075900115,0.9976986058286433,204.61206680796647,21.456732991594752,-150.26667157287778,9.210802531400741,-35.941192626953125,4381.2578125,True
1599569749.4168644,0.0,10,0.5,0.5,-5.758279159545898,-0.1005,-0.03,-0.5,-0.06932106311370896,10,1,100,0.6986027361072318,-10,-1,-100,6484.156592101674,-0.06754254193901471,-0.00695510706000996,0.9976921526774681,204.38123172295275,21.435616478011422,-147.02555041512414,9.020798835999003,-35.939483642578125,4381.2578125,True
1599569749.4766967,0.0,10,0.5,0.5,-5.832870178222657,-0.1005,-0.03,-0.5,-0.0370865540228545,10,1,100,0.699814936810566,-10,-1,-100,6484.5389359002,-0.06758040446812143,-0.0066409489276930455,0.9976917293078382,203.94235079779006,21.395598637738292,-140.57579965843357,8.640801989884729,-36.08392333984375,4381.2578125,True
1599569749.5355463,0.0,10,0.5,0.5,-5.626139282226563,-0.1005,-0.03,-0.5,0.0020101916696989575,10,1,100,0.6991348237942204,-10,-1,-100,6485.01694941672,-0.06754720537218974,-0.005993888438447462,0.9976980747439551,203.44707790217285,21.35172267046231,-131.0456837397244,8.070817202755894,-36.81781005859375,4381.2578125,True
1599569749.5973809,0.0,10,0.5,0.5,-5.918315460205078,-0.1005,-0.03,-0.5,-0.028125041919642865,10,1,100,0.7015874973670918,-10,-1,-100,6485.175623428775,-0.0674779148580305,-0.005674159309546904,0.9977046331066837,203.31776042892014,21.340454308208134,-127.89877389672488,7.880821212276938,-37.2080078125,4381.2578125,True
1599569749.6603422,0.0,10,0.5,0.5,-5.670997100830078,-0.1005,-0.03,-0.5,0.026938383538848795,10,1,100,0.6879270696492195,-10,-1,-100,6485.49392870639,-0.06722939421603413,-0.004877761543369613,0.9977256215992807,203.0864868287747,21.320005156854613,-121.62910156224628,7.5008218090926455,-38.20849609375,4381.2578125,True
1599569749.7231755,0.0,10,0.5,0.5,-5.549363357543945,-0.1005,-0.03,-0.5,0.05717750702661272,10,1,100,0.6754719600974749,-10,-1,-100,6485.750194578781,-0.0668291204599161,-0.0038744281228257032,0.9977569130130218,202.84972658219178,21.297767169954923,-115.3650661095101,7.120805800202829,-39.502838134765625,4381.2578125,True
1599569749.78501,0.0,10,0.5,0.5,-5.394387588500977,-0.1005,-0.03,-0.5,0.09082519090023072,10,1,100,0.6623923226797447,-10,-1,-100,6486.005457985797,-0.06628557568650223,-0.002652896588823053,0.9977971660591134,202.54254185663856,21.266760559161018,-109.07225848166736,6.740764466679665,-41.090911865234375,4381.2578125,True
1599569749.8468428,0.0,10,0.5,0.5,-5.204871002197266,-0.1005,-0.03,-0.5,0.12219429115781627,10,1,100,0.6436867929758152,-10,-1,-100,6486.261184425792,-0.06556113419001162,-0.0012548280132163904,0.997847765488492,202.08486608143696,21.21843928708193,-102.71642324744003,6.360688273221083,-42.97314453125,4381.2578125,True
1599569749.910673,0.0,10,0.5,0.5,-4.980163070678712,-0.1005,-0.03,-0.5,0.15544055091927897,10,1,100,0.6233094622533113,-10,-1,-100,6486.517862522742,-0.0646577015191883,0.0003195228969967969,0.9979074503877471,201.37796777175373,21.142368234269174,-96.26404320134586,5.980565482048103,-45.149505615234375,4381.2578125,True
1599569749.9725077,0.0,10,0.5,0.5,-4.557108169555664,-0.1005,-0.03,-0.5,0.18871243255894907,10,1,100,0.5925253943074253,-10,-1,-100,6486.772075294401,-0.0635589081790286,0.002046566453182557,0.9979759900703236,200.30796024852117,21.02662262077245,-89.6867288768297,5.600380095621091,-47.620147705078125,4381.2578125,True
1599569750.033344,0.0,10,0.5,0.5,-4.096909423828126,-0.1005,-0.03,-0.5,0.22111222514306647,10,1,100,0.5584856293864141,-10,-1,-100,6486.965230811038,-0.062254085974549726,0.003902951484788159,0.9980527018896251,198.74678594632908,20.857870331840108,-82.96397694766029,5.220113029522907,-50.38531494140625,4381.2578125,True
1599569750.1001768,0.0,10,0.5,0.5,-3.5986819915771484,-0.1005,-0.03,-0.5,0.25214622417658605,10,1,100,0.5210926754816241,-10,-1,-100,6487.157878214493,-0.06073275571312945,0.005862830542420885,0.9981368441258546,196.5558039980139,20.621707299396185,-76.08678112928857,4.839744210352549,-53.445220947265625,4381.2578125,True
1599569750.1629984,0.0,10,0.5,0.5,-3.0619219818115235,-0.1005,-0.03,-0.5,0.28097504442597443,10,1,100,0.48079215083724086,-10,-1,-100,6487.351972975768,-0.05898958493212116,0.007895251888472246,0.9982273758353623,193.5805634922055,20.302300189022088,-69.05731399563882,4.459246591154552,-56.800140380859375,4381.2578125,True
1599569750.2268279,0.0,10,0.5,0.5,-2.4874850921630856,-0.1005,-0.03,-0.5,0.30735226637086877,10,1,100,0.4377503916210713,-10,-1,-100,6487.544100678759,-0.05702137515691215,0.009970074093175322,0.9983231743267263,189.6572303073063,19.883066744129287,-61.89350824446903,4.078587494094146,-60.450347900390625,4381.2578125,True
1599569750.2916546,0.0,10,0.5,0.5,-1.8733901367187502,-0.1005,-0.03,-0.5,0.3306345947953395,10,1,100,0.39246366517019043,-10,-1,-100,6487.6751820398495,-0.05482990197507878,0.012053711598216287,0.9984229514019147,184.62768570403335,19.34816060901888,-54.6350980808616,3.6977338840378065,-64.39617919921875,4381.2578125,True
1599569750.355517,0.0,10,0.5,0.5,0.11978372192382825,-0.1005,-0.03,-0.5,0.4613153207183518,10,1,100,0.2045066783390564,-10,-1,-100,6487.839808885474,-0.0511402260133481,0.01512054186287947,0.9985770107994058,174.75178538155458,18.303809399157352,-43.72691972111659,3.1260040531071103,-70.8699951171875,4381.2578125,True
1599569750.4203455,0.0,10,0.5,0.5,-0.20885707092285166,-0.1005,-0.03,-0.5,0.3722182894842572,10,1,100,0.2735611264433766,-10,-1,-100,6487.969414351624,-0.04842800548040181,0.017081328210458137,0.9986806078580663,166.39245456413465,17.42425542762229,-36.558334640235586,2.7444618167400674,-75.55636596679688,4381.2578125,True
1599569750.4821448,0.0,10,0.5,0.5,0.514141845703125,-0.1005,-0.03,-0.5,0.37898747333327387,10,1,100,0.22793593215399643,-10,-1,-100,6488.100487797405,-0.04556381011164364,0.018907459084339547,0.9987824824250194,156.60747497963555,16.39716898270124,-29.624822658184144,2.3626293356402353,-80.490234375,4381.2578125,True
1599569750.545977,0.0,10,0.5,0.5,-0.34864878845214853,-0.1005,-0.03,-0.5,0.2924245700793179,10,1,100,0.3496315316768891,-10,-1,-100,6488.133557073423,-0.04408449915759739,0.019762313224561633,0.9988323222193192,151.25471120085888,15.835979128017112,-26.300714476344726,2.1716347676233165,-82.97415161132812,4381.2578125,True
1599569750.6088064,0.0,10,0.5,0.5,3.024137966156006,-0.1005,-0.03,-0.5,0.4715750363915988,10,1,100,-0.01821752521543918,-10,-1,-100,6488.234731581062,-0.039414291593408354,0.022150418690941025,0.99897741344337,151.10050995503457,15.819371363890523,-19.342909320956252,1.5985042177416084,-90.47002410888672,4381.2578125,True
1599569750.671148,0.0,10,0.5,0.5,2.364543056488037,-0.1005,-0.03,-0.5,0.3874224468792484,10,1,100,0.08778307407314717,-10,-1,-100,6488.3013821326895,-0.036154239816392396,0.023538123890048415,0.9990689804348023,157.82860608333203,16.522958577847355,-15.376488409321109,1.2164109267723213,-95.3989028930664,4381.2578125,True
1599569750.7340195,0.0,10,0.5,0.5,2.995948638916016,-0.1005,-0.03,-0.5,0.38239030006718155,10,1,100,0.049593184266848445,-10,-1,-100,6488.307012297795,-0.03286710269919168,0.02473607712512247,0.9991535818124363,164.8495793327431,17.255879121441865,-11.017833968152395,0.8343844829468408,-100.3294677734375,4381.2578125,True
1599569750.7968516,0.0,10,0.5,0.5,3.497964508056641,-0.1005,-0.03,-0.5,0.3780084462930086,10,1,100,0.011252485270475898,-10,-1,-100,6488.3116874212865,-0.02955557683178213,0.02576813298944031,0.9992309398734504,170.73823458961712,17.869889047172997,-6.188176152892978,0.4524147255949029,-105.03662109375,4381.2578125,True
1599569750.8587189,0.0,10,0.5,0.5,3.945619823455811,-0.1005,-0.03,-0.5,0.37181040205685917,10,1,100,-0.02785198434511954,-10,-1,-100,6488.318335092277,-0.026216361781359252,0.0266337716629452,0.9993014282897603,176.22720462614572,18.44296235253775,-0.9945758533310268,0.0704392603943198,-109.4604721069336,4381.2578125,True
1599569750.9235482,0.0,10,0.5,0.5,3.143143627166748,-0.1005,-0.03,-0.5,0.32732791123303384,10,1,100,0.12088853854465686,-10,-1,-100,6488.350475874031,-0.02456090286485965,0.027001180815396895,0.9993336271161084,178.59368691092664,18.690287871109888,1.7254449713489792,-0.12057481537932446,-111.56275177001953,4381.2578125,True
1599569750.9883392,0.0,10,0.5,0.5,4.625786254882813,-0.1005,-0.03,-0.5,0.3602296379463018,10,1,100,-0.07683189713359523,-10,-1,-100,6488.355202580802,-0.021285998979248832,0.027620707133912528,0.9993918164488231,182.44725256955155,19.09292108649712,7.349772915167757,-0.5026902969794271,-115.54656982421875,4381.2578125,True
1599569751.0515752,0.0,10,0.5,0.5,4.983166992187501,-0.1005,-0.03,-0.5,0.35164422903543596,10,1,100,-0.10593350333771417,-10,-1,-100,6488.298427649075,-0.018071393778687096,0.028094499919490656,0.9994419061662212,186.01583427265817,19.465813197178985,13.193115233763374,-0.8849155337950738,-119.235595703125,4381.2578125,True
1599569751.113337,0.0,10,0.5,0.5,6.2606144142150875,-0.1005,-0.03,-0.5,0.35338305584787116,10,1,100,-0.3105255410748948,-10,-1,-100,6488.211348317796,-0.013316694718476343,0.028531016175848335,0.9995042004702875,189.55656141357576,19.835926710133357,22.16277991945005,-1.4584675423460731,-124.21631622314453,4381.2578125,True
1599569751.177155,0.0,10,0.5,0.5,5.67369815826416,-0.1005,-0.03,-0.5,0.32767237077603195,10,1,100,-0.17218402673413985,-10,-1,-100,6488.153645483428,-0.010281206717194492,0.028685366947255406,0.9995356154292551,190.9544838453123,19.982011543080304,28.185890326235672,-1.8409783195906788,-127.16763305664062,4381.2578125,True
1599569751.2405517,0.0,10,0.5,0.5,5.925295143127442,-0.1005,-0.03,-0.5,0.3214720397436766,10,1,100,-0.19199593154538208,-10,-1,-100,6488.033463888569,-0.007372294210872792,0.02876120731758343,0.999559123929997,191.79488441164253,20.06964486949022,34.19892891495526,-2.2235942136664546,-129.82321166992188,4381.2578125,True
1599569751.3063757,0.0,10,0.5,0.5,5.446242759704591,-0.1005,-0.03,-0.5,0.31654531075806963,10,1,100,-0.05776539452934781,-10,-1,-100,6488.00316627149,-0.005977234993801136,0.02877935485562462,0.9995679173502534,192.03835673496485,20.09491530234932,37.19188344800556,-2.414938306500903,-131.0399932861328,4381.2578125,True
1599569751.3697157,0.0,10,0.5,0.5,6.870643302917481,-0.1005,-0.03,-0.5,0.3062997328370095,10,1,100,-0.3662472447224309,-10,-1,-100,6487.853216220741,-0.0019320525263648665,0.028697946244592813,0.9995862619375968,192.28445811584322,20.119606706543426,46.10463837790184,-2.9890984393101543,-134.24710083007812,4381.2578125,True
1599569751.434051,0.0,10,0.5,0.5,6.43064877319336,-0.1005,-0.03,-0.5,0.30098524355712897,10,1,100,-0.2425616197215761,-10,-1,-100,6487.732598441304,0.0005928485347759463,0.028572023178274557,0.9995915605996856,192.21133662131473,20.11071221352631,51.99912499031343,-3.3719652562393203,-136.0153045654297,4381.2578125,True
1599569751.495887,0.0,10,0.5,0.5,6.523208282470703,-0.1005,-0.03,-0.5,0.29873489133424364,10,1,100,-0.25270314943867994,-10,-1,-100,6487.549492001068,0.002953001201089849,0.028434540924878245,0.999591294813184,192.0464744863161,20.091693689355072,57.86480326550528,-3.7548960680797845,-137.48695373535156,4381.2578125,True
1599569751.558718,0.0,10,0.5,0.5,6.577189918518067,-0.1005,-0.03,-0.5,0.29547245947533013,10,1,100,-0.26300818163325373,-10,-1,-100,6487.426945395302,0.005165759042250933,0.028278261523744262,0.9995867420382846,191.85817737159658,20.069636247875206,63.71590109199039,-4.13788412004485,-138.6621856689453,4381.2578125,True
1599569751.621551,0.0,10,0.5,0.5,6.598737922668457,-0.1005,-0.03,-0.5,0.29083879733144263,10,1,100,-0.27297191609976934,-10,-1,-100,6487.243372752448,0.007240912245813777,0.028092904157124985,0.9995790903804795,191.7886693595108,20.059374491964125,69.60190846051141,-4.520923541205517,-139.54122924804688,4381.2578125,True
1599569751.6833856,0.0,10,0.5,0.5,6.580893135070801,-0.1005,-0.03,-0.5,0.2895809929270058,10,1,100,-0.2788235084635859,-10,-1,-100,6487.060296066338,0.009154677896701002,0.027912533604682387,0.9995684480516456,191.79154356578567,20.056047862463743,75.51558120006493,-4.9040080408212425,-140.12356567382812,4381.2578125,True
1599569751.7442226,0.0,10,0.5,0.5,6.523973350524902,-0.1005,-0.03,-0.5,0.2879615641858225,10,1,100,-0.2838646531576229,-10,-1,-100,6486.813259536168,0.01091554246593028,0.027734003719646367,0.9995557393013924,191.90568342552388,20.06376184508742,81.48020925918279,-5.287132770896939,-140.4093017578125,4381.2578125,True
1599569751.8080518,0.0,10,0.5,0.5,6.423141952514649,-0.1005,-0.03,-0.5,0.28669009862119804,10,1,100,-0.28688697985717776,-10,-1,-100,6486.628727044677,0.0125217748286943,0.02756086960307722,0.9995416967900146,192.15078093573666,20.084654363234677,87.51516655853185,-5.670292985875273,-140.39840698242188,4381.2578125,True
1599569751.8708844,0.0,10,0.5,0.5,6.398212944030762,-0.1005,-0.03,-0.5,0.29464988893478583,10,1,100,-0.21050905886098004,-10,-1,-100,6486.4744502477115,0.013266911348018075,0.027476858952087135,0.9995343972497449,192.32495110442687,20.10034058946349,90.56402672201583,-5.861884769736159,-140.28172302246094,4381.2578125,True
1599569751.93571,0.0,10,0.5,0.5,6.214197898864747,-0.1005,-0.03,-0.5,0.2853478030484867,10,1,100,-0.2890867849794829,-10,-1,-100,6486.226931295008,0.01463988823433618,0.027317088805280245,0.9995196097784628,192.77489519235357,20.142113711930026,96.7317350508497,-6.245088156821026,-139.8258819580078,4381.2578125,True
1599569751.9975452,0.0,10,0.5,0.5,6.016635032653809,-0.1005,-0.03,-0.5,0.284751305938929,10,1,100,-0.28773989573442815,-10,-1,-100,6485.979900159873,0.015857061753099286,0.027167749849051043,0.999505111022799,193.3461431570409,20.196424978640678,102.99578070005384,-6.628312576755665,-139.0734405517578,4381.2578125,True
1599569752.0593803,0.0,10,0.5,0.5,5.396016006469727,-0.1005,-0.03,-0.5,0.2734018961756106,10,1,100,-0.3386582879943757,-10,-1,-100,6485.578097060556,0.017410305686811213,0.026930201796808457,0.9994856904863996,194.36222274053037,20.29474429782735,112.55785866393705,-7.20317398719024,-137.38931274414062,4381.2578125,True
1599569752.1222117,0.0,10,0.5,0.5,4.830326889038086,-0.1005,-0.03,-0.5,0.27287208251310224,10,1,100,-0.3167966668434581,-10,-1,-100,6485.112807673519,0.0186083150186755,0.026710925099093726,0.9994699880899457,195.42093609357374,20.398670798138305,122.2502629698937,-7.778040198396783,-135.03814697265625,4381.2578125,True
1599569752.1850452,0.0,10,0.5,0.5,5.438911575317383,-0.1005,-0.03,-0.5,0.2875224706088078,10,1,100,-0.23333380800839482,-10,-1,-100,6484.958521416411,0.018924429045671924,0.02664633491642837,0.9994657767131482,195.7465816691265,20.430944465077342,125.48754535778043,-7.969657731180989,-134.10617065429688,4381.2578125,True
1599569752.7369838,0.0,10,0.5,0.5,5.287112342834472,-0.1005,-0.03,-0.5,0.28668872860684635,10,1,100,-0.23359352327052868,-10,-1,-100,6484.802769687609,0.01920165859986678,0.026581520665448687,0.9994622149266706,196.04058265836653,20.460242069154116,128.715196605966,-8.161271069286855,-133.1001434326172,4381.2578125,True
1599569752.789147,0.0,10,0.5,0.5,4.4292529296875,-0.1005,-0.03,-0.5,0.27803278151772626,10,1,100,-0.25559015467306606,-10,-1,-100,6484.429248210276,0.019642781437926943,0.02644528217601304,0.9994572568089206,196.4918626379885,20.505772289308972,135.107022763574,-8.544481475069492,-130.8660888671875,4381.2578125,True
1599569752.8459966,0.0,10,0.5,0.5,4.781205642700195,-0.1005,-0.03,-0.5,0.2825024094977154,10,1,100,-0.23138694278316374,-10,-1,-100,6484.274466623319,0.019814238361217772,0.026363395850370237,0.9994560357101263,196.6232437208038,20.51941124985197,138.24876632624225,-8.736076948224767,-129.63827514648438,4381.2578125,True
1599569752.9044335,0.0,10,0.5,0.5,3.7548107681274416,-0.1005,-0.03,-0.5,0.272824710823578,10,1,100,-0.23948764283617663,-10,-1,-100,6483.902397080208,0.020035661295695655,0.0262022206644476,0.9994558599101291,196.63014787734198,20.521700664944053,144.35990160146568,-9.119245656573044,-126.96052551269531,4381.2578125,True
1599569752.969089,0.0,10,0.5,0.5,4.182767890930176,-0.1005,-0.03,-0.5,0.2793322241965953,10,1,100,-0.22399727268702035,-10,-1,-100,6483.747121063527,0.020089302519804127,0.026116092116035022,0.9994570374242481,196.47572168180673,20.507340452177335,147.29890540719774,-9.310817703731772,-125.51072692871094,4381.2578125,True
1599569753.0319211,0.0,10,0.5,0.5,2.9892152824401856,-0.1005,-0.03,-0.5,0.26514452760694823,10,1,100,-0.2204674576980783,-10,-1,-100,6483.310584510909,0.020099775868028913,0.025910051436514116,0.9994621895022403,195.77144142242713,20.43952977761046,152.8571253848622,-9.693937648122116,-122.38976287841797,4381.2578125,True
1599569753.0957503,0.0,10,0.5,0.5,2.4458837280273436,-0.1005,-0.03,-0.5,0.259346894288287,10,1,100,-0.2059016721399102,-10,-1,-100,6482.937025978463,0.01997191732712838,0.02567131509529707,0.9994709130832955,194.41731175733565,20.3069831331374,157.84861258799202,-10.077031603134898,-118.97343444824219,4381.2578125,True
1599569753.1585836,0.0,10,0.5,0.5,0.6843875503540042,-0.1005,-0.03,-0.5,0.23264298064886363,10,1,100,-0.1722159485346991,-10,-1,-100,6482.283163937973,0.01954570766119504,0.025212879601790226,0.999491008470916,191.63257932339974,20.035211548692924,164.54044793403148,-10.65165277862737,-113.2958984375,4381.2578125,True
1599569753.2244067,0.0,10,0.5,0.5,2.225868507385254,-0.1005,-0.03,-0.5,0.2584891426747946,10,1,100,-0.1927220480597917,-10,-1,-100,6482.064879846177,0.01934272214059795,0.025032646373560667,0.9994994876015334,190.28678309964212,19.902325226092895,166.35104324262787,-10.843198519502895,-111.25592041015625,4381.2578125,True
1599569753.2869015,0.0,10,0.5,0.5,0.5917909088134765,-0.1005,-0.03,-0.5,0.2310912272229909,10,1,100,-0.1596887579720745,-10,-1,-100,6481.628792405594,0.018857219569146873,0.02462125173354061,0.9995189839283668,186.78985483232967,19.553608781911255,169.1219593483268,-11.226321601529794,-106.95497131347656,4381.2578125,True
1599569753.3477373,0.0,10,0.5,0.5,-0.07025088882446262,-0.1005,-0.03,-0.5,0.21970746571129815,10,1,100,-0.1449863685222279,-10,-1,-100,6481.191721024574,0.01828225660871686,0.024145608849945977,0.9995412691162674,182.29118174582848,19.10059143958154,170.74322405261552,-11.609514759485531,-102.40699005126953,4381.2578125,True
1599569753.4105701,0.0,10,0.5,0.5,-2.269137306213379,-0.1005,-0.03,-0.5,0.17102173999596543,10,1,100,-0.08783517964739754,-10,-1,-100,6480.474330399185,0.017240842565819432,0.023272823187280106,0.9995804765242837,174.30971488685097,18.28921911541999,171.448618554537,-12.184491826069767,-95.11174011230469,4381.2578125,True
1599569753.4745505,0.0,10,0.5,0.5,-0.2534869956970216,-0.1005,-0.03,-0.5,0.22161098274511737,10,1,100,-0.1497721780685745,-10,-1,-100,6480.194019334158,0.016859349729625297,0.02294216793620227,0.9995946274650946,170.93308510948754,17.941869358705045,170.8054246775787,-12.376213334727991,-92.57266998291016,4381.2578125,True
1599569753.5353901,0.0,10,0.5,0.5,-3.6745522537231445,-0.1005,-0.03,-0.5,0.13158631858788472,10,1,100,-0.05313767733040067,-10,-1,-100,6479.476612832397,0.015636728861494132,0.021826276422805914,0.9996394881996346,160.0896564200263,16.815536710199744,167.50451390751036,-12.951560939731117,-84.94668579101562,4381.2578125,True
1599569753.599218,0.0,10,0.5,0.5,-2.90981632232666,-0.1005,-0.03,-0.5,0.14834131093250652,10,1,100,-0.07852131966326509,-10,-1,-100,6478.9145166395465,0.014760014759341114,0.020968125835798188,0.9996711857722209,161.06748342706732,16.917201009260246,173.58820863948887,-13.33519217117233,-80.08038330078125,4381.2578125,True
1599569753.6610541,0.0,10,0.5,0.5,-2.0472802658081055,-0.1005,-0.03,-0.5,0.1820607801749493,10,1,100,-0.11562076016895274,-10,-1,-100,6478.634200784145,0.01430511438721777,0.02049920953734086,0.9996875242348044,165.89236841535478,17.420735068365225,181.3958453873142,-13.526955863450535,-77.69183349609375,4381.2578125,True
1599569753.724971,0.0,10,0.5,0.5,-5.067614669799805,-0.1005,-0.03,-0.5,0.06666797081581952,10,1,100,-0.01131079572231547,-10,-1,-100,6477.791298123309,0.012948564064391493,0.019028815400841358,0.9997350843464038,178.58069617448513,18.734629396728895,203.69648420742965,-14.101973860283385,-70.89663696289062,4381.2578125,True
1599569753.7857773,0.0,10,0.5,0.5,-3.0882018280029295,-0.1005,-0.03,-0.5,0.15414804279227534,10,1,100,-0.09525710113578831,-10,-1,-100,6477.5095181422075,0.012484869595819846,0.018493405476259096,0.9997510299995025,182.23421293716385,19.10983032397519,210.73157613111695,-14.293546144530257,-68.775146484375,4381.2578125,True
1599569753.8476121,0.0,10,0.5,0.5,-5.71519889831543,-0.1005,-0.03,-0.5,0.019210134570084664,10,1,100,0.01265717871700106,-10,-1,-100,6476.665643240442,0.011088709205788786,0.016786069537460334,0.9997976137187132,191.83301623232353,20.088885930205482,230.89189126882422,-14.867950163294559,-62.8564453125,4381.2578125,True
1599569753.9094467,0.0,10,0.5,0.5,-3.9963984680175786,-0.1005,-0.03,-0.5,0.12482209968053806,10,1,100,-0.07538692763196034,-10,-1,-100,6476.321854210459,0.010627377102510025,0.0162015516184984,0.9998122666686351,194.4592075948097,20.354604768892855,237.11574223840702,-15.0593180224216,-61.032379150390625,4381.2578125,True
1599569753.973286,0.0,10,0.5,0.5,-5.277867065429687,-0.1005,-0.03,-0.5,0.042503834260930434,10,1,100,-0.01787505064907824,-10,-1,-100,6475.759765335824,0.009692630711018257,0.014929478097550247,0.9998415692466655,198.97756809466176,20.809448991353428,248.89587655938303,-15.44191285348638,-57.6090087890625,4381.2578125,True
1599569754.0381453,0.0,10,0.5,0.5,-6.44926342010498,-0.1005,-0.03,-0.5,-0.041695990481840584,10,1,100,0.04099934598492977,-10,-1,-100,6474.79139888729,0.008315448227441758,0.013015972972438004,0.9998807117693378,204.1642423894244,21.327863061174966,265.04174474592224,-16.015482417327753,-53.03167724609375,4381.2578125,True
1599569754.1039946,0.0,10,0.5,0.5,-5.895422080993653,-0.1005,-0.03,-0.5,0.0011433024455799468,10,1,100,0.004361542648504954,-10,-1,-100,6474.103347348631,0.007404649085738236,0.011675195385507826,0.9999044259251118,206.7701742781231,21.58717635336688,274.9509003006549,-16.397671863569798,-50.352935791015625,4381.2578125,True
1599569754.1708188,0.0,10,0.5,0.5,-6.112783126831054,-0.1005,-0.03,-0.5,-0.012447765964793064,10,1,100,0.014108261175652573,-10,-1,-100,6473.47780257347,0.006496638516346317,0.010342994205068541,0.9999254052972459,208.83900463781706,21.79304595437549,284.29844203325774,-16.779730622380228,-47.971466064453125,4381.2578125,True
1599569754.242623,0.0,10,0.5,0.5,-6.284314910888672,-0.1005,-0.03,-0.5,-0.028980604852391456,10,1,100,0.023727108674989658,-10,-1,-100,6472.790741891484,0.0055920394672189155,0.008992043034979877,0.9999439345566602,210.49536005793126,21.958600810735415,293.2078388008503,-17.161675031012038,-45.88763427734375,4381.2578125,True
1599569754.313435,0.0,10,0.5,0.5,-6.417733276367188,-0.1005,-0.03,-0.5,-0.0440062215621192,10,1,100,0.033457889770724905,-10,-1,-100,6472.10271158861,0.004689549571952886,0.007638196440084309,0.9999598322332527,211.90196997351157,22.100716980188558,301.87247321100267,-17.54351798161263,-44.1011962890625,4381.2578125,True
1599569754.3832479,0.0,10,0.5,0.5,-6.094775009155273,-0.1005,-0.03,-0.5,0.016161270950532394,10,1,100,-0.0061303313424940775,-10,-1,-100,6471.696931674727,0.004237738554390546,0.00696609584310995,0.9999667569877757,212.63719349137503,22.17600617900128,306.28665335525216,-17.734403491740107,-43.319366455078125,4381.2578125,True
1599569754.4570503,0.0,10,0.5,0.5,-6.927593215942383,-0.1005,-0.03,-0.5,-0.13695308824277508,10,1,100,0.09951128723744343,-10,-1,-100,6470.665148526896,0.002874541847252624,0.004974112689155675,0.9999834974698953,214.56341379503846,22.375833339266812,319.26367988782357,-18.30692502347594,-41.419281005859375,4381.2578125,True
1599569754.533846,0.0,10,0.5,0.5,-6.350815139770509,-0.1005,-0.03,-0.5,-0.011286901621815296,10,1,100,0.014455858475342254,-10,-1,-100,6470.2588879729155,0.002417239945645039,0.004317929057376063,0.9999877561448944,215.13942559935867,22.436422686164715,323.53435754135023,-18.497722381022584,-40.934356689453125,4381.2578125,True
1599569754.6101522,0.0,10,0.5,0.5,-6.622515060424805,-0.1005,-0.03,-0.5,-0.09340695198641778,10,1,100,0.06972184594852615,-10,-1,-100,6469.507405808661,0.001506976030118421,0.0029861872437891967,0.9999944058388475,216.23170974026738,22.55234636885394,332.0444138018056,-18.879253729441995,-40.187652587890625,4381.2578125,True
1599569754.6899471,0.0,10,0.5,0.5,-6.674878005981445,-0.1005,-0.03,-0.5,-0.23846896499552145,10,1,100,0.18532088689887766,-10,-1,-100,6467.943914616946,-0.00036314571893407156,0.00046878126260447504,0.9999998241846418,218.29594938540947,22.77383887854694,349.1030410178494,-19.6420630359395,-39.582855224609375,4381.2578125,True
1599569754.7677386,0.0,10,0.5,0.5,-6.406179489135742,-0.1005,-0.03,-0.5,-0.05433166060453615,10,1,100,0.05190804281581214,-10,-1,-100,6467.600165007985,-0.0008412707478357851,-0.00013264804688636393,0.9999996373339466,218.8016035894998,22.828215837096707,353.39669139740664,-19.832711762346065,-39.616790771484375,4381.2578125,True
1599569754.8475251,0.0,10,0.5,0.5,-6.289553329467774,-0.1005,-0.03,-0.5,-0.12132255708741935,10,1,100,0.11192115680290228,-10,-1,-100,6466.786206034478,-0.0018131793385606373,-0.0012764568226139518,0.9999975415163109,219.80373861763772,22.93565139692045,362.02291234769837,-20.213943841605875,-39.906280517578125,4381.2578125,True
1599569754.9253173,0.0,10,0.5,0.5,-6.312196197509766,-0.1005,-0.03,-0.5,-0.06756577844549749,10,1,100,0.0701135981363905,-10,-1,-100,6466.378984833253,-0.0023082840436837605,-0.0018158107654323587,0.9999956873187194,220.29808186390352,22.98834892504257,366.3516502157613,-20.40452678200372,-40.16180419921875,4381.2578125,True
1599569754.999216,0.0,10,0.5,0.5,-5.404595275878906,-0.1005,-0.03,-0.5,-0.24936829453293718,10,1,100,0.24063782416900023,-10,-1,-100,6464.690054600709,-0.004300594991764843,-0.003947829218816271,0.9999829596184007,222.15798524806604,23.18317405402269,383.6407238704828,-21.166639006244463,-41.92498779296875,4381.2578125,True
1599569755.0750134,0.0,10,0.5,0.5,-5.92239599609375,-0.1005,-0.03,-0.5,-0.09245529162385646,10,1,100,0.0981732650898671,-10,-1,-100,6464.284303885419,-0.004807661103429176,-0.0044477824479429145,0.9999785515829879,222.5686503034923,23.224930190221283,387.9103711072668,-21.35711363916098,-42.55059814453125,4381.2578125,True
1599569755.157793,0.0,10,0.5,0.5,-4.847788116455079,-0.1005,-0.03,-0.5,-0.18659622978287838,10,1,100,0.21857828214346062,-10,-1,-100,6462.938154747593,-0.006354587532088164,-0.0057471248405145834,0.9999632942130249,223.55894497285567,23.320808834933427,400.37772151664973,-21.928420843089796,-44.8687744140625,4381.2578125,True
1599569755.233105,0.0,10,0.5,0.5,-6.002228027343751,-0.1005,-0.03,-0.5,-0.05793331259407394,10,1,100,0.06494487188620968,-10,-1,-100,6462.938154747593,-0.006354587532088164,-0.0057471248405145834,0.9999632942130249,223.55894497285567,23.320808834933427,400.37772151664973,-21.928420843089796,-44.8687744140625,4381.2578125,True
1599569755.3108957,0.0,10,0.5,0.5,-4.200641998291015,-0.1005,-0.03,-0.5,-0.1896969827404106,10,1,100,0.23722088551904746,-10,-1,-100,6461.5934773618355,-0.007912342992950926,-0.006935229807727035,0.9999446471759704,223.99691462787325,23.351593170156217,411.9448366956943,-22.499581000526504,-47.8516845703125,4381.2578125,True
1599569755.3926775,0.0,10,0.5,0.5,-4.986033264160157,-0.1005,-0.03,-0.5,-0.10795278871816294,10,1,100,0.13955878912985026,-10,-1,-100,6461.186268645339,-0.00843125655116201,-0.007261966051476918,0.9999380869644058,223.96794733559608,23.341712197272084,415.49035554082417,-22.68994350018145,-48.992919921875,4381.2578125,True
1599569755.4704692,0.0,10,0.5,0.5,-3.208098999023438,-0.1005,-0.03,-0.5,-0.1803347437988326,10,1,100,0.2608216089308523,-10,-1,-100,6459.778611554764,-0.00999635066356185,-0.008207700270805385,0.9999163498161611,223.26232241231946,23.241528220543643,424.9607776709288,-23.260992200729312,-52.85992431640625,4381.2578125,True
1599569755.5412793,0.0,10,0.5,0.5,-4.2395591583251955,-0.1005,-0.03,-0.5,-0.11367975650984022,10,1,100,0.16142099854092964,-10,-1,-100,6459.307928655762,-0.01050676412134002,-0.008453616511628233,0.9999090680034723,222.90590561992536,23.193491864564315,427.8761320980066,-23.45133738629362,-54.295745849609375,4381.2578125,True
1599569755.610097,0.0,10,0.5,0.5,-3.055892745971679,-0.1005,-0.03,-0.5,-0.14483024357007857,10,1,100,0.2245712637672545,-10,-1,-100,6458.369493292528,-0.011536082863765396,-0.008952798459774133,0.9998933774117613,221.720552863275,23.04548521472108,432.7609467788253,-23.8320399751425,-57.389068603515625,4381.2578125,True
1599569755.679915,0.0,10,0.5,0.5,-1.4333077087402346,-0.1005,-0.03,-0.5,-0.15311373797741265,10,1,100,0.28477729670030905,-10,-1,-100,6456.898363196524,-0.013010315743975138,-0.00947492623303057,0.999870470339594,218.6855546155866,22.687583099102106,437.4610868869376,-24.40318094585161,-62.57940673828125,4381.2578125,True
1599569755.7507253,0.0,10,0.5,0.5,-1.662654815673828,-0.1005,-0.03,-0.5,-0.1299897443284997,10,1,100,0.24293097338735192,-10,-1,-100,6455.8959622984985,-0.013960377212502302,-0.009732406888757579,0.9998551835762198,215.64823503580644,22.342410517018084,438.39299913672426,-24.78404419499299,-66.40716552734375,4381.2578125,True
1599569755.816552,0.0,10,0.5,0.5,-2.2877202453613283,-0.1005,-0.03,-0.5,-0.11496863427009826,10,1,100,0.19905023304365121,-10,-1,-100,6455.427720830543,-0.014416372015110864,-0.009824665959187627,0.9998478104975339,213.7329658175485,22.129109805337595,437.9800399925968,-24.974518571765152,-68.43109130859375,4381.2578125,True
1599569755.8833702,0.0,10,0.5,0.5,-0.6591410827636719,-0.1005,-0.03,-0.5,-0.11929190675265072,10,1,100,0.24857591135430268,-10,-1,-100,6454.425805626204,-0.01527241099220486,-0.009942952242591561,0.9998339317922685,209.02958123261416,21.614659704146277,435.1662987410936,-25.355570599903615,-72.69903564453125,4381.2578125,True
1599569755.953185,0.0,10,0.5,0.5,0.02964566040039074,-0.1005,-0.03,-0.5,-0.11395548903920374,10,1,100,0.25336145823240197,-10,-1,-100,6453.361387629877,-0.016086026103491108,-0.009998157950652823,0.9998206222127005,203.04877829935876,20.974096986063145,429.36624578746955,-25.736776142424027,-77.26068115234375,4381.2578125,True
1599569756.0259907,0.0,10,0.5,0.5,2.2761705169677735,-0.1005,-0.03,-0.5,-0.10377195580847491,10,1,100,0.2940927715419147,-10,-1,-100,6451.826766326325,-0.0171871141087729,-0.009951902807601764,0.9998027619181296,191.41430809259253,19.75654143138727,414.20590535078384,-26.308881701023147,-84.63815307617188,4381.2578125,True
1599569756.0938132,0.0,10,0.5,0.5,0.2438139038085938,-0.1005,-0.03,-0.5,-0.10352628308905613,10,1,100,0.2207737162482482,-10,-1,-100,6451.296019002213,-0.01751313472807227,-0.009904876859197108,0.999797571274506,191.84836111374509,19.801999327342564,418.30793002192723,-26.49960395318601,-87.21270751953125,4381.2578125,True
1599569756.720865,0.0,10,0.5,0.5,3.7253963279724123,-0.1005,-0.03,-0.5,-0.08590589850672026,10,1,100,0.283250014274384,-10,-1,-100,6449.698887268663,-0.018369227202057557,-0.009699538036437349,0.9997842219468555,205.83233994906328,21.265761907639718,458.99392126428467,-27.07131320043974,-94.96324920654297,4381.2578125,True
1599569756.7803288,0.0,10,0.5,0.5,2.9518132667541503,-0.1005,-0.03,-0.5,-0.08623433128538915,10,1,100,0.2501921331269351,-10,-1,-100,6448.571464513545,-0.018839355189305105,-0.009514495915765801,0.9997772517233628,214.46518044851362,22.183156769532733,485.3313196112175,-27.45200981522838,-99.91808319091797,4381.2578125,True
1599569756.842162,0.0,10,0.5,0.5,3.501444423675537,-0.1005,-0.03,-0.5,-0.08185016608917353,10,1,100,0.24535112994262576,-10,-1,-100,6447.445502197836,-0.01921516006597464,-0.009305455323004128,0.9997720670857285,221.71800464071424,22.964199493690323,509.0690226834945,-27.832337537803067,-104.73104095458984,4381.2578125,True
1599569756.9049945,0.0,10,0.5,0.5,3.9711604309082036,-0.1005,-0.03,-0.5,-0.0785501242737609,10,1,100,0.2396374523708913,-10,-1,-100,6446.317582062562,-0.019497877360292806,-0.00908509744320501,0.9997686201231216,228.22190653346416,23.67035728320389,531.5375896084785,-28.212306519460476,-109.28419494628906,4381.2578125,True
1599569756.9648767,0.0,10,0.5,0.5,3.1363156356811523,-0.1005,-0.03,-0.5,-0.08799750829807704,10,1,100,0.22415883587345625,-10,-1,-100,6445.784382277052,-0.01960828060368144,-0.008971011797053981,0.99976749110936,231.12344324893064,23.986971703926216,542.1094076029747,-28.402163798658133,-111.45175170898438,4381.2578125,True
1599569757.025714,0.0,10,0.5,0.5,4.657412353515625,-0.1005,-0.03,-0.5,-0.07467304912533129,10,1,100,0.23049975225267605,-10,-1,-100,6444.595908502233,-0.019761157425308398,-0.008746858303611452,0.9997664672947522,235.95609721672602,24.5172421065338,561.2297744206656,-28.781654092216357,-115.56455993652344,4381.2578125,True
1599569757.0861957,0.0,10,0.5,0.5,6.112066162109375,-0.1005,-0.03,-0.5,-0.06197710349970368,10,1,100,0.22379026797209456,-10,-1,-100,6442.87471317139,-0.019834282146591074,-0.008428644538117607,0.9997677526320697,241.09043525756408,25.083162306176106,585.3727784924719,-29.350425001835628,-121.17597961425781,4381.2578125,True
1599569757.147033,0.0,10,0.5,0.5,4.485655807495117,-0.1005,-0.03,-0.5,-0.0827655973601619,10,1,100,0.21519445286171382,-10,-1,-100,6442.280472426675,-0.019818468236613332,-0.008329722247949617,0.999768895317326,242.32193331516623,25.21860164690443,592.3614515454425,-29.53991622756443,-122.89765930175781,4381.2578125,True
1599569757.2138548,0.0,10,0.5,0.5,6.595556182861328,-0.1005,-0.03,-0.5,-0.06504972723655089,10,1,100,0.1996423087277435,-10,-1,-100,6440.49286056438,-0.019659315697112816,-0.008080256288221075,0.9997740848634944,245.3151891580545,25.541332578992996,611.832180558295,-30.10815798145515,-127.61677551269531,4381.2578125,True
1599569757.2761955,0.0,10,0.5,0.5,5.22030924987793,-0.1005,-0.03,-0.5,-0.08234934195505697,10,1,100,0.2061673092874386,-10,-1,-100,6439.903011041111,-0.019571702301211084,-0.00801243977365371,0.999776349629209,246.00732126043937,25.613573124144526,617.6254001616426,-30.29750752693545,-129.0412139892578,4381.2578125,True
1599569757.3390272,0.0,10,0.5,0.5,6.210501945495606,-0.1005,-0.03,-0.5,-0.07602176205871199,10,1,100,0.18977022304756674,-10,-1,-100,6438.648113766452,-0.019341117914053275,-0.007894985340521646,0.9997817713702863,247.0195344869403,25.714319020870697,628.3423821269155,-30.676129439728253,-131.667236328125,4381.2578125,True
1599569757.400862,0.0,10,0.5,0.5,6.4062740402221685,-0.1005,-0.03,-0.5,-0.07921705104629984,10,1,100,0.18155003947263748,-10,-1,-100,6437.3956557420315,-0.019055883265308642,-0.007818897167285037,0.9997878465754955,247.64064109908082,25.76823778988968,638.1311745113562,-31.054664569757314,-133.9964141845703,4381.2578125,True
1599569757.4626973,0.0,10,0.5,0.5,6.5644004364013675,-0.1005,-0.03,-0.5,-0.0822546458700342,10,1,100,0.17109402340501695,-10,-1,-100,6436.150031833793,-0.018701327503947877,-0.007778882052511596,0.9997948536292849,247.98601944902805,25.78814512153787,647.2555915110441,-31.43312658330543,-136.0288543701172,4381.2578125,True
1599569757.5231702,0.0,10,0.5,0.5,6.684436447143555,-0.1005,-0.03,-0.5,-0.08597483405140571,10,1,100,0.16210046312533943,-10,-1,-100,6434.892687718966,-0.018297711566133773,-0.00777771236188502,0.9998023309343994,248.15547192911592,25.7852864643547,655.9530247713164,-31.811522990631108,-137.76467895507812,4381.2578125,True
1599569757.5860367,0.0,10,0.5,0.5,6.766302230834961,-0.1005,-0.03,-0.5,-0.08995999854394421,10,1,100,0.15199188267495,-10,-1,-100,6433.635830410873,-0.01783998286020301,-0.007814066306776047,0.9998103197003424,248.23628545917924,25.769575135481592,664.440130132081,-32.189856435235896,-139.20404052734375,4381.2578125,True
1599569757.6498654,0.0,10,0.5,0.5,7.092780281066895,-0.1005,-0.03,-0.5,-0.09972382110315978,10,1,100,0.1121089365594492,-10,-1,-100,6431.668511613971,-0.017062901160800927,-0.007936929139479193,0.9998229156004637,248.3468182579031,25.739707900005417,677.1813157901714,-32.75723464194336,-140.8075408935547,4381.2578125,True
1599569757.7136612,0.0,10,0.5,0.5,6.598809555053711,-0.1005,-0.03,-0.5,-0.09383228766629552,10,1,100,0.158468647934716,-10,-1,-100,6431.010785533814,-0.016780368134087374,-0.007995799528114316,0.9998272282925639,248.40955291806097,25.731384118280275,681.509629211125,-32.946325543195826,-141.1939697265625,4381.2578125,True
1599569757.775534,0.0,10,0.5,0.5,6.796411575317383,-0.1005,-0.03,-0.5,-0.10333363613311683,10,1,100,0.12078226998062716,-10,-1,-100,6429.693868026952,-0.016183692777503794,-0.008136087453853715,0.9998359326254616,248.6056449592196,25.72090418712357,690.3799228380408,-33.3244488971242,-141.74478149414062,4381.2578125,True
1599569757.8395364,0.0,10,0.5,0.5,6.730512557983399,-0.1005,-0.03,-0.5,-0.10651187364217127,10,1,100,0.11055218481740382,-10,-1,-100,6428.318844819907,-0.015551564202270426,-0.008292691031693751,0.9998446780006961,248.921535202198,25.721710816590104,699.6144456441806,-33.702486644348305,-141.99951171875,4381.2578125,True
1599569757.905361,0.0,10,0.5,0.5,6.621830703735352,-0.1005,-0.03,-0.5,-0.11315274229510539,10,1,100,0.0981960790506202,-10,-1,-100,6426.9364976305515,-0.014868307946446462,-0.008495236331353665,0.9998533714392747,249.3774201003355,25.73634398580693,709.2818482195479,-34.08042832052445,-141.95877075195312,4381.2578125,True
1599569757.9661982,0.0,10,0.5,0.5,6.478847709655762,-0.1005,-0.03,-0.5,-0.11588845092148645,10,1,100,0.08746812834376766,-10,-1,-100,6425.561474742717,-0.014153914884139439,-0.008703799594413687,0.9998619457535488,249.97487732159925,25.765395823512776,719.3998424098016,-34.45826329258531,-141.62220764160156,4381.2578125,True
1599569758.030027,0.0,10,0.5,0.5,6.0412170028686525,-0.1005,-0.03,-0.5,-0.13330382677972133,10,1,100,0.03255258352995613,-10,-1,-100,6423.527750184527,-0.013009950059216508,-0.009050988873857758,0.9998744025125665,251.1216026919264,25.835457796785725,735.4071582951248,-35.02479294785325,-140.56346130371094,4381.2578125,True
1599569758.0928624,0.0,10,0.5,0.5,6.289720611572266,-0.1005,-0.03,-0.5,-0.11202572106453954,10,1,100,0.10239419311489861,-10,-1,-100,6422.807525300304,-0.012610402062973404,-0.009172058083481104,0.9998784181640902,251.5599779861631,25.865029704656475,740.9391838258027,-35.213571959501444,-140.06292724609375,4381.2578125,True
1599569758.155691,0.0,10,0.5,0.5,5.384397010803222,-0.1005,-0.03,-0.5,-0.13933574626810222,10,1,100,0.004978274062895124,-10,-1,-100,6420.645385002834,-0.011367114552680527,-0.009529127434052017,0.9998899861670242,252.98073918694476,25.967017913281843,757.9544551998716,-35.77970282036837,-138.11839294433594,4381.2578125,True
1599569758.2255054,0.0,10,0.5,0.5,5.35790599822998,-0.1005,-0.03,-0.5,-0.13010008131591017,10,1,100,0.03287687869873529,-10,-1,-100,6419.2015184421325,-0.010496777400934144,-0.009768183148576403,0.9998971948466359,253.9564784404898,26.04089216821721,769.4753791076324,-36.15694561810566,-136.4534149169922,4381.2578125,True
1599569758.2919118,0.0,10,0.5,0.5,5.005214080810547,-0.1005,-0.03,-0.5,-0.13043407489498504,10,1,100,0.020796596549031876,-10,-1,-100,6417.763512058882,-0.009602416702948554,-0.009986766360824888,0.9999040244399047,254.88106954387277,26.112898440623788,780.9140363574115,-36.5340446799519,-134.49349975585938,4381.2578125,True
1599569758.3587344,0.0,10,0.5,0.5,4.612309852600098,-0.1005,-0.03,-0.5,-0.13028258918492877,10,1,100,0.00886501339815153,-10,-1,-100,6416.2566591419745,-0.008687674843824426,-0.01018223774075814,0.9999104191578356,255.6797277311645,26.17634365051287,792.0339912491145,-36.9110036063099,-132.2388458251953,4381.2578125,True
1599569758.4205675,0.0,10,0.5,0.5,4.182053550720215,-0.1005,-0.03,-0.5,-0.13012015263041413,10,1,100,-0.003647488504865848,-10,-1,-100,6414.815237792791,-0.007749698312129846,-0.010356474628190379,0.9999163393051174,256.26597524144637,26.22341534985139,802.5527718255322,-37.28783154867607,-129.6897735595703,4381.2578125,True
1599569758.4844341,0.0,10,0.5,0.5,3.712949787139893,-0.1005,-0.03,-0.5,-0.1282461601557137,10,1,100,-0.015223901602342493,-10,-1,-100,6413.315711250994,-0.006799419522853506,-0.010495816969563922,0.9999217998025114,256.53899338225034,26.244788886389717,812.131573391877,-37.6645441066979,-126.84635162353516,4381.2578125,True
1599569758.546266,0.0,10,0.5,0.5,3.2050839614868165,-0.1005,-0.03,-0.5,-0.12573144555205562,10,1,100,-0.026686047573500973,-10,-1,-100,6411.745873867883,-0.005839284882573045,-0.010597627941744915,0.9999267938374631,256.3888526932836,26.23004593204695,820.3896179715886,-38.041163662556535,-123.70877075195312,4381.2578125,True
1599569758.608101,0.0,10,0.5,0.5,2.658479179382324,-0.1005,-0.03,-0.5,-0.1222731938745084,10,1,100,-0.03750745982379078,-10,-1,-100,6410.246838603052,-0.004876266937373513,-0.010656833454285941,0.9999313246025865,255.69622009611564,26.167472056402662,826.9016254337635,-38.41772028751156,-120.2772216796875,4381.2578125,True
1599569758.6709328,0.0,10,0.5,0.5,3.2137354087829593,-0.1005,-0.03,-0.5,-0.11792559516178464,10,1,100,0.004917553103516534,-10,-1,-100,6409.463141939603,-0.004394912239210155,-0.010669357537516775,0.9999334225617954,255.10713793514384,26.11423714748543,829.359058518814,-38.60598626413771,-118.4512710571289,4381.2578125,True
1599569758.7337654,0.0,10,0.5,0.5,1.7351455307006836,-0.1005,-0.03,-0.5,-0.11557086205853648,10,1,100,-0.05275511522203069,-10,-1,-100,6407.904537934111,-0.0034408519268475882,-0.01065786515891195,0.999937283257441,253.3597768687593,25.954948255392278,832.3635214743744,-38.98252029106868,-114.57911682128906,4381.2578125,True
1599569758.7975957,0.0,10,0.5,0.5,1.0933033256530762,-0.1005,-0.03,-0.5,-0.11002679922873887,10,1,100,-0.06150634620239969,-10,-1,-100,6406.335681034019,-0.002502303679547469,-0.010595666237113558,0.9999407334103791,250.74137208881558,25.712624236922796,832.3875951290819,-39.35909623220758,-110.4134750366211,4381.2578125,True
1599569758.8624215,0.0,10,0.5,0.5,-0.9893248901367189,-0.1005,-0.03,-0.5,-0.09627424433870098,10,1,100,-0.12081278007663637,-10,-1,-100,6403.987036107108,-0.0011179875203026028,-0.010413128955748256,0.9999451569207459,244.87901836785966,25.157342737136126,825.630643721104,-39.924149015713574,-103.61524963378906,4381.2578125,True
1599569758.9232602,0.0,10,0.5,0.5,-0.6302567291259766,-0.1005,-0.03,-0.5,-0.09412623994140065,10,1,100,-0.07966040652417797,-10,-1,-100,6402.354704882717,-0.00024215694408473868,-0.010227072345616003,0.9999476728065585,239.91405786487545,24.678209903342626,817.2373350957774,-40.3010424314773,-98.71678161621094,4381.2578125,True
1599569758.9850955,0.0,10,0.5,0.5,0.17495501708984373,-0.1005,-0.03,-0.5,-0.10057273264297578,10,1,100,-0.03973435865326794,-10,-1,-100,6401.502651340328,0.00018257927205153417,-0.010116315991887555,0.99994881209768,237.23162581990493,24.41650265135501,812.2411923292125,-40.48955419800168,-96.15776062011719,4381.2578125,True
1599569759.0469277,0.0,10,0.5,0.5,-1.678328266143799,-0.1005,-0.03,-0.5,-0.08399577030745953,10,1,100,-0.08487280024294883,-10,-1,-100,6399.878622123157,0.0009709887065217212,-0.009864988668855974,0.9999508683827896,230.91332223021902,23.789223906445095,798.696607790842,-40.866725856891215,-91.12104034423828,4381.2578125,True
1599569759.1097598,0.0,10,0.5,0.5,-2.1821883392333983,-0.1005,-0.03,-0.5,-0.07706591728576778,10,1,100,-0.08952499740578591,-10,-1,-100,6398.256547212135,0.001722089360230727,-0.009573957425865825,0.9999526857544028,224.2769783569105,23.118912128877497,783.6256393335387,-41.24408666018583,-86.2808837890625,4381.2578125,True
1599569759.1715941,0.0,10,0.5,0.5,-2.7483864517211916,-0.1005,-0.03,-0.5,-0.06959155439627265,10,1,100,-0.09205779586449722,-10,-1,-100,6396.6217770517105,0.002420186750606213,-0.009242272869191822,0.99995436050267,217.58462909362316,22.430583995462488,767.9073273725098,-41.62159767393882,-81.51055908203125,4381.2578125,True
1599569759.2344267,0.0,10,0.5,0.5,-3.265042091369629,-0.1005,-0.03,-0.5,-0.06397731196262081,10,1,100,-0.09089835273226152,-10,-1,-100,6394.931343316799,0.0030367717391698037,-0.008890935027430033,0.9999558636718634,221.44814561625282,22.817156289630965,789.3493906051334,-41.999010006359704,-76.8890380859375,4381.2578125,True
1599569759.2972584,0.0,10,0.5,0.5,-4.931857414245606,-0.1005,-0.03,-0.5,-0.03684882058879764,10,1,100,-0.1191290488732498,-10,-1,-100,6392.395693262923,0.0038467525676215584,-0.008326519702818065,0.9999579348974245,233.00945897612476,23.9699964579234,842.8736917193751,-42.5643627734584,-70.48202514648438,4381.2578125,True
1599569759.362085,0.0,10,0.5,0.5,-4.213545288085937,-0.1005,-0.03,-0.5,-0.050057626111460876,10,1,100,-0.08893956363723218,-10,-1,-100,6390.646178853698,0.004301156486971328,-0.007935624765044759,0.9999592621264444,239.27578343885654,24.58028848646755,873.9598940908963,-42.940779109381005,-66.5831298828125,4381.2578125,True
1599569759.425916,0.0,10,0.5,0.5,-4.569027969360352,-0.1005,-0.03,-0.5,-0.04622965098852187,10,1,100,-0.08616986406439886,-10,-1,-100,6388.945491850143,0.004682033682614617,-0.007547940720854914,0.9999605527976937,244.52376992910493,25.081603681036984,901.7212811178081,-43.31683950343585,-62.98455810546875,4381.2578125,True
1599569759.4897444,0.0,10,0.5,0.5,-3.92485945892334,-0.1005,-0.03,-0.5,-0.06375114064043089,10,1,100,-0.06671371348980501,-10,-1,-100,6388.037775747827,0.0048448803667375155,-0.007357557609805373,0.9999611959872494,246.80539684764298,25.29637020912984,914.468179558385,-43.504746339690854,-61.29791259765625,4381.2578125,True
1599569759.5520878,0.0,10,0.5,0.5,-5.099015480041504,-0.1005,-0.03,-0.5,-0.03971815824415911,10,1,100,-0.08190215462012546,-10,-1,-100,6386.288260746049,0.005125578755409391,-0.0069687781882905395,0.9999625815864235,250.76183430785665,25.663653529137697,937.9269804780854,-43.88033522734695,-58.149658203125,4381.2578125,True
1599569759.6149194,0.0,10,0.5,0.5,-6.1444519424438475,-0.1005,-0.03,-0.5,-0.015848224011273684,10,1,100,-0.08644982053091234,-10,-1,-100,6383.686692356714,0.005417221766391436,-0.0064013050340302104,0.9999648378829102,255.40567368752716,26.08561170409691,968.7316632823783,-44.443218598865215,-53.990020751953125,4381.2578125,True
1599569759.6767538,0.0,10,0.5,0.5,-5.6313248519897465,-0.1005,-0.03,-0.5,-0.03164978805052185,10,1,100,-0.07032491640902963,-10,-1,-100,6381.86784037936,0.0055310029729995075,-0.006032448213202947,0.9999665082264844,257.80696183810517,26.299763440714802,986.8803800311681,-44.81818569221633,-51.591705322265625,4381.2578125,True
1599569759.7385888,0.0,10,0.5,0.5,-5.810929168701172,-0.1005,-0.03,-0.5,-0.029291742645605356,10,1,100,-0.06527601292079771,-10,-1,-100,6380.046058701118,0.00558439584341703,-0.005679171181911333,0.9999682802658046,259.77353741436013,26.473343306813778,1003.5220944914879,-45.19295294856041,-49.4931640625,4381.2578125,True
1599569759.7999318,0.0,10,0.5,0.5,-5.952419570922852,-0.1005,-0.03,-0.5,-0.026297222625061532,10,1,100,-0.05969503972097422,-10,-1,-100,6378.2374599502655,0.005578687508813485,-0.005334328049863062,0.9999702111512799,261.39602346561696,26.61579186036029,1018.9675051397791,-45.567542029247576,-47.694000244140625,4381.2578125,True
1599569760.4199657,0.0,10,0.5,0.5,-5.627129776000977,-0.1005,-0.03,-0.5,-0.041836190956248756,10,1,100,-0.05781784478579148,-10,-1,-100,6377.326813216438,0.005553561340892049,-0.005165650319029362,0.9999712365929405,262.1041374949444,26.677951985422393,1026.3325784414071,-45.754775322252314,-46.906585693359375,4381.2578125,True
1599569760.4808235,0.0,10,0.5,0.5,-6.134341735839844,-0.1005,-0.03,-0.5,-0.02246402496900747,10,1,100,-0.05059527179721798,-10,-1,-100,6375.504541919101,0.005462771625065783,-0.004839582949940533,0.9999733679268877,263.3591461956743,26.788537750686604,1040.5087554060171,-46.129128414215714,-45.55609130859375,4381.2578125,True
1599569760.5416422,0.0,10,0.5,0.5,-6.165434585571289,-0.1005,-0.03,-0.5,-0.020179050603848177,10,1,100,-0.04398539796661235,-10,-1,-100,6373.630512630101,0.005318676649438722,-0.004525555517224583,0.9999756152156708,264.45063651574304,26.885662520830383,1054.1340307803582,-46.50333904666131,-44.504364013671875,4381.2578125,True
1599569760.6044724,0.0,10,0.5,0.5,-6.158179748535157,-0.1005,-0.03,-0.5,-0.017338589122528645,10,1,100,-0.03606132954986938,-10,-1,-100,6371.745740588289,0.005114719213114215,-0.004217353718787015,0.9999780265460745,265.43022198473756,26.97400791125771,1067.4001738763195,-46.877415255858864,-43.75103759765625,4381.2578125,True
1599569760.6665766,0.0,10,0.5,0.5,-6.112491516113281,-0.1005,-0.03,-0.5,-0.015423310667345778,10,1,100,-0.02913662313677109,-10,-1,-100,6369.833136688219,0.004865958134945133,-0.0039227864497076255,0.9999804669081788,266.3385384355269,27.057058511072373,1080.461302973015,-47.251362585249474,-43.29595947265625,4381.2578125,True
1599569760.728411,0.0,10,0.5,0.5,-6.013599319458008,-0.1005,-0.03,-0.5,0.0027937290877435156,10,1,100,-0.0025667541968570143,-10,-1,-100,6366.932735968381,0.004398248275548379,-0.0034925110901892755,0.9999842287648298,267.6188652532183,27.175403267981935,1099.865373139692,-47.81204922205557,-43.171661376953125,4381.2578125,True
1599569760.7902446,0.0,10,0.5,0.5,-5.931950729370118,-0.1005,-0.03,-0.5,-0.024503311586850776,10,1,100,-0.02953895814555824,-10,-1,-100,6365.947869867086,0.00421892055788485,-0.0033526668304853613,0.9999854800618108,268.03044742494615,27.213504952834256,1106.3090553676443,-47.998883442831755,-43.278961181640625,4381.2578125,True
1599569760.8535137,0.0,10,0.5,0.5,-5.556821472167968,-0.1005,-0.03,-0.5,0.007277181518117112,10,1,100,0.018209769094845396,-10,-1,-100,6363.030867645051,0.0036229053861947975,-0.0029393936008944082,0.9999891172016933,269.2160082157234,27.322089706725464,1125.5474085577648,-48.55920604205246,-44.0465087890625,4381.2578125,True
1599569760.9164135,0.0,10,0.5,0.5,-5.720487243652343,-0.1005,-0.03,-0.5,-0.01880057225018129,10,1,100,-0.017419822563565973,-10,-1,-100,6362.059673569282,0.003406713424813766,-0.002803573021534717,0.9999902670936123,269.58922153426977,27.355496120403437,1131.904719286025,-48.74592130088011,-44.45074462890625,4381.2578125,True
1599569760.9812403,0.0,10,0.5,0.5,-5.318705032348634,-0.1005,-0.03,-0.5,-0.002480192540667791,10,1,100,0.013820793077269071,-10,-1,-100,6360.116308359313,0.002928149392658513,-0.0025343468594488535,0.9999925014854513,270.28325813516636,27.415592854889976,1144.4510508874296,-49.11926650365154,-45.481597900390625,4381.2578125,True
1599569761.0424757,0.0,10,0.5,0.5,-5.043962844848633,-0.1005,-0.03,-0.5,0.0007445543670258487,10,1,100,0.02000044591741769,-10,-1,-100,6358.111420338973,0.002439322099530709,-0.0022628253594739575,0.9999944646492237,270.8834452906758,27.46369961402768,1156.665469963685,-49.49250310251558,-46.808502197265625,4381.2578125,True
1599569761.1073022,0.0,10,0.5,0.5,-4.179538635253906,-0.1005,-0.03,-0.5,0.01845074146691762,10,1,100,0.06211377864782776,-10,-1,-100,6355.134362584911,0.001614916298448397,-0.0018576612267337228,0.9999969705654692,271.4969058294468,27.500714426891825,1173.8677269670306,-50.05217371808691,-49.35333251953125,4381.2578125,True
1599569761.1714852,0.0,10,0.5,0.5,-4.200198242187501,-0.1005,-0.03,-0.5,0.008354552881592831,10,1,100,0.04387923979761002,-10,-1,-100,6353.128499993356,0.001034723064581563,-0.0015838245674939227,0.9999982104223583,271.63247063974234,27.492882513669212,1184.2113931128881,-50.42518373259865,-51.41888427734375,4381.2578125,True
1599569761.2523825,0.0,10,0.5,0.5,-3.7948394470214843,-0.1005,-0.03,-0.5,0.011879525098384594,10,1,100,0.0522537829549832,-10,-1,-100,6351.123614769778,0.0004350369628945551,-0.0013055112488957526,0.9999990531911617,271.46173736518494,27.44985040048332,1193.247308878328,-50.79813145436219,-53.77923583984375,4381.2578125,True
1599569761.3142169,0.0,10,0.5,0.5,-4.169932312011719,-0.1005,-0.03,-0.5,-0.00013622029616282977,10,1,100,0.02630160612728319,-10,-1,-100,6350.088458624668,0.00013005091638565688,-0.0011643803196386576,0.9999993136523797,271.2345512210584,27.412415163806138,1197.1469423848637,-50.98458908660564,-55.06982421875,4381.2578125,True
1599569761.375094,0.0,10,0.5,0.5,-2.1900837249755867,-0.1005,-0.03,-0.5,0.033056839759420566,10,1,100,0.10115744652676054,-10,-1,-100,6346.986895513022,-0.0008234113956917179,-0.0007368320253815121,0.9999993895359336,269.8407565206799,27.22247447397373,1205.6710036426966,-51.543938443186505,-59.382598876953125,4381.2578125,True
1599569761.4388835,0.0,10,0.5,0.5,-3.3463807373046874,-0.1005,-0.03,-0.5,0.006480915207770912,10,1,100,0.04185284273849224,-10,-1,-100,6345.953205066151,-0.0011463155907130377,-0.000592256234767111,0.999999167596213,269.0988642440524,27.129642739541897,1207.2559209251638,-51.73039356654634,-60.967041015625,4381.2578125,True
1599569761.5017164,0.0,10,0.5,0.5,-2.050530151367188,-0.1005,-0.03,-0.5,0.024329679205504842,10,1,100,0.08395383591776462,-10,-1,-100,6343.884359539719,-0.00181772367313617,-0.0003010716711343636,0.9999983026168079,267.1185131488465,26.892683986737968,1208.1350956674305,-52.10333842349144,-64.35589599609375,4381.2578125,True
1599569761.565056,0.0,10,0.5,0.5,-0.30170883178710994,-0.1005,-0.03,-0.5,0.04389840766254107,10,1,100,0.12709129097187627,-10,-1,-100,6340.719326002407,-0.002815307313049732,0.0001391406254777724,0.9999960273344186,262.69769346225,26.392245710644563,1202.6431023734885,-52.662915905919284,-69.9884033203125,4381.2578125,True
1599569761.6268916,0.0,10,0.5,0.5,0.7359838714599611,-0.1005,-0.03,-0.5,0.04855881089494908,10,1,100,0.14096392781328554,-10,-1,-100,6337.554785060696,-0.003842660029040451,0.0005790257302861393,0.9999924493180459,256.1855878930235,25.69169661541202,1187.1016521460517,-53.222808744381,-76.27871704101562,4381.2578125,True
1599569761.6907196,0.0,10,0.5,0.5,-0.9886188659667967,-0.1005,-0.03,-0.5,0.02055893407460856,10,1,100,0.07569012456584354,-10,-1,-100,6336.457132031908,-0.004177063550944633,0.0007215466066636182,0.9999910157149341,253.48236964891052,25.409053723670986,1179.3111344102815,-53.409533229085525,-78.490478515625,4381.2578125,True
1599569761.755547,0.0,10,0.5,0.5,-0.6536065063476562,-0.1005,-0.03,-0.5,0.022127804024777858,10,1,100,0.07994584766849153,-10,-1,-100,6335.4219804173335,-0.004513740248472075,0.0008626604284027403,0.9999894409272302,250.5388567447864,25.105227226603727,1170.3104891934727,-53.59631097727003,-80.731689453125,4381.2578125,True
1599569761.817866,0.0,10,0.5,0.5,2.283904815673828,-0.1005,-0.03,-0.5,0.05371615748606098,10,1,100,0.15816641816340216,-10,-1,-100,6332.194943641545,-0.005525334562953555,0.001275639550854392,0.999983921581594,242.01824196871712,24.245486077930142,1144.1770087516327,-54.15694707983851,-87.33282470703125,4381.2578125,True
1599569761.8792856,0.0,10,0.5,0.5,1.8326516075134278,-0.1005,-0.03,-0.5,0.04223493313777619,10,1,100,0.1324387735048907,-10,-1,-100,6330.001596550457,-0.0062051143904706734,0.0015441008370820786,0.9999795559450234,249.4927119704446,25.008699940323286,1188.9457028199577,-54.53045798689472,-91.89830780029297,4381.2578125,True
1599569761.943115,0.0,10,0.5,0.5,2.4783367614746092,-0.1005,-0.03,-0.5,0.04299236222532865,10,1,100,0.13810200967101605,-10,-1,-100,6327.807273653336,-0.006868543515766134,0.0017924517143704727,0.9999748047960128,256.67276058281044,25.756820641822337,1232.8786302536653,-54.903529579122846,-96.58451843261719,4381.2578125,True
1599569762.0049505,0.0,10,0.5,0.5,1.6257535934448244,-0.1005,-0.03,-0.5,0.031105700049983153,10,1,100,0.10846865162276356,-10,-1,-100,6326.710113206995,-0.007195904379748665,0.0019074766448258637,0.9999722898625777,260.33784017035816,26.143173106401168,1255.4110760850067,-55.08989072035263,-98.8592529296875,4381.2578125,True
1599569762.066616,0.0,10,0.5,0.5,4.452541603088379,-0.1005,-0.03,-0.5,0.05599348586923937,10,1,100,0.18589904007914368,-10,-1,-100,6323.356620065286,-0.008191624612078006,0.0022358934448056325,0.9999639483834997,269.69570839509714,27.151292413598306,1315.8371392795182,-55.64830479527186,-105.26345825195312,4381.2578125,True
1599569762.1294484,0.0,10,0.5,0.5,2.5765030746459963,-0.1005,-0.03,-0.5,0.03406223952695832,10,1,100,0.1230498790998566,-10,-1,-100,6322.261413464905,-0.008519063988000829,0.0023325081601487103,0.9999609917164025,272.30379355803336,27.438800853659686,1333.704072465076,-55.83423591276571,-107.25042724609375,4381.2578125,True
1599569762.193277,0.0,10,0.5,0.5,5.021452629089356,-0.1005,-0.03,-0.5,0.05247692949011329,10,1,100,0.19869855054610058,-10,-1,-100,6318.906947060139,-0.009498359215337555,0.0025853518284608417,0.9999515473902422,279.94025387648634,28.285030549281156,1386.9420316147314,-56.39143039524202,-112.7620849609375,4381.2578125,True
1599569762.2581043,0.0,10,0.5,0.5,4.375651626586914,-0.1005,-0.03,-0.5,0.041607143235846376,10,1,100,0.17274553934707038,-10,-1,-100,6316.588605638826,-0.010146615636650405,0.0027141696417030954,0.999944838215728,284.0018193871501,28.743778519816146,1417.7592631632156,-56.762449910377484,-116.06217956542969,4381.2578125,True
1599569762.3229327,0.0,10,0.5,0.5,4.6471006965637205,-0.1005,-0.03,-0.5,0.03891099695320723,10,1,100,0.17898812146091753,-10,-1,-100,6314.332277075038,-0.010786959533781053,0.002804825283979864,0.9999378853004536,287.37541566925665,29.129122339004706,1445.4152812620903,-57.13316350769589,-119.0632553100586,4381.2578125,True
1599569762.3877578,0.0,10,0.5,0.5,4.891118293762208,-0.1005,-0.03,-0.5,0.03505353992506992,10,1,100,0.18512400337878793,-10,-1,-100,6312.013448574347,-0.011418862097714248,0.002850277823359936,0.9999307403539124,290.1687794393592,29.450498044582627,1470.384400715839,-57.503608500596556,-121.76573181152344,4381.2578125,True
1599569762.4535887,0.0,10,0.5,0.5,5.106734954833985,-0.1005,-0.03,-0.5,0.0311213013690605,10,1,100,0.19183358482156795,-10,-1,-100,6309.756144616404,-0.012048037785452206,0.0028540437655645,0.9999233466719858,292.48408528936955,29.717441036631985,1493.1289342484577,-57.87381658545368,-124.16998291015625,4381.2578125,True
1599569762.5174108,0.0,10,0.5,0.5,5.280096267700196,-0.1005,-0.03,-0.5,0.025669157582948403,10,1,100,0.19788263732378822,-10,-1,-100,6307.374817291158,-0.012669077339577353,0.0028064674929542573,0.9999158055654359,294.41730533357526,29.939433913772934,1514.0944466796616,-58.24381424990676,-126.27651977539062,4381.2578125,True
1599569762.5812402,0.0,10,0.5,0.5,5.416417022705079,-0.1005,-0.03,-0.5,0.019694103928723276,10,1,100,0.20402488177806033,-10,-1,-100,6305.055990383378,-0.01328362100841259,0.002707750060401197,0.9999081025286849,296.0529286178997,30.12521853794952,1533.6807308563468,-58.61362216687138,-128.0857696533203,4381.2578125,True
1599569762.6460667,0.0,10,0.5,0.5,5.082675155639649,-0.1005,-0.03,-0.5,0.02198965985311325,10,1,100,0.17679094721424007,-10,-1,-100,6303.895844937419,-0.013588883959052944,0.0026380435407146598,0.9999041868894363,296.7832848772485,30.207119654909317,1543.073080710408,-58.79846001924986,-128.8790740966797,4381.2578125,True
