Timestamp,Input Throttle,horizon,dT,dt,Input Roll,Roll P,Roll I,Roll D,Input Pitch,Pitch P,Pitch I,Pitch D,Input Yaw,Yaw P,Yaw I,Yaw D,Altitude,Direction X,Direction Y,Direction Z,Drag X,Drag Y,Drag Z,Vertical Velocity,Roll,Mass,Has Fuel
1599569256.8890822,0.0,10,0.5,0.5,-5.433372390747071,-0.1005,-0.02275,-0.2505,-0.06721007142018016,10,1,100,0.690360511586189,-10,-1,-100,6483.617967173108,-0.06725828837324943,-0.007002560063864837,0.9977110236925584,205.0731353695344,21.49876797982584,-156.76518125897525,9.590824586715051,-35.944580078125,4381.2578125,True
1599569256.9469273,0.0,10,0.5,0.5,-5.556124212646485,-0.1005,-0.02275,-0.2505,-0.06906017307083974,10,1,100,0.6895022527165047,-10,-1,-100,6483.776675146539,-0.06735095692003748,-0.006987417485917608,0.9977048785080851,204.84275322010294,21.477788383575014,-153.51325940644082,9.40081073440532,-35.94293212890625,4381.2578125,True
1599569257.0068016,0.0,10,0.5,0.5,-5.6798802261352535,-0.1005,-0.02275,-0.2505,-0.0677452023266232,10,1,100,0.708061486809203,-10,-1,-100,6484.156591902953,-0.0675426932207602,-0.0069553450287582344,0.9976921407769118,204.38121391332947,21.435614577336043,-147.02553171994327,9.020798420046116,-35.939544677734375,4381.2578125,True
1599569257.0656106,0.0,10,0.5,0.5,-5.690735666656494,-0.1005,-0.02275,-0.2505,-0.018491540589059816,10,1,100,0.7014758537616335,-10,-1,-100,6484.69714067108,-0.0675957271089659,-0.006472104647336629,0.9976918008774275,203.75662705035614,21.37897194001057,-137.3815387385637,8.450806119373137,-36.256591796875,4381.2578125,True
1599569257.1244526,0.0,10,0.5,0.5,-5.695391767120363,-0.1005,-0.02275,-0.2505,-0.015085263545214424,10,1,100,0.6978333268801129,-10,-1,-100,6485.016949946177,-0.0675493751928582,-0.005995945323238996,0.9976979154787962,203.4463236422364,21.351643789042146,-131.04519158475998,8.070816781519898,-36.81793212890625,4381.2578125,True
1599569257.18529,0.0,10,0.5,0.5,-5.657327046966552,-0.1005,-0.02275,-0.2505,0.012329811341713043,10,1,100,0.6893497009982307,-10,-1,-100,6485.335756025277,-0.06736870469274966,-0.0053083943975206814,0.9977140264509371,203.19884541136145,21.330025785115218,-124.76083030645972,7.690822784664741,-37.67169189453125,4381.2578125,True
1599569257.2481232,0.0,10,0.5,0.5,-5.5874926918029795,-0.1005,-0.02275,-0.2505,0.04199295420927732,10,1,100,0.6786883343773804,-10,-1,-100,6485.590082178125,-0.06704629299183168,-0.004408857353164792,0.9977401247684152,202.97234901019905,21.309494062784594,-118.4984166070413,7.310816169042635,-38.819122314453125,4381.2578125,True
1599569257.309957,0.0,10,0.5,0.5,-5.751322697448731,-0.1005,-0.02275,-0.2505,0.009880696962314417,10,1,100,0.6938527717208733,-10,-1,-100,6485.750194532098,-0.06683009879139996,-0.003879017962947133,0.9977568296509801,202.84960544761663,21.297754654108992,-115.3649934211283,7.1208055620944375,-39.50299072265625,4381.2578125,True
1599569257.370794,0.0,10,0.5,0.5,-5.162561807250977,-0.1005,-0.02275,-0.2505,0.16236114306526506,10,1,100,0.6230174514064171,-10,-1,-100,6486.165060689789,-0.06592884651652026,-0.002007633536392485,0.9978223071291725,202.33854567406337,21.245406773892526,-105.90451731204682,6.5507312351249825,-41.9957275390625,4381.2578125,True
1599569257.431632,0.0,10,0.5,0.5,-5.183908184814454,-0.1005,-0.02275,-0.2505,0.13845834375626492,10,1,100,0.6301951924682434,-10,-1,-100,6486.420284086955,-0.06511484314308574,-0.000521848020936995,0.997877640233057,201.76992173702118,21.184650955804802,-99.50451262873526,6.170633567191864,-44.025054931640625,4381.2578125,True
1599569257.4934673,0.0,10,0.5,0.5,-5.402015543365479,-0.1005,-0.02275,-0.2505,0.07918723497886855,10,1,100,0.665924120772406,-10,-1,-100,6486.517858634121,-0.06464045320350759,0.00029051222970160814,0.997908576680394,201.3788208240763,21.14246627563598,-96.2644486881754,5.98056536345978,-45.149932861328125,4381.2578125,True
1599569257.5538144,0.0,10,0.5,0.5,-4.795434968566895,-0.1005,-0.02275,-0.2505,0.18303005597381494,10,1,100,0.5902820211043944,-10,-1,-100,6486.772070060018,-0.06352391402069983,0.001966417128151154,0.9979783793004582,200.3104341149624,21.02689498145461,-89.68783471562053,5.6003799755797985,-47.6212158203125,4381.2578125,True
1599569257.6146514,0.0,10,0.5,0.5,-3.89319541015625,-0.1005,-0.02275,-0.2505,0.32499377129313123,10,1,100,0.4766301578897729,-10,-1,-100,6487.061792470398,-0.06147915877337744,0.004772406416359009,0.9980969578019537,197.74163971845329,20.74943913623768,-79.54577273379127,5.029942431186748,-51.87969970703125,4381.2578125,True
1599569257.6755614,0.0,10,0.5,0.5,-3.7978317039489746,-0.1005,-0.02275,-0.2505,0.2639514013304855,10,1,100,0.5003577571734833,-10,-1,-100,6487.254428944318,-0.05984150811879752,0.006757713541028354,0.9981850165243744,195.1797630893226,20.473825821467987,-72.59165203734402,4.649512905354527,-55.087249755859375,4381.2578125,True
1599569257.7413533,0.0,10,0.5,0.5,-3.9567123397827153,-0.1005,-0.02275,-0.2505,0.1783770959517524,10,1,100,0.5640641336903791,-10,-1,-100,6487.351962762303,-0.05893893296386953,0.007772562861658945,0.9982313306281476,193.58580474729902,20.302883712349935,-69.0591754989692,4.459245982768124,-56.80169677734375,4381.2578125,True
1599569257.8041909,0.0,10,0.5,0.5,-2.3796043014526367,-0.1005,-0.02275,-0.2505,0.4118245699317467,10,1,100,0.3202219851393291,-10,-1,-100,6487.578623507405,-0.05590949096549726,0.01080488609097316,0.9983773751726048,187.2942719155677,19.631486581450677,-58.274010763326096,3.8881862205337874,-62.388916015625,4381.2578125,True
1599569257.8660257,0.0,10,0.5,0.5,-2.286000515747071,-0.1005,-0.02275,-0.2505,0.3369389637869963,10,1,100,0.3684276043570487,-10,-1,-100,6487.770733729121,-0.05360410315416287,0.012866116897680628,0.9984793754309667,181.66171266117723,19.033799636390526,-50.99183828686287,3.507224954527411,-66.48284912109375,4381.2578125,True
1599569257.931039,0.0,10,0.5,0.5,-1.7074756935119628,-0.1005,-0.02275,-0.2505,0.34971671064465204,10,1,100,0.3225697396209586,-10,-1,-100,6487.839791927952,-0.05110362654611049,0.014840419898619884,0.9985830868240602,174.76010289712332,18.30473766660461,-43.728993438134616,3.1260033716560067,-70.87350463867188,4381.2578125,True
1599569257.9998884,0.0,10,0.5,0.5,-1.0907401748657226,-0.1005,-0.02275,-0.2505,0.36247690804903676,10,1,100,0.2757249259322586,-10,-1,-100,6487.969396651955,-0.048418900843661315,0.016734224932366735,0.9986869257965704,166.39920509826914,17.425023736718558,-36.55981406185678,2.7444613748792306,-75.56076049804688,4381.2578125,True
1599569258.066712,0.0,10,0.5,0.5,-0.439171656036377,-0.1005,-0.02275,-0.2505,0.3732898257269809,10,1,100,0.22707388826707786,-10,-1,-100,6488.100468476885,-0.045551877085999386,0.018537127070600855,0.9987899686189837,156.6157067278964,16.39809191842242,-29.62638038153373,2.362629184443676,-80.54470825195312,4381.2578125,True
1599569258.136525,0.0,10,0.5,0.5,-0.6907343727111815,-0.1005,-0.02275,-0.2505,0.2882624031309579,10,1,100,0.3478928478149384,-10,-1,-100,6488.133536309819,-0.04406163054406644,0.019385826104402995,0.9988407092525053,151.16315386141414,15.826457241425537,-26.28478914640766,2.171634263643912,-83.14822387695312,4381.2578125,True
1599569258.2138314,0.0,10,0.5,0.5,1.6329451225280762,-0.1005,-0.02275,-0.2505,0.4600085466741653,10,1,100,-0.01634741339057899,-10,-1,-100,6488.234705143492,-0.03941429387922219,0.02170133988200255,0.9989872698314669,152.04732358833112,15.918618857984184,-19.464157998246844,1.5985069221133656,-91.38017272949219,4381.2578125,True
1599569258.2870817,0.0,10,0.5,0.5,0.6677009120941162,-0.1005,-0.02275,-0.2505,0.30650028086337194,10,1,100,0.2696649246992351,-10,-1,-100,6488.269248660537,-0.037811472366672524,0.02239288187903689,0.9990339590817802,155.91456509001966,16.32321947467455,-17.574799769883832,1.4074625252477282,-94.22150421142578,4381.2578125,True
1599569258.3584003,0.0,10,0.5,0.5,2.097025652503967,-0.1005,-0.02275,-0.2505,0.38024133024983753,10,1,100,0.06056436635001372,-10,-1,-100,6488.273402123479,-0.03447496381245873,0.023675910983978993,0.9991250813132498,164.43114893805728,17.213209235040228,-13.50552045934255,1.0254380542279047,-100.04700469970703,4381.2578125,True
1599569258.4312053,0.0,10,0.5,0.5,2.7664120918273927,-0.1005,-0.02275,-0.2505,0.370927801071173,10,1,100,0.03558417354158361,-10,-1,-100,6488.341051431955,-0.03123774205064804,0.024742252452808547,0.9992056967487418,171.9291050903307,17.996004799926144,-8.862859285994942,0.6435068954957202,-105.82019805908203,4381.2578125,True
1599569259.0854728,0.0,10,0.5,0.5,3.385732259941101,-0.1005,-0.02275,-0.2505,0.36782715180155273,10,1,100,-0.021749638768529422,-10,-1,-100,6488.345241813455,-0.027798779601558406,0.02566803907693782,0.999283933435642,178.57820379930493,18.690948677894664,-3.7427925019122075,0.2616015036329409,-111.38711547851562,4381.2578125,True
1599569259.159278,0.0,10,0.5,0.5,3.048466534233093,-0.1005,-0.02275,-0.2505,0.3197022460152986,10,1,100,0.13682998716772204,-10,-1,-100,6488.318291084142,-0.026139638257591878,0.026058652179920337,0.9993186008267474,181.46635795057367,18.992906224206095,-1.0268726731430289,0.07062602264408824,-114.08163452148438,4381.2578125,True
1599569259.23607,0.0,10,0.5,0.5,5.169107111167908,-0.1005,-0.02275,-0.2505,0.3856112541456151,10,1,100,-0.24755040005991563,-10,-1,-100,6488.354661955731,-0.021161928483640666,0.027000934588105284,0.9994113879250237,187.40365435554898,19.61328881334171,7.546534848718485,-0.5024877199070596,-121.73784637451172,4381.2578125,True
1599569259.3077085,0.0,10,0.5,0.5,5.030044325256348,-0.1005,-0.02275,-0.2505,0.3386073105096213,10,1,100,-0.1188938605139333,-10,-1,-100,6488.298368705669,-0.017833562410523467,0.027419191367319396,0.9994649328498285,190.25031580277093,19.91064290252502,13.49079569994782,-0.88472262690484,-126.47602844238281,4381.2578125,True
1599569259.375528,0.0,10,0.5,0.5,4.751502341842651,-0.1005,-0.02275,-0.2505,0.3194772115904372,10,1,100,0.03963200673903844,-10,-1,-100,6488.268522568396,-0.016276724172201336,0.02761580120694423,0.999486085833075,191.14380840861466,20.003844303641475,16.483995470880174,-1.075885634854814,-128.73397827148438,4381.2578125,True
1599569259.4443433,0.0,10,0.5,0.5,5.062161426925659,-0.1005,-0.02275,-0.2505,0.31889899152108286,10,1,100,0.022119324703072263,-10,-1,-100,6488.24161349854,-0.014728824257866795,0.027781027538576003,0.999505515865161,191.7267252184877,20.064520762700667,19.47393387622196,-1.2670781477454205,-130.91815185546875,4381.2578125,True
1599569259.512162,0.0,10,0.5,0.5,6.079354202651977,-0.1005,-0.02275,-0.2505,0.3276235586034466,10,1,100,-0.16567519353537372,-10,-1,-100,6488.182929111295,-0.011641085812018795,0.0280029155395044,0.9995400551465682,192.1108201733427,20.10393078543149,25.4066718931058,-1.6495450423019986,-135.0653076171875,4381.2578125,True
1599569259.5799813,0.0,10,0.5,0.5,7.1290110473632815,-0.1005,-0.02275,-0.2505,0.3192409503771627,10,1,100,-0.3488472102076371,-10,-1,-100,6488.033415510552,-0.0071940990806520395,0.028122697669511722,0.9995785906141683,191.04759102260826,19.990852443517564,34.063756903183716,-2.2234137748654232,-140.73236083984375,4381.2578125,True
1599569259.6468022,0.0,10,0.5,0.5,6.42638074131012,-0.1005,-0.02275,-0.2505,0.30771084180264063,10,1,100,-0.06382918876207389,-10,-1,-100,6488.003117768676,-0.005770290768265582,0.028121562422667747,0.9995878558042599,190.3614648579853,19.918240776415374,36.86490747141472,-2.4147367378034508,-142.47354125976562,4381.2578125,True
1599569259.7126262,0.0,10,0.5,0.5,7.230902439498902,-0.1005,-0.02275,-0.2505,0.30774970737066526,10,1,100,-0.22385419854430716,-10,-1,-100,6487.882965273107,-0.003047241916297767,0.028116842202120094,0.9995999987501425,188.62238082257736,19.73419506340346,42.32360367543309,-2.7974152881018064,-145.7332763671875,4381.2578125,True
1599569259.7804446,0.0,10,0.5,0.5,8.02635349636078,-0.1005,-0.02275,-0.2505,0.30116562172622274,10,1,100,-0.37738597613494296,-10,-1,-100,6487.732557203504,0.0007983727452838906,0.028049627959627923,0.9996062129520236,185.38377804371058,19.390859140629797,50.14522485459487,-3.3714844587976938,-150.0672149658203,4381.2578125,True
1599569259.8482637,0.0,10,0.5,0.5,7.4838968729019175,-0.1005,-0.02275,-0.2505,0.3014258729626081,10,1,100,-0.13077889897255668,-10,-1,-100,6487.640762330149,0.0020265061431120287,0.027988724942345188,0.9996061847292431,184.26779386441643,19.27220014643413,52.67674759950831,-3.5628501868066196,-151.36407470703125,4381.2578125,True
1599569259.9131262,0.0,10,0.5,0.5,8.452480911445619,-0.1005,-0.02275,-0.2505,0.3020300051171296,10,1,100,-0.3850078140086334,-10,-1,-100,6487.428386495332,0.005428557419283121,0.027937096061890692,0.9995949426782701,180.8581989537513,18.90858086924379,60.04829447782255,-4.136975814799565,-154.80746459960938,4381.2578125,True
1599569259.9789147,0.0,10,0.5,0.5,8.015845198059083,-0.1005,-0.02275,-0.2505,0.30738222176991614,10,1,100,-0.16401549260807868,-10,-1,-100,6487.336606171331,0.0064881370340673225,0.027937966175163042,0.9995886024379342,179.75283432888784,18.79026965273218,62.44756199670108,-4.328363441410888,-155.80661010742188,4381.2578125,True
1599569260.0447383,0.0,10,0.5,0.5,8.728413915634155,-0.1005,-0.02275,-0.2505,0.3034195204701402,10,1,100,-0.3898000593080621,-10,-1,-100,6487.059324772446,0.009481867563466818,0.027902261016496448,0.9995656846939455,176.73919987885012,18.465987413660812,69.56421571241404,-4.9025809346351,-158.35968017578125,4381.2578125,True
1599569260.1106014,0.0,10,0.5,0.5,8.623147180557252,-0.1005,-0.02275,-0.2505,0.31188258020933024,10,1,100,-0.2914254950402962,-10,-1,-100,6486.813284936943,0.01128570964981788,0.027946478270056224,0.9995457103654647,175.02762945966717,18.280156158030106,74.28387394492098,-5.285452445985606,-159.6898193359375,4381.2578125,True
1599569260.1752174,0.0,10,0.5,0.5,8.71784292793274,-0.1005,-0.02275,-0.2505,0.3187306127172309,10,1,100,-0.2955214595981428,-10,-1,-100,6486.628774706274,0.012939152557110464,0.02804878020451741,0.9995228082740996,173.65582013545662,18.129329189726267,79.05594844223675,-5.668383122574176,-160.722412109375,4381.2578125,True
1599569260.2400427,0.0,10,0.5,0.5,8.77548536262512,-0.1005,-0.02275,-0.2505,0.3275463633160216,10,1,100,-0.2976025840112017,-10,-1,-100,6486.382260050159,0.014438856114432323,0.028221883455230207,0.9994973960588123,172.66203238417395,18.017541159668202,83.93068709994878,-6.051380423926378,-161.457275390625,4381.2578125,True
1599569260.3033812,0.0,10,0.5,0.5,8.728411490249634,-0.1005,-0.02275,-0.2505,0.32114128272434633,10,1,100,-0.2264078433084974,-10,-1,-100,6486.227998774499,0.01513533174634117,0.028320931872512323,0.9994842902971515,172.32834824373978,17.978525365395555,86.4283147416507,-6.24290549174969,-161.71328735351562,4381.2578125,True
1599569260.3662124,0.0,10,0.5,0.5,8.820823376846315,-0.1005,-0.02275,-0.2505,0.35695520575978984,10,1,100,-0.36241672481244275,-10,-1,-100,6485.825277848751,0.016985930677644527,0.028736375761772966,0.9994426941386345,172.0052934498681,17.931530046677366,94.23677627985055,-6.817587285650284,-162.03457641601562,4381.2578125,True
1599569260.428048,0.0,10,0.5,0.5,8.762788427352906,-0.1005,-0.02275,-0.2505,0.33430496602928267,10,1,100,-0.23868835797024707,-10,-1,-100,6485.734007470775,0.017525278032451307,0.02890757754213289,0.9994284449576822,172.13360294394445,17.940216967303225,96.96795220754,-7.009182348072336,-161.9928741455078,4381.2578125,True
1599569260.490879,0.0,10,0.5,0.5,8.692943738937378,-0.1005,-0.02275,-0.2505,0.3569320347267134,10,1,100,-0.29375785413048505,-10,-1,-100,6485.423536359565,0.018501019315289483,0.02926813619463446,0.9994003644626049,172.751943091827,17.99482648485764,102.66039288389219,-7.3924198282567115,-161.68682861328125,4381.2578125,True
1599569260.5547092,0.0,10,0.5,0.5,8.580958498764039,-0.1005,-0.02275,-0.2505,0.3729485015256489,10,1,100,-0.28426619400849285,-10,-1,-100,6485.113064966048,0.019286792195695006,0.02974035793030595,0.999371567915046,173.83884984966863,18.09752923497141,108.6884753984185,-7.775712979707777,-161.08245849609375,4381.2578125,True
1599569260.6185389,0.0,10,0.5,0.5,8.430452463150026,-0.1005,-0.02275,-0.2505,0.3779959752090148,10,1,100,-0.27925975353890836,-10,-1,-100,6484.803080153302,0.01994301968745252,0.030213897212702977,0.9993444833394368,175.38301650996428,18.24699688422501,115.0884551750799,-8.159050062308236,-160.18167114257812,4381.2578125,True
1599569260.683365,0.0,10,0.5,0.5,7.9959416004180905,-0.1005,-0.02275,-0.2505,0.4242479421380638,10,1,100,-0.2855304494244262,-10,-1,-100,6484.274863703875,0.02058436474923371,0.03106279086783932,0.9993054522774162,178.4670238827458,18.549280721899752,125.4160674057036,-8.73410667416636,-158.27252197265625,4381.2578125,True
1599569260.7452002,0.0,10,0.5,0.5,7.896963591384889,-0.1005,-0.02275,-0.2505,0.4072862483965094,10,1,100,-0.24617230260203876,-10,-1,-100,6483.90139255079,0.020799511200480573,0.031677441947720646,0.9992817020267458,180.96168777968504,18.795156978684133,132.7882805177204,-9.117487279056448,-156.6285858154297,4381.2578125,True
1599569260.8110237,0.0,10,0.5,0.5,7.620623423004149,-0.1005,-0.02275,-0.2505,0.41762614842915896,10,1,100,-0.2286930561728642,-10,-1,-100,6483.529380029184,0.02082754773266644,0.03232682296274806,0.9992603213240174,183.72708434760708,19.068230167978992,140.52710760035,-9.500854045284242,-154.68789672851562,4381.2578125,True
1599569260.8778455,0.0,10,0.5,0.5,7.713394511413575,-0.1005,-0.02275,-0.2505,0.3899665777476137,10,1,100,-0.22026999681525938,-10,-1,-100,6483.311144968029,0.020769290953970315,0.032661829567706,0.9992506399510381,185.18496244905694,19.212277587547288,144.52135129055168,-9.69252637413084,-153.60629272460938,4381.2578125,True
1599569260.9406784,0.0,10,0.5,0.5,7.129251207733155,-0.1005,-0.02275,-0.2505,0.4309917697920687,10,1,100,-0.20007625728041528,-10,-1,-100,6482.93765652203,0.020526995854984766,0.03333530100342419,0.9992334062410948,188.18962150811984,19.509179009891714,152.72136967381147,-10.075838240347819,-151.22103881835938,4381.2578125,True
1599569261.0055044,0.0,10,0.5,0.5,6.761770838165284,-0.1005,-0.02275,-0.2505,0.4382542537855342,10,1,100,-0.17697873691901506,-10,-1,-100,6482.502147557912,0.02009184861252277,0.03400901182753504,0.9992195478141159,191.22176767959877,19.80870487752156,161.13598728006303,-10.45909258480831,-148.539794921875,4381.2578125,True
1599569261.0683358,0.0,10,0.5,0.5,6.3577769821166985,-0.1005,-0.02275,-0.2505,0.4449981901532394,10,1,100,-0.15378649244333198,-10,-1,-100,6482.065653039259,0.01948259806238304,0.03467799142000971,0.9992086195003589,194.15672534813854,20.098592726753793,169.65884048905235,-10.842272130584874,-145.562744140625,4381.2578125,True
1599569261.1291752,0.0,10,0.5,0.5,5.917639052200317,-0.1005,-0.02275,-0.2505,0.44772085992958727,10,1,100,-0.12665584464872975,-10,-1,-100,6481.629637166159,0.01868031229136878,0.035305660398519054,0.9992019597041037,196.853924054482,20.36519788566169,178.15366771861645,-11.225363105309063,-142.29063415527344,4381.2578125,True
1599569261.189556,0.0,10,0.5,0.5,5.4411641456604,-0.1005,-0.02275,-0.2505,0.449398894380007,10,1,100,-0.09975115769700431,-10,-1,-100,6481.19263448345,0.017706210533634605,0.035886034761073285,0.9991990205247728,199.15493508494677,20.593188024298236,186.45003560339097,-11.60835773072517,-138.72364807128906,4381.2578125,True
1599569261.2503579,0.0,10,0.5,0.5,4.212115921401978,-0.1005,-0.02275,-0.2505,0.4725917948031928,10,1,100,-0.0014395521385834331,-10,-1,-100,6480.475341692334,0.01592835850485613,0.036618905388305395,0.9992023534617516,201.49144514874473,20.82678495462108,198.0761065708209,-12.182670448939916,-132.8213348388672,4381.2578125,True
1599569261.3121922,0.0,10,0.5,0.5,4.118328309631347,-0.1005,-0.02275,-0.2505,0.44066187305395355,10,1,100,-0.026939701683611816,-10,-1,-100,6479.975322678802,0.014547598621087406,0.03698905666245459,0.9992097763040461,202.03944620067145,20.884324551533137,204.93037260636018,-12.565438392614844,-128.51913452148438,4381.2578125,True
1599569261.372032,0.0,10,0.5,0.5,4.334672739410401,-0.1005,-0.02275,-0.2505,0.42004314466034093,10,1,100,-0.08245173611420117,-10,-1,-100,6479.694547659135,0.013802505190783148,0.03713272732101682,0.9992150176074024,201.93506496337326,20.876131794344747,207.98268239565817,-12.756797897026846,-126.25797271728516,4381.2578125,True
1599569261.4338953,0.0,10,0.5,0.5,3.1676454553604128,-0.1005,-0.02275,-0.2505,0.42396027183231455,10,1,100,0.015496154499423348,-10,-1,-100,6479.19548726629,0.012241073072209688,0.03729398790729743,0.9992293603552747,201.23932402223565,20.813866528367498,213.56539099947,-13.139486896491567,-121.51622009277344,4381.2578125,True
1599569261.496699,0.0,10,0.5,0.5,2.5126892484664918,-0.1005,-0.02275,-0.2505,0.41281159928033906,10,1,100,0.04512902595185489,-10,-1,-100,6478.633427847293,0.010560005473630308,0.03733472126713044,0.9992470189459174,199.56462011784254,20.65604670952742,218.04219236151258,-13.52216738145654,-116.4811782836914,4381.2578125,True
1599569261.5595305,0.0,10,0.5,0.5,1.819383913803101,-0.1005,-0.02275,-0.2505,0.39776682025726484,10,1,100,0.07492513326118486,-10,-1,-100,6478.071847076528,0.008770169668000908,0.037230732792496654,0.9992682105719807,196.40933604486648,20.349485884651813,220.75855636548283,-13.904891299363047,-111.15319061279297,4381.2578125,True
1599569261.619371,0.0,10,0.5,0.5,1.090116865348816,-0.1005,-0.02275,-0.2505,0.37751635161011216,10,1,100,0.09787649562773049,-10,-1,-100,6477.508304641466,0.006945085483357387,0.03694856134441085,0.9992930349012781,191.59077247340048,19.872913152386474,221.36510577416087,-14.287714956058554,-105.53275299072266,4381.2578125,True
1599569262.1553578,0.0,10,0.5,0.5,0.324624645614624,-0.1005,-0.02275,-0.2505,0.35770507198752477,10,1,100,0.12254576916493076,-10,-1,-100,6476.946707801544,0.005073603522551607,0.036509266986384896,0.9993204350814672,186.01496548613878,19.317379675982313,220.78079688309379,-14.670679813479921,-99.61944580078125,4381.2578125,True
1599569262.2062871,0.0,10,0.5,0.5,-0.47694078025817865,-0.1005,-0.02275,-0.2505,0.33534797642700553,10,1,100,0.14355876059586659,-10,-1,-100,6476.320163130993,0.003194328176574056,0.03590499735984169,0.9993501025326862,178.44796841776378,18.551093347670772,217.43024719098884,-15.053822160798472,-93.41338348388672,4381.2578125,True
1599569262.2637603,0.0,10,0.5,0.5,0.9664820848464966,-0.1005,-0.02275,-0.2505,0.39583487277745816,10,1,100,-0.042820175590409085,-10,-1,-100,6476.320163130993,0.003194328176574056,0.03590499735984169,0.9993501025326862,178.44796841776378,18.551093347670772,217.43024719098884,-15.053822160798472,-93.41338348388672,4381.2578125,True
1599569262.3225675,0.0,10,0.5,0.5,-1.4071594741821287,-0.1005,-0.02275,-0.2505,0.31214664707634227,10,1,100,0.16261028735275276,-10,-1,-100,6475.758555388427,0.0013399711337790034,0.03514417806928721,0.9993813542513164,169.24084517766235,17.60617387936448,211.56185667095346,-15.437152395911305,-86.94454956054688,4381.2578125,True
1599569262.3814108,0.0,10,0.5,0.5,-4.473849293899536,-0.1005,-0.02275,-0.2505,0.16739154654222746,10,1,100,0.3768789391309719,-10,-1,-100,6474.4449014184065,-0.0022804426600447846,0.033137909370581205,0.99944818702313,180.0787099701147,18.726806434915083,236.51488604943484,-16.20377629496207,-73.88824462890625,4381.2578125,True
1599569262.4402537,0.0,10,0.5,0.5,-2.483704987716675,-0.1005,-0.02275,-0.2505,0.3048183036838262,10,1,100,0.10848544217890088,-10,-1,-100,6474.1631171982735,-0.0031164888264283716,0.03256686393421925,0.9994647001624843,185.75620643038806,19.30998824164937,246.91439683178004,-16.3952651372086,-70.59429931640625,4381.2578125,True
1599569262.5010908,0.0,10,0.5,0.5,-4.0363925180435185,-0.1005,-0.02275,-0.2505,0.2300816657761342,10,1,100,0.20314891281978847,-10,-1,-100,6473.475528261508,-0.004721726898042237,0.03137245852326282,0.9994966103700935,195.6222578568298,20.317716029685275,266.22663084614874,-16.777992542467366,-64.1806640625,4381.2578125,True
1599569262.562927,0.0,10,0.5,0.5,-3.6491207944869997,-0.1005,-0.02275,-0.2505,0.28132007241473905,10,1,100,0.12793293555342958,-10,-1,-100,6473.130759718129,-0.005481831897114986,0.030757822327638868,0.9995118337892318,200.044523364373,20.767728236256154,275.41379695865396,-16.969229593489047,-61.078369140625,4381.2578125,True
1599569262.623799,0.0,10,0.5,0.5,-6.10837419090271,-0.1005,-0.02275,-0.2505,0.11447545862127942,10,1,100,0.29312216141974434,-10,-1,-100,6472.099386288784,-0.007659973188356033,0.028688271932530634,0.9995590567166498,209.96016762560913,21.773185631389687,299.0432180144421,-17.54248353241168,-52.217010498046875,4381.2578125,True
1599569262.6845999,0.0,10,0.5,0.5,-5.007257513236999,-0.1005,-0.02275,-0.2505,0.24462273664370698,10,1,100,0.1487767736326616,-10,-1,-100,6471.755109553342,-0.008312934343368635,0.02799778542887246,0.9995734185809872,212.22259602060828,22.002683891742983,305.6281859570226,-17.73343889249259,-49.411956787109375,4381.2578125,True
1599569262.746436,0.0,10,0.5,0.5,-7.228644208145142,-0.1005,-0.02275,-0.2505,0.0772451593492181,10,1,100,0.28301798842331305,-10,-1,-100,6470.660760203493,-0.010113039146179899,0.025856593155520163,0.9996145072124643,216.74106966576446,22.46763329633914,322.445351881718,-18.306039800165326,-41.445068359375,4381.2578125,True
1599569262.8102646,0.0,10,0.5,0.5,-6.245184779739381,-0.1005,-0.02275,-0.2505,0.21412923299813344,10,1,100,0.16454241013426263,-10,-1,-100,6470.254965451313,-0.010658641307318107,0.025164139643672638,0.9996265099733378,217.6540356940762,22.56545552102585,327.2584644613945,-18.49684645944999,-38.938232421875,4381.2578125,True
1599569262.8730996,0.0,10,0.5,0.5,-7.421985743522644,-0.1005,-0.02275,-0.2505,0.12010313355132615,10,1,100,0.22152974203858528,-10,-1,-100,6469.503925442812,-0.011660116317043145,0.023689618144945884,0.9996513610652564,218.45561016464154,22.661374852616206,335.40685838389885,-18.878419679229278,-34.1495361328125,4381.2578125,True
1599569262.9349313,0.0,10,0.5,0.5,-7.934086081695557,-0.1005,-0.02275,-0.2505,0.11815617554345964,10,1,100,0.2245326725485755,-10,-1,-100,6468.752892808639,-0.012584343471889803,0.022342549327136318,0.9996711683293392,218.08650939082398,22.64353403226498,341.7843880028383,-19.259987468730806,-29.6571044921875,4381.2578125,True
1599569262.995768,0.0,10,0.5,0.5,-9.108024089050295,-0.1005,-0.02275,-0.2505,0.025661218596292418,10,1,100,0.2636901267350321,-10,-1,-100,6467.596080390154,-0.013767868364713035,0.0202887159102826,0.9996993617120117,215.82965140048273,22.450400049757135,348.58422666970466,-19.832423946674666,-23.47772216796875,4381.2578125,True
1599569263.0576031,0.0,10,0.5,0.5,-8.990519306945801,-0.1005,-0.02275,-0.2505,0.08889678197670461,10,1,100,0.22367456728228113,-10,-1,-100,6466.783050557482,-0.014469579157977629,0.019008144465201424,0.9997146201406586,213.50250302644835,22.240310695037927,351.6628654358075,-20.21414002954869,-19.729156494140625,4381.2578125,True
1599569263.1174834,0.0,10,0.5,0.5,-8.786002841949463,-0.1005,-0.02275,-0.2505,0.1471800118494814,10,1,100,0.19004813837563203,-10,-1,-100,6466.375317360042,-0.014791482261492678,0.018386162258942886,0.9997215417754565,212.1636670920135,22.11754830490556,352.8610990864085,-20.40503034221763,-17.96624755859375,4381.2578125,True
1599569263.1783082,0.0,10,0.5,0.5,-10.14981674118042,-0.1005,-0.02275,-0.2505,0.017275775040679314,10,1,100,0.25966934585821416,-10,-1,-100,6465.093045873917,-0.01570788719147215,0.01665158200614085,0.99973795921565,207.73650813742543,21.705911492698597,355.5201396612201,-20.977833148163512,-13.12213134765625,4381.2578125,True
1599569263.2401154,0.0,10,0.5,0.5,-10.048849616241457,-0.1005,-0.02275,-0.2505,0.07033352527662742,10,1,100,0.2274888958500012,-10,-1,-100,6464.279546388425,-0.01623913662292941,0.015569857906030798,0.9997469029542067,205.13065366664597,21.465460526835578,357.678144855939,-21.359797594156888,-10.26348876953125,4381.2578125,True
1599569263.3019502,0.0,10,0.5,0.5,-9.890873071289063,-0.1005,-0.02275,-0.2505,0.12064937510719131,10,1,100,0.20239784716395215,-10,-1,-100,6463.8122517741285,-0.016486190969440498,0.015055815008050878,0.9997507329038388,203.80954154071478,21.342322364177317,358.6678857167257,-21.550803264353256,-8.945343017578125,4381.2578125,True
1599569263.363862,0.0,10,0.5,0.5,-10.500299989318847,-0.1005,-0.02275,-0.2505,0.06800945832282854,10,1,100,0.23543102275758498,-10,-1,-100,6462.935283474042,-0.017003657192914447,0.014121724012230217,0.999755696434378,201.21170709937246,21.09823711958936,360.6098100073328,-21.93285161332651,-6.5306396484375,4381.2578125,True
1599569263.4266944,0.0,10,0.5,0.5,-10.718344129943848,-0.1005,-0.02275,-0.2505,0.06349068382986188,10,1,100,0.2347808907974906,-10,-1,-100,6462.059296679567,-0.0174619065436656,0.013242138674405638,0.999759834951969,199.26934540149966,20.91937094377751,363.5933541776266,-22.314928844812414,-4.41241455078125,4381.2578125,True
1599569263.4895263,0.0,10,0.5,0.5,-11.44155940246582,-0.1005,-0.02275,-0.2505,-0.01592828830901355,10,1,100,0.28285890366663635,-10,-1,-100,6460.24336901994,-0.01830938492021675,0.011731363166911032,0.9997635428150444,196.0587704682638,20.622052280806837,370.4942442256117,-23.079092775725037,-1.06402587890625,4381.2578125,True
1599569263.5553505,0.0,10,0.5,0.5,-10.906965962219239,-0.1005,-0.02275,-0.2505,0.09813003653374677,10,1,100,0.22109686483053914,-10,-1,-100,6459.775106771151,-0.01851230193802312,0.011405695890466515,0.9997635744405822,195.44020759290567,20.56508212755033,372.51248240877766,-23.270123396393018,-0.411865234375,4381.2578125,True
1599569263.6152272,0.0,10,0.5,0.5,-11.01308665008545,-0.1005,-0.02275,-0.2505,0.09607439205081708,10,1,100,0.22328964973078436,-10,-1,-100,6459.305381336948,-0.018711317309243743,0.011100889646978203,0.9997633004134521,194.9101032788059,20.51672392039225,374.6834487761076,-23.46114608881131,0.166351318359375,4381.2578125,True
1599569263.6770284,0.0,10,0.5,0.5,-11.25020710220337,-0.1005,-0.02275,-0.2505,0.06802316200086164,10,1,100,0.25083248369551814,-10,-1,-100,6458.366910010111,-0.019138135729174135,0.010577134449046783,0.9997608994092829,194.14085497858372,20.44881945696075,379.55064642113035,-23.843159697836697,1.101318359375,4381.2578125,True
1599569263.736794,0.0,10,0.5,0.5,-11.360935955810547,-0.1005,-0.02275,-0.2505,0.04755181951330589,10,1,100,0.2708627552810243,-10,-1,-100,6456.896219985792,-0.019704001710278005,0.009922554801055125,0.9997566179940104,193.7774987973785,20.426848663600225,388.3619228735889,-24.41607675389211,1.94903564453125,4381.2578125,True
1599569263.7986307,0.0,10,0.5,0.5,-11.24122491455078,-0.1005,-0.02275,-0.2505,0.09333080785686029,10,1,100,0.23577401729796993,-10,-1,-100,6456.427475847187,-0.019894970875573043,0.009751349203693102,0.9997545205311991,193.8831357889563,20.442859322023672,391.75468514867396,-24.607015122380673,2.083892822265625,4381.2578125,True
1599569263.8614593,0.0,10,0.5,0.5,-11.259004181671143,-0.1005,-0.02275,-0.2505,0.08024892857627597,10,1,100,0.25925110790750494,-10,-1,-100,6455.425535839633,-0.02027820086439694,0.009483054515179085,0.9997494017236347,194.439562142815,20.510973053868067,399.26752196990617,-24.988831890819643,2.132232666015625,4381.2578125,True
1599569263.9242957,0.0,10,0.5,0.5,-10.998134379577637,-0.1005,-0.02275,-0.2505,0.0768603464517007,10,1,100,0.302058318890212,-10,-1,-100,6453.359164058114,-0.021012076350223757,0.009213878418480068,0.9997367638993486,196.94242960596335,20.79532419751906,417.38188865649545,-25.752183379050066,1.343170166015625,4381.2578125,True
1599569263.9871242,0.0,10,0.5,0.5,-11.219200903320314,-0.1005,-0.02275,-0.2505,0.10319376246264525,10,1,100,0.22912335884560853,-10,-1,-100,6453.359164058114,-0.021012076350223757,0.009213878418480068,0.9997367638993486,196.94242960596335,20.79532419751906,417.38188865649545,-25.752183379050066,1.343170166015625,4381.2578125,True
1599569264.049958,0.0,10,0.5,0.5,-10.943324849700929,-0.1005,-0.02275,-0.2505,0.10387127466198082,10,1,100,0.26858108771919276,-10,-1,-100,6452.35820777656,-0.021367138958931515,0.00922449929810471,0.9997291403102188,198.87492648906874,21.011706239414323,428.0454957738043,-26.133693395226725,0.50616455078125,4381.2578125,True
1599569264.1107943,0.0,10,0.5,0.5,-10.766985091400146,-0.1005,-0.02275,-0.2505,0.11579032838361014,10,1,100,0.27112400072049603,-10,-1,-100,6451.293776961393,-0.021709490328300173,0.009346162076484015,0.9997206346195548,201.2274917753799,21.275048494429093,439.7660372562234,-26.51507448181125,-0.625457763671875,4381.2578125,True
1599569264.1726322,0.0,10,0.5,0.5,-9.946545471191405,-0.1005,-0.02275,-0.2505,0.15781003778201766,10,1,100,0.3046968232350837,-10,-1,-100,6449.103885325254,-0.022322835318396947,0.009840930325078386,0.9997023792677923,207.0399914049833,21.929477344613577,466.20047024098017,-27.27738613602611,-3.773345947265625,4381.2578125,True
1599569264.2364485,0.0,10,0.5,0.5,-10.727444092559814,-0.1005,-0.02275,-0.2505,0.1081767363660418,10,1,100,0.24374337756344366,-10,-1,-100,6449.103885325254,-0.022322835318396947,0.009840930325078386,0.9997023792677923,207.0399914049833,21.929477344613577,466.20047024098017,-27.27738613602611,-3.773345947265625,4381.2578125,True
1599569264.2983088,0.0,10,0.5,0.5,-10.010986194610597,-0.1005,-0.02275,-0.2505,0.15188859271001226,10,1,100,0.27316706646328975,-10,-1,-100,6448.039459178923,-0.0225870402011145,0.010239456254861662,0.9996924422794031,210.39296668301063,22.310521203300112,480.74259293252607,-27.658280760903786,-5.78900146484375,4381.2578125,True
1599569264.3571308,0.0,10,0.5,0.5,-9.245253176116943,-0.1005,-0.02275,-0.2505,0.19836902984131202,10,1,100,0.2812693756846806,-10,-1,-100,6446.317820829572,-0.02289774844698679,0.011024608963307534,0.99967702339969,215.90782049981576,22.94279578405831,504.1222530036417,-28.22924039362274,-9.36444091796875,4381.2578125,True
1599569264.4179704,0.0,10,0.5,0.5,-9.149366304779054,-0.1005,-0.02275,-0.2505,0.1900800700822428,10,1,100,0.2670350856474119,-10,-1,-100,6445.190408386174,-0.02304790444586215,0.01166202810575565,0.9996663399360383,220.1936483304652,23.435239025619193,521.4649247001726,-28.609586626582658,-12.115997314453125,4381.2578125,True
1599569264.4778035,0.0,10,0.5,0.5,-8.737258927154542,-0.1005,-0.02275,-0.2505,0.20689331406918385,10,1,100,0.26066908056282895,-10,-1,-100,6444.062508251402,-0.02312367082264328,0.012392610745224254,0.9996558002865804,224.49024004730384,23.933271201995233,539.1224280651202,-28.989673900481815,-15.161773681640625,4381.2578125,True
1599569264.54463,0.0,10,0.5,0.5,-8.288543328094484,-0.1005,-0.02275,-0.2505,0.22328563163109516,10,1,100,0.253885039452705,-10,-1,-100,6442.875036789919,-0.0231282894551175,0.013203152798731228,0.9996453165913666,229.1595403983575,24.47449814182623,557.9748742613901,-29.369480927881195,-18.50177001953125,4381.2578125,True
1599569265.076983,0.0,10,0.5,0.5,-8.455167771911622,-0.1005,-0.02275,-0.2505,0.19042788379785333,10,1,100,0.25071041543298367,-10,-1,-100,6442.280813208083,-0.023101704163455784,0.013637675799453323,0.999640097766958,231.4627003184046,24.742581030897107,567.4403169658632,-29.55927502359787,-20.2821044921875,4381.2578125,True
1599569265.1278477,0.0,10,0.5,0.5,-8.20125295639038,-0.1005,-0.02275,-0.2505,0.19698890582139392,10,1,100,0.2478089820108566,-10,-1,-100,6441.6861003071535,-0.023049259387368314,0.01408832072997744,0.9996350588393261,233.6936488545757,25.003163754893784,576.8037746256995,-29.748996021960792,-22.13592529296875,4381.2578125,True
1599569265.1836984,0.0,10,0.5,0.5,-7.2352967369079595,-0.1005,-0.02275,-0.2505,0.2567603106568463,10,1,100,0.23367468928803703,-10,-1,-100,6440.493256182177,-0.022871559547600947,0.015036952691292682,0.9996253207165274,237.85427119488384,25.491538553635525,594.9978919331334,-30.128222396989862,-26.064208984375,4381.2578125,True
1599569265.240555,0.0,10,0.5,0.5,-7.433354302978516,-0.1005,-0.02275,-0.2505,0.21724981776552543,10,1,100,0.23839653594012974,-10,-1,-100,6439.903425921337,-0.02275188369081391,0.015534985638371978,0.9996204359704415,239.7389039043595,25.713827687856757,603.7049382983563,-30.317731774675813,-28.138580322265625,4381.2578125,True
1599569265.3013608,0.0,10,0.5,0.5,-6.363942208862305,-0.1005,-0.02275,-0.2505,0.28128241487743444,10,1,100,0.2151166147477933,-10,-1,-100,6438.6485681989,-0.022431061766193167,0.016564680968267517,0.999611153805549,243.06981949143068,26.107786283802575,620.1868561716826,-30.696559181025833,-32.507843017578125,4381.2578125,True
1599569265.3612406,0.0,10,0.5,0.5,-5.75618911743164,-0.1005,-0.02275,-0.2505,0.29421745942889255,10,1,100,0.19825008959720974,-10,-1,-100,6437.396149965818,-0.021985975036580098,0.017612246445328363,0.9996031340871436,245.83036897069005,26.43350408559493,635.4154739142455,-31.075159947768533,-37.17132568359375,4381.2578125,True
1599569265.4200826,0.0,10,0.5,0.5,-5.112993075561524,-0.1005,-0.02275,-0.2505,0.30921980082387784,10,1,100,0.18317754203873676,-10,-1,-100,6436.154960001586,-0.021444874000186222,0.018694261082437665,0.9995952390751458,247.59480879292903,26.642710981600615,648.2226525597785,-31.453583042465045,-42.12860107421875,4381.2578125,True
1599569265.4811103,0.0,10,0.5,0.5,-4.436955801391601,-0.1005,-0.02275,-0.2505,0.3179218195955048,10,1,100,0.16310933757403273,-10,-1,-100,6434.893259179895,-0.020771846539646116,0.019750047603079884,0.9995891486060707,248.15097392426955,26.710709346308317,657.9515130415894,-31.83189152646876,-47.380157470703125,4381.2578125,True
1599569265.5409462,0.0,10,0.5,0.5,-3.725752191162109,-0.1005,-0.02275,-0.2505,0.3265693873602101,10,1,100,0.14381504434167972,-10,-1,-100,6433.581260903273,-0.019986669871503007,0.02078111503834529,0.9995842527197047,247.28343677881742,26.61376281232098,663.9098491173203,-32.21016138954689,-52.92572021484375,4381.2578125,True
1599569265.6007743,0.0,10,0.5,0.5,-1.9156665290832522,-0.1005,-0.02275,-0.2505,0.3824867829903773,10,1,100,0.06927651159465617,-10,-1,-100,6431.6657450291095,-0.018598101694537367,0.022219163117685254,0.9995801215528993,242.86054060971944,26.113760896810234,664.2466349465709,-32.777679838063676,-61.795623779296875,4381.2578125,True
1599569265.6606138,0.0,10,0.5,0.5,-2.9496963119506834,-0.1005,-0.02275,-0.2505,0.2880549775116825,10,1,100,0.1510216305600086,-10,-1,-100,6431.007543269312,-0.018083022785854153,0.0226598122215344,0.9995796802641653,240.45832609337197,25.844073547283823,661.7228368232824,-32.96692686480299,-64.8992919921875,4381.2578125,True
1599569265.721452,0.0,10,0.5,0.5,-0.20254345245361316,-0.1005,-0.02275,-0.2505,0.37145167543681157,10,1,100,0.019224080730557036,-10,-1,-100,6428.97384696349,-0.016421172126217673,0.023810352173060177,0.9995816185961985,230.17914809556584,24.705182248013873,645.114127499644,-33.53502461059461,-74.65176391601562,4381.2578125,True
1599569265.7832866,0.0,10,0.5,0.5,-1.3333625373840334,-0.1005,-0.02275,-0.2505,0.2923285306411464,10,1,100,0.1206439673799638,-10,-1,-100,6428.319545404171,-0.015838423302689253,0.024128158056811125,0.9995834013908346,225.6769883919402,24.213091026434828,636.332985548371,-33.72453140228785,-78.04977416992188,4381.2578125,True
1599569265.8441257,0.0,10,0.5,0.5,1.6540052703857422,-0.1005,-0.02275,-0.2505,0.34931129961472684,10,1,100,-0.024151917214949914,-10,-1,-100,6426.285831394256,-0.013998719181568666,0.02492683293692134,0.9995912608966779,208.7918240845221,22.39555854444896,599.4207633584483,-34.29350218981236,-88.64892578125,4381.2578125,True
1599569265.904591,0.0,10,0.5,0.5,0.402650009918213,-0.1005,-0.02275,-0.2505,0.2907915692919568,10,1,100,0.09188908208679956,-10,-1,-100,6425.5621889204485,-0.013389136487392442,0.025112365418361305,0.9995949680381633,205.62262367193978,22.06269397929277,593.8451638572583,-34.48324899048272,-92.25596618652344,4381.2578125,True
1599569265.9644322,0.0,10,0.5,0.5,2.227698091506958,-0.1005,-0.02275,-0.2505,0.3064541633446207,10,1,100,0.011481636111053212,-10,-1,-100,6424.183259676211,-0.012112213552251635,0.02541564790701268,0.9996035909921149,217.57716852544348,23.374376201711367,635.8286475745489,-34.862374976452486,-99.64253234863281,4381.2578125,True
1599569266.0264835,0.0,10,0.5,0.5,4.3732977325439455,-0.1005,-0.02275,-0.2505,0.296801911660818,10,1,100,-0.0607272990140702,-10,-1,-100,6422.090932386345,-0.010303905802335533,0.025596517516423282,0.9996192514233847,233.20969847966677,25.121939326540193,693.4793157368466,-35.43003950118738,-110.62205505371094,4381.2578125,True
1599569266.0883179,0.0,10,0.5,0.5,4.273173799514771,-0.1005,-0.02275,-0.2505,0.2757873625371411,10,1,100,-0.009748282582720397,-10,-1,-100,6420.652911811718,-0.009133563422876667,0.025563628299823143,0.9996314715570678,240.9297555365191,26.001530892305105,724.6508642362537,-35.8078556423881,-117.72867584228516,4381.2578125,True
1599569266.1511497,0.0,10,0.5,0.5,5.0537424470901495,-0.1005,-0.02275,-0.2505,0.26474122608987005,10,1,100,-0.012919147490071614,-10,-1,-100,6419.208540643449,-0.008051370017953386,0.025428024516396242,0.9996442322196569,247.06046598323522,26.70386441846039,751.4946210970903,-36.18525348755574,-124.56837463378906,4381.2578125,True
1599569266.2179725,0.0,10,0.5,0.5,5.8010006460189825,-0.1005,-0.02275,-0.2505,0.25307382500980075,10,1,100,-0.01686870532675197,-10,-1,-100,6417.705086529953,-0.007042503033011081,0.025194456603936564,0.9996577626905431,250.79017816122746,27.134666525445837,771.361213908773,-36.56235852143252,-131.11428833007812,4381.2578125,True
1599569266.2887836,0.0,10,0.5,0.5,6.51190656337738,-0.1005,-0.02275,-0.2505,0.2411204372298282,10,1,100,-0.01792683521916251,-10,-1,-100,6416.267548600677,-0.006126236955552096,0.024870750164167787,0.9996719036799205,252.36410323368418,27.317274793643023,784.7820063028049,-36.93930081980668,-137.36203002929688,4381.2578125,True
1599569266.3296745,0.0,10,0.5,0.5,7.1997043912887575,-0.1005,-0.02275,-0.2505,0.23025925669338282,10,1,100,-0.016610301693047808,-10,-1,-100,6414.760674138437,-0.005316106086127063,0.02447572363409882,0.9996862897772822,252.0585414390382,27.281871274913158,792.4199160561664,-37.31619678398321,-143.31076049804688,4381.2578125,True
1599569266.4154472,0.0,10,0.5,0.5,6.870367368888855,-0.1005,-0.02275,-0.2505,0.24539830531042736,10,1,100,0.023178329061104203,-10,-1,-100,6414.040439746343,-0.0049514338171784975,0.0242536314383174,0.9996935753845818,251.29076542089757,27.192969755843663,794.2980140594041,-37.50465742974773,-146.1729278564453,4381.2578125,True
1599569266.4962277,0.0,10,0.5,0.5,7.286735704231263,-0.1005,-0.02275,-0.2505,0.24169185742819782,10,1,100,0.021287748420342603,-10,-1,-100,6413.261122959317,-0.004612623739114251,0.024017920394694473,0.9997008868667444,250.1598793041541,27.062355968444813,795.0048100323663,-37.69313949915469,-148.9602813720703,4381.2578125,True
1599569266.5685441,0.0,10,0.5,0.5,8.603698020744323,-0.1005,-0.02275,-0.2505,0.20802475437186624,10,1,100,-0.011496457863000763,-10,-1,-100,6411.753759017447,-0.004015109152336774,0.02349839933865446,0.999715811682008,246.94978000624104,26.693666514554998,793.2859109558408,-38.07019672215196,-154.3106689453125,4381.2578125,True
1599569266.6403515,0.0,10,0.5,0.5,8.304241404151917,-0.1005,-0.02275,-0.2505,0.22880941084875855,10,1,100,0.01921631796592606,-10,-1,-100,6410.971023981343,-0.0037596429694702702,0.023216526133935017,0.9997233907431669,244.93786002313053,26.46412762165819,791.0457689884727,-38.2587824601878,-156.87374877929688,4381.2578125,True
1599569266.7091663,0.0,10,0.5,0.5,11.128331642723085,-0.1005,-0.02275,-0.2505,0.12335282668082655,10,1,100,-0.037858137961482685,-10,-1,-100,6407.905025086831,-0.0030161355407813525,0.02200358074791167,0.9997533422603146,234.91078959724308,25.33742684550379,774.9676452651291,-39.01356171465862,-166.3778533935547,4381.2578125,True
1599569266.7760258,0.0,10,0.5,0.5,9.642810231590271,-0.1005,-0.02275,-0.2505,0.20787254051088738,10,1,100,0.023434068646597882,-10,-1,-100,6407.122289886349,-0.0029040468204663,0.021672530465226006,0.9997609053845314,232.05593695271256,25.02182624090221,769.6009689797668,-39.20236598430247,-168.5670623779297,4381.2578125,True
1599569266.8418524,0.0,10,0.5,0.5,9.952244828414917,-0.1005,-0.02275,-0.2505,0.203609015848419,10,1,100,0.024923833465170207,-10,-1,-100,6406.339067022782,-0.00282135449726001,0.02133635370933896,0.9997683731590986,229.11594204042805,24.699193348564236,763.8594772130863,-39.39121122876513,-170.6815185546875,4381.2578125,True
1599569266.9086714,0.0,10,0.5,0.5,11.596429292297364,-0.1005,-0.02275,-0.2505,0.12651558288922266,10,1,100,0.019008342015436712,-10,-1,-100,6403.928364956402,-0.002697157022548254,0.020333608786909915,0.9997896127174439,220.01169608816895,23.715395587359414,745.0981327789365,-39.95796331793602,-176.57595825195312,4381.2578125,True
1599569266.9735382,0.0,10,0.5,0.5,10.860545402526856,-0.1005,-0.02275,-0.2505,0.18805596162366195,10,1,100,0.033580493721587196,-10,-1,-100,6403.141725925845,-0.0027206746483302647,0.019985899434848436,0.9997965601827394,216.95487711719855,23.39029245946884,738.5675470118608,-40.14694166733463,-178.3914794921875,4381.2578125,True
1599569267.0393622,0.0,10,0.5,0.5,-114.66507126388551,-0.1005,-0.02275,-0.2505,0.14598287120472492,10,1,100,0.043994929863171495,-10,-1,-100,6401.5098546245135,-0.0028398269660621514,0.01929175815710159,0.9998098636490894,220.2017457353159,23.75733582202996,757.391180850007,-40.52477283253042,178.20159912109375,4381.2578125,True
1599569267.106183,0.0,10,0.5,0.5,-24.97888177032471,-0.1005,-0.02275,-0.2505,0.1380020234823352,10,1,100,0.05323648807633015,-10,-1,-100,6399.88189101452,-0.0030344125833199134,0.018592880166652732,0.9998225328263924,225.67946905202143,24.37497848227938,784.2084222348935,-40.902312024646626,175.09315490722656,4381.2578125,True
1599569267.1712444,0.0,10,0.5,0.5,-25.502032547760013,-0.1005,-0.02275,-0.2505,0.12979435758714924,10,1,100,0.06979175714533414,-10,-1,-100,6398.191430122475,-0.0033635537916668775,0.017888067531989956,0.9998343380509902,230.41118296712003,24.920513077164763,808.8030523966678,-41.279568188592734,172.2829132080078,4381.2578125,True
1599569267.2370696,0.0,10,0.5,0.5,-25.4236583770752,-0.1005,-0.02275,-0.2505,0.08250166972305355,10,1,100,0.10784567816002069,-10,-1,-100,6395.717754621757,-0.004009853326613493,0.01682296784067993,0.9998504432310518,237.01693890429087,25.69833967477592,844.5815034917938,-41.84493413490738,167.97189331054688,4381.2578125,True
1599569267.300413,0.0,10,0.5,0.5,-25.511111666107176,-0.1005,-0.02275,-0.2505,0.07051702650295535,10,1,100,0.13836243876660512,-10,-1,-100,6393.185492635239,-0.004874828232830023,0.015751812666122626,0.9998640489823764,244.0989521006391,26.540404353362515,882.7871060519713,-42.4096204383168,163.05551147460938,4381.2578125,True
1599569267.3657427,0.0,10,0.5,0.5,-27.470504383087157,-0.1005,-0.02275,-0.2505,0.17688607261190445,10,1,100,0.051976466671288094,-10,-1,-100,6393.185492635239,-0.004874828232830023,0.015751812666122626,0.9998640489823764,244.0989521006391,26.540404353362515,882.7871060519713,-42.4096204383168,163.05551147460938,4381.2578125,True
1599569267.4315665,0.0,10,0.5,0.5,-26.941152574539185,-0.1005,-0.02275,-0.2505,0.09516732155864338,10,1,100,0.12665403092886254,-10,-1,-100,6391.4882070109015,-0.005552025459997019,0.015014598354803697,0.9998718602148655,249.09357506653072,27.13625954701693,909.6682967294931,-42.78567268210923,159.41217041015625,4381.2578125,True
1599569267.4983883,0.0,10,0.5,0.5,-26.488402909088133,-0.1005,-0.02275,-0.2505,0.04630043662384556,10,1,100,0.19095638426036088,-10,-1,-100,6388.890038665035,-0.006749818898035609,0.013906211783388711,0.9998805214717803,256.4002336447803,28.01121441874898,949.949938308714,-43.349116066893785,153.39633178710938,4381.2578125,True
1599569267.5612206,0.0,10,0.5,0.5,-26.389314479064943,-0.1005,-0.02275,-0.2505,0.03315807654468941,10,1,100,0.2253601803698674,-10,-1,-100,6386.288464947953,-0.0081479124750655,0.012785866301315441,0.999885059967006,262.6192119033819,28.759071596434428,986.8957584594526,-43.9118446755545,146.7201690673828,4381.2578125,True
1599569267.6240528,0.0,10,0.5,0.5,-27.964547047805787,-0.1005,-0.02275,-0.2505,0.10117774560128051,10,1,100,0.14250909921224839,-10,-1,-100,6385.377330680261,-0.008660759756884757,0.012392592620386564,0.9998857009121486,264.3372054295345,28.965501895500875,998.013244290843,-44.09928151677711,144.34796142578125,4381.2578125,True
1599569268.1699514,0.0,10,0.5,0.5,-28.434701890945437,-0.1005,-0.02275,-0.2505,0.096683840926896,10,1,100,0.15095323324935717,-10,-1,-100,6384.4735223578755,-0.009198349336050021,0.012001120419606328,0.9998856752040035,265.83446981339563,29.14498653749191,1008.3533950400935,-44.28665912465023,141.90261840820312,4381.2578125,True
1599569268.222547,0.0,10,0.5,0.5,-27.170930669784546,-0.1005,-0.02275,-0.2505,0.046343205607051935,10,1,100,0.22471937012941717,-10,-1,-100,6382.720597467269,-0.010351887904773545,0.011194222313932526,0.9998837571455961,268.0542456220604,29.409178922641896,1026.2288652746968,-44.6612696287288,136.79222106933594,4381.2578125,True
1599569268.2793956,0.0,10,0.5,0.5,-28.363950578689575,-0.1005,-0.02275,-0.2505,0.12629315038916009,10,1,100,0.11009726078921013,-10,-1,-100,6382.720597467269,-0.010351887904773545,0.011194222313932526,0.9998837571455961,268.0542456220604,29.409178922641896,1026.2288652746968,-44.6612696287288,136.79222106933594,4381.2578125,True
1599569268.338238,0.0,10,0.5,0.5,-26.387077647018433,-0.1005,-0.02275,-0.2505,0.03926538039691957,10,1,100,0.24797125983273854,-10,-1,-100,6380.901762517053,-0.011598934865066433,0.010409146082383119,0.9998785498188425,269.04858624715183,29.524073230087488,1039.5407955490418,-45.03575329985085,131.39013671875,4381.2578125,True
1599569268.3955913,0.0,10,0.5,0.5,-24.620644563674922,-0.1005,-0.02275,-0.2505,-0.019132821702245603,10,1,100,0.3520344462500168,-10,-1,-100,6378.175724519882,-0.013671743722272995,0.009170378418035153,0.9998644846094208,267.72222057722604,29.359179661371265,1048.6662901640395,-45.59744558537784,122.73933410644531,4381.2578125,True
1599569268.4554317,0.0,10,0.5,0.5,-24.54396075973511,-0.1005,-0.02275,-0.2505,0.01332626024320116,10,1,100,0.31265284884500544,-10,-1,-100,6376.353496955708,-0.015190103692879363,0.00834529168108478,0.9998497971478303,264.6160474251379,28.991023780933563,1045.9570266463425,-45.97203648260679,116.60830688476562,4381.2578125,True
1599569268.5138524,0.0,10,0.5,0.5,-24.85981815719605,-0.1005,-0.02275,-0.2505,0.048750916473953486,10,1,100,0.25095812481970825,-10,-1,-100,6375.449224298354,-0.01600019228823695,0.007923988359577678,0.9998405894217423,262.3142884689803,28.722706633687313,1041.5728299032442,-46.15940990369906,113.43367004394531,4381.2578125,True
1599569268.5746868,0.0,10,0.5,0.5,-22.054656560134887,-0.1005,-0.02275,-0.2505,-0.051321891032918926,10,1,100,0.4633406251600407,-10,-1,-100,6372.660744227236,-0.018657888135448473,0.006637678553595315,0.9998038929878921,252.11333080504176,27.561048759433596,1014.7769585849263,-46.721982932657006,103.47410583496094,4381.2578125,True
1599569268.6355252,0.0,10,0.5,0.5,-21.978322341918943,-0.1005,-0.02275,-0.2505,-0.01569617733331649,10,1,100,0.4115417250137995,-10,-1,-100,6370.773622999084,-0.020592250659550015,0.005798783884725728,0.9997711404707742,242.36146223418476,26.479487403907754,984.4045501356624,-47.09749757757019,96.47230529785156,4381.2578125,True
1599569268.6973596,0.0,10,0.5,0.5,-22.35105814971924,-0.1005,-0.02275,-0.2505,0.021988795843459932,10,1,100,0.33158013321368507,-10,-1,-100,6369.786369419424,-0.02161252544856448,0.00538509492592097,0.9997519189760898,236.55115393521058,25.844764117372772,965.160939922947,-47.28541073091473,92.86289978027344,4381.2578125,True
1599569268.7591937,0.0,10,0.5,0.5,-19.185024269485474,-0.1005,-0.02275,-0.2505,-0.07434027832043082,10,1,100,0.607485493375058,-10,-1,-100,6366.889100764645,-0.025036504198506768,0.004139665650694425,0.9996779664601089,250.42548772247892,27.40020436004659,1035.652396991533,-47.84861296508875,81.60061645507812,4381.2578125,True
1599569268.8205376,0.0,10,0.5,0.5,-19.10720648536682,-0.1005,-0.02275,-0.2505,-0.033683018823067214,10,1,100,0.538134710482947,-10,-1,-100,6364.917586214375,-0.02750435216774197,0.0033842154457089735,0.9996159551035837,263.40381133867555,28.871426044203236,1099.0517864400704,-48.223215219617764,73.73214721679688,4381.2578125,True
1599569268.8818812,0.0,10,0.5,0.5,-19.515982122039794,-0.1005,-0.02275,-0.2505,0.0021101286130832675,10,1,100,0.4357737352728038,-10,-1,-100,6363.942583793541,-0.02880170285216997,0.003029934787749225,0.9995805527359951,269.11586181557067,29.526028027936135,1127.8404800501205,-48.41025653353841,69.68994140625,4381.2578125,True
1599569268.9424572,0.0,10,0.5,0.5,-15.96853755531311,-0.1005,-0.02275,-0.2505,-0.06190308441988899,10,1,100,0.7842288324104522,-10,-1,-100,6361.027400699328,-0.0331321136165855,0.0021333452416007815,0.9994487039790375,284.0915616658231,31.246586477445444,1206.226803206204,-48.97042901493688,57.13336181640625,4381.2578125,True
1599569269.0051825,0.0,10,0.5,0.5,-15.881339018630982,-0.1005,-0.02275,-0.2505,-0.021934669990061887,10,1,100,0.6922056479938853,-10,-1,-100,6359.084325793316,-0.03621270065431127,0.001689136513410427,0.9993426775281642,290.69201844624644,31.997162567862603,1244.8773809518275,-49.343264904688816,48.4049072265625,4381.2578125,True
1599569269.0650537,0.0,10,0.5,0.5,-16.32933395614624,-0.1005,-0.02275,-0.2505,0.0030829170267605704,10,1,100,0.5632227714678933,-10,-1,-100,6358.050304940087,-0.03782017094116019,0.0015195441351217858,0.9992834060743744,292.6319718909467,32.211130363986435,1258.539973290754,-49.529586047624505,43.93376159667969,4381.2578125,True
1599569269.1254025,0.0,10,0.5,0.5,-14.07098097114563,-0.1005,-0.02275,-0.2505,0.008142289659291216,10,1,100,0.7859746332669457,-10,-1,-100,6356.107303144177,-0.0412859517026067,0.0014175687674696296,0.9991463659998966,293.46833273442127,32.27985842880176,1272.929438126514,-49.90220865866346,34.77980041503906,4381.2578125,True
1599569269.1872067,0.0,10,0.5,0.5,-11.179027823257448,-0.1005,-0.02275,-0.2505,0.04102136502791532,10,1,100,1.0361935234283304,-10,-1,-100,6353.066925847321,-0.04668839161501215,0.0016296794998570778,0.9989081730735468,286.3781509940403,31.426483257562854,1258.216813239862,-50.46162441612086,20.5174560546875,4381.2578125,True
1599569269.2669914,0.0,10,0.5,0.5,-12.844770446777344,-0.1005,-0.02275,-0.2505,0.0403793513327296,10,1,100,0.7047097390038861,-10,-1,-100,6352.032986325561,-0.04856072940108618,0.001821223676665559,0.9988185714654859,281.61788514373404,30.879423019208513,1242.646330220267,-50.64834940629102,15.622161865234375,4381.2578125,True
1599569269.3288267,0.0,10,0.5,0.5,-8.58503447532654,-0.1005,-0.02275,-0.2505,0.15264806708222348,10,1,100,1.1541074234531075,-10,-1,-100,6348.992282467429,-0.054322862266381375,0.0030195953989487225,0.9985188574477771,259.85427446943106,28.467699915632267,1161.6341770771073,-51.20955256959907,0.51654052734375,4381.2578125,True
1599569269.3896635,0.0,10,0.5,0.5,-8.500837239837647,-0.1005,-0.02275,-0.2505,0.16311721762517922,10,1,100,1.0056872065775464,-10,-1,-100,6346.92549775599,-0.05818215350249207,0.004206348787348444,0.9982971219249765,276.2450073422515,30.308055427250746,1245.6562100323408,-51.58349505602278,-9.905303955078125,4381.2578125,True
1599569269.4504998,0.0,10,0.5,0.5,-5.2319218452453615,-0.1005,-0.02275,-0.2505,0.31987230955338036,10,1,100,1.2425674283545023,-10,-1,-100,6343.821977301734,-0.06381392423392504,0.006710201173298515,0.9979392548016542,300.8791611591467,33.14175005401377,1374.1997275124468,-52.14246998852589,-26.06317138671875,4381.2578125,True
1599569269.5123346,0.0,10,0.5,0.5,-7.112806944274903,-0.1005,-0.02275,-0.2505,0.18082040054368378,10,1,100,0.8804374976888187,-10,-1,-100,6342.788621701999,-0.06560861682729772,0.007719298727958075,0.9978155750564116,307.3799173955416,33.901005075137974,1409.7826131139782,-52.32832652065113,-31.58917236328125,4381.2578125,True
1599569269.5751672,0.0,10,0.5,0.5,-6.3024934265136725,-0.1005,-0.02275,-0.2505,0.20032486377413272,10,1,100,0.8963338404962558,-10,-1,-100,6341.6922808355885,-0.06735120692499948,0.008809710385252476,0.997690434918905,312.75780139224844,34.530312396963154,1440.4193155038447,-52.51399484753211,-37.185089111328125,4381.2578125,True
1599569269.6444933,0.0,10,0.5,0.5,-3.487580556488037,-0.1005,-0.02275,-0.2505,0.35135611048527504,10,1,100,1.081140505662035,-10,-1,-100,6339.623130667489,-0.07058433206686414,0.01116793562094536,0.9974432962733477,318.7074299270744,35.22565330510344,1479.9628896632028,-52.88498480578564,-48.587127685546875,4381.2578125,True
1599569269.7093227,0.0,10,0.5,0.5,0.06395834197997985,-0.1005,-0.02275,-0.2505,0.5540454476022731,10,1,100,1.2404943041565144,-10,-1,-100,6336.397067254176,-0.07494096069904314,0.015145789991632023,0.9970729449017427,314.2122041615233,34.69560487480774,1477.219032087434,-53.441552373381306,-66.21417236328125,4381.2578125,True
1599569269.7731502,0.0,10,0.5,0.5,0.14661863746643045,-0.1005,-0.02275,-0.2505,0.46288748457084783,10,1,100,1.0751887261152888,-10,-1,-100,6334.265856514219,-0.07736500802814211,0.017920924986646478,0.9968417607526425,301.624766838498,33.26198265237754,1429.9187510628553,-53.81335474230415,-78.31573486328125,4381.2578125,True
1599569269.8349862,0.0,10,0.5,0.5,1.7022684860229493,-0.1005,-0.02275,-0.2505,0.486264236544052,10,1,100,1.0634438535694684,-10,-1,-100,6332.073075642227,-0.07942911670751959,0.02064128785803495,0.9966267870444909,281.2699418571455,31.010826455695224,1344.7239465812702,-54.18613626531281,-90.6513442993164,4381.2578125,True
1599569269.8978167,0.0,10,0.5,0.5,3.20363894405365,-0.1005,-0.02275,-0.2505,0.5040717046210688,10,1,100,1.0510598696258873,-10,-1,-100,6329.8802391991485,-0.08116323317556429,0.02325894780694446,0.9964294008746443,287.50569504098524,31.76650548055753,1386.183947588376,-54.55908522522818,-103.01183319091797,4381.2578125,True
1599569269.9616458,0.0,10,0.5,0.5,2.5413851493835447,-0.1005,-0.02275,-0.2505,0.38156849077308785,10,1,100,0.9626227700793517,-10,-1,-100,6328.783799227676,-0.08190609041993234,0.024505484249034846,0.996338734363892,299.1983248979218,33.11601663850694,1448.5925128511576,-54.74502775714239,-109.17752075195312,4381.2578125,True
1599569270.024477,0.0,10,0.5,0.5,7.613437616729737,-0.1005,-0.02275,-0.2505,0.6227174538326266,10,1,100,1.0944872736226203,-10,-1,-100,6325.494877289049,-0.0837551077396116,0.02781142987070365,0.996098191091658,324.162863385769,36.07307604797071,1588.8109821398016,-55.30103089468138,-127.31713104248047,4381.2578125,True
1599569270.0883071,0.0,10,0.5,0.5,7.451901646614075,-0.1005,-0.02275,-0.2505,0.4952090187191477,10,1,100,1.0213459060815677,-10,-1,-100,6323.300893747364,-0.08474786291236762,0.029636208224749706,0.9959615930817041,332.89529813375253,37.12395998597885,1644.7150923480194,-55.670671083123096,-139.0417022705078,4381.2578125,True
1599569270.1506512,0.0,10,0.5,0.5,6.789256863975525,-0.1005,-0.02275,-0.2505,0.40137086761411905,10,1,100,0.9735218843842932,-10,-1,-100,6322.141873366083,-0.08519657292791746,0.030421181711971813,0.9958996413618117,334.264871788694,37.292002271323774,1658.075987798955,-55.855393566309665,-144.78909301757812,4381.2578125,True
1599569270.2115269,0.0,10,0.5,0.5,9.56108008708954,-0.1005,-0.02275,-0.2505,0.45931833247139287,10,1,100,1.0363900323590476,-10,-1,-100,6319.948811956099,-0.08615821250900543,0.03164095103270893,0.9957788974641905,331.2625635986844,36.94684983650175,1656.3940788091675,-56.22499983110766,-156.05409240722656,4381.2578125,True
1599569270.2713947,0.0,10,0.5,0.5,12.738070477485657,-0.1005,-0.02275,-0.2505,0.4690513950584341,10,1,100,1.1045264994385586,-10,-1,-100,6316.535660594469,-0.08763475546018641,0.03281755894721809,0.9956119512441477,313.7273239229738,34.9484484934091,1588.0025092212481,-56.780611425249965,-172.37445068359375,4381.2578125,True
