Timestamp,Input Throttle,horizon,dT,dt,Input Roll,Roll P,Roll I,Roll D,Input Pitch,Pitch P,Pitch I,Pitch D,Input Yaw,Yaw P,Yaw I,Yaw D,Altitude,Direction X,Direction Y,Direction Z,Drag X,Drag Y,Drag Z,Vertical Velocity,Roll,Mass,Has Fuel
1599564892.0163357,0.0,10,0.5,0.5,-0.05565753173828125,-0.001,-0.001,-0.5,-0.06719239609220982,10,1,100,0.6903581187761825,-10,-1,-100,6483.617967069033,-0.06725837468612397,-0.007002277527934796,0.9977110198569538,205.0731641876111,21.49877071942405,-156.76518641427558,9.590823484218548,-35.94464111328125,4381.2578125,True
1599564892.0731828,0.0,10,0.5,0.5,-0.06112742919921875,-0.001,-0.001,-0.5,-0.06735720484564886,10,1,100,0.6998965485697592,-10,-1,-100,6483.997882813099,-0.06744552890648677,-0.006971679362603045,0.997698599937571,204.6120577504919,21.45673165840731,-150.26664464664262,9.210801172311863,-35.941314697265625,4381.2578125,True
1599564892.1352346,0.0,10,0.5,0.5,-0.06491595764160157,-0.001,-0.001,-0.5,-0.034723992420585645,10,1,100,0.7028374551101253,-10,-1,-100,6484.538935775054,-0.06758109050363219,-0.0066408593908348764,0.9976916834337605,203.9321441555012,21.394553916612544,-140.56874634458725,8.640800599448268,-35.94122314453125,4381.2578125,True
1599564892.194075,0.0,10,0.5,0.5,-0.06701943664550782,-0.001,-0.001,-0.5,-0.04966117241085172,10,1,100,0.6976005654436735,-10,-1,-100,6484.697140347445,-0.0675952828763388,-0.006469869362420019,0.9976918454729901,203.72135543302343,21.375381248196305,-137.3577632698775,8.450805855625113,-35.947723388671875,4381.2578125,True
1599564892.2509308,0.0,10,0.5,0.5,-0.07049171142578126,-0.001,-0.001,-0.5,-0.04399364014675307,10,1,100,0.7021414884279085,-10,-1,-100,6484.856804389157,-0.067588015894223,-0.006257019162039779,0.9976936953888643,203.51671810655728,21.35679098761641,-134.15585718702076,8.260812255503534,-35.95806884765625,4381.2578125,True
1599564892.3108156,0.0,10,0.5,0.5,-0.03978750610351563,-0.001,-0.001,-0.5,0.08637444446272716,10,1,100,0.6712696209082389,-10,-1,-100,6485.493928441196,-0.06723931255494417,-0.004872666375096977,0.9977249781224962,202.7493845330349,21.287078289235634,-121.42753521376008,7.500832145764455,-36.04046630859375,4381.2578125,True
1599564892.3681304,0.0,10,0.5,0.5,-0.08638218994140626,-0.001,-0.001,-0.5,-0.052548100869062725,10,1,100,0.7128638860916167,-10,-1,-100,6485.493928441196,-0.06723931255494417,-0.004872666375096977,0.9977249781224962,202.7493845330349,21.287078289235634,-121.42753521376008,7.500832145764455,-36.04046630859375,4381.2578125,True
1599564892.423495,0.0,10,0.5,0.5,-0.017349798583984374,-0.001,-0.001,-0.5,0.1923435190304361,10,1,100,0.6193475576962897,-10,-1,-100,6486.005465198774,-0.06632803746720943,-0.0026419492247605363,0.9977943733806289,202.03130167741153,21.22120964665154,-108.79793463967127,6.740796704530941,-36.18902587890625,4381.2578125,True
1599564892.4783466,0.0,10,0.5,0.5,-0.09701068115234375,-0.001,-0.001,-0.5,-0.030992390925684066,10,1,100,0.7171078702164846,-10,-1,-100,6486.005465198774,-0.06632803746720943,-0.0026419492247605363,0.9977943733806289,202.03130167741153,21.22120964665154,-108.79793463967127,6.740796704530941,-36.18902587890625,4381.2578125,True
1599564892.5332007,0.0,10,0.5,0.5,0.001988317871093742,-0.001,-0.001,-0.5,0.3028645649336078,10,1,100,0.5577763334321628,-10,-1,-100,6486.517888271599,-0.06481927073510904,0.0003955157823464446,0.9978969414266357,201.3225676588115,21.15488393402214,-96.23978463124679,5.980639930545042,-36.397369384765625,4381.2578125,True
1599564892.980004,0.0,10,0.5,0.5,-0.10754369812011719,-0.001,-0.001,-0.5,-0.0008423841988556644,10,1,100,0.7151349337157126,-10,-1,-100,6486.517888271599,-0.06481927073510904,0.0003955157823464446,0.9978969414266357,201.3225676588115,21.15488393402214,-96.23978463124679,5.980639930545042,-36.397369384765625,4381.2578125,True
1599564893.0303822,0.0,10,0.5,0.5,-0.04453706054687501,-0.001,-0.001,-0.5,0.20518815857908257,10,1,100,0.6090643030959894,-10,-1,-100,6486.772118728375,-0.06385720964215794,0.002261795450045627,0.9979564825472399,200.95571069686955,21.11986850592759,-89.98002287008488,5.600493526883372,-36.523040771484375,4381.2578125,True
1599564893.0812442,0.0,10,0.5,0.5,-0.0729289306640625,-0.001,-0.001,-0.5,0.12053094676079684,10,1,100,0.6402526850934054,-10,-1,-100,6486.869197194348,-0.06326940150241919,0.003180408245230788,0.9979914167150534,200.770103247022,21.101998623538883,-86.85574583529684,5.410399268987357,-36.5916748046875,4381.2578125,True
1599564893.137096,0.0,10,0.5,0.5,-0.07067003784179687,-0.001,-0.001,-0.5,0.1443200678972471,10,1,100,0.6335874347159145,-10,-1,-100,6486.965297555667,-0.06267835699831698,0.004222847098788604,0.9980248449444392,200.5806246622588,21.083635004946313,-83.7342970817446,5.220289394231963,-36.66455078125,4381.2578125,True
1599564893.1869636,0.0,10,0.5,0.5,0.058638583374023445,-0.001,-0.001,-0.5,0.5299483871105322,10,1,100,0.3766503998371358,-10,-1,-100,6487.350645867991,-0.059809722519215174,0.008666510125360839,0.9981721738730355,199.7636425009101,21.003129168906383,-71.27323532433178,4.459669356318626,-36.9952392578125,4381.2578125,True
1599564893.242813,0.0,10,0.5,0.5,-0.10660193786621094,-0.001,-0.001,-0.5,0.08707443738204874,10,1,100,0.6627360184098151,-10,-1,-100,6487.350645867991,-0.059809722519215174,0.008666510125360839,0.9981721738730355,199.7636425009101,21.003129168906383,-71.27323532433178,4.459669356318626,-36.9952392578125,4381.2578125,True
1599564893.2957056,0.0,10,0.5,0.5,0.03907831726074218,-0.001,-0.001,-0.5,0.49016005497594156,10,1,100,0.36948059629583474,-10,-1,-100,6487.5788526266115,-0.05715051830912056,0.01231861648848672,0.998289572190759,199.07940442369403,20.934427668193777,-61.958248666837854,3.888980290753645,-37.28582763671875,4381.2578125,True
1599564893.3611114,0.0,10,0.5,0.5,-0.009860440063476555,-0.001,-0.001,-0.5,0.4132191968261179,10,1,100,0.4137468857187333,-10,-1,-100,6487.771025881637,-0.05514465238037528,0.01492362239645405,0.9983668428029927,198.5700998152964,20.882725945829517,-55.762351721674115,3.508395706920258,-37.4779052734375,4381.2578125,True
1599564893.416963,0.0,10,0.5,0.5,-0.05419953918457032,-0.001,-0.001,-0.5,0.3066588516129857,10,1,100,0.49625679349736374,-10,-1,-100,6487.8055915329605,-0.054081394684127884,0.01630711047301295,0.998403365828181,198.34174483708034,20.859562382301803,-52.68132922481214,3.3180620618228516,-37.580841064453125,4381.2578125,True
1599564893.47436,0.0,10,0.5,0.5,-0.001438653564453135,-0.001,-0.001,-0.5,0.4558903629522436,10,1,100,0.34296984605951286,-10,-1,-100,6487.935272812028,-0.05173241238608895,0.018904250591425413,0.9984820413098535,197.86286634704112,20.810774473162404,-46.53159598744747,2.937306422757149,-37.788604736328125,4381.2578125,True
1599564893.5322888,0.0,10,0.5,0.5,0.10318130493164063,-0.001,-0.001,-0.5,0.810418996897328,10,1,100,-0.00195087319528775,-10,-1,-100,6488.132653162815,-0.04647322817496357,0.02447144852147471,0.9986197410777831,196.7387963382436,20.69537957110907,-34.27753288857006,2.1754128494120235,-38.204498291015625,4381.2578125,True
1599564893.585148,0.0,10,0.5,0.5,-0.04980317382812499,-0.001,-0.001,-0.5,0.4072059368503012,10,1,100,0.3626038467385263,-10,-1,-100,6488.167725478532,-0.04502296365748439,0.025845077064056438,0.9986515732401614,196.42821508220604,20.663384580085843,-31.228021891781317,1.9848539133857486,-38.3138427734375,4381.2578125,True
1599564893.6395788,0.0,10,0.5,0.5,0.05411617126464843,-0.001,-0.001,-0.5,0.7087807760115361,10,1,100,-0.00973089712476527,-10,-1,-100,6488.2690606619,-0.0403368021028231,0.02981398038458377,0.9987412422493352,195.50619191570757,20.56843248574353,-22.13099582332166,1.4129572636346448,-38.630035400390625,4381.2578125,True
1599564893.7004528,0.0,10,0.5,0.5,-0.05465176391601562,-0.001,-0.001,-0.5,0.4693179172722419,10,1,100,0.27485910281121106,-10,-1,-100,6488.30219635996,-0.038684684870184984,0.03122092689457926,0.998763610110189,195.17686881297618,20.534490575509604,-19.113125433035318,1.2222491461521554,-38.72808837890625,4381.2578125,True
1599564893.7543123,0.0,10,0.5,0.5,-0.0026847900390624957,-0.001,-0.001,-0.5,0.6168005023040439,10,1,100,0.05560377989837517,-10,-1,-100,6488.307937899604,-0.035211342334150124,0.03381617624050446,0.998807602892318,194.4872299884334,20.46340231128475,-13.102277710248272,0.8407148802295557,-38.92926025390625,4381.2578125,True
1599564893.8072069,0.0,10,0.5,0.5,-0.005210473632812504,-0.001,-0.001,-0.5,0.6356638425961835,10,1,100,-0.004423516212411771,-10,-1,-100,6488.31272548018,-0.03153041768237043,0.03632411540662396,0.9988425258271204,193.7324210048659,20.38555543491393,-7.126927970816515,0.4590191342302874,-39.124603271484375,4381.2578125,True
1599564893.8630247,0.0,10,0.5,0.5,0.05176824035644531,-0.001,-0.001,-0.5,0.7806767320905423,10,1,100,-0.2862579683091792,-10,-1,-100,6488.352190803154,-0.02564769962063359,0.039897215820971076,0.998874570541219,192.50341922388455,20.258827914087004,1.7566422397212815,-0.1138369257393923,-39.432861328125,4381.2578125,True
1599564893.9178753,0.0,10,0.5,0.5,-0.10214608459472656,-0.001,-0.001,-0.5,0.4261245505890794,10,1,100,0.2988635559956561,-10,-1,-100,6488.352190803154,-0.02564769962063359,0.039897215820971076,0.998874570541219,192.50341922388455,20.258827914087004,1.7566422397212815,-0.1138369257393923,-39.432861328125,4381.2578125,True
1599564893.973725,0.0,10,0.5,0.5,0.10682489318847657,-0.001,-0.001,-0.5,0.8850614622985848,10,1,100,-0.6335383128409827,-10,-1,-100,6488.299934495124,-0.017198134406445728,0.0440466662970352,0.9988814320834357,191.90245158493855,20.19956148264383,13.513229711030652,-0.8781989757571571,-39.849578857421875,4381.2578125,True
1599564894.0408287,0.0,10,0.5,0.5,-0.04955269470214843,-0.001,-0.001,-0.5,0.5899386848782475,10,1,100,-0.03881298023462326,-10,-1,-100,6488.271632103017,-0.014956835653857924,0.04511074188434132,0.9988700185879381,191.95384358578966,20.206054560510804,16.460436809734254,-1.069368161158518,-39.952880859375,4381.2578125,True
1599564894.1007025,0.0,10,0.5,0.5,0.009997808837890615,-0.001,-0.001,-0.5,0.675084540452068,10,1,100,-0.31764623052306507,-10,-1,-100,6488.2131033274345,-0.010417875945912479,0.0468283124768426,0.9988486256742544,192.05100391140493,20.218553183217338,22.361601440069368,-1.4517934779053716,-40.174407958984375,4381.2578125,True
1599564894.1520493,0.0,10,0.5,0.5,0.058394171142578125,-0.001,-0.001,-0.5,0.7536172757213946,10,1,100,-0.6482265445556048,-10,-1,-100,6488.127805142663,-0.0033190509495108498,0.04908334982342367,0.9987891712823612,192.08295963287728,20.225576553586592,31.212719906869207,-2.025638321227471,-40.49169921875,4381.2578125,True
1599564894.2069354,0.0,10,0.5,0.5,0.012786120605468743,-0.001,-0.001,-0.5,0.6629425147117483,10,1,100,-0.4798445302244661,-10,-1,-100,6488.008325868635,0.0015657680872003042,0.050287942063173885,0.9987335336581765,192.07086251567873,20.226894476511532,37.11310265124557,-2.4083307730962424,-40.716888427734375,4381.2578125,True
1599564894.2637513,0.0,10,0.5,0.5,-0.04287647094726563,-0.001,-0.001,-0.5,0.5921313457324331,10,1,100,-0.26444453147507596,-10,-1,-100,6487.980579503463,0.004010237613588694,0.050720675325245226,0.9987048268076176,192.04566910168626,20.225579143924932,40.06036323536645,-2.5997134518819043,-40.830108642578125,4381.2578125,True
1599564894.3305714,0.0,10,0.5,0.5,0.06473201599121094,-0.001,-0.001,-0.5,0.6652464980488955,10,1,100,-0.8520147175213936,-10,-1,-100,6487.767985664774,0.011535216217559414,0.05176102535870459,0.9985928775234828,192.00023338613852,20.224947067996897,48.91057860894653,-3.1739977032283933,-41.157470703125,4381.2578125,True
1599564894.3834372,0.0,10,0.5,0.5,0.013711367797851565,-0.001,-0.001,-0.5,0.6085300770981252,10,1,100,-0.6699110124225973,-10,-1,-100,6487.648108721594,0.016678120757951276,0.05217488079037137,0.9984986840764958,191.96688504415312,20.224292466168578,54.81204836134452,-3.5569582609009736,-41.38189697265625,4381.2578125,True
1599564894.4422805,0.0,10,0.5,0.5,-0.09827603759765624,-0.001,-0.001,-0.5,0.5687296104698217,10,1,100,-0.16044141222744332,-10,-1,-100,6487.648108721594,0.016678120757951276,0.05217488079037137,0.9984986840764958,191.96688504415312,20.224292466168578,54.81204836134452,-3.5569582609009736,-41.38189697265625,4381.2578125,True
1599564894.4991622,0.0,10,0.5,0.5,0.016053540039062494,-0.001,-0.001,-0.5,0.5596597566779198,10,1,100,-0.72014733984491,-10,-1,-100,6487.465756230871,0.021727878445038623,0.05208126606047281,0.9984064508124013,191.8892521040735,20.219017601085813,60.701125407426765,-3.939994450719299,-41.609710693359375,4381.2578125,True
1599564894.5509903,0.0,10,0.5,0.5,0.013563491821289062,-0.001,-0.001,-0.5,0.5378583783694957,10,1,100,-0.784901799776403,-10,-1,-100,6487.346902475692,0.026864175452617354,0.051786891002997985,0.9982967664965637,191.82788731497055,20.215477041711562,66.59475986660513,-4.32309826533941,-41.8316650390625,4381.2578125,True
1599564894.6078382,0.0,10,0.5,0.5,0.08517066650390624,-0.001,-0.001,-0.5,0.46603364063048613,10,1,100,-1.1347460161012521,-10,-1,-100,6487.071037083282,0.03467388168986114,0.050859288585206275,0.9981037294255363,191.78076772929734,20.214866851153275,75.4527319893396,-4.897859728293601,-42.195709228515625,4381.2578125,True
1599564894.6786847,0.0,10,0.5,0.5,-0.03248850402832032,-0.001,-0.001,-0.5,0.5033535206039954,10,1,100,-0.6406520866289507,-10,-1,-100,6486.918877420016,0.037236732803658454,0.05035005934451765,0.9980372223790617,191.73877369056228,20.211865578951592,78.39552304492351,-5.089470130092195,-42.32373046875,4381.2578125,True
1599564894.734531,0.0,10,0.5,0.5,0.03289515991210937,-0.001,-0.001,-0.5,0.41999415733607026,10,1,100,-0.9533711395266402,-10,-1,-100,6486.734205475659,0.04236617556186267,0.049126109689758064,0.9978936478979167,191.63633067404606,20.203843280485888,84.27188020414474,-5.472718730834649,-42.581573486328125,4381.2578125,True
1599564894.7883916,0.0,10,0.5,0.5,0.029769003295898433,-0.001,-0.001,-0.5,0.3661926763854312,10,1,100,-0.9952680386125321,-10,-1,-100,6486.4899776357925,0.047368654218727914,0.04752428494054687,0.9977462868577344,191.49186268480588,20.191255179917725,90.12582886378615,-5.855996232963841,-42.832244873046875,4381.2578125,True
1599564894.8452036,0.0,10,0.5,0.5,0.0941863800048828,-0.001,-0.001,-0.5,0.20102194471964624,10,1,100,-1.3206047298067998,-10,-1,-100,6486.089743492077,0.05483232938479736,0.04456904093259558,0.9975003840824251,191.23031223041264,20.167297588916053,98.87376044574745,-6.430946955002904,-43.2105712890625,4381.2578125,True
1599564894.901057,0.0,10,0.5,0.5,-0.030538983154296873,-0.001,-0.001,-0.5,0.3656077884658261,10,1,100,-0.8433011183642201,-10,-1,-100,6485.998170802952,0.057232162984681395,0.04338428280887118,0.9974178079046185,191.1224384241902,20.15701164127823,101.77517626042804,-6.622601910956723,-43.338714599609375,4381.2578125,True
1599564894.9579036,0.0,10,0.5,0.5,0.033502536010742184,-0.001,-0.001,-0.5,0.19591782374572397,10,1,100,-1.1253636052585405,-10,-1,-100,6485.691011816845,0.061936491641099684,0.040772209146711556,0.9972469593658778,190.88544449821296,20.1339738182214,107.55879849095088,-7.005913020033939,-43.593994140625,4381.2578125,True
1599564895.0127914,0.0,10,0.5,0.5,0.15045296325683594,-0.001,-0.001,-0.5,-0.22403202930360683,10,1,100,-1.6424504293815663,-10,-1,-100,6485.136788019445,0.07087279939270459,0.034590236854884944,0.9968854306391305,190.3369212102289,20.078927393947748,119.0464797789382,-7.772512359553913,-44.081756591796875,4381.2578125,True
1599564895.0676434,0.0,10,0.5,0.5,0.03125081176757813,-0.001,-0.001,-0.5,-0.0017118891962873972,10,1,100,-1.20912754578843,-10,-1,-100,6484.765705440426,0.0750081486991035,0.031007340266868643,0.9967007186103096,190.0329256910009,20.04758977443839,124.75084201090485,-8.155786402302116,-44.330078125,4381.2578125,True
1599564895.122462,0.0,10,0.5,0.5,0.02086989440917969,-0.001,-0.001,-0.5,-0.0592048802969381,10,1,100,-1.2222407276663123,-10,-1,-100,6484.45663979114,0.07883833129448864,0.02724665610938755,0.9965149959983327,189.70685592484946,20.013374732246596,130.4248517182562,-8.539034451037185,-44.556640625,4381.2578125,True
1599564895.1783128,0.0,10,0.5,0.5,-0.03868744201660157,-0.001,-0.001,-0.5,0.09115022504344666,10,1,100,-1.0498881026674998,-10,-1,-100,6484.3021074158605,0.08070622419408423,0.025217026228311516,0.9964188913125519,189.54375002572473,19.996038012517534,133.25558964074037,-8.730646583129246,-44.663330078125,4381.2578125,True
1599564895.23444,0.0,10,0.5,0.5,-0.03934308471679687,-0.001,-0.001,-0.5,0.06201717504643489,10,1,100,-1.0648079266051904,-10,-1,-100,6484.085564221023,0.0824980958272372,0.023130373393139465,0.9963227639733894,189.38183189237535,19.978673316664427,136.0830334789404,-8.922249864813768,-44.76800537109375,4381.2578125,True
1599564895.2992668,0.0,10,0.5,0.5,0.012255773925781241,-0.001,-0.001,-0.5,-0.20801644228294247,10,1,100,-1.2573573278740449,-10,-1,-100,6483.713513905299,0.08583637244798079,0.018803310372671786,0.9961317948364063,189.0559955782535,19.943241015641032,141.72407147360306,-9.30542694578956,-44.9749755859375,4381.2578125,True
1599564895.3531227,0.0,10,0.5,0.5,0.1343896759033203,-0.001,-0.001,-0.5,-0.823466459460243,10,1,100,-1.5794053761165863,-10,-1,-100,6482.969924540957,0.09175936054460158,0.009302182742741243,0.9957377612346869,188.41559193885072,19.871387744971837,152.96546340074605,-10.071646635511549,-45.424835205078125,4381.2578125,True
1599564895.4094856,0.0,10,0.5,0.5,-0.09028087463378906,-0.001,-0.001,-0.5,0.12282409331303076,10,1,100,-0.9915456370870938,-10,-1,-100,6482.969924540957,0.09175936054460158,0.009302182742741243,0.9957377612346869,188.41559193885072,19.871387744971837,152.96546340074605,-10.071646635511549,-45.424835205078125,4381.2578125,True
1599564895.4673405,0.0,10,0.5,0.5,0.031138885498046873,-0.001,-0.001,-0.5,-0.43732023007313603,10,1,100,-1.2673423779677149,-10,-1,-100,6482.535397978383,0.09423303361518923,0.004242022401221412,0.995541129547959,188.1004211660192,19.834757598073722,158.56596936163177,-10.454680721771481,-45.666748046875,4381.2578125,True
1599564895.5261824,0.0,10,0.5,0.5,0.13810362243652344,-0.001,-0.001,-0.5,-1.1113707437404488,10,1,100,-1.456404989575072,-10,-1,-100,6481.66582174995,0.09816694117521714,-0.006450271433128866,0.9951490570054019,187.55120462685775,19.767247972657827,169.79240323685474,-11.220578660881026,-46.1212158203125,4381.2578125,True
1599564895.5780416,0.0,10,0.5,0.5,-0.030151315307617194,-0.001,-0.001,-0.5,-0.34761342252913685,10,1,100,-1.1452122609523636,-10,-1,-100,6481.448305483675,0.09888125919727779,-0.00918436065281734,0.9950568547067851,187.43550631002898,19.752035076772216,172.6104792027025,-11.412015428426631,-46.238433837890625,4381.2578125,True
1599564895.633894,0.0,10,0.5,0.5,0.07671745910644531,-0.001,-0.001,-0.5,-0.9966596665377787,10,1,100,-1.2420888036444542,-10,-1,-100,6480.734202224645,0.10038587282380232,-0.017530521618514785,0.9947941281235964,187.14032382809248,19.710244131987604,181.09875612051036,-11.98623075631037,-46.56829833984375,4381.2578125,True
1599564895.6887462,0.0,10,0.5,0.5,0.015945736694335938,-0.001,-0.001,-0.5,-0.8139736255317624,10,1,100,-1.1665384899824915,-10,-1,-100,6480.234179565217,0.10104381170178432,-0.02341303315828924,0.9946064437731656,187.0291377581588,19.69002008658178,186.83238095111548,-12.368960286471664,-46.7757568359375,4381.2578125,True
1599564895.7465916,0.0,10,0.5,0.5,0.009265579223632803,-0.001,-0.001,-0.5,-0.8595531646465153,10,1,100,-1.100824137112824,-10,-1,-100,6479.736073638196,0.1010243479462189,-0.0291290761052477,0.9944574289768747,186.98040188811214,19.67522256530599,192.62716053670192,-12.751624237397046,-46.969024658203125,4381.2578125,True
1599564895.8001862,0.0,10,0.5,0.5,-0.08713776245117187,-0.001,-0.001,-0.5,-0.29338348018402527,10,1,100,-1.1048023250445802,-10,-1,-100,6479.736073638196,0.1010243479462189,-0.0291290761052477,0.9944574289768747,186.98040188811214,19.67522256530599,192.62716053670192,-12.751624237397046,-46.969024658203125,4381.2578125,True
1599564895.8645296,0.0,10,0.5,0.5,0.005811984252929697,-0.001,-0.001,-0.5,-0.9446225407890183,10,1,100,-1.0639352705336562,-10,-1,-100,6479.17591780494,0.10063598722146597,-0.03500192261120365,0.9943074290628026,187.0198094393383,19.668501952404117,198.51629969567927,-13.1342222799146,-47.15411376953125,4381.2578125,True
1599564895.916391,0.0,10,0.5,0.5,0.0036463836669921867,-0.001,-0.001,-0.5,-1.0087129185076928,10,1,100,-1.0046202779572586,-10,-1,-100,6478.6757827856345,0.09973025061665652,-0.040874599929529846,0.9941746044797863,187.15181286429305,19.670288837625186,204.5130468106628,-13.516754806775491,-47.334075927734375,4381.2578125,True
1599564895.972267,0.0,10,0.5,0.5,0.0621013458251953,-0.001,-0.001,-0.5,-1.4210648653731217,10,1,100,-0.8640915354295331,-10,-1,-100,6477.834996993537,0.0976220734165122,-0.04991643629708277,0.9939709654558629,187.52760336389062,19.689238183586312,213.73399505738323,-14.09043201222137,-47.629974365234375,4381.2578125,True
1599564896.0341094,0.0,10,0.5,0.5,-0.03497388610839844,-0.001,-0.001,-0.5,-0.8511375134605089,10,1,100,-0.966841102641932,-10,-1,-100,6477.552937628818,0.09663430592479198,-0.05290129468743456,0.9939131068352136,187.69153165121043,19.698928329004445,216.86228689009775,-14.281625606466026,-47.7310791015625,4381.2578125,True
1599564896.083943,0.0,10,0.5,0.5,0.11180520935058594,-0.001,-0.001,-0.5,-1.879707058539466,10,1,100,-0.5067413495293518,-10,-1,-100,6476.365564084961,0.0915514274746505,-0.06491348607293702,0.9936823312574359,188.64246775850359,19.76500442146125,229.79768849909067,-15.046243114545035,-48.124542236328125,4381.2578125,True
1599564896.1427858,0.0,10,0.5,0.5,-0.03994364624023437,-0.001,-0.001,-0.5,-1.0174428946112015,10,1,100,-0.8409832391571489,-10,-1,-100,6476.084460651153,0.08997520561995692,-0.06794174655619158,0.9936238631637934,188.9643516054756,19.78938462131967,233.15694193835924,-15.237358816763376,-48.21392822265625,4381.2578125,True
1599564896.199148,0.0,10,0.5,0.5,0.0372790802001953,-0.001,-0.001,-0.5,-1.6920951541111726,10,1,100,-0.4073182276903893,-10,-1,-100,6475.11518666707,0.08460796387833523,-0.07677449718560148,0.9934521473278219,190.1330408629478,19.881331545211896,243.56288630730347,-15.810613729649091,-48.456878662109375,4381.2578125,True
1599564896.2510073,0.0,10,0.5,0.5,-0.010740924072265623,-0.001,-0.001,-0.5,-1.4617308398858944,10,1,100,-0.4759190532981446,-10,-1,-100,6474.4890386712505,0.0803666406268819,-0.08265619128704696,0.9933323497783955,191.1063222541256,19.960779609474972,250.82270324490293,-16.19270692173857,-48.603118896484375,4381.2578125,True
1599564896.3088527,0.0,10,0.5,0.5,-0.015335104370117189,-0.001,-0.001,-0.5,-1.4994322318864408,10,1,100,-0.40011271437258505,-10,-1,-100,6473.801390039851,0.07584054110903278,-0.08829206843552168,0.9932032636755008,192.20084124223376,20.05105808822428,258.31218667494784,-16.574738996676164,-48.739532470703125,4381.2578125,True
1599564896.3647032,0.0,10,0.5,0.5,-0.0833648406982422,-0.001,-0.001,-0.5,-0.9417608162719965,10,1,100,-0.8502042854737781,-10,-1,-100,6473.801390039851,0.07584054110903278,-0.08829206843552168,0.9932032636755008,192.20084124223376,20.05105808822428,258.31218667494784,-16.574738996676164,-48.739532470703125,4381.2578125,True
1599564896.419557,0.0,10,0.5,0.5,0.04597627258300781,-0.001,-0.001,-0.5,-2.1499869882916376,10,1,100,0.291409926109195,-10,-1,-100,6472.424726557569,0.0654851244644941,-0.09922215818812725,0.9929081839718916,194.83256675128376,20.271904614080075,274.13846696913197,-17.338620729374142,-48.997344970703125,4381.2578125,True
1599564896.4872599,0.0,10,0.5,0.5,-0.082745654296875,-0.001,-0.001,-0.5,-1.063400036588772,10,1,100,-0.7406166520689755,-10,-1,-100,6472.424726557569,0.0654851244644941,-0.09922215818812725,0.9929081839718916,194.83256675128376,20.271904614080075,274.13846696913197,-17.338620729374142,-48.997344970703125,4381.2578125,True
1599564896.5411162,0.0,10,0.5,0.5,-0.012493145751953122,-0.001,-0.001,-0.5,-1.6602503725221724,10,1,100,-0.09076099724319375,-10,-1,-100,6471.7357379355235,0.059608477717125324,-0.1045950270981958,0.9927269058963673,196.34404412563075,20.39954589638972,282.46695075055754,-17.720470415657196,-49.137237548828125,4381.2578125,True
1599564896.5999577,0.0,10,0.5,0.5,-0.01643766479492187,-0.001,-0.001,-0.5,-1.6623630742201707,10,1,100,-0.02507631074836303,-10,-1,-100,6471.046803541947,0.05370349588383651,-0.10944895194932983,0.9925406094699843,197.97345153453549,20.537161396299723,291.0710782918746,-18.102260516467112,-49.2686767578125,4381.2578125,True
1599564896.6558087,0.0,10,0.5,0.5,0.059758941650390626,-0.001,-0.001,-0.5,-2.2395376962346827,10,1,100,0.8566995951728593,-10,-1,-100,6469.543165237876,0.04035821399069098,-0.11905724596207277,0.9920668257468386,201.69961439813488,20.853572270118654,309.32709686174445,-18.86565860066591,-49.5516357421875,4381.2578125,True
1599564896.7096648,0.0,10,0.5,0.5,-0.010406118774414067,-0.001,-0.001,-0.5,-1.767292404012357,10,1,100,0.3045742994102111,-10,-1,-100,6468.790967653273,0.033291999697931805,-0.12344969808082783,0.991792223603243,203.83140934850556,21.035635363828032,319.06460212092395,-19.247265954587093,-49.693695068359375,4381.2578125,True
1599564896.7645185,0.0,10,0.5,0.5,-0.08128780517578126,-0.001,-0.001,-0.5,-1.3335979872893153,10,1,100,-0.3963788092735036,-10,-1,-100,6468.790967653273,0.033291999697931805,-0.12344969808082783,0.991792223603243,203.83140934850556,21.035635363828032,319.06460212092395,-19.247265954587093,-49.693695068359375,4381.2578125,True
1599564896.821366,0.0,10,0.5,0.5,-0.018753173828124997,-0.001,-0.001,-0.5,-1.7638087992888056,10,1,100,0.3846759797792807,-10,-1,-100,6467.976802411955,0.026238152492161406,-0.12731827346182753,0.9915148090656525,206.0798682868858,21.22691476847552,329.1322034912365,-19.628810833592485,-49.818267822265625,4381.2578125,True
1599564896.8792114,0.0,10,0.5,0.5,0.03749764404296875,-0.001,-0.001,-0.5,-2.1732979888927257,10,1,100,1.3581626230806563,-10,-1,-100,6466.348136017565,0.011024893264298282,-0.13451718727534037,0.9908499271110848,210.89529144562914,21.633495291821028,350.2523881147653,-20.391705832465593,-50.05462646484375,4381.2578125,True
1599564897.3255682,0.0,10,0.5,0.5,-0.08055016784667969,-0.001,-0.001,-0.5,-1.4580291194254236,10,1,100,-0.15668173492118254,-10,-1,-100,6466.348136017565,0.011024893264298282,-0.13451718727534037,0.9908499271110848,210.89529144562914,21.633495291821028,350.2523881147653,-20.391705832465593,-50.05462646484375,4381.2578125,True
1599564897.3684578,0.0,10,0.5,0.5,-0.04953425903320313,-0.001,-0.001,-0.5,-1.6269100633900655,10,1,100,0.26976705709827464,-10,-1,-100,6465.939914516173,0.007207009380343884,-0.13601044574880092,0.9906811887095688,212.14045461231643,21.737485754894443,355.7035637302188,-20.582388669906656,-50.11627197265625,4381.2578125,True
1599564897.4183273,0.0,10,0.5,0.5,-0.01951599426269532,-0.001,-0.001,-0.5,-1.7801876653438056,10,1,100,0.74752258903005,-10,-1,-100,6465.125948712463,-0.0005540461543724801,-0.13872794229919844,0.9903303747024471,214.72848924172854,21.953066256730548,366.89980368970083,-20.963705327520305,-50.23748779296875,4381.2578125,True
1599564897.474769,0.0,10,0.5,0.5,0.016475634765624997,-0.001,-0.001,-0.5,-1.918782857697442,10,1,100,1.329171505285348,-10,-1,-100,6463.841882429668,-0.012837232996782006,-0.1424224356535828,0.989722716356196,218.8119234457752,22.29085440217371,384.3783925156441,-21.53555240302865,-50.4300537109375,4381.2578125,True
1599564897.5236382,0.0,10,0.5,0.5,-0.0469130584716797,-0.001,-0.001,-0.5,-1.6573986154267513,10,1,100,0.5547376301636741,-10,-1,-100,6463.434227912454,-0.01689759879721735,-0.14337045703823925,0.9895248269768346,220.20999368877935,22.40551439461028,390.36293355635746,-21.72613378338256,-50.495452880859375,4381.2578125,True
1599564897.5814834,0.0,10,0.5,0.5,-0.014586859130859373,-0.001,-0.001,-0.5,-1.7416664571021618,10,1,100,1.0590872373117226,-10,-1,-100,6462.556432884885,-0.025109654049248965,-0.14496752821671346,0.9891177488227897,223.0837969387102,22.6401057979306,402.61576999556866,-22.107244070149132,-50.625,4381.2578125,True
1599564897.63534,0.0,10,0.5,0.5,-0.017254943847656246,-0.001,-0.001,-0.5,-1.7162573060901805,10,1,100,1.1608042521597577,-10,-1,-100,6461.617115742993,-0.033440342715132625,-0.1461648640222587,0.9886948851918113,226.04145886332688,22.879664998228424,415.219873061924,-22.48828214775442,-50.748748779296875,4381.2578125,True
1599564897.685207,0.0,10,0.5,0.5,-0.0472832275390625,-0.001,-0.001,-0.5,-1.64777168245048,10,1,100,0.7971037903229888,-10,-1,-100,6461.210453873267,-0.03764666244704436,-0.14661010438881034,0.988477721599076,227.54518150087432,23.000630861697594,421.64431993594224,-22.678773290687396,-50.812103271484375,4381.2578125,True
1599564897.7470417,0.0,10,0.5,0.5,-0.01620834350585937,-0.001,-0.001,-0.5,-1.6488391949899448,10,1,100,1.2935839017068578,-10,-1,-100,6460.2687002585735,-0.04591955534123113,-0.14700351810302698,0.9880695117766749,230.58009622322652,23.242629687845163,434.7006802041283,-23.05969931025603,-50.9371337890625,4381.2578125,True
1599564897.7989018,0.0,10,0.5,0.5,0.04844242248535156,-0.001,-0.001,-0.5,-1.5462161740652673,10,1,100,2.3086988603774707,-10,-1,-100,6458.389540266362,-0.0626030869531034,-0.14641033470332576,0.9872410381441821,236.84950501899726,23.73588875916529,461.83432168531925,-23.82131782225316,-51.19073486328125,4381.2578125,True
1599564897.8517606,0.0,10,0.5,0.5,-0.045357205200195316,-0.001,-0.001,-0.5,-1.5530287288939508,10,1,100,1.1028149152737663,-10,-1,-100,6457.916933462839,-0.06674041802639234,-0.14592219743165089,0.9870422629747829,238.44279152513104,23.85955938511091,468.80520941307907,-24.01167217407239,-51.256378173828125,4381.2578125,True
1599564897.9074173,0.0,10,0.5,0.5,-0.01336962890625,-0.001,-0.001,-0.5,-1.4550725474129669,10,1,100,1.6075715774733461,-10,-1,-100,6456.916041120538,-0.07501962928456875,-0.1445775573437954,0.9866455215195108,241.67097791342871,24.108383687527084,482.99754568372487,-24.39231890692188,-51.385498046875,4381.2578125,True
1599564897.9592795,0.0,10,0.5,0.5,-0.04809552001953124,-0.001,-0.001,-0.5,-1.495486069157026,10,1,100,1.2425697496929098,-10,-1,-100,6456.445860755281,-0.07915323504975705,-0.14371476463287733,0.9864485956235503,243.30981185472825,24.23394232199995,490.2285845836515,-24.58261042494486,-51.444793701171875,4381.2578125,True
1599564898.014133,0.0,10,0.5,0.5,0.012721896362304697,-0.001,-0.001,-0.5,-1.2108168147210188,10,1,100,2.1947431726140936,-10,-1,-100,6454.91029280494,-0.091495726691125,-0.1403379718350484,0.9858670222999084,248.31044870589085,24.613815443203553,512.4421503202649,-25.153352946673234,-51.6251220703125,4381.2578125,True
1599564898.0729759,0.0,10,0.5,0.5,-0.0466830108642578,-0.001,-0.001,-0.5,-1.3954872601520574,10,1,100,1.4186274386628268,-10,-1,-100,6454.4391211245675,-0.09558906833490768,-0.13894887739895748,0.9856753722623052,250.00005758164403,24.741011309323635,520.0119479541551,-25.343555337818724,-51.686279296875,4381.2578125,True
1599564898.1298249,0.0,10,0.5,0.5,0.05191449584960936,-0.001,-0.001,-0.5,-0.7778253214193237,10,1,100,2.8056786339207727,-10,-1,-100,6452.371323869214,-0.11184830663202082,-0.1320749753591584,0.9849092126624803,256.8688361126687,25.252694305413108,551.1301620080442,-26.10413010754332,-51.943878173828125,4381.2578125,True
1599564898.183682,0.0,10,0.5,0.5,-0.0099540740966797,-0.001,-0.001,-0.5,-0.9988690412030112,10,1,100,2.074649496157233,-10,-1,-100,6451.30546065222,-0.11990485960192533,-0.12784718236906328,0.9845191326755076,260.3760256136874,25.511190020191147,567.2172874704744,-26.48427145422169,-52.07720947265625,4381.2578125,True
1599564898.2404604,0.0,10,0.5,0.5,-0.04320205688476564,-0.001,-0.001,-0.5,-1.1699871618652065,10,1,100,1.7149777251776226,-10,-1,-100,6450.772783585242,-0.12388065118667226,-0.1255760059128633,0.9843191814653103,262.14525832620444,25.640927694590903,575.3900148075321,-26.674304283772216,-52.143646240234375,4381.2578125,True
1599564898.2993035,0.0,10,0.5,0.5,-0.01369286499023438,-0.001,-0.001,-0.5,-0.847786064124876,10,1,100,2.1996497022594212,-10,-1,-100,6449.70648392709,-0.1318227215201498,-0.12060132106274754,0.9839095951605215,265.724837390672,25.902492027893256,592.0193098116595,-27.05429223793078,-52.268585205078125,4381.2578125,True
1599564898.3611386,0.0,10,0.5,0.5,-0.013312466430664055,-0.001,-0.001,-0.5,-0.7372754183292267,10,1,100,2.2814791917678656,-10,-1,-100,6448.578711680369,-0.1397085961223162,-0.11509824005271847,0.9834805047921886,269.35363547273215,26.166486883242044,609.0203030155693,-27.43417279548303,-52.393768310546875,4381.2578125,True
1599564898.4169881,0.0,10,0.5,0.5,-0.008862420654296876,-0.001,-0.001,-0.5,-0.6264330370902407,10,1,100,2.357212084523392,-10,-1,-100,6447.513019575039,-0.14749595795918208,-0.10911624666383818,0.9830252220058748,273.0291415455097,26.432970821314914,626.393898301033,-27.81394274471944,-52.52734375,4381.2578125,True
1599564898.475346,0.0,10,0.5,0.5,-0.041060946655273434,-0.001,-0.001,-0.5,-0.8718078020747563,10,1,100,2.011008119455089,-10,-1,-100,6446.917949343217,-0.1513546549103185,-0.10594221049268607,0.9827858446644935,274.882768987579,26.567088903108278,635.2186633904336,-28.003785222053097,-52.59613037109375,4381.2578125,True
1599564898.5321956,0.0,10,0.5,0.5,0.031294430541992185,-0.001,-0.001,-0.5,-0.06390834868334028,10,1,100,2.885049789279953,-10,-1,-100,6445.259352185414,-0.16273899911373604,-0.09574730562158137,0.9820124600195596,280.49658342730095,26.972484061475292,662.2290121309251,-28.573136751138822,-52.8089599609375,4381.2578125,True
1599564898.5830977,0.0,10,0.5,0.5,0.03795816040039063,-0.001,-0.001,-0.5,0.16225753256231057,10,1,100,2.9812549188546438,-10,-1,-100,6443.473579474608,-0.1738870079638274,-0.08446676359926328,0.9811364198257314,286.1731724272763,27.381941812645607,690.0176972901952,-29.142215107135602,-53.034393310546875,4381.2578125,True
1599564898.64194,0.0,10,0.5,0.5,-0.03527820129394532,-0.001,-0.001,-0.5,-0.5376220694608532,10,1,100,2.263968267216633,-10,-1,-100,6442.880176909268,-0.17742587255695333,-0.08062505924121721,0.9808260088159132,288.10665369682334,27.52221932560723,699.5227210205335,-29.331844653370048,-53.1129150390625,4381.2578125,True
1599564898.7009661,0.0,10,0.5,0.5,0.038882070922851564,-0.001,-0.001,-0.5,0.4137047399333057,10,1,100,3.0547260513699204,-10,-1,-100,6441.156303664437,-0.18775733222098676,-0.06853719684682638,0.9798213290420031,293.9963984307717,27.951960245949994,728.696689388931,-29.900533876367167,-53.339019775390625,4381.2578125,True
1599564898.7537043,0.0,10,0.5,0.5,-0.07403078308105468,-0.001,-0.001,-0.5,-0.7887277216545443,10,1,100,2.0291709875254744,-10,-1,-100,6441.156303664437,-0.18775733222098676,-0.06853719684682638,0.9798213290420031,293.9963984307717,27.951960245949994,728.696689388931,-29.900533876367167,-53.339019775390625,4381.2578125,True
1599564898.8055627,0.0,10,0.5,0.5,0.0013340759277343794,-0.001,-0.001,-0.5,0.16758383441300795,10,1,100,2.7761430868125236,-10,-1,-100,6439.909720742842,-0.1944863036030335,-0.05989737359668703,0.9790747583034951,297.90087869648545,28.23733006322998,748.4626701721222,-30.279488212530623,-53.48919677734375,4381.2578125,True
1599564898.8574655,0.0,10,0.5,0.5,0.0023832733154296876,-0.001,-0.001,-0.5,0.24852096170073357,10,1,100,2.7892377580737935,-10,-1,-100,6438.711101469118,-0.2006584058232545,-0.051366904605141185,0.9783136742802668,301.799886167337,28.523689251413124,768.5132387331378,-30.65830066361392,-53.640899658203125,4381.2578125,True
1599564898.9092853,0.0,10,0.5,0.5,0.09231341247558593,-0.001,-0.001,-0.5,1.4258423926231012,10,1,100,3.488779109780772,-10,-1,-100,6436.208338748082,-0.21256629678051603,-0.032971951073948534,0.9765902006038126,309.5046578467988,29.094631245507824,809.2729653396393,-31.415483242012208,-53.971527099609375,4381.2578125,True
1599564898.9619277,0.0,10,0.5,0.5,-0.07284253234863282,-0.001,-0.001,-0.5,-0.4054403315982869,10,1,100,2.3052757841204397,-10,-1,-100,6436.208338748082,-0.21256629678051603,-0.032971951073948534,0.9765902006038126,309.5046578467988,29.094631245507824,809.2729653396393,-31.415483242012208,-53.971527099609375,4381.2578125,True
1599564899.022799,0.0,10,0.5,0.5,0.05701636352539062,-0.001,-0.001,-0.5,1.152259894480213,10,1,100,3.1820838947261167,-10,-1,-100,6434.300928417244,-0.22047812475073006,-0.018880262014680255,0.9752091735687572,315.20707339878777,29.524721635699606,840.429156620067,-31.98296786622386,-54.230438232421875,4381.2578125,True
1599564899.0786238,0.0,10,0.5,0.5,0.050145706176757815,-0.001,-0.001,-0.5,1.3627632422240754,10,1,100,3.1957136898638643,-10,-1,-100,6432.330206597224,-0.22773176334323106,-0.004235116025381255,0.9737146952556658,320.75268533829103,29.95065215338727,871.8349216773206,-32.55009168723002,-54.47479248046875,4381.2578125,True
1599564899.1375022,0.0,10,0.5,0.5,-0.07186483459472656,-0.001,-0.001,-0.5,-0.09260013774620456,10,1,100,2.4768491070367142,-10,-1,-100,6432.330206597224,-0.22773176334323106,-0.004235116025381255,0.9737146952556658,320.75268533829103,29.95065215338727,871.8349216773206,-32.55009168723002,-54.47479248046875,4381.2578125,True
1599564899.18981,0.0,10,0.5,0.5,0.09049874877929687,-0.001,-0.001,-0.5,2.0192484304718197,10,1,100,3.3377071133319713,-10,-1,-100,6429.706145445583,-0.23550879544102485,0.014890569460624524,0.9717581377128034,327.8711746259753,30.513691631414787,913.976991530991,-33.30567295692294,-54.798583984375,4381.2578125,True
1599564899.2426689,0.0,10,0.5,0.5,0.00992720336914063,-0.001,-0.001,-0.5,1.2173443643925872,10,1,100,2.9515430492645836,-10,-1,-100,6428.382197286002,-0.23901543956305743,0.02490068691199872,0.9706964383584544,331.2501488623211,30.78908141233491,934.9722433292867,-33.6832046448963,-54.9605712890625,4381.2578125,True
1599564899.3060114,0.0,10,0.5,0.5,-0.07090429382324218,-0.001,-0.001,-0.5,0.2256764076310501,10,1,100,2.6060044477955326,-10,-1,-100,6428.382197286002,-0.23901543956305743,0.02490068691199872,0.9706964383584544,331.2501488623211,30.78908141233491,934.9722433292867,-33.6832046448963,-54.9605712890625,4381.2578125,True
1599564899.3608634,0.0,10,0.5,0.5,0.008884570312500006,-0.001,-0.001,-0.5,1.2905058229370208,10,1,100,2.9160175825752903,-10,-1,-100,6427.009906382882,-0.24178714250892608,0.03449601079318134,0.9697159393125006,334.52902778712087,31.063345553802147,955.959563971382,-34.060559708872546,-55.1195068359375,4381.2578125,True
1599564899.412726,0.0,10,0.5,0.5,0.0044821411132812405,-0.001,-0.001,-0.5,1.4075122409149654,10,1,100,2.906705728729814,-10,-1,-100,6425.627312671044,-0.24417921848029697,0.04419691504461061,0.9687224277175019,337.6904991885941,31.335771798305597,976.8795403706836,-34.43773451833949,-55.269012451171875,4381.2578125,True
1599564899.470605,0.0,10,0.5,0.5,0.05154915771484375,-0.001,-0.001,-0.5,2.065860072509987,10,1,100,2.9857365627783743,-10,-1,-100,6423.5350898940815,-0.24703273075229648,0.05891402299709219,0.9672145407464475,342.14917204528166,31.73666024666153,1007.9213756292033,-35.003152174247155,-55.5118408203125,4381.2578125,True
1599564899.5264564,0.0,10,0.5,0.5,-0.027512509155273437,-0.001,-0.001,-0.5,1.1323129885419125,10,1,100,2.7769193597560697,-10,-1,-100,6422.829842124949,-0.24769716148666437,0.06372288766866473,0.9667396287411705,343.56876184097246,31.869474717400063,1018.197649742125,-35.19153194214894,-55.5960693359375,4381.2578125,True
1599564899.5802777,0.0,10,0.5,0.5,0.015177288818359363,-0.001,-0.001,-0.5,1.7214725073091808,10,1,100,2.825008593452186,-10,-1,-100,6421.442715779296,-0.24870642712904883,0.07336267405093982,0.9657965785613442,346.2886380823924,32.132631236602336,1038.5755152154522,-35.56815029458122,-55.7650146484375,4381.2578125,True
1599564899.643148,0.0,10,0.5,0.5,0.011967861938476557,-0.001,-0.001,-0.5,1.8177906602932423,10,1,100,2.783262063792341,-10,-1,-100,6420.011532233912,-0.24921876535032855,0.08291787857462173,0.9648909950921618,348.8861542710109,32.3964460039987,1058.8181447983632,-35.94457818481245,-55.926910400390625,4381.2578125,True
1599564899.690982,0.0,10,0.5,0.5,0.05236353149414062,-0.001,-0.001,-0.5,2.4256891218687664,10,1,100,2.713841727837894,-10,-1,-100,6417.783468239009,-0.24903389976826323,0.09705154779720095,0.9636197973456015,352.6341996294713,32.802509693634654,1089.151130568226,-36.508851173079194,-56.1688232421875,4381.2578125,True
1599564899.7478657,0.0,10,0.5,0.5,-0.028075006103515626,-0.001,-0.001,-0.5,1.5347270486356377,10,1,100,2.6997717606117226,-10,-1,-100,6417.068220759742,-0.24871856577667045,0.10170860400304217,0.9632208650718423,353.7913510929259,32.93605054309002,1099.086027750393,-36.69684278826369,-56.249359130859375,4381.2578125,True
1599564899.8027167,0.0,10,0.5,0.5,0.011260653686523445,-0.001,-0.001,-0.5,2.0929724926909867,10,1,100,2.6215233375908493,-10,-1,-100,6415.566331803915,-0.24770854032927303,0.11093832455927154,0.9624620341561129,355.9652713897525,33.200665347876864,1118.670045361544,-37.07267544280538,-56.407958984375,4381.2578125,True
1599564899.8575366,0.0,10,0.5,0.5,0.08051876525878907,-0.001,-0.001,-0.5,3.1720574700219286,10,1,100,2.334751572558894,-10,-1,-100,6412.566521343659,-0.24417541651247013,0.12906062700644563,0.9611044274831249,359.7367048626431,33.72057528575353,1156.5743952250796,-37.823733928420076,-56.704193115234375,4381.2578125,True
1599564899.9153824,0.0,10,0.5,0.5,-0.06742393798828125,-0.001,-0.001,-0.5,1.3702432193139633,10,1,100,2.688579951934125,-10,-1,-100,6412.566521343659,-0.24417541651247013,0.12906062700644563,0.9611044274831249,359.7367048626431,33.72057528575353,1156.5743952250796,-37.823733928420076,-56.704193115234375,4381.2578125,True
1599564899.9782476,0.0,10,0.5,0.5,0.07390069885253905,-0.001,-0.001,-0.5,3.3225831526931184,10,1,100,2.079127936076235,-10,-1,-100,6409.500219239038,-0.23863277248284973,0.1467232040224259,0.9599618228338781,362.693845576349,34.22690993759645,1192.4983068435797,-38.5739763062482,-56.9859619140625,4381.2578125,True
1599564900.0450366,0.0,10,0.5,0.5,-0.06681200561523437,-0.001,-0.001,-0.5,1.566578079992874,10,1,100,2.632837694438531,-10,-1,-100,6409.500219239038,-0.23863277248284973,0.1467232040224259,0.9599618228338781,362.693845576349,34.22690993759645,1192.4983068435797,-38.5739763062482,-56.9859619140625,4381.2578125,True
1599564900.108865,0.0,10,0.5,0.5,0.0004401733398437524,-0.001,-0.001,-0.5,2.5274010179499307,10,1,100,2.2445561487233414,-10,-1,-100,6407.940002724645,-0.23511057657477477,0.15537813147564883,0.9594689432398597,363.85560206168867,34.47488625514889,1209.6207681291016,-38.94878987581237,-57.119903564453125,4381.2578125,True
1599564900.17121,0.0,10,0.5,0.5,-0.0018573944091796885,-0.001,-0.001,-0.5,2.6100140214778387,10,1,100,2.153098235409785,-10,-1,-100,6406.378189670155,-0.23108858706904875,0.16391395169809886,0.9590256937982132,364.7943694805924,34.718575024626944,1226.1109608774814,-39.32339882543122,-57.248687744140625,4381.2578125,True
1599564900.2300525,0.0,10,0.5,0.5,0.033080615234375,-0.001,-0.001,-0.5,3.1488265591318356,10,1,100,1.7869807788565895,-10,-1,-100,6404.031087498297,-0.2241199086770506,0.17648976471750144,0.9584475100309623,365.776259315186,35.075597913979976,1249.5749344407284,-39.88492968925096,-57.4466552734375,4381.2578125,True
1599564900.2944226,0.0,10,0.5,0.5,-0.03161015319824219,-0.001,-0.001,-0.5,2.354964531107445,10,1,100,2.198368566256213,-10,-1,-100,6403.1863268840825,-0.22154745262129727,0.18062032912933398,0.958276068229936,365.9868038196588,35.19200554780549,1257.0330549418181,-40.072005405933375,-57.514801025390625,4381.2578125,True
1599564900.3622096,0.0,10,0.5,0.5,0.035896118164062504,-0.001,-0.001,-0.5,3.2926440595479085,10,1,100,1.5217861708253533,-10,-1,-100,6400.779822505196,-0.21308309483682913,0.1928237754156113,0.9578176164224736,366.2593213428881,35.532290616211036,1278.2376792862653,-40.63293254885675,-57.71728515625,4381.2578125,True
1599564900.417063,0.0,10,0.5,0.5,-0.0010146453857421966,-0.001,-0.001,-0.5,2.9587832379914563,10,1,100,1.6754513525997787,-10,-1,-100,6399.1525927780895,-0.2068175762042982,0.20079988714224786,0.957552032788109,366.13423184203094,35.75063423460575,1291.3364623734037,-41.00663700953122,-57.84539794921875,4381.2578125,True
1599564900.4744942,0.0,10,0.5,0.5,0.03087549743652343,-0.001,-0.001,-0.5,3.45930067490875,10,1,100,1.1613640531299552,-10,-1,-100,6396.683307644678,-0.19648530287420346,0.21251936399063562,0.9571985403684278,365.47268212878606,36.06308068731817,1309.3039708846884,-41.56683144814744,-58.03662109375,4381.2578125,True
1599564900.5343392,0.0,10,0.5,0.5,-0.06460283203125,-0.001,-0.001,-0.5,2.295698863768394,10,1,100,2.189822374775602,-10,-1,-100,6396.683307644678,-0.19648530287420346,0.21251936399063562,0.9571985403684278,365.47268212878606,36.06308068731817,1309.3039708846884,-41.56683144814744,-58.03662109375,4381.2578125,True
1599564900.5881903,0.0,10,0.5,0.5,0.05260063171386718,-0.001,-0.001,-0.5,3.971013677289298,10,1,100,0.4780756942963629,-10,-1,-100,6393.310398026253,-0.18096732406406335,0.22767362707993094,0.9567735088062174,363.665770658725,36.4445482806968,1329.8125842558177,-42.31310217668583,-58.270294189453125,4381.2578125,True
1599564900.6440418,0.0,10,0.5,0.5,-0.03554705810546875,-0.001,-0.001,-0.5,2.8709153522360222,10,1,100,1.5631351600136094,-10,-1,-100,6392.468874836341,-0.17677667069629166,0.2313757447305719,0.9566688421015436,363.0431938665849,36.53250216040421,1334.2756070574471,-42.49955645860767,-58.327301025390625,4381.2578125,True
1599564900.7098658,0.0,10,0.5,0.5,-0.03375054016113281,-0.001,-0.001,-0.5,2.9125254618693637,10,1,100,1.5013557377120907,-10,-1,-100,6391.617102440097,-0.1724615875244732,0.23504262309990484,0.9565625782743409,362.3527168578455,36.617314926969364,1338.4660857220945,-42.685966407720095,-58.38751220703125,4381.2578125,True
1599564900.762724,0.0,10,0.5,0.5,0.02178372192382813,-0.001,-0.001,-0.5,3.726412369594228,10,1,100,0.44487126979532654,-10,-1,-100,6389.027182697435,-0.15899133401362245,0.2457026985135024,0.9562175169132552,359.88954824191245,36.85315167281516,1349.4181648031663,-43.24493749481401,-58.558197021484375,4381.2578125,True
1599564900.8265886,0.0,10,0.5,0.5,-0.03491317749023437,-0.001,-0.001,-0.5,3.053405365643161,10,1,100,1.2597520062240606,-10,-1,-100,6388.123213064857,-0.15421919865588793,0.2492010772655674,0.9560937516036889,358.94433688985595,36.92572296086074,1352.5399383805868,-43.431177705792045,-58.6151123046875,4381.2578125,True
1599564900.8849452,0.0,10,0.5,0.5,0.056094354248046874,-0.001,-0.001,-0.5,4.185261774881945,10,1,100,-0.4635570642205089,-10,-1,-100,6384.622293642722,-0.1342779937902888,0.26260492411275355,0.9555145599180528,354.46552105123493,37.17355248028166,1361.9819783516332,-44.17574530543557,-58.85333251953125,4381.2578125,True
1599564900.9427567,0.0,10,0.5,0.5,-0.06288190002441407,-0.001,-0.001,-0.5,2.8530755496616713,10,1,100,1.5218364764563042,-10,-1,-100,6384.622293642722,-0.1342779937902888,0.26260492411275355,0.9555145599180528,354.46552105123493,37.17355248028166,1361.9819783516332,-44.17574530543557,-58.85333251953125,4381.2578125,True
1599564900.9950802,0.0,10,0.5,0.5,0.054928787231445314,-0.001,-0.001,-0.5,4.230207311809842,10,1,100,-0.8301573817347483,-10,-1,-100,6381.059833225212,-0.11296787244404881,0.2750608663607395,0.9547668718552946,348.92594229937333,37.35024272242815,1366.5695242200823,-44.91974147662989,-59.0882568359375,4381.2578125,True
1599564901.0508971,0.0,10,0.5,0.5,-0.06240908508300781,-0.001,-0.001,-0.5,2.9920391849330947,10,1,100,1.291469782513225,-10,-1,-100,6381.059833225212,-0.11296787244404881,0.2750608663607395,0.9547668718552946,348.92594229937333,37.35024272242815,1366.5695242200823,-44.91974147662989,-59.0882568359375,4381.2578125,True
1599564901.1053097,0.0,10,0.5,0.5,0.05305389709472656,-0.001,-0.001,-0.5,4.247432282003906,10,1,100,-1.181539303355003,-10,-1,-100,6377.387084420072,-0.09056189660018324,0.2864166749683195,0.9538155121323357,342.49377374171866,37.46062630918184,1366.7267480332196,-45.663258058508305,-59.318511962890625,4381.2578125,True
1599564901.162117,0.0,10,0.5,0.5,-0.004595288085937496,-0.001,-0.001,-0.5,3.7165316311146133,10,1,100,-0.26614051681827977,-10,-1,-100,6375.486723835114,-0.07861092880725204,0.2918465884116917,0.9532291910681909,339.0100752128785,37.49387751500456,1365.3513140227944,-46.03486806108141,-59.4329833984375,4381.2578125,True
1599564901.2159736,0.0,10,0.5,0.5,-0.002483963012695309,-0.001,-0.001,-0.5,3.6926673927079463,10,1,100,-0.3158903012492419,-10,-1,-100,6373.654846982565,-0.06738719313272112,0.29650758668257693,0.9526501022103381,335.2697010347226,37.501340131268535,1362.662080009914,-46.40639746821906,-59.55120849609375,4381.2578125,True
1599564901.6594076,0.0,10,0.5,0.5,-0.06147412109375,-0.001,-0.001,-0.5,3.233080749814624,10,1,100,0.7955443184474927,-10,-1,-100,6373.654846982565,-0.06738719313272112,0.29650758668257693,0.9526501022103381,335.2697010347226,37.501340131268535,1362.662080009914,-46.40639746821906,-59.55120849609375,4381.2578125,True
1599564901.70528,0.0,10,0.5,0.5,-0.005567071533203127,-0.001,-0.001,-0.5,3.7365230252728363,10,1,100,-0.5092287535563651,-10,-1,-100,6371.781575383851,-0.055621141927587645,0.30102845740166734,0.9519916787477944,331.42242038074016,37.49781378648094,1359.2458138495695,-46.77785990637503,-59.662567138671875,4381.2578125,True
1599564901.755152,0.0,10,0.5,0.5,-0.03288131713867187,-0.001,-0.001,-0.5,3.5198472015209097,10,1,100,0.014100391275732704,-10,-1,-100,6370.813238971634,-0.04977624232329086,0.3031182635131973,0.9516520603796942,329.4417222133841,37.48945516188011,1357.192057394386,-46.96357064672259,-59.718963623046875,4381.2578125,True
1599564901.8050163,0.0,10,0.5,0.5,-0.0010656707763671905,-0.001,-0.001,-0.5,3.753414596258768,10,1,100,-0.7199918447439719,-10,-1,-100,6368.939665618935,-0.037884079588598824,0.3070924115792527,0.9509253636664464,325.358815535265,37.45752055693637,1352.352808414826,-47.33495977608258,-59.838531494140625,4381.2578125,True
1599564901.856879,0.0,10,0.5,0.5,0.03587733154296875,-0.001,-0.001,-0.5,3.9357091505018142,10,1,100,-1.5064737180136505,-10,-1,-100,6366.098504687194,-0.020010818176610524,0.3123220535074521,0.9497654984514815,318.9087418481173,37.36544521636624,1343.1407471179284,-47.89199076002049,-60.031402587890625,4381.2578125,True
1599564901.9206738,0.0,10,0.5,0.5,-0.060440408325195316,-0.001,-0.001,-0.5,3.417716670621343,10,1,100,0.2694257056238115,-10,-1,-100,6366.098504687194,-0.020010818176610524,0.3123220535074521,0.9497654984514815,318.9087418481173,37.36544521636624,1343.1407471179284,-47.89199076002049,-60.031402587890625,4381.2578125,True
1599564901.9835045,0.0,10,0.5,0.5,0.07851138916015625,-0.001,-0.001,-0.5,4.019638640208331,10,1,100,-2.3213534958804365,-10,-1,-100,6362.227366550476,0.0034572136059122407,0.3177601976062914,0.9481648087180274,310.0069917808388,37.18657961689088,1328.4334946826293,-48.6346734981478,-60.308563232421875,4381.2578125,True
1599564902.0393562,0.0,10,0.5,0.5,-0.05994690246582031,-0.001,-0.001,-0.5,3.4800941634489617,10,1,100,0.01380717376684397,-10,-1,-100,6362.227366550476,0.0034572136059122407,0.3177601976062914,0.9481648087180274,310.0069917808388,37.18657961689088,1328.4334946826293,-48.6346734981478,-60.308563232421875,4381.2578125,True
1599564902.091295,0.0,10,0.5,0.5,0.08507944030761719,-0.001,-0.001,-0.5,3.919275725565182,10,1,100,-2.594323227862879,-10,-1,-100,6358.293944548699,0.02708201806599509,0.3217242631504043,0.9464460168429062,302.06936674571864,37.09261821915631,1316.6061121264024,-49.377365387325895,-60.59783935546875,4381.2578125,True
1599564902.1431222,0.0,10,0.5,0.5,-0.023695736694335938,-0.001,-0.001,-0.5,3.6132217399711397,10,1,100,-0.9030656447875363,-10,-1,-100,6357.264840988559,0.033087959595500704,0.3225184886171623,0.9459846782215385,300.19137355751724,37.07685866980516,1313.9320929509547,-49.56303657291337,-60.669189453125,4381.2578125,True
1599564902.1960247,0.0,10,0.5,0.5,0.05354551696777343,-0.001,-0.001,-0.5,3.7100536343202934,10,1,100,-2.231423173740531,-10,-1,-100,6354.299156150664,0.050532542928507375,0.3240971554429032,0.9446732217751265,294.30491071341737,36.98376219324225,1304.3787588044627,-50.12007047881496,-60.89434814453125,4381.2578125,True
1599564902.2508779,0.0,10,0.5,0.5,0.015498251342773432,-0.001,-0.001,-0.5,3.6137584788017207,10,1,100,-1.7637515616318793,-10,-1,-100,6352.300010444829,0.062032495179288216,0.32463181517180756,0.943804086725677,290.25979013751123,36.89281584469413,1297.1129602893577,-50.49145909584999,-61.0428466796875,4381.2578125,True
1599564902.3077261,0.0,10,0.5,0.5,-0.020802532958984377,-0.001,-0.001,-0.5,3.5730084196518748,10,1,100,-1.2483178676594546,-10,-1,-100,6351.27086751617,0.0676942785192425,0.32472595678965827,0.9433824980583434,288.20451833125355,36.83862377998873,1293.2234889183537,-50.67716771481612,-61.118316650390625,4381.2578125,True
1599564902.382393,0.0,10,0.5,0.5,-0.021229278564453127,-0.001,-0.001,-0.5,3.563910209427235,10,1,100,-1.3112247735917029,-10,-1,-100,6350.23877146258,0.07330644386327363,0.3247091857190472,0.94296877466743,286.1271316249902,36.77836956377411,1289.160270883685,-50.86288783358237,-61.1925048828125,4381.2578125,True
1599564902.4352522,0.0,10,0.5,0.5,0.09603523864746094,-0.001,-0.001,-0.5,3.437175690494224,10,1,100,-3.1711565380121196,-10,-1,-100,6346.117909320863,0.09521580064944038,0.3235257920517009,0.9414164929424201,279.4366640932596,36.715524842968605,1279.5765285032526,-51.605863313293284,-61.500335693359375,4381.2578125,True
1599564902.5012054,0.0,10,0.5,0.5,-0.05773327331542969,-0.001,-0.001,-0.5,3.556635431083281,10,1,100,-0.9917435212780499,-10,-1,-100,6346.117909320863,0.09521580064944038,0.3235257920517009,0.9414164929424201,279.4366640932596,36.715524842968605,1279.5765285032526,-51.605863313293284,-61.500335693359375,4381.2578125,True
1599564902.5540626,0.0,10,0.5,0.5,0.02942506408691406,-0.001,-0.001,-0.5,3.41891067770403,10,1,100,-2.1701140046523144,-10,-1,-100,6344.055809568847,0.10582350811754637,0.32226356362230385,0.9407165251504563,280.1389382349363,37.20307892942494,1293.1107602933996,-51.97725144958275,-61.67401123046875,4381.2578125,True
1599564902.606923,0.0,10,0.5,0.5,0.11988103637695313,-0.001,-0.001,-0.5,3.122252105927931,10,1,100,-3.375935748369302,-10,-1,-100,6339.869119902491,0.12633583412733204,0.318415093155782,0.93949512264085,286.307146846018,38.81812320016326,1342.683092692381,-52.71931140296036,-62.027618408203125,4381.2578125,True
1599564902.6627722,0.0,10,0.5,0.5,-0.05675064697265625,-0.001,-0.001,-0.5,3.5071646421350673,10,1,100,-1.3369910094428772,-10,-1,-100,6339.869119902491,0.12633583412733204,0.318415093155782,0.93949512264085,286.307146846018,38.81812320016326,1342.683092692381,-52.71931140296036,-62.027618408203125,4381.2578125,True
1599564902.7201319,0.0,10,0.5,0.5,0.04043356018066406,-0.001,-0.001,-0.5,3.2228296660492317,10,1,100,-2.435705194304079,-10,-1,-100,6337.744996404974,0.13623391415692357,0.3158332380731786,0.938983325923147,289.2549911774766,39.61242792408656,1367.1589280638152,-53.089941871354256,-62.2213134765625,4381.2578125,True
1599564902.775493,0.0,10,0.5,0.5,0.13262533264160156,-0.001,-0.001,-0.5,2.7696254393672186,10,1,100,-3.5549121801678973,-10,-1,-100,6333.4922731650295,0.15531300864207656,0.3093721361651063,0.9381720261823975,294.4405742184103,41.10703376804237,1413.3069583619551,-53.83040834531703,-62.59832763671875,4381.2578125,True
1599564902.8313434,0.0,10,0.5,0.5,-0.05571134948730469,-0.001,-0.001,-0.5,3.4142631282466698,10,1,100,-1.6574807782239551,-10,-1,-100,6333.4922731650295,0.15531300864207656,0.3093721361651063,0.9381720261823975,294.4405742184103,41.10703376804237,1413.3069583619551,-53.83040834531703,-62.59832763671875,4381.2578125,True
1599564902.8871958,0.0,10,0.5,0.5,0.04662263488769531,-0.001,-0.001,-0.5,2.9864000696242092,10,1,100,-2.6763281230097826,-10,-1,-100,6331.305068107671,0.16449045676425428,0.3054963444312718,0.937877856211893,296.6392000611392,41.797888370003264,1434.724876716608,-54.200249307175646,-62.802276611328125,4381.2578125,True
1599564902.9470353,0.0,10,0.5,0.5,0.14259901428222654,-0.001,-0.001,-0.5,2.378525853136604,10,1,100,-3.7073625419035316,-10,-1,-100,6326.926627752837,0.18211863506686354,0.29646424962549717,0.9375189339183363,300.26810593986545,43.0590786869152,1474.1692103126863,-54.939170037658656,-63.197052001953125,4381.2578125,True
1599564903.000893,0.0,10,0.5,0.5,0.052329895019531246,-0.001,-0.001,-0.5,2.7120723236514177,10,1,100,-2.884916855892924,-10,-1,-100,6324.736856744508,0.190568552568045,0.29131117220319447,0.9374547603600512,301.65856548808006,43.61948556569785,1491.9299009266117,-55.30826254773226,-63.41046142578125,4381.2578125,True
1599564903.0547466,0.0,10,0.5,0.5,0.04758182067871093,-0.001,-0.001,-0.5,2.6107126335235638,10,1,100,-2.9523062791640644,-10,-1,-100,6322.4853583801305,0.19877624255165796,0.2857343906543465,0.9374667265532327,302.7655430617463,44.130148723811175,1508.329443085926,-55.677120917460684,-63.61358642578125,4381.2578125,True
1599564903.116582,0.0,10,0.5,0.5,-0.05376935424804687,-0.001,-0.001,-0.5,3.164611648268622,10,1,100,-2.1418933249929903,-10,-1,-100,6322.4853583801305,0.19877624255165796,0.2857343906543465,0.9374667265532327,302.7655430617463,44.130148723811175,1508.329443085926,-55.677120917460684,-63.61358642578125,4381.2578125,True
1599564903.1744277,0.0,10,0.5,0.5,0.043588146972656255,-0.001,-0.001,-0.5,2.5010070670651743,10,1,100,-3.0274401896006067,-10,-1,-100,6320.232685057097,0.2067421661076962,0.27973483007337696,0.9375532526725705,303.60073146582084,44.59063849166258,1523.390096068019,-56.04575420121211,-63.807525634765625,4381.2578125,True
1599564903.2262886,0.0,10,0.5,0.5,0.09631066284179687,-0.001,-0.001,-0.5,2.0199299370485786,10,1,100,-3.5033803884903625,-10,-1,-100,6316.88431965746,0.21823754721038294,0.2699424195115105,0.9378184595836592,304.2829393491452,45.17392346887181,1543.0856539100976,-56.598306470028966,-64.10595703125,4381.2578125,True
1599564903.2841349,0.0,10,0.5,0.5,0.11883352966308594,-0.001,-0.001,-0.5,1.812384327388615,10,1,100,-3.5679428370561044,-10,-1,-100,6313.472558920388,0.22919127800607486,0.2591975158889452,0.9382366470368454,304.2139567074677,45.61263164121591,1558.8537585011095,-57.15042197196107,-64.44833374023438,4381.2578125,True
1599564903.3399856,0.0,10,0.5,0.5,0.06406660766601563,-0.001,-0.001,-0.5,2.034973298504182,10,1,100,-3.2521471746010975,-10,-1,-100,6311.156175894197,0.23619383873997732,0.2515044448078312,0.9385936206810582,303.7439521744491,45.8208509063016,1567.0839904265158,-57.51828263250635,-64.68026733398438,4381.2578125,True
1599564903.3928435,0.0,10,0.5,0.5,0.00463381042480468,-0.001,-0.001,-0.5,2.35778572161697,10,1,100,-2.935290871779273,-10,-1,-100,6309.998414031812,0.2396057631723285,0.2474980092090777,0.9387938078684527,303.3820334919057,45.8991107678408,1570.501475691673,-57.70215428603698,-64.79269409179688,4381.2578125,True
1599564903.451688,0.0,10,0.5,0.5,0.003268560791015618,-0.001,-0.001,-0.5,2.2998267472460183,10,1,100,-2.971262623882776,-10,-1,-100,6308.839640737395,0.24295789880765212,0.2433851444677077,0.9390075243891306,302.93438518732097,45.95973241994976,1573.4417306826074,-57.885989834249834,-64.9017333984375,4381.2578125,True
1599564903.5145183,0.0,10,0.5,0.5,0.17010338439941405,-0.001,-0.001,-0.5,0.7776162459423961,10,1,100,-4.053440712924467,-10,-1,-100,6304.1422140093055,0.25577194342919496,0.22586436396366893,0.9399819158078204,300.23130701988066,46.014228127462644,1580.046832957732,-58.62101894118884,-65.3431396484375,4381.2578125,True
1599564903.568377,0.0,10,0.5,0.5,-0.0503851318359375,-0.001,-0.001,-0.5,2.5226343077800903,10,1,100,-2.7794015816064164,-10,-1,-100,6304.1422140093055,0.25577194342919496,0.22586436396366893,0.9399819158078204,300.23130701988066,46.014228127462644,1580.046832957732,-58.62101894118884,-65.3431396484375,4381.2578125,True
