Timestamp,Input Throttle,horizon,dT,dt,Input Roll,Roll P,Roll I,Roll D,Input Pitch,Pitch P,Pitch I,Pitch D,Input Yaw,Yaw P,Yaw I,Yaw D,Altitude,Direction X,Direction Y,Direction Z,Drag X,Drag Y,Drag Z,Vertical Velocity,Roll,Mass,Has Fuel
1599572584.3938963,0.0,10,0.5,0.5,-10.811486930847169,-0.2,-0.00825,-0.12575,-0.06718734359744578,10,1,100,0.690373239688914,-10,-1,-100,6483.617967104656,-0.06725780741756154,-0.007002367137836891,0.9977110574689694,205.0732179442708,21.498776901660488,-156.76524050340433,9.590824319937242,-35.944580078125,4381.2578125,True
1599572584.4706898,0.0,10,0.5,0.5,-10.856773226928713,-0.2,-0.00825,-0.12575,-0.06732861637403871,10,1,100,0.6999071719089609,-10,-1,-100,6483.9978828533785,-0.06744511029930327,-0.006971500849490401,0.9976986294831823,204.61214777266062,21.456741778355635,-150.26672215235712,9.21080188964319,-35.94122314453125,4381.2578125,True
1599572584.5494792,0.0,10,0.5,0.5,-10.888125563049316,-0.2,-0.00825,-0.12575,-0.05201157455372882,10,1,100,0.7005229676625512,-10,-1,-100,6484.316759928595,-0.06755967005291992,-0.006797857024582147,0.9976920768063731,204.1495383483947,21.41436331801962,-143.78940667828195,8.830798290437755,-35.9805908203125,4381.2578125,True
1599572584.625318,0.0,10,0.5,0.5,-10.847754624938966,-0.2,-0.00825,-0.12575,-0.03402468037444269,10,1,100,0.6995237690822609,-10,-1,-100,6484.6971404640935,-0.06759331377815704,-0.006470301912104241,0.9976919760756091,203.75662470119306,21.378971909433286,-137.38153547801235,8.450805994030649,-36.25653076171875,4381.2578125,True
1599572584.7051394,0.0,10,0.5,0.5,-10.743935821533203,-0.2,-0.00825,-0.12575,-0.015265935220292688,10,1,100,0.6973945687414831,-10,-1,-100,6485.016948762583,-0.06754309414911266,-0.005996108397621049,0.9976983397384442,203.44707049902092,21.351722018149946,-131.0456695931567,8.070816567146313,-36.81787109375,4381.2578125,True
1599572584.7779098,0.0,10,0.5,0.5,-10.580277439880371,-0.2,-0.00825,-0.12575,0.01232116058272626,10,1,100,0.6892055965275126,-10,-1,-100,6485.335754751577,-0.06736159192608249,-0.005308780596792865,0.9977145046463738,203.19972933512642,21.330118735237637,-124.7613694485456,7.690822529910531,-37.671661376953125,4381.2578125,True
1599572584.8583243,0.0,10,0.5,0.5,-10.357046929168702,-0.2,-0.00825,-0.12575,0.04211476151877122,10,1,100,0.67850879163757,-10,-1,-100,6485.590080294642,-0.06703810841348641,-0.004408260059715205,0.9977406773624033,202.97343614970748,21.309609121413736,-118.49904973838021,7.310816035057345,-38.819061279296875,4381.2578125,True
1599572584.9340994,0.0,10,0.5,0.5,-10.074058419799806,-0.2,-0.00825,-0.12575,0.07310931384019648,10,1,100,0.665024585124498,-10,-1,-100,6485.909320503939,-0.06656050506244979,-0.003303828859395543,0.9977769209000074,202.7106109929357,21.283967935291937,-112.22499204025623,6.9307885032873084,-40.260345458984375,4381.2578125,True
1599572585.019872,0.0,10,0.5,0.5,-10.025668761444091,-0.2,-0.00825,-0.12575,0.03124714876599778,10,1,100,0.6865569248328542,-10,-1,-100,6486.005454618251,-0.0662615591906175,-0.002677362151725479,0.9977986958828604,202.54395581077816,21.266912730681096,-109.07301455500328,6.740764084790393,-41.09124755859375,4381.2578125,True
1599572585.1016521,0.0,10,0.5,0.5,-9.214786846160887,-0.2,-0.00825,-0.12575,0.20365124732217701,10,1,100,0.5949538094993876,-10,-1,-100,6486.420281815925,-0.06509679684120154,-0.0005381030104676775,0.9978788090174905,201.77100001346412,21.184767583403666,-99.50504190089859,6.1706333680909875,-44.025146484375,4381.2578125,True
1599572585.1854308,0.0,10,0.5,0.5,-8.864748395538331,-0.2,-0.00825,-0.12575,0.17064590336220872,10,1,100,0.607370884979485,-10,-1,-100,6486.675481076934,-0.06409162557624136,0.0011071186301401285,0.9979434041163526,200.89843889291933,21.090523379419547,-92.99360949251289,5.790481503049495,-46.348724365234375,4381.2578125,True
1599572585.2752192,0.0,10,0.5,0.5,-8.295458128356934,-0.2,-0.00825,-0.12575,0.20090005591769936,10,1,100,0.5743850731721076,-10,-1,-100,6486.868646159535,-0.06288084084788442,0.002870440157771706,0.998016913898539,199.60019727056,20.950088163007617,-86.34568045874134,5.410257545399214,-48.96697998046875,4381.2578125,True
1599572585.3629844,0.0,10,0.5,0.5,-7.665049601745606,-0.2,-0.00825,-0.12575,0.23126335350112948,10,1,100,0.5386835707246012,-10,-1,-100,6487.061789330561,-0.0614597176811748,0.004740542487279539,0.998098306961532,197.74381565501048,20.74967499881195,-79.54664705960387,5.029942322586008,-51.879974365234375,4381.2578125,True
1599572585.4417427,0.0,10,0.5,0.5,-6.973282814788819,-0.2,-0.00825,-0.12575,0.2611460756081377,10,1,100,0.500153879257303,-10,-1,-100,6487.254425583989,-0.05982306301843766,0.0067018071700668605,0.9981864990630496,195.17993213363908,20.47385451549702,-72.59171336211087,4.6495127453336815,-55.08782958984375,4381.2578125,True
1599572585.5265193,0.0,10,0.5,0.5,-6.2199759132385255,-0.2,-0.00825,-0.12575,0.286731338690292,10,1,100,0.4585598083855492,-10,-1,-100,6487.448509900714,-0.057964131090533146,0.008705393719636582,0.9982807098342158,191.75382030303913,20.10689205279263,-65.49239713660266,4.268938583018772,-58.59100341796875,4381.2578125,True
1599572585.6092954,0.0,10,0.5,0.5,-4.750258539581299,-0.2,-0.00825,-0.12575,0.4214326184167968,10,1,100,0.2912886234480334,-10,-1,-100,6487.67516144691,-0.05476225398669579,0.011738028123925229,0.9984304253347143,184.6357652741288,19.349076314324087,-54.63748051165834,3.697733150903323,-64.39999389648438,4381.2578125,True
1599572585.6931083,0.0,10,0.5,0.5,-4.779720955657959,-0.2,-0.00825,-0.12575,0.2296459522787234,10,1,100,0.48126672671817183,-10,-1,-100,6487.770726728835,-0.05358998422924435,0.012735956245913588,0.9984818020418857,181.66553083040347,19.03422332917123,-50.99291079333128,3.507224960522425,-66.48431396484375,4381.2578125,True
1599572585.7716155,0.0,10,0.5,0.5,-3.5885455139160154,-0.2,-0.00825,-0.12575,0.3436227640396696,10,1,100,0.32413387797170845,-10,-1,-100,6487.839784881915,-0.0511080295740336,0.014663730812542854,0.998585471710718,174.76231149761045,18.304994837365907,-43.729550391200895,3.1260036484418805,-70.87557983398438,4381.2578125,True
1599572585.8593805,0.0,10,0.5,0.5,-2.5885663269042976,-0.2,-0.00825,-0.12575,0.35944542027212056,10,1,100,0.27521509475970707,-10,-1,-100,6487.9693888105685,-0.048421038654176914,0.016543761330071797,0.9986899954323687,166.4019759699599,17.42534101048941,-36.560428516975556,2.744461766994725,-75.56298828125,4381.2578125,True
1599572585.9380527,0.0,10,0.5,0.5,-1.5259185379028322,-0.2,-0.00825,-0.12575,0.36852642028741933,10,1,100,0.22680051164703652,-10,-1,-100,6488.100458347239,-0.04555440571740696,0.018317960779344646,0.9987938968739347,156.62270702072453,16.398851798335947,-29.627712163000055,2.362629732913314,-80.54733276367188,4381.2578125,True
1599572586.0226767,0.0,10,0.5,0.5,-1.2743943092346193,-0.2,-0.00825,-0.12575,0.28424169606901706,10,1,100,0.348312515987576,-10,-1,-100,6488.133525206707,-0.044070796169915355,0.019147502727798294,0.9988449019063164,151.16982168228282,15.827181713014218,-26.28595737540211,2.171634923801981,-83.15109252929688,4381.2578125,True
1599572586.0975091,0.0,10,0.5,0.5,1.1183383949279786,-0.2,-0.00825,-0.12575,0.45508362291451027,10,1,100,-0.01659139936669851,-10,-1,-100,6488.234691129997,-0.039422952650253515,0.021438339848535496,0.9989926067738812,152.0445562992139,15.918356608930813,-19.46381517034131,1.598507808656672,-91.4083251953125,4381.2578125,True
1599572587.037962,0.0,10,0.5,0.5,2.0293807277679443,-0.2,-0.00825,-0.12575,0.3756736073554686,10,1,100,0.08683804587655969,-10,-1,-100,6488.301335931756,-0.0361592333965884,0.02278212990804097,0.9990863247973241,160.29631529038303,16.78134381996781,-15.617311175525199,1.2164399122389642,-97.28514862060547,4381.2578125,True
1599572587.1207404,0.0,10,0.5,0.5,3.3103981496810913,-0.2,-0.00825,-0.12575,0.3702927445019131,10,1,100,0.048896268553175304,-10,-1,-100,6488.30696124956,-0.03287029108512079,0.023938438856722023,0.9991729055118951,168.86252920207272,17.676027861549347,-11.287285552165342,0.8344720548999498,-103.3713150024414,4381.2578125,True
1599572587.2194765,0.0,10,0.5,0.5,3.557571210861206,-0.2,-0.00825,-0.12575,0.3125401935403464,10,1,100,0.19564937406273838,-10,-1,-100,6488.341031922493,-0.03123896519017655,0.02444893595433905,0.9992128785121555,172.5867813336089,18.064956011806963,-8.896958081967982,0.6435205689556764,-106.35726928710938,4381.2578125,True
1599572587.3152194,0.0,10,0.5,0.5,5.102186923980713,-0.2,-0.00825,-0.12575,0.36241518864022265,10,1,100,-0.00915002529705139,-10,-1,-100,6488.345224175719,-0.027918424533229475,0.02535212096014004,0.9992886627668728,179.41888479114164,18.77918269671349,-3.760744217723613,0.26162421689926463,-112.13069152832031,4381.2578125,True
1599572587.4408839,0.0,10,0.5,0.5,6.202668642807007,-0.2,-0.00825,-0.12575,0.35388002326710316,10,1,100,-0.04167723736640566,-10,-1,-100,6488.35041495203,-0.024628452762150248,0.02608322937762511,0.9993563450840629,184.656685711973,19.32669057009262,1.7807266566534403,-0.12035012497314934,-117.61683654785156,4381.2578125,True
1599572587.528651,0.0,10,0.5,0.5,8.056235767364502,-0.2,-0.00825,-0.12575,0.3677809031630552,10,1,100,-0.25499761866546566,-10,-1,-100,6488.327719197026,-0.019724621805238672,0.026862111144273185,0.9994445288656659,189.59420846493921,19.842504522620718,10.538653042568399,-0.693560712382217,-125.29531860351562,4381.2578125,True
1599572587.628383,0.0,10,0.5,0.5,8.682915197753905,-0.2,-0.00825,-0.12575,0.3301171654137804,10,1,100,-0.11565154858229504,-10,-1,-100,6488.269971795962,-0.01656190648859224,0.027216698425021908,0.9994923484350966,191.47672617264357,20.038864011509474,16.51230910778183,-1.075856536010027,-130.04544067382812,4381.2578125,True
1599572587.7156644,0.0,10,0.5,0.5,8.868155129241945,-0.2,-0.00825,-0.12575,0.3098258691393867,10,1,100,0.026103914264479527,-10,-1,-100,6488.24013076257,-0.015004359619489422,0.027344881498576303,0.9995134449562136,191.9338108099016,20.086341944687963,19.4945726054432,-1.267048571740733,-132.309814453125,4381.2578125,True
1599572587.8128326,0.0,10,0.5,0.5,11.335516536712648,-0.2,-0.00825,-0.12575,0.33617871911693853,10,1,100,-0.4672628679423489,-10,-1,-100,6488.12424254627,-0.009131028123968344,0.027692776637313288,0.9995747768163797,191.09932417256934,19.9968822932051,31.138313856241417,-2.0320645059241462,-140.6272430419922,4381.2578125,True
1599572587.8955958,0.0,10,0.5,0.5,10.337017715835572,-0.2,-0.00825,-0.12575,0.30224373263419163,10,1,100,0.1165763048051642,-10,-1,-100,6488.12424254627,-0.009131028123968344,0.027692776637313288,0.9995747768163797,191.09932417256934,19.9968822932051,31.138313856241417,-2.0320645059241462,-140.6272430419922,4381.2578125,True
1599572587.9843593,0.0,10,0.5,0.5,11.587992143249512,-0.2,-0.00825,-0.12575,0.30440391779669373,10,1,100,-0.19426090625607834,-10,-1,-100,6488.003095072578,-0.00633277340934458,0.027706728832618963,0.9995960349853042,189.48158054074742,19.825974303878738,36.69368014189995,-2.4146782523510533,-144.34288024902344,4381.2578125,True
1599572588.0691319,0.0,10,0.5,0.5,12.272628774833679,-0.2,-0.00825,-0.12575,0.31836936769634033,10,1,100,-0.19655064863619848,-10,-1,-100,6487.882945834193,-0.0037952046107648327,0.027841894373871294,0.9996051347105199,187.30611157134808,19.596136266495538,42.02695774137715,-2.7973286979537733,-147.75978088378906,4381.2578125,True
1599572588.1629186,0.0,10,0.5,0.5,13.369441851806641,-0.2,-0.00825,-0.12575,0.29254310342308776,10,1,100,-0.35743419645864344,-10,-1,-100,6487.732534069684,-5.2178074101341214e-05,0.027726439322055527,0.9996155470179368,183.42886841401065,19.18580443802594,49.614092732660566,-3.3713367151903233,-152.33343505859375,4381.2578125,True
1599572588.2486522,0.0,10,0.5,0.5,13.704372943878173,-0.2,-0.00825,-0.12575,0.30164844710430677,10,1,100,-0.23686813182723587,-10,-1,-100,6487.549431646592,0.0022261665652016953,0.027701276487172532,0.9996137671437929,180.73168686418995,18.899626314993235,54.44217052522752,-3.7540188124684635,-155.01075744628906,4381.2578125,True
1599572588.3304925,0.0,10,0.5,0.5,13.8029614692688,-0.2,-0.00825,-0.12575,0.30155538420896444,10,1,100,-0.13231603492579394,-10,-1,-100,6487.518676396809,0.003319511182647319,0.027675419560478486,0.9996114505134782,179.36671989162042,18.754613961351463,56.78955791594074,-3.9453623230131747,-156.23834228515625,4381.2578125,True
1599572588.4162598,0.0,10,0.5,0.5,14.734619717025758,-0.2,-0.00825,-0.12575,0.3067537180906224,10,1,100,-0.36167307795539877,-10,-1,-100,6487.243324947427,0.00637311762246266,0.02769772339860547,0.999596028148524,175.35584896558063,18.3275233315415,63.61355314878863,-4.519421841797838,-159.47445678710938,4381.2578125,True
1599572588.4990387,0.0,10,0.5,0.5,14.937857987594604,-0.2,-0.00825,-0.12575,0.30609871837757335,10,1,100,-0.2645014998448223,-10,-1,-100,6487.058793997974,0.008242020276355273,0.027711285424734704,0.9995819895145535,172.93489828204616,18.068561824235758,68.05988782305451,-4.902176614532932,-161.26104736328125,4381.2578125,True
1599572588.5808206,0.0,10,0.5,0.5,15.223883949661257,-0.2,-0.00825,-0.12575,0.31494087670939813,10,1,100,-0.26866727444957356,-10,-1,-100,6486.813235503039,0.009956344342878162,0.027803548172414497,0.999563821832478,170.78233913898524,17.837241898812934,72.47400829621844,-5.284992831178223,-162.74972534179688,4381.2578125,True
1599572588.6626053,0.0,10,0.5,0.5,15.449821648025512,-0.2,-0.00825,-0.12575,0.3218947119750354,10,1,100,-0.2727710571698071,-10,-1,-100,6486.6282322576735,0.011529436333571669,0.02795022311210752,0.9995428240579859,168.97789893131807,17.642033951959476,76.91724993549111,-5.6678831704995725,-163.94090270996094,4381.2578125,True
1599572588.7493706,0.0,10,0.5,0.5,15.476990372848512,-0.2,-0.00825,-0.12575,0.3164807832928708,10,1,100,-0.19849865786309873,-10,-1,-100,6486.472989183152,0.012265534090997926,0.02803411239064987,0.9995317129615904,168.23612365152744,17.561133336332652,79.17396400482113,-5.859357346226446,-164.4250946044922,4381.2578125,True
1599572588.834187,0.0,10,0.5,0.5,15.763420013809204,-0.2,-0.00825,-0.12575,0.34825895271856744,10,1,100,-0.34479141421904247,-10,-1,-100,6486.134219221654,0.014245196598971315,0.028398957515237123,0.9994951593609167,166.69816923522578,17.390037408966453,86.16765892976157,-6.433899526135013,-165.4310302734375,4381.2578125,True
1599572588.9122753,0.0,10,0.5,0.5,15.715076366424563,-0.2,-0.00825,-0.12575,0.32881396792646433,10,1,100,-0.21343903394005911,-10,-1,-100,6485.979957284522,0.01483206999458517,0.028553233013404036,0.9994822272477675,166.43209949489906,17.358668179069507,88.60045530755853,-6.625454058467395,-165.61753845214844,4381.2578125,True
1599572588.9910672,0.0,10,0.5,0.5,15.75534038848877,-0.2,-0.00825,-0.12575,0.3490805867691847,10,1,100,-0.2748795509972485,-10,-1,-100,6485.732468733331,0.01590720753238553,0.02887707878427184,0.9994563897786679,166.29284599722524,17.336727970723892,93.66575941287695,-7.008622766955476,-165.76791381835938,4381.2578125,True
1599572589.0757523,0.0,10,0.5,0.5,15.638987130737306,-0.2,-0.00825,-0.12575,0.38903752252139306,10,1,100,-0.3126848926173744,-10,-1,-100,6485.267732509994,0.017213781685472017,0.029533682865115176,0.9994155528590235,167.07774038255596,17.40665550517824,101.86143028522818,-7.583513711773024,-165.43475341796875,4381.2578125,True
1599572589.1545782,0.0,10,0.5,0.5,15.60495266532898,-0.2,-0.00825,-0.12575,0.3490181711598788,10,1,100,-0.22399670968169091,-10,-1,-100,6485.112495174864,0.01758169505693509,0.029765117556797224,0.999402282254626,167.60889080131386,17.45774438183158,104.780208614816,-7.775176638912228,-165.17526245117188,4381.2578125,True
1599572589.2372265,0.0,10,0.5,0.5,15.245771699905395,-0.2,-0.00825,-0.12575,0.4177008029918336,10,1,100,-0.28034344554915597,-10,-1,-100,6484.584769466892,0.01841543918990185,0.03059800056771111,0.9993621135307768,169.96423810585802,17.689058822161186,114.1537833191395,-8.350242908382373,-163.9498291015625,4381.2578125,True
1599572589.3150196,0.0,10,0.5,0.5,15.016460620498657,-0.2,-0.00825,-0.12575,0.4020559332932925,10,1,100,-0.23769930404182926,-10,-1,-100,6484.2747801545775,0.018774766822925535,0.031210304237492357,0.9993364923989055,172.13594258520837,17.904540971925773,120.9529331461872,-8.73366662955783,-162.76148986816406,4381.2578125,True
1599572589.406286,0.0,10,0.5,0.5,14.683224196624757,-0.2,-0.00825,-0.12575,0.4141245173324061,10,1,100,-0.22289764402519455,-10,-1,-100,6483.9013102214085,0.018957292537753506,0.03187347741145565,0.9993121146555463,174.74102765345816,18.16384739541684,128.2095098147305,-9.117107786548083,-161.27597045898438,4381.2578125,True
1599572589.48359,0.0,10,0.5,0.5,14.590556024932862,-0.2,-0.00825,-0.12575,0.3869626991979107,10,1,100,-0.20759891234805056,-10,-1,-100,6483.746068685199,0.018975962946718647,0.03222573655998229,0.9993004626904819,176.1838499173879,18.307581477865817,132.00532620768544,-9.308829044132402,-160.42176818847656,4381.2578125,True
1599572589.5644104,0.0,10,0.5,0.5,13.71545766296387,-0.2,-0.00825,-0.12575,0.47087788568236244,10,1,100,-0.18552511581418782,-10,-1,-100,6483.155333528179,0.01878549559854898,0.03330495065082163,0.9992686752907164,180.97631316341506,18.78498015943105,144.03807040023008,-9.883966375521847,-157.41452026367188,4381.2578125,True
1599572589.6441607,0.0,10,0.5,0.5,13.314049881362916,-0.2,-0.00825,-0.12575,0.4454326402214978,10,1,100,-0.1665210212686891,-10,-1,-100,6482.719348378014,0.018433651730246976,0.03404994228534029,0.9992501197969671,184.4432472969539,19.129977326062136,152.53897427412872,-10.267344289080203,-155.03912353515625,4381.2578125,True
1599572589.7229505,0.0,10,0.5,0.5,13.181119258499145,-0.2,-0.00825,-0.12575,0.41283385598988664,10,1,100,-0.17559609897194456,-10,-1,-100,6482.500621260726,0.0181924866880645,0.034425717564824335,0.9992416641625045,186.21915817458662,19.306526507772627,156.90782259204894,-10.45901233433028,-153.74038696289062,4381.2578125,True
1599572589.808721,0.0,10,0.5,0.5,11.921111570739745,-0.2,-0.00825,-0.12575,0.49450745717096123,10,1,100,-0.0867074529146201,-10,-1,-100,6481.846867371816,0.017162112215837952,0.035504480116409214,0.9992221443682854,191.53444396462416,19.8341615278941,170.34185396849813,-11.033905710124825,-149.40109252929688,4381.2578125,True
1599572589.8865123,0.0,10,0.5,0.5,11.93398192138672,-0.2,-0.00825,-0.12575,0.4255451684241162,10,1,100,-0.14253857026703062,-10,-1,-100,6481.629596011946,0.016731822940032594,0.035852218537122206,0.9992170257391884,193.24584976265479,20.003825942121267,174.87782668238248,-11.225492049776198,-147.80694580078125,4381.2578125,True
1599572589.9683285,0.0,10,0.5,0.5,11.009188678741456,-0.2,-0.00825,-0.12575,0.465650246147166,10,1,100,-0.07642908960420229,-10,-1,-100,6481.19114151434,0.015740093736679683,0.03652719186645992,0.9992086937689801,196.4669893473243,20.323053618519022,183.92420189529724,-11.608585875970945,-144.39723205566406,4381.2578125,True
1599572590.056614,0.0,10,0.5,0.5,10.214391133499145,-0.2,-0.00825,-0.12575,0.4611612640017876,10,1,100,-0.0460102470897672,-10,-1,-100,6480.693105890416,0.014563660984700586,0.037093847715163795,0.9992056576303033,199.28138645836572,20.60222947641951,192.7822605524076,-11.991568069823499,-140.69369506835938,4381.2578125,True
1599572590.136399,0.0,10,0.5,0.5,9.358411713027955,-0.2,-0.00825,-0.12575,0.464090234871891,10,1,100,-0.01620106939625371,-10,-1,-100,6480.193597010104,0.013226685756783286,0.03762971108812512,0.9992042131753226,201.50508711238282,20.823636126384283,201.23046937454095,-12.374438444144005,-136.6951904296875,4381.2578125,True
1599572590.214192,0.0,10,0.5,0.5,7.706835856628418,-0.2,-0.00825,-0.12575,0.47281228690118116,10,1,100,0.10272209284517783,-10,-1,-100,6479.475320053636,0.010935177784723764,0.038190315166673844,0.9992106493198952,203.32861995601232,21.008538836658612,212.59118141183987,-12.948550714919971,-130.1475830078125,4381.2578125,True
1599572590.9273355,0.0,10,0.5,0.5,7.745762030792236,-0.2,-0.00825,-0.12575,0.4317098819225357,10,1,100,-0.033973335432051055,-10,-1,-100,6479.19454894471,0.010101967262419943,0.03832055443122571,0.9992144341258848,203.42847935669096,21.020630949778642,215.87964841369728,-13.139879751352908,-127.81832885742188,4381.2578125,True
1599572591.00315,0.0,10,0.5,0.5,6.422722660446167,-0.2,-0.00825,-0.12575,0.435756269894514,10,1,100,0.07644720964983222,-10,-1,-100,6478.633486486273,0.00834874728293053,0.03847019836431698,0.9992248707156042,203.0104511508182,20.985805781273534,221.79573951460353,-13.522499589722646,-122.94021606445312,4381.2578125,True
1599572591.0776396,0.0,10,0.5,0.5,7.007704043197632,-0.2,-0.00825,-0.12575,0.421308401356736,10,1,100,-0.09783111346754728,-10,-1,-100,6478.633486486273,0.00834874728293053,0.03847019836431698,0.9992248707156042,203.0104511508182,20.985805781273534,221.79573951460353,-13.522499589722646,-122.94021606445312,4381.2578125,True
1599572591.2207708,0.0,10,0.5,0.5,4.418906127929688,-0.2,-0.00825,-0.12575,0.4137339477923234,10,1,100,0.2095545381041922,-10,-1,-100,6477.789677329129,0.005563500363594095,0.038397321280932345,0.9992470631341146,200.40819036862513,20.740886653890463,228.38413747542197,-14.096412941337952,-115.0743179321289,4381.2578125,True
1599572591.3290017,0.0,10,0.5,0.5,3.548737803077698,-0.2,-0.00825,-0.12575,0.3947056895407415,10,1,100,0.14899718421280805,-10,-1,-100,6477.226150856819,0.0035934600053230737,0.03815447467219001,0.9992653917291839,196.65790402815188,20.374703717787597,230.2920451511553,-14.479095019552346,-109.4644775390625,4381.2578125,True
1599572591.423259,0.0,10,0.5,0.5,2.2985763277053834,-0.2,-0.00825,-0.12575,0.37254048133681095,10,1,100,0.17140314055838715,-10,-1,-100,6476.663594670827,0.0016111588512173495,0.037729794049155996,0.9992866789906509,191.44120629065864,19.858193850285804,230.21184101672029,-14.861901234086314,-103.56224822998047,4381.2578125,True
1599572591.5085511,0.0,10,0.5,0.5,0.9862735488891602,-0.2,-0.00825,-0.12575,0.35002996763997213,10,1,100,0.19152657264375242,-10,-1,-100,6476.038531842409,-0.00036012734048316127,0.03713737283505196,0.9993101049460118,185.03199708987086,19.216289816221558,228.34323828952375,-15.244872866635982,-97.36729431152344,4381.2578125,True
1599572591.606289,0.0,10,0.5,0.5,0.6817268028259276,-0.2,-0.00825,-0.12575,0.369938632895766,10,1,100,0.10490735345977938,-10,-1,-100,6475.757248482667,-0.0013501216848319044,0.0367792412509477,0.9993225027909862,180.98934054297888,18.806395748448388,226.21424987870688,-15.43643198453613,-94.16004180908203,4381.2578125,True
1599572591.6820865,0.0,10,0.5,0.5,-3.370055917167664,-0.2,-0.00825,-0.12575,0.20425415390284152,10,1,100,0.4233910331857444,-10,-1,-100,6474.444115976687,-0.005130955647503596,0.03494773055315743,0.9993759700049463,168.52780312581382,17.527565714695807,221.31431367787636,-16.20307747784129,-80.60147094726562,4381.2578125,True
1599572591.7658656,0.0,10,0.5,0.5,-2.8744517755508427,-0.2,-0.00825,-0.12575,0.32591032211610077,10,1,100,0.1454658862240093,-10,-1,-100,6474.161851101089,-0.006024796421730918,0.03439112415759134,0.9993902903306864,175.49616643086634,18.24916507113742,233.24828429429368,-16.394694114933564,-77.03091430664062,4381.2578125,True
1599572591.8496878,0.0,10,0.5,0.5,-4.826917001533508,-0.2,-0.00825,-0.12575,0.2530754153336512,10,1,100,0.24334697988794607,-10,-1,-100,6473.4742748201825,-0.007711788909603859,0.03322643663724451,0.9994180968044379,188.20963914016664,19.557764797379487,256.1155619181574,-16.77768574691985,-69.7933349609375,4381.2578125,True
1599572591.9398813,0.0,10,0.5,0.5,-6.258740090370178,-0.2,-0.00825,-0.12575,0.22924403291255388,10,1,100,0.24962619158088828,-10,-1,-100,6472.786699803313,-0.009286307862904167,0.03195561188564104,0.999446148301793,198.75970430074682,20.635578421984615,276.77589754203325,-17.16031318203695,-62.750885009765625,4381.2578125,True
1599572592.0256505,0.0,10,0.5,0.5,-8.689583254432678,-0.2,-0.00825,-0.12575,0.13042378484957728,10,1,100,0.32607713240149727,-10,-1,-100,6471.754850992002,-0.011396665414141043,0.02990787311677326,0.999487686338891,210.5110875054917,21.830310633166885,303.1523691836542,-17.733591057313085,-52.722412109375,4381.2578125,True
1599572592.1084316,0.0,10,0.5,0.5,-8.52700728931427,-0.2,-0.00825,-0.12575,0.2576494449285669,10,1,100,0.18687790974711083,-10,-1,-100,6471.347587899421,-0.012031774425046443,0.029210673259654766,0.9995008619165382,213.13006756018655,22.09652986893304,310.30316846859216,-17.924536176121965,-49.52801513671875,4381.2578125,True
1599572592.1902115,0.0,10,0.5,0.5,-10.187718632125854,-0.2,-0.00825,-0.12575,0.17372087706470934,10,1,100,0.25407883892597005,-10,-1,-100,6470.65904319135,-0.01320406808677858,0.0278222197253495,0.9995256758460553,216.73750364654165,22.46647076994867,322.4311655887416,-18.306270522329207,-43.362762451171875,4381.2578125,True
1599572592.2769787,0.0,10,0.5,0.5,-11.377999586868288,-0.2,-0.00825,-0.12575,0.15669484798493974,10,1,100,0.2535365393809982,-10,-1,-100,6469.909468814032,-0.01424958912149705,0.026414600116116665,0.9995495075835785,218.873911072346,22.694039909960882,332.56039109235945,-18.687871743725296,-37.4962158203125,4381.2578125,True
1599572592.3587599,0.0,10,0.5,0.5,-12.50870871448517,-0.2,-0.00825,-0.12575,0.14372755298897827,10,1,100,0.251841712782649,-10,-1,-100,6469.158433151199,-0.015170236413099109,0.025027347965880836,0.9995716561512563,219.15473633443528,22.739325616443384,339.95851653143376,-19.069430964846635,-31.927764892578125,4381.2578125,True
1599572592.4425359,0.0,10,0.5,0.5,-13.579440894126893,-0.2,-0.00825,-0.12575,0.13440038109352703,10,1,100,0.2510985043491235,-10,-1,-100,6468.345878826571,-0.01598696832054837,0.023692426289225226,0.9995914594375281,217.8635344431934,22.629836923844742,344.901021712896,-19.451027921884005,-26.65692138671875,4381.2578125,True
1599572592.5193303,0.0,10,0.5,0.5,-14.59236399307251,-0.2,-0.00825,-0.12575,0.12445414727195364,10,1,100,0.24977171568696657,-10,-1,-100,6467.594853563001,-0.016704083933450166,0.022400337925671025,0.9996095229842301,215.2733507050383,22.391077340364596,347.6808028359256,-19.83271934864599,-21.68365478515625,4381.2578125,True
1599572592.6151133,0.0,10,0.5,0.5,-14.78929881286621,-0.2,-0.00825,-0.12575,0.18387270772636763,10,1,100,0.2149992825318051,-10,-1,-100,6467.188581400551,-0.01702937316350856,0.021777287592595958,0.9996178020597509,213.574250589189,22.23088728472766,348.3566064072861,-20.02361172756131,-19.3084716796875,4381.2578125,True
1599572592.6929057,0.0,10,0.5,0.5,-16.71432769546509,-0.2,-0.00825,-0.12575,0.0511175026965795,10,1,100,0.27861265903158805,-10,-1,-100,6465.969772309298,-0.017893389907430786,0.020015479822770545,0.999639538616338,207.57899112813567,21.657004198527346,348.5777577424829,-20.596501816229427,-12.62823486328125,4381.2578125,True
1599572592.7806706,0.0,10,0.5,0.5,-17.251319919586184,-0.2,-0.00825,-0.12575,0.10622050096494243,10,1,100,0.24621635776282486,-10,-1,-100,6465.092786603724,-0.018375091844009664,0.018926782704291174,0.9996520058981471,203.36305431005997,21.248376974373162,348.0519491929916,-20.97859972617749,-8.545745849609375,4381.2578125,True
1599572592.860966,0.0,10,0.5,0.5,-18.016008870697018,-0.2,-0.00825,-0.12575,0.10415380566173092,10,1,100,0.24752283978417122,-10,-1,-100,6464.278793292004,-0.01881661727383806,0.017930114302172867,0.999662165891798,198.72658174111294,20.7907435349597,346.5377314335673,-21.360821244124402,-4.75958251953125,4381.2578125,True
1599572592.9448323,0.0,10,0.5,0.5,-18.71622313308716,-0.2,-0.00825,-0.12575,0.10223418523758726,10,1,100,0.24830789170616968,-10,-1,-100,6463.403282315237,-0.0192183954531005,0.017017489895313646,0.9996704748635279,194.61608617458126,20.38167533823891,345.6728338979366,-21.74313587671258,-1.269927978515625,4381.2578125,True
1599572593.0226243,0.0,10,0.5,0.5,-19.357438871765137,-0.2,-0.00825,-0.12575,0.10109957259699291,10,1,100,0.2484624947240766,-10,-1,-100,6462.527288396028,-0.01957852053347637,0.016188601395403807,0.9996772532765669,190.46751262756618,19.96148205911647,344.48550566776055,-22.125512767059263,1.92340087890625,4381.2578125,True
1599572593.1019971,0.0,10,0.5,0.5,-19.93694757766724,-0.2,-0.00825,-0.12575,0.1018656320545562,10,1,100,0.25054160545961324,-10,-1,-100,6461.589287088951,-0.019919013020098675,0.015452606589036298,0.9996821744284079,186.36199973869574,19.538435984601787,343.11877468253306,-22.50792317758662,4.8204345703125,4381.2578125,True
1599572593.1820605,0.0,10,0.5,0.5,-20.043235523223878,-0.2,-0.00825,-0.12575,0.13764429055059427,10,1,100,0.23496093386581213,-10,-1,-100,6461.181567248306,-0.020081755153540215,0.015118746381872617,0.9996840233882873,185.72062046960306,19.47218768424019,344.9602013045489,-22.699120670075033,6.15789794921875,4381.2578125,True
1599572593.2760882,0.0,10,0.5,0.5,-20.705476232910158,-0.2,-0.00825,-0.12575,0.10407413036891211,10,1,100,0.25375704710070796,-10,-1,-100,6460.243083891692,-0.020396111287222084,0.014519061647875805,0.9996865486207286,191.49214151524671,20.074556856743772,361.9188849977194,-23.081382004269745,8.6107177734375,4381.2578125,True
1599572593.3561797,0.0,10,0.5,0.5,-21.128707319641112,-0.2,-0.00825,-0.12575,0.10738813338760825,10,1,100,0.25607065759995506,-10,-1,-100,6459.305093622999,-0.02069891410150178,0.014012360430449894,0.9996875555443239,196.4807555559181,20.58926523975283,377.7560501654359,-23.463459688812264,10.76751708984375,4381.2578125,True
1599572593.4389915,0.0,10,0.5,0.5,-21.75731934204102,-0.2,-0.00825,-0.12575,0.09235954265947037,10,1,100,0.2726750442953252,-10,-1,-100,6457.896403714549,-0.02112150669337937,0.013422724842075287,0.9996868071615307,202.66109113553665,21.21629778193967,399.5675590012782,-24.03623353883974,13.447662353515625,4381.2578125,True
1599572593.514755,0.0,10,0.5,0.5,-21.690156102752688,-0.2,-0.00825,-0.12575,0.13414344456127678,10,1,100,0.24642909462988488,-10,-1,-100,6457.366133464384,-0.021263362113100565,0.013274141199706175,0.9996857839376619,204.40870210147298,21.390738108956608,406.35502609996325,-24.227069611317738,14.193145751953125,4381.2578125,True
1599572593.6005285,0.0,10,0.5,0.5,-22.20254906921387,-0.2,-0.00825,-0.12575,0.11522017475739885,10,1,100,0.27866008091467165,-10,-1,-100,6455.893978606444,-0.02168226694070365,0.012973163925356333,0.9996807371946695,208.82116323353495,21.823006831946973,425.38033900028444,-24.799330233275143,15.9859619140625,4381.2578125,True
1599572593.679315,0.0,10,0.5,0.5,-22.14387292556763,-0.2,-0.00825,-0.12575,0.13916344119308954,10,1,100,0.25280776697734125,-10,-1,-100,6455.4252352115,-0.02182506195264282,0.012922626660616332,0.9996782844450277,210.03830322448786,21.93946648727661,431.30154881343606,-24.990006276263962,16.435791015625,4381.2578125,True
1599572593.7591028,0.0,10,0.5,0.5,-22.399974213409426,-0.2,-0.00825,-0.12575,0.14301725855411984,10,1,100,0.28403075542222844,-10,-1,-100,6453.890591309988,-0.022235985999651216,0.012916270657445295,0.9996693107617772,213.00332230179265,22.214861052140197,447.87481061775003,-25.561826394294815,17.341949462890625,4381.2578125,True
1599572593.847866,0.0,10,0.5,0.5,-22.377911154174804,-0.2,-0.00825,-0.12575,0.15674373583489776,10,1,100,0.2737937068990942,-10,-1,-100,6452.827624010271,-0.02251374597349713,0.013039007010967668,0.9996615004782412,214.44489527772313,22.341341370484365,457.955498584409,-25.94288515436065,17.576889038085938,4381.2578125,True
1599572593.9336362,0.0,10,0.5,0.5,-22.341672808456423,-0.2,-0.00825,-0.12575,0.16930998136549907,10,1,100,0.276348415292604,-10,-1,-100,6451.826672227355,-0.0227868112756253,0.013267687377524779,0.9996523044056573,215.48037946698403,22.425010858388408,467.26149790445976,-26.323838408069367,17.516693115234375,4381.2578125,True
1599572594.0164483,0.0,10,0.5,0.5,-22.244012383651736,-0.2,-0.00825,-0.12575,0.1832487895069244,10,1,100,0.27881940871177113,-10,-1,-100,6450.76175920933,-0.023054908946592862,0.01360428134769103,0.9996416331378346,216.11523508379523,22.46692631125181,475.76594419588,-26.704702225223347,17.1614990234375,4381.2578125,True
1599572594.0963192,0.0,10,0.5,0.5,-22.203882194137574,-0.2,-0.00825,-0.12575,0.1722645808162267,10,1,100,0.266596990502032,-10,-1,-100,6450.23003660317,-0.023184818342117514,0.01381179620977599,0.9996357829149088,216.28145332309148,22.472283738469418,479.7034253005694,-26.89510561105074,16.873321533203125,4381.2578125,True
1599572594.7979903,0.0,10,0.5,0.5,-21.98719110221863,-0.2,-0.00825,-0.12575,0.20646156385492126,10,1,100,0.2812626641458297,-10,-1,-100,6449.103118041763,-0.023433706910215454,0.014311970716966903,0.9996229433514633,216.30164692481853,22.451123437105025,486.90256778147483,-27.275865248928863,16.075942993164062,4381.2578125,True
1599572594.865808,0.0,10,0.5,0.5,-21.925978604125977,-0.2,-0.00825,-0.12575,0.18860758258631147,10,1,100,0.2695177178671439,-10,-1,-100,6448.571397705236,-0.02355071083067215,0.01460409352080172,0.9996159684958049,216.1500724394461,22.42418362601326,490.1416042696429,-27.466225511440364,15.5667724609375,4381.2578125,True
1599572594.9366188,0.0,10,0.5,0.5,-21.588066831970217,-0.2,-0.00825,-0.12575,0.23252655178230813,10,1,100,0.2824673505561053,-10,-1,-100,6447.444485212443,-0.023772593597225805,0.015267849090907226,0.9996007986080235,215.50415846221728,22.33600586857375,495.82780229702456,-27.84691691564281,14.3275146484375,4381.2578125,True
1599572595.010421,0.0,10,0.5,0.5,-21.24445414505005,-0.2,-0.00825,-0.12575,0.2519418427340929,10,1,100,0.28141441307581033,-10,-1,-100,6446.323436200502,-0.023962451924740877,0.016045953428845548,0.9995840776424532,214.3681650626877,22.199347088201012,500.3438110453202,-28.227582026858922,12.7939453125,4381.2578125,True
1599572595.081235,0.0,10,0.5,0.5,-21.148930007171632,-0.2,-0.00825,-0.12575,0.22152690110121248,10,1,100,0.27216187848599893,-10,-1,-100,6445.7902571974555,-0.02404886355804353,0.016474028094396482,0.9995750389840232,213.60231686969024,22.11166650460535,502.11484882940437,-28.417909390452785,11.916778564453125,4381.2578125,True
1599572595.1645184,0.0,10,0.5,0.5,-20.254655366516115,-0.2,-0.00825,-0.12575,0.34004197222548094,10,1,100,0.2826237478550393,-10,-1,-100,6444.062796599814,-0.024220505853850494,0.017937368071996335,0.9995457057697928,210.4278181360395,21.7639652800257,505.19595856620265,-28.988890550208296,8.844329833984375,4381.2578125,True
1599572595.2413116,0.0,10,0.5,0.5,-19.847067697143558,-0.2,-0.00825,-0.12575,0.3162546074140624,10,1,100,0.27178623333172536,-10,-1,-100,6442.875354626682,-0.02427621733632288,0.019046863737515532,0.9995238277567996,207.5038138595921,21.455153182998632,505.12919927475406,-29.36955769592663,6.428558349609375,4381.2578125,True
1599572595.3161497,0.0,10,0.5,0.5,-19.712297433090214,-0.2,-0.00825,-0.12575,0.27137500800954484,10,1,100,0.2672755348282605,-10,-1,-100,6442.28114787722,-0.024284255541845524,0.01964203811455869,0.9995121136191819,205.7743366493294,21.275513914070626,504.37313426564066,-29.55989814587393,5.110504150390625,4381.2578125,True
1599572595.3939393,0.0,10,0.5,0.5,-18.937370287704468,-0.2,-0.00825,-0.12575,0.3530419296856314,10,1,100,0.2568971951313052,-10,-1,-100,6441.0868767601205,-0.02419585314574268,0.02091973742643777,0.9994883317360732,201.73381621229353,20.86173924004069,501.2536666516111,-29.940595099487602,2.25421142578125,4381.2578125,True
1599572595.475652,0.0,10,0.5,0.5,-18.258130132675173,-0.2,-0.00825,-0.12575,0.3770433532310734,10,1,100,0.24874962941388862,-10,-1,-100,6439.903841078049,-0.024040381329855264,0.02229282660030573,0.9994624004672131,205.12739600093184,21.225412025422223,516.5984191704823,-30.321184117093907,-0.89581298828125,4381.2578125,True
1599572595.5534444,0.0,10,0.5,0.5,-16.921097847366337,-0.2,-0.00825,-0.12575,0.4866217031037182,10,1,100,0.21780447631436423,-10,-1,-100,6438.051414708025,-0.02361694595724581,0.024529546275036528,0.9994201024710246,213.47427117167754,22.125996375871978,548.430860288406,-30.89160503967464,-6.171295166015625,4381.2578125,True
1599572595.6352627,0.0,10,0.5,0.5,-16.300892061614988,-0.2,-0.00825,-0.12575,0.4387814800614244,10,1,100,0.21108005425741877,-10,-1,-100,6436.802472389187,-0.023170707018858594,0.026118727973899972,0.9993902793129776,218.99786107312212,22.73434323113611,570.0234675270677,-31.271532403697037,-10.055389404296875,4381.2578125,True
1599572595.7100255,0.0,10,0.5,0.5,-14.690796678161622,-0.2,-0.00825,-0.12575,0.5535970144329878,10,1,100,0.1495226263660169,-10,-1,-100,6434.89390782197,-0.02220576773386821,0.02859674834492359,0.9993443499932577,227.82796025279683,23.719518299802154,604.5583494254404,-31.840803013079505,-16.4326171875,4381.2578125,True
1599572595.7928371,0.0,10,0.5,0.5,-15.467355963134766,-0.2,-0.00825,-0.12575,0.30712786725602753,10,1,100,0.24585987227871947,-10,-1,-100,6434.89390782197,-0.02220576773386821,0.02859674834492359,0.9993443499932577,227.82796025279683,23.719518299802154,604.5583494254404,-31.840803013079505,-16.4326171875,4381.2578125,True
1599572595.8735876,0.0,10,0.5,0.5,-13.150329086303712,-0.2,-0.00825,-0.12575,0.5867332445539775,10,1,100,0.09910182762962211,-10,-1,-100,6432.92382031749,-0.020873200677231755,0.03112720559770852,0.9992974564988975,236.1453669206635,24.66421925567621,638.5892182068961,-32.409279284495206,-23.47149658203125,4381.2578125,True
1599572595.9523785,0.0,10,0.5,0.5,-13.1940053565979,-0.2,-0.00825,-0.12575,0.42655065041954116,10,1,100,0.17209919904016224,-10,-1,-100,6432.328159339726,-0.020328275513913353,0.03195809481037875,0.9992824632658781,238.8486996176316,24.97293286866731,649.9272234773822,-32.59858966678189,-25.96502685546875,4381.2578125,True
1599572596.0327194,0.0,10,0.5,0.5,-11.78287734375,-0.2,-0.00825,-0.12575,0.5359282862454491,10,1,100,0.09977766771341394,-10,-1,-100,6430.945921248407,-0.019178958926417036,0.03369504466873414,0.9992481230901916,243.5994151215473,25.52028664640007,671.0619903670214,-32.976955894483275,-31.17138671875,4381.2578125,True
1599572596.1115415,0.0,10,0.5,0.5,-9.68221827468872,-0.2,-0.00825,-0.12575,0.6255824065850157,10,1,100,-0.021067618423542683,-10,-1,-100,6428.974854712491,-0.01704016602600251,0.0360758109240249,0.9992037673107425,248.64341405549555,26.11147757619594,697.5084757984648,-33.54396403701682,-39.53466796875,4381.2578125,True
1599572596.190373,0.0,10,0.5,0.5,-8.761108778381347,-0.2,-0.00825,-0.12575,0.5558352196736912,10,1,100,0.014426607691343823,-10,-1,-100,6427.599935171893,-0.015425069162593587,0.03759113875435949,0.9991741457466159,250.26445924599545,26.309441372198073,710.4754701585554,-33.921710375786304,-45.477752685546875,4381.2578125,True
1599572596.2707036,0.0,10,0.5,0.5,-7.436883106231691,-0.2,-0.00825,-0.12575,0.5540366884327663,10,1,100,-0.019224268258575067,-10,-1,-100,6426.287020534626,-0.013658855672661802,0.038937203405811686,0.9991483022317798,250.20969289631333,26.317904410524967,718.745611693817,-34.29935600174726,-51.71624755859375,4381.2578125,True
1599572596.3485358,0.0,10,0.5,0.5,-7.127300722503663,-0.2,-0.00825,-0.12575,0.4880590751903104,10,1,100,0.054178968277767886,-10,-1,-100,6425.563420703169,-0.012729946946378927,0.03954597080783181,0.9991366596435186,249.48151672300438,26.243366976976606,720.8608175293821,-34.48817382788246,-54.9461669921875,4381.2578125,True
1599572596.4443214,0.0,10,0.5,0.5,-4.192857794189454,-0.2,-0.00825,-0.12575,0.6036908771821539,10,1,100,-0.17869564369885488,-10,-1,-100,6423.470728727989,-0.009778339812707804,0.04113694262365523,0.9991056680962657,244.17276807102203,25.67461805623397,717.9165181185447,-35.05477251255336,-65.0777587890625,4381.2578125,True
1599572596.5120995,0.0,10,0.5,0.5,-3.1011496650695802,-0.2,-0.00825,-0.12575,0.5349916699529462,10,1,100,-0.1131725370673764,-10,-1,-100,6422.026432806393,-0.007702900085298543,0.041945089468093034,0.9990902235533033,237.80890652205207,24.9912188080299,707.3007209047385,-35.43275304796623,-72.20089721679688,4381.2578125,True
1599572596.591886,0.0,10,0.5,0.5,-2.7547025634765623,-0.2,-0.00825,-0.12575,0.4917661356142783,10,1,100,-0.024107747329507934,-10,-1,-100,6421.368245865102,-0.006639001028587627,0.04227467415893663,0.9990839682379545,233.7246645213127,24.555219977124313,699.1476892384563,-35.62184897195287,-75.87295532226562,4381.2578125,True
1599572596.6690726,0.0,10,0.5,0.5,0.5653584510803222,-0.2,-0.00825,-0.12575,0.5282505701505006,10,1,100,-0.26532855347389817,-10,-1,-100,6419.210071676411,-0.0034930552545425933,0.04289353880474737,0.9990735422849483,217.74676680274501,22.870231444979893,662.57546064013,-36.189623572639455,-87.33200073242188,4381.2578125,True
1599572596.7503626,0.0,10,0.5,0.5,1.7854666973114015,-0.2,-0.00825,-0.12575,0.48529411650121745,10,1,100,-0.18226086101959513,-10,-1,-100,6417.706656697206,-0.0014040655235613984,0.043054933146666335,0.9990717198138189,205.397974505918,21.588963691833364,632.0893372247035,-36.568515389073404,-95.33936309814453,4381.2578125,True
1599572596.8321483,0.0,10,0.5,0.5,3.5174687360763555,-0.2,-0.00825,-0.12575,0.4644213957752207,10,1,100,-0.19229736102702447,-10,-1,-100,6416.272565976484,0.000569053131952362,0.04300181523423244,0.9990748320646927,218.20019485999333,22.971644321567425,679.0197812770663,-36.947039793419975,-103.57173156738281,4381.2578125,True
1599572596.9109335,0.0,10,0.5,0.5,3.875694202613831,-0.2,-0.00825,-0.12575,0.46033087842777687,10,1,100,-0.09881261226074951,-10,-1,-100,6415.485936661018,0.001494983273582036,0.04290787900107441,0.9990779143513487,224.10592970293388,23.61752687526011,701.2599251627457,-37.13607416190313,-107.66602325439453,4381.2578125,True
1599572596.9887254,0.0,10,0.5,0.5,6.0273896522521975,-0.2,-0.00825,-0.12575,0.4357422085933313,10,1,100,-0.20598728323936172,-10,-1,-100,6413.979562794906,0.003294203002778592,0.04259273809236574,0.9990870867388746,233.70494503489255,24.68293586721924,739.3304870532743,-37.513713832869556,-115.67935943603516,4381.2578125,True
1599572597.080479,0.0,10,0.5,0.5,8.818810740470887,-0.2,-0.00825,-0.12575,0.3849081768504006,10,1,100,-0.2894036344637476,-10,-1,-100,6411.758802146302,0.005671170247574085,0.04183957188738757,0.9991082464139223,243.84760632603283,25.828748853452506,783.9379120297828,-38.07927958664157,-127.1641845703125,4381.2578125,True
1599572597.1612637,0.0,10,0.5,0.5,9.809764442634584,-0.2,-0.00825,-0.12575,0.38940154146908357,10,1,100,-0.20275650644432952,-10,-1,-100,6410.203087596805,0.007026775646375064,0.04119308558986674,0.9991264955567946,247.68537601759925,26.269313281104274,804.7353955983357,-38.45590747132325,-134.4486846923828,4381.2578125,True
1599572597.2420483,0.0,10,0.5,0.5,11.234503197288513,-0.2,-0.00825,-0.12575,0.3772322199380901,10,1,100,-0.19628183642889552,-10,-1,-100,6408.623441232019,0.00818232289733314,0.040493243201127835,0.9991463090293926,249.02016363854685,26.428954419513357,817.5823314993484,-38.83238274554891,-141.43310546875,4381.2578125,True
1599572597.3218358,0.0,10,0.5,0.5,12.596624696159363,-0.2,-0.00825,-0.12575,0.36392123417518835,10,1,100,-0.1890409181472217,-10,-1,-100,6407.061857508146,0.009150665993179775,0.03973659906754111,0.9991682881308968,248.16727687662402,26.34173108861968,823.2857666745618,-39.20884198621315,-148.117431640625,4381.2578125,True
1599572597.4095995,0.0,10,0.5,0.5,13.898250931358339,-0.2,-0.00825,-0.12575,0.3528683696804106,10,1,100,-0.17838711539313257,-10,-1,-100,6405.495388102252,0.009918803722477288,0.038950267896510245,0.9991919204855017,245.44778289038527,26.045590782087586,822.7107613822548,-39.58539254491205,-154.50131225585938,4381.2578125,True
1599572597.4873915,0.0,10,0.5,0.5,14.163353731346133,-0.2,-0.00825,-0.12575,0.38807673590007435,10,1,100,-0.13722517908671744,-10,-1,-100,6404.713129026233,0.010227858778370286,0.03855851962144497,0.9992039989258512,243.4885353253216,25.831564719958102,820.3497841856293,-39.77372621913683,-157.58038330078125,4381.2578125,True
1599572597.570206,0.0,10,0.5,0.5,16.696148521232608,-0.2,-0.00825,-0.12575,0.2991464938866853,10,1,100,-0.1789386440050442,-10,-1,-100,6402.3048242463265,0.010875557679318788,0.0373978690068851,0.999241272986113,235.68418524720587,24.9846165419714,806.3390438674404,-40.339027947907326,-166.36636352539062,4381.2578125,True
1599572597.653535,0.0,10,0.5,0.5,17.435429947280884,-0.2,-0.00825,-0.12575,0.3319860288532479,10,1,100,-0.13670008779721934,-10,-1,-100,6400.67340773961,0.011069224693561855,0.03664641609710831,0.9992669875723509,229.24785942564463,24.295291817583973,792.337750760348,-40.716164664530474,-171.84762573242188,4381.2578125,True
1599572597.7412984,0.0,10,0.5,0.5,19.296909918975828,-0.2,-0.00825,-0.12575,0.29244317509395323,10,1,100,-0.11632922981415889,-10,-1,-100,6398.196253492148,0.01105055038706263,0.03560957423507866,0.9993046800445495,218.42138485706948,23.155290997181705,766.4407059388719,-41.2822472567948,-179.50509643554688,4381.2578125,True
1599572598.4453857,0.0,10,0.5,0.5,18.39325021343231,-0.2,-0.00825,-0.12575,0.39539753082031825,10,1,100,-0.11915221717542945,-10,-1,-100,6398.196253492148,0.01105055038706263,0.03560957423507866,0.9993046800445495,218.42138485706948,23.155290997181705,766.4407059388719,-41.2822472567948,-179.50509643554688,4381.2578125,True
1599572598.5102127,0.0,10,0.5,0.5,-98.04158972358704,-0.2,-0.00825,-0.12575,0.3586452516438096,10,1,100,-0.10939681001041135,-10,-1,-100,6397.354422856355,0.010954813642485843,0.03528181093698066,0.9993173599388062,214.62017281177376,22.760651592165125,756.8874830991207,-41.47102862001638,178.09274291992188,4381.2578125,True
1599572598.5820534,0.0,10,0.5,0.5,-51.83396540794374,-0.2,-0.00825,-0.12575,0.32402685593588126,10,1,100,-0.08654533445321749,-10,-1,-100,6395.722522076685,0.010655236239264355,0.03467509321495623,0.999341835335247,218.8388028685148,23.234622127192893,779.4937687082572,-41.84843168727062,173.51397705078125,4381.2578125,True
1599572598.6608105,0.0,10,0.5,0.5,-51.241282612609865,-0.2,-0.00825,-0.12575,0.32536704508405395,10,1,100,-0.06396080605179133,-10,-1,-100,6394.032030039933,0.010174280650329229,0.03414164063480369,0.9993652147178289,225.37765745660099,23.966841667474768,810.7501231971245,-42.2254780586972,169.14703369140625,4381.2578125,True
1599572598.7366085,0.0,10,0.5,0.5,-50.56675743179322,-0.2,-0.00825,-0.12575,0.3268543139883915,10,1,100,-0.04448197800061712,-10,-1,-100,6392.341541805072,0.009558157171056625,0.0336759785543102,0.9993870972250457,231.89274815943827,24.7067586158813,842.3810759751652,-42.60215624986912,164.60398864746094,4381.2578125,True
1599572598.8163946,0.0,10,0.5,0.5,-49.827081270217896,-0.2,-0.00825,-0.12575,0.32970144658762346,10,1,100,-0.02181435406748604,-10,-1,-100,6390.588558402262,0.008791605162164087,0.033284042068866614,0.9994072644433953,238.2155139112163,25.434189835510242,873.7589988305607,-42.97844589300813,159.78753662109375,4381.2578125,True
1599572598.891232,0.0,10,0.5,0.5,-49.02904131965637,-0.2,-0.00825,-0.12575,0.33415724982259953,10,1,100,0.001892545198008605,-10,-1,-100,6388.901498958934,0.007880247159448477,0.032973394589533724,0.9994251632583346,244.07439142510538,26.116919684275842,903.8517595781296,-43.354348692602684,154.68240356445312,4381.2578125,True
1599572598.9739733,0.0,10,0.5,0.5,-48.17092760810852,-0.2,-0.00825,-0.12575,0.33974928408576976,10,1,100,0.026312800946968362,-10,-1,-100,6387.14169285493,0.0068318717516427626,0.03274690185165256,0.9994403263564501,249.96478075819925,26.803853580454113,934.4586123328289,-43.729863488961904,149.2865447998047,4381.2578125,True
1599572599.0547595,0.0,10,0.5,0.5,-46.295803251647946,-0.2,-0.00825,-0.12575,0.34318550126918496,10,1,100,0.12224551563376737,-10,-1,-100,6384.47807472467,0.005010363689146373,0.03257646585266004,0.9994566874698737,256.9987886786788,27.632142412160626,974.2884152432403,-44.29249233218172,140.64781188964844,4381.2578125,True
1599572599.132549,0.0,10,0.5,0.5,-46.6546452709198,-0.2,-0.00825,-0.12575,0.3586601994903923,10,1,100,0.014801735712783315,-10,-1,-100,6383.570350208436,0.004336716959798979,0.03256590306490004,0.9994601817199014,258.74329696210157,27.838984986662528,985.4402390019496,-44.4798971651792,137.62313842773438,4381.2578125,True
1599572599.2104182,0.0,10,0.5,0.5,-45.25519879417419,-0.2,-0.00825,-0.12575,0.364348443048231,10,1,100,0.10788197386460507,-10,-1,-100,6381.807156344294,0.0028842303439459353,0.032610778809435095,0.9994639654938867,261.1465668236908,28.12588437006987,1003.7585798692462,-44.85456643053254,131.3562774658203,4381.2578125,True
1599572599.285217,0.0,10,0.5,0.5,-44.16412015533447,-0.2,-0.00825,-0.12575,0.3774138279451984,10,1,100,0.13602076721366202,-10,-1,-100,6380.002472012537,0.001315404680945484,0.032773077344826346,0.9994619528085475,261.8963466492148,28.220039433148838,1015.8529523966263,-45.22913878847791,124.80033874511719,4381.2578125,True
1599572599.36865,0.0,10,0.5,0.5,-43.841508581924444,-0.2,-0.00825,-0.12575,0.3750425718531988,10,1,100,0.07027806671849882,-10,-1,-100,6379.0879294348415,0.0004956235454115942,0.032901345261247626,0.9994584812973981,261.57300168991884,28.18652678296317,1019.2134913019709,-45.416425581901045,121.41413879394531,4381.2578125,True
1599572599.4514575,0.0,10,0.5,0.5,-40.77419723205566,-0.2,-0.00825,-0.12575,0.421739667645591,10,1,100,0.2848825199388193,-10,-1,-100,6376.354582655011,-0.002191345595536808,0.03344408400879209,0.9994381878081775,257.44600604515455,27.73014921863343,1016.8446175232395,-45.97847087604871,110.82275390625,4381.2578125,True
1599572599.5272253,0.0,10,0.5,0.5,-40.86104772262574,-0.2,-0.00825,-0.12575,0.3949990223013603,10,1,100,0.12179242606071763,-10,-1,-100,6375.391720515327,-0.0031401661191018254,0.03369502023672679,0.9994272284503715,254.93268631670784,27.45304985196847,1011.4790309329037,-46.1659290766683,107.14846801757812,4381.2578125,True
1599572599.6110034,0.0,10,0.5,0.5,-38.811726820755005,-0.2,-0.00825,-0.12575,0.4374370835537318,10,1,100,0.24171965465583417,-10,-1,-100,6373.572947465465,-0.005081433833852757,0.03430892732652315,0.9993983572809672,248.06062677965275,26.703222781517805,993.1483127701374,-46.54108322294494,99.58450317382812,4381.2578125,True
1599572599.6930497,0.0,10,0.5,0.5,-35.84224763832093,-0.2,-0.00825,-0.12575,0.5114213502078546,10,1,100,0.39823999947433564,-10,-1,-100,6370.698601589538,-0.00825652303743451,0.03553867720932309,0.9993341944762741,232.905140560586,25.082544914471416,945.1787700693498,-47.104520071621664,87.70121765136719,4381.2578125,True
1599572599.7731104,0.0,10,0.5,0.5,-35.94433760147095,-0.2,-0.00825,-0.12575,0.44283992108059195,10,1,100,0.20043714711196586,-10,-1,-100,6369.772403846262,-0.009330090228126486,0.03603083203560266,0.9993071242411699,229.37937700140134,24.71771901140709,935.063734572488,-47.292477760530105,83.596923828125,4381.2578125,True
1599572599.8520625,0.0,10,0.5,0.5,-32.256042765426635,-0.2,-0.00825,-0.12575,0.5957165636755026,10,1,100,0.4709578839448819,-10,-1,-100,6366.873264747672,-0.012750647134527728,0.03786504778291604,0.9992015107845105,250.42854550977182,27.070066524042726,1034.6059079641211,-47.85531054652702,70.85643005371094,4381.2578125,True
1599572599.9288564,0.0,10,0.5,0.5,-30.91765768547058,-0.2,-0.00825,-0.12575,0.5770723086730537,10,1,100,0.3852773164567773,-10,-1,-100,6364.916961370502,-0.015065183698797294,0.03935821561506026,0.9991115909165101,262.3228757271692,28.42982062684093,1093.2989275883724,-48.22963944088754,62.006317138671875,4381.2578125,True
1599572600.0092244,0.0,10,0.5,0.5,-27.47058776512146,-0.2,-0.00825,-0.12575,0.7333526684075068,10,1,100,0.5437452886135477,-10,-1,-100,6362.00286428805,-0.01859228768532336,0.04213019663045898,0.9989391239562625,276.5173221040659,30.073180414245087,1167.4852028935384,-48.789983915151176,48.19944763183594,4381.2578125,True
1599572600.0871024,0.0,10,0.5,0.5,-29.138197220993042,-0.2,-0.00825,-0.12575,0.45710650864973745,10,1,100,0.19318254176386798,-10,-1,-100,6362.00286428805,-0.01859228768532336,0.04213019663045898,0.9989391239562625,276.5173221040659,30.073180414245087,1167.4852028935384,-48.789983915151176,48.19944763183594,4381.2578125,True
1599572600.1631682,0.0,10,0.5,0.5,-25.96122992515564,-0.2,-0.00825,-0.12575,0.696186693308487,10,1,100,0.44712998193244324,-10,-1,-100,6360.059389133006,-0.0208828028756138,0.04429514638255158,0.9988002045209075,282.33502004707657,30.751496980042212,1202.2627580642154,-49.16301591767707,38.64067077636719,4381.2578125,True
1599572600.250098,0.0,10,0.5,0.5,-23.889703460311893,-0.2,-0.00825,-0.12575,0.7609312175965613,10,1,100,0.4619113578810091,-10,-1,-100,6358.0554294259055,-0.02308003062411841,0.046841511104235255,0.9986356618025723,284.2063616510519,30.97521578407411,1220.5627599944678,-49.53592453403613,28.801055908203125,4381.2578125,True
1599572600.3239,0.0,10,0.5,0.5,-20.078368494796756,-0.2,-0.00825,-0.12575,0.9597949287088406,10,1,100,0.5825520958721405,-10,-1,-100,6355.077663437696,-0.02615525466356145,0.05095206056397255,0.998358547906397,278.7328979588222,30.37691822413557,1212.465317445263,-50.09565283484502,13.51019287109375,4381.2578125,True
1599572600.413029,0.0,10,0.5,0.5,-20.21791082496643,-0.2,-0.00825,-0.12575,0.7185167599640455,10,1,100,0.37754324525524574,-10,-1,-100,6354.044247767772,-0.0270662732496793,0.052479797593029,0.9982551215480783,274.5514801683949,29.92089870749929,1199.4083595211264,-50.28244235262827,8.27294921875,4381.2578125,True
1599572600.5227349,0.0,10,0.5,0.5,-15.5451728099823,-0.2,-0.00825,-0.12575,1.1005887993034849,10,1,100,0.54145857877403,-10,-1,-100,6351.005101106828,-0.02936462514230645,0.05732551264046931,0.9979235964695691,254.76497811687992,27.801784880772903,1127.430611578669,-50.84367862826762,-7.862091064453125,4381.2578125,True
1599572600.6105049,0.0,10,0.5,0.5,-12.032301593780518,-0.2,-0.00825,-0.12575,1.1832590389190634,10,1,100,0.49408440215618965,-10,-1,-100,6347.966519966838,-0.031004172437164516,0.0624624495569829,0.9975656287617513,269.35132494176975,29.529984021534013,1207.330611165338,-51.40470881201287,-24.632659912109375,4381.2578125,True
1599572600.694277,0.0,10,0.5,0.5,-12.18488296813965,-0.2,-0.00825,-0.12575,0.8656115884559858,10,1,100,0.3657740406359986,-10,-1,-100,6346.933159543434,-0.031308508434843715,0.06422065937003875,0.9974444767553045,277.05114656151045,30.43453186429143,1247.068117348498,-51.59120833686056,-30.3641357421875,4381.2578125,True
1599572600.7820415,0.0,10,0.5,0.5,-9.018663698196411,-0.2,-0.00825,-0.12575,1.0745136599580034,10,1,100,0.3769015753127951,-10,-1,-100,6344.864971307921,-0.031669466146795396,0.0676941820213923,0.9972033607215889,288.72833794320485,31.84139211107855,1310.4350646782618,-51.96356481477954,-42.04010009765625,4381.2578125,True
1599572600.8678124,0.0,10,0.5,0.5,-4.522646387863159,-0.2,-0.00825,-0.12575,1.2830117396990925,10,1,100,0.33479102997619004,-10,-1,-100,6341.701857851585,-0.03159969157964779,0.07272160700535421,0.996851557337716,298.40786934948085,33.05036823997952,1370.9991018872656,-52.52102454979777,-60.0859375,4381.2578125,True
1599572600.964591,0.0,10,0.5,0.5,-6.702574998474121,-0.2,-0.00825,-0.12575,0.7833283823403907,10,1,100,0.3430692270803833,-10,-1,-100,6341.701857851585,-0.03159969157964779,0.07272160700535421,0.996851557337716,298.40786934948085,33.05036823997952,1370.9991018872656,-52.52102454979777,-60.0859375,4381.2578125,True
1599572601.047333,0.0,10,0.5,0.5,-0.526343132400513,-0.2,-0.00825,-0.12575,1.2802139183777679,10,1,100,0.2561306202904341,-10,-1,-100,6338.539620097959,-0.030797515696198863,0.07721093786898955,0.9965390027993553,292.9745124569504,32.512155805700964,1362.5207737154794,-53.078511342454696,-78.771728515625,4381.2578125,True
1599572601.128117,0.0,10,0.5,0.5,1.394311605834961,-0.2,-0.00825,-0.12575,1.1271775409177907,10,1,100,0.25076827110030125,-10,-1,-100,6336.4087600855855,-0.03001050288877083,0.07987098450312513,0.9963533487427364,280.37076823174795,31.14657665518847,1314.628591022049,-53.450870412005905,-91.58378601074219,4381.2578125,True
1599572601.2148855,0.0,10,0.5,0.5,4.141926742172241,-0.2,-0.00825,-0.12575,1.1173145841818264,10,1,100,0.23136966431393552,-10,-1,-100,6334.217778656515,-0.029112385300083244,0.08216951867892244,0.996193073265526,260.7132116033753,29.025459797134552,1232.5486473393446,-53.82404317101303,-104.65950012207031,4381.2578125,True
1599572601.2966661,0.0,10,0.5,0.5,6.888533274078369,-0.2,-0.00825,-0.12575,1.103179296216839,10,1,100,0.22400427327739958,-10,-1,-100,6332.087276883656,-0.02822626836400191,0.0841022130771338,0.9960572752255624,268.4542159042194,30.004618324378526,1279.5150223660826,-54.19711611206357,-117.83950805664062,4381.2578125,True
1599572601.3774915,0.0,10,0.5,0.5,7.4582265106201175,-0.2,-0.00825,-0.12575,1.0056760267874965,10,1,100,0.2665118094848989,-10,-1,-100,6330.99026351131,-0.027806085119346763,0.08494406697571,0.9959976541719171,278.2305591826817,31.169365552070637,1331.4363276612155,-54.38316288084545,-124.35688781738281,4381.2578125,True
1599572601.458866,0.0,10,0.5,0.5,10.911696828079224,-0.2,-0.00825,-0.12575,1.0821894956721627,10,1,100,0.22898853445142886,-10,-1,-100,6328.798143932014,-0.02708439652392232,0.08637985791488056,0.9958940483864436,292.30776559599644,32.89286752189766,1409.8801023496553,-54.75448593938875,-137.1793670654297,4381.2578125,True
1599572602.163664,0.0,10,0.5,0.5,13.470711309814455,-0.2,-0.00825,-0.12575,1.0662036985875782,10,1,100,0.24571889776542472,-10,-1,-100,6326.606952079339,-0.02658397362722119,0.08751805387848677,0.9958081555156645,300.9389500365047,33.98229232875974,1462.8411251708083,-55.12513433829205,-149.69998168945312,4381.2578125,True
1599572602.2544198,0.0,10,0.5,0.5,15.973144625854491,-0.2,-0.00825,-0.12575,1.0512382009122692,10,1,100,0.27153806482577864,-10,-1,-100,6324.350292791263,-0.026368058453321217,0.08839554805334555,0.995736387091358,302.63576030513997,34.25097970660696,1482.5450528184126,-55.4956071975841,-161.91317749023438,4381.2578125,True
1599572602.3332098,0.0,10,0.5,0.5,16.48764880142212,-0.2,-0.00825,-0.12575,1.006987105263404,10,1,100,0.2952000873228225,-10,-1,-100,6323.2546700612875,-0.026391700688561164,0.08877216791910754,0.995702254862219,300.8406200044198,34.074880065202635,1479.507082326369,-55.68093146691304,-167.90371704101562,4381.2578125,True
1599572602.4229698,0.0,10,0.5,0.5,19.650452976989747,-0.2,-0.00825,-0.12575,1.0412813907026024,10,1,100,0.32782183460585723,-10,-1,-100,6320.997990967706,-0.026714489505798782,0.08941172442750774,0.9956364193747353,292.385796737544,33.16591536542786,1449.2729621789877,-56.051977998165505,-179.65249633789062,4381.2578125,True
1599572602.5197122,0.0,10,0.5,0.5,-93.44728229751587,-0.2,-0.00825,-0.12575,1.0718585829946932,10,1,100,0.4318070191690896,-10,-1,-100,6317.645718489774,-0.027957694837565866,0.09025594107650678,0.9955261083466188,269.17714854939595,30.64769910285683,1350.1895355802028,-56.609848433070326,163.30673217773438,4381.2578125,True
1599572602.60648,0.0,10,0.5,0.5,-46.94589908905029,-0.2,-0.00825,-0.12575,1.0542228462942482,10,1,100,0.45613426894149695,-10,-1,-100,6315.389601948089,-0.029311619974247492,0.09085122678449503,0.9954330130783474,274.5950986559378,31.402814051969987,1388.232043595668,-56.981909768316875,152.335205078125,4381.2578125,True
1599572602.6962404,0.0,10,0.5,0.5,-46.77789867134095,-0.2,-0.00825,-0.12575,1.033227119525395,10,1,100,0.4120965658583985,-10,-1,-100,6314.230563276447,-0.030142753600397643,0.09119154332814808,0.9953770726869371,283.57790911473734,32.5142086790704,1439.215608110643,-57.16748664200536,146.9663543701172,4381.2578125,True
1599572602.7869968,0.0,10,0.5,0.5,-44.14057849845887,-0.2,-0.00825,-0.12575,1.0848770228349565,10,1,100,0.5483383371993542,-10,-1,-100,6311.912057967274,-0.03213595448336073,0.09196226473914756,0.9952438004295683,297.97831236582766,34.34647102526459,1523.9040347345508,-57.53786080799293,136.16038513183594,4381.2578125,True
