Timestamp,Input Throttle,horizon,dT,dt,Input Roll,Roll P,Roll I,Roll D,Input Pitch,Pitch P,Pitch I,Pitch D,Input Yaw,Yaw P,Yaw I,Yaw D,Altitude,Direction X,Direction Y,Direction Z,Drag X,Drag Y,Drag Z,Vertical Velocity,Roll,Mass,Has Fuel
1599565159.010773,0.0,10,0.5,0.5,-0.05525782012939453,-0.001,-0.00825,-0.37525,-0.06722211223572458,10,1,100,0.6903806731380774,-10,-1,-100,6483.61796720617,-0.06725858249518768,-0.007002411744601867,0.9977110049059784,205.07320924833706,21.498775442062325,-156.76523043106704,9.590824099810213,-35.944610595703125,4381.2578125,True
1599565159.078594,0.0,10,0.5,0.5,-0.0992711265563965,-0.001,-0.00825,-0.37525,-0.06905859812524175,10,1,100,0.6894696127481827,-10,-1,-100,6483.776675078669,-0.06735092730924938,-0.006987268467372439,0.9977048815506263,204.84264385339944,21.47777665215501,-153.51316893551555,9.400810160846351,-35.942962646484375,4381.2578125,True
1599565159.1484056,0.0,10,0.5,0.5,-0.14452431793212892,-0.001,-0.00825,-0.37525,-0.0677322767574352,10,1,100,0.7080805022179815,-10,-1,-100,6484.156591919134,-0.06754283892874978,-0.006955092322486197,0.9976921326743189,204.38109182587755,21.43560145274543,-147.02543729163636,9.020797967119973,-35.9395751953125,4381.2578125,True
1599565159.249137,0.0,10,0.5,0.5,-0.17879354095458985,-0.001,-0.00825,-0.37525,0.004760672359235163,10,1,100,0.7009696085681758,-10,-1,-100,6484.856804624898,-0.06759125696881668,-0.006260491660326713,0.9976934540356305,203.51683927631595,21.356802840104084,-134.15594396313165,8.260812684675537,-35.963653564453125,4381.2578125,True
1599565159.3124776,0.0,10,0.5,0.5,-0.21169497604370122,-0.001,-0.00825,-0.37525,-0.00045851486534072283,10,1,100,0.6915432225666533,-10,-1,-100,6485.1756250193575,-0.06748813235343747,-0.005670792313441212,0.9977039611558044,203.1271383612373,21.321455902815426,-127.77900228705722,7.880825481824877,-36.018707275390625,4381.2578125,True
1599565159.37132,0.0,10,0.5,0.5,-0.2768884475708008,-0.001,-0.00825,-0.37525,-0.05999552878523497,10,1,100,0.7086044973399188,-10,-1,-100,6485.1756250193575,-0.06748813235343747,-0.005670792313441212,0.9977039611558044,203.1271383612373,21.321455902815426,-127.77900228705722,7.880825481824877,-36.018707275390625,4381.2578125,True
1599565159.431676,0.0,10,0.5,0.5,-0.28400239791870124,-0.001,-0.00825,-0.37525,0.026449393955476463,10,1,100,0.6878187961763289,-10,-1,-100,6485.4939298740355,-0.06723781858617443,-0.004879774113695253,0.9977250440659352,202.76085798353336,21.288231421939777,-121.43440315367182,7.500832144220297,-36.1181640625,4381.2578125,True
1599565159.4955487,0.0,10,0.5,0.5,-0.2241311744689942,-0.001,-0.00825,-0.37525,0.1956689019724731,10,1,100,0.6223067549816398,-10,-1,-100,6486.005465807859,-0.06635357131545071,-0.002617871337304688,0.9977927391614687,202.0861151221115,21.2266484140238,-108.82742122875779,6.740795739360699,-36.49462890625,4381.2578125,True
1599565159.5603755,0.0,10,0.5,0.5,-0.29592478561401375,-0.001,-0.00825,-0.37525,0.12673609555421644,10,1,100,0.6430648442467022,-10,-1,-100,6486.261200472014,-0.06567809863418839,-0.001185878079536231,0.9978401580679035,201.77097691054192,21.197493838984276,-102.55832721518941,6.360735941414049,-36.796600341796875,4381.2578125,True
1599565159.630189,0.0,10,0.5,0.5,-0.31207306823730474,-0.001,-0.00825,-0.37525,0.15694209403469167,10,1,100,0.622397776809139,-10,-1,-100,6486.517888776725,-0.06481644276666826,0.00039161203014808314,0.9978971266553947,201.45992003020913,21.16825654548162,-96.30534768198761,5.980636539336617,-37.1715087890625,4381.2578125,True
1599565159.687037,0.0,10,0.5,0.5,-0.3266794082641602,-0.001,-0.00825,-0.37525,0.19610664823531032,10,1,100,0.6042232772064506,-10,-1,-100,6486.772114371182,-0.06380897248820128,0.0021813793389302218,0.9979597469909193,201.14134285896796,21.137703848663246,-90.06300415987711,5.600488653566902,-37.6224365234375,4381.2578125,True
1599565159.7468772,0.0,10,0.5,0.5,-0.2921313758850098,-0.001,-0.00825,-0.37525,0.229938515695377,10,1,100,0.5726994593416287,-10,-1,-100,6486.965287205414,-0.06260964626355744,0.0041076540592022886,0.9980296385242685,200.81011208163414,21.105285298845352,-83.82991547764024,5.2202828975175475,-38.160308837890625,4381.2578125,True
1599565160.2815888,0.0,10,0.5,0.5,-0.37799371566772466,-0.001,-0.00825,-0.37525,0.14980637866909832,10,1,100,0.618128084393986,-10,-1,-100,6487.0618675561855,-0.061936647451671475,0.0051202526296411114,0.998066949014672,200.63454229142746,21.087827562938813,-80.71512887955339,5.0301552429927305,-38.46368408203125,4381.2578125,True
1599565160.3384345,0.0,10,0.5,0.5,-0.2354327796936036,-0.001,-0.00825,-0.37525,0.28345288635941274,10,1,100,0.5212376778308001,-10,-1,-100,6487.25453044835,-0.06044910500981625,0.007244787449995511,0.9981449888459675,200.25637211107596,21.04967782804012,-74.48797593058796,4.649844198639636,-39.139617919921875,4381.2578125,True
1599565160.3942852,0.0,10,0.5,0.5,-0.19814924850463878,-0.001,-0.00825,-0.37525,0.3216210517194624,10,1,100,0.4850010156425876,-10,-1,-100,6487.447672480135,-0.05877386236274502,0.009510888536217852,0.9982260145389004,199.8259673766704,21.0055447479834,-68.26130295136218,4.269450023687037,-39.9058837890625,4381.2578125,True
1599565160.448881,0.0,10,0.5,0.5,-0.15672099914550786,-0.001,-0.00825,-0.37525,0.3566105792870596,10,1,100,0.4452101790021602,-10,-1,-100,6487.57879781269,-0.056897101686849735,0.011875265518989354,0.9983094199137309,199.32820895648928,20.9538938670072,-62.035217509298064,3.8889617354859833,-40.771697998046875,4381.2578125,True
1599565160.5077248,0.0,10,0.5,0.5,-0.30384398651123046,-0.001,-0.00825,-0.37525,0.25500983841133673,10,1,100,0.5200651354067483,-10,-1,-100,6487.674389054067,-0.055881083431228995,0.013085105079154667,0.9983516837966566,199.04739795528903,20.924569782867255,-58.92235458921267,3.698678861212491,-41.2337646484375,4381.2578125,True
1599565160.567566,0.0,10,0.5,0.5,-0.10753446655273441,-0.001,-0.00825,-0.37525,0.40821078996226623,10,1,100,0.3803402314442683,-10,-1,-100,6487.805512331659,-0.05369752837660118,0.015561363439592628,0.9984359866381747,198.41443057640797,20.858194956228836,-52.69988361594471,3.3180284134189524,-42.20513916015625,4381.2578125,True
1599565160.628402,0.0,10,0.5,0.5,-0.08196468353271485,-0.001,-0.00825,-0.37525,0.4398085586847719,10,1,100,0.33451611256692515,-10,-1,-100,6487.9351730799535,-0.05130740092163537,0.018083233269489102,0.9985191772245477,197.74447827213817,20.787706759379653,-46.50271196551326,2.937256279054842,-43.2293701171875,4381.2578125,True
1599565160.680262,0.0,10,0.5,0.5,-0.05000506057739268,-0.001,-0.00825,-0.37525,0.47800493395315313,10,1,100,0.2870100359429722,-10,-1,-100,6488.0042956289835,-0.048715748627551014,0.020705564606972066,0.9985980449760373,196.95587825658242,20.70459261602289,-40.31757312611103,2.556353200999301,-44.32171630859375,4381.2578125,True
1599565160.7371106,0.0,10,0.5,0.5,0.19957146530151354,-0.001,-0.00825,-0.37525,0.6411252823099665,10,1,100,0.07334434125737899,-10,-1,-100,6488.167571622878,-0.04443192267591359,0.02455394721467595,0.9987106227148586,195.59715692064694,20.561325870620998,-31.09371559062027,1.9847334363590146,-46.058807373046875,4381.2578125,True
1599565160.8158996,0.0,10,0.5,0.5,0.0034483871459961013,-0.001,-0.00825,-0.37525,0.5395434646977475,10,1,100,0.15785673789183302,-10,-1,-100,6488.234286595369,-0.041323445461840316,0.027108667090772268,0.9987779998697027,194.57349399365103,20.45349375480968,-24.99293088640394,1.6034661849097103,-47.25152587890625,4381.2578125,True
1599565160.8837178,0.0,10,0.5,0.5,0.014724863433837887,-0.001,-0.00825,-0.37525,0.5552824118175548,10,1,100,0.10372254753904447,-10,-1,-100,6488.3019954791525,-0.038024779173840825,0.029553311031011196,0.9988396858234483,193.4132387256181,20.331459754403582,-18.93696156629835,1.2220432851158467,-48.45111083984375,4381.2578125,True
1599565160.9516997,0.0,10,0.5,0.5,0.2284905143737792,-0.001,-0.00825,-0.37525,0.6973476208735723,10,1,100,-0.15116442602540653,-10,-1,-100,6488.34182534914,-0.032730575396235216,0.03304500464228186,0.9989177829543445,191.45594518191024,20.12602980022512,-9.966737803504024,0.6496116344178295,-50.193756103515625,4381.2578125,True
1599565161.0215156,0.0,10,0.5,0.5,-0.416317456817627,-0.001,-0.00825,-0.37525,0.3507582814657343,10,1,100,0.3754840987737963,-10,-1,-100,6488.34182534914,-0.032730575396235216,0.03304500464228186,0.9989177829543445,191.45594518191024,20.12602980022512,-9.966737803504024,0.6496116344178295,-50.193756103515625,4381.2578125,True
1599565161.0833504,0.0,10,0.5,0.5,0.44708012542724596,-0.001,-0.00825,-0.37525,0.7973971406823573,10,1,100,-0.4619094533695587,-10,-1,-100,6488.351386123453,-0.025141582455810635,0.03708396325688201,0.9989958360777987,188.4902030542804,19.81550191694682,1.7251941205586119,-0.11418211666349665,-52.4659423828125,4381.2578125,True
1599565161.175102,0.0,10,0.5,0.5,-0.3959100242614746,-0.001,-0.00825,-0.37525,0.3960221489961315,10,1,100,0.2938142887497956,-10,-1,-100,6488.351386123453,-0.025141582455810635,0.03708396325688201,0.9989958360777987,188.4902030542804,19.81550191694682,1.7251941205586119,-0.11418211666349665,-52.4659423828125,4381.2578125,True
1599565161.2334547,0.0,10,0.5,0.5,0.4748918617248534,-0.001,-0.00825,-0.37525,0.772733464926557,10,1,100,-0.6036411597460263,-10,-1,-100,6488.299526724266,-0.017010841561280816,0.04048679443972431,0.9990352600110631,186.39035314331434,19.5965199871619,13.129712032050382,-0.8785376275344983,-54.7557373046875,4381.2578125,True
1599565161.2983232,0.0,10,0.5,0.5,0.057606433868408136,-0.001,-0.00825,-0.37525,0.6133436396549374,10,1,100,-0.27277829320086433,-10,-1,-100,6488.241900114459,-0.0126604547046782,0.04210861943892974,0.9990328208100163,185.70253886833842,19.525008594145085,18.776609240153544,-1.2608600073246117,-55.902862548828125,4381.2578125,True
1599565161.3577275,0.0,10,0.5,0.5,0.060838638305663995,-0.001,-0.00825,-0.37525,0.564051940005919,10,1,100,-0.30114092449391633,-10,-1,-100,6488.1847846364835,-0.008482849047118036,0.043113058181244106,0.9990341863451442,184.88120081792235,19.4392214290044,24.36653993901808,-1.6432616413680041,-57.027740478515625,4381.2578125,True
1599565161.4175665,0.0,10,0.5,0.5,-0.35078933486938474,-0.001,-0.00825,-0.37525,0.4658488151319096,10,1,100,0.11259635130405671,-10,-1,-100,6488.1847846364835,-0.008482849047118036,0.043113058181244106,0.9990341863451442,184.88120081792235,19.4392214290044,24.36653993901808,-1.6432616413680041,-57.027740478515625,4381.2578125,True
1599565161.4843879,0.0,10,0.5,0.5,0.45195830764770506,-0.001,-0.00825,-0.37525,0.6478598271767506,10,1,100,-0.8473567295580462,-10,-1,-100,6488.0076272124425,0.00021131616651126717,0.0447508318262276,0.9989981573538254,183.18321896213436,19.26061803160421,35.39257100032709,-2.408267999959202,-59.137237548828125,4381.2578125,True
1599565161.5422344,0.0,10,0.5,0.5,-0.32982475585937504,-0.001,-0.00825,-0.37525,0.4858466791519469,10,1,100,0.017906315642048965,-10,-1,-100,6488.0076272124425,0.00021131616651126717,0.0447508318262276,0.9989981573538254,183.18321896213436,19.26061803160421,35.39257100032709,-2.408267999959202,-59.137237548828125,4381.2578125,True
1599565161.599083,0.0,10,0.5,0.5,0.29484117507934565,-0.001,-0.00825,-0.37525,0.5508537393067525,10,1,100,-0.7086205263762678,-10,-1,-100,6487.857369351434,0.006781345552732009,0.045327989172366544,0.9989491412229576,181.73040488943656,19.106296304406357,43.48921762912011,-2.982177232558855,-60.7740478515625,4381.2578125,True
1599565161.6559296,0.0,10,0.5,0.5,-0.11381461334228515,-0.001,-0.00825,-0.37525,0.49417277710720264,10,1,100,-0.28632740919553507,-10,-1,-100,6487.7661131192,0.008879151274063324,0.04532622984474233,0.9989327772982094,181.17184074108684,19.046691665595425,46.14073665190678,-3.1735075564923205,-61.29718017578125,4381.2578125,True
1599565161.7157695,0.0,10,0.5,0.5,0.5032907569885252,-0.001,-0.00825,-0.37525,0.460013815788305,10,1,100,-1.0341852714308706,-10,-1,-100,6487.464618107886,0.017547128198621843,0.045002929693819006,0.998832736052916,179.0908927522961,18.82243383969398,56.63034073822334,-3.9389631892374375,-63.434722900390625,4381.2578125,True
1599565161.785584,0.0,10,0.5,0.5,-0.28977290649414067,-0.001,-0.00825,-0.37525,0.49313572752433077,10,1,100,-0.17165645004046182,-10,-1,-100,6487.464618107886,0.017547128198621843,0.045002929693819006,0.998832736052916,179.0908927522961,18.82243383969398,56.63034073822334,-3.9389631892374375,-63.434722900390625,4381.2578125,True
1599565161.8459344,0.0,10,0.5,0.5,0.11621733169555659,-0.001,-0.00825,-0.37525,0.43768135052694657,10,1,100,-0.649512576892224,-10,-1,-100,6487.342703639879,0.02185246688758838,0.04449159993344557,0.9987707280583913,178.02057649290998,18.705950398457116,61.773004135315915,-4.32177351660447,-64.48971557617188,4381.2578125,True
1599565161.9177423,0.0,10,0.5,0.5,0.10263691711425776,-0.001,-0.00825,-0.37525,0.38987161402180665,10,1,100,-0.6515091704285223,-10,-1,-100,6487.159756979556,0.025749231720207152,0.04358847999624688,0.9987176885774256,176.89085363921964,18.582426892338102,66.83029114193067,-4.704639959084048,-65.48446655273438,4381.2578125,True
1599565161.9735925,0.0,10,0.5,0.5,0.48065602111816397,-0.001,-0.00825,-0.37525,0.2198356033261374,10,1,100,-1.1339427924257037,-10,-1,-100,6486.729927973822,0.033642587507630516,0.04122033462832625,0.9985835269615257,174.62068573426342,18.332010749353575,76.74075097561987,-5.470547286723706,-67.46026611328125,4381.2578125,True
1599565162.026453,0.0,10,0.5,0.5,0.11410452194213866,-0.001,-0.00825,-0.37525,0.28547622784993754,10,1,100,-0.7520371784800466,-10,-1,-100,6486.4845025530085,0.03730820042709601,0.0396659288109356,0.9985162553871908,173.3853771490068,18.195263284506773,81.54882751865816,-5.853590145147097,-68.4337158203125,4381.2578125,True
1599565162.094271,0.0,10,0.5,0.5,0.09348585662841793,-0.001,-0.00825,-0.37525,0.24548549459886657,10,1,100,-0.7555176967896337,-10,-1,-100,6486.238580910489,0.04063058865717524,0.03789241424681646,0.9984554673133493,172.13840341636364,18.056717017785797,86.27832342708817,-6.236693642008747,-69.32476806640625,4381.2578125,True
1599565162.1610968,0.0,10,0.5,0.5,0.0749601570129394,-0.001,-0.00825,-0.37525,0.2036717531795208,10,1,100,-0.7811975871517944,-10,-1,-100,6485.991183617851,0.04384765034918449,0.03590623828251357,0.9983927712134413,170.98887228044188,17.92790214829835,90.98630564874827,-6.6198573653354025,-70.14187622070312,4381.2578125,True
1599565162.222927,0.0,10,0.5,0.5,-0.07396623458862306,-0.001,-0.00825,-0.37525,0.28443335252171026,10,1,100,-0.627968274483272,-10,-1,-100,6485.837939327932,0.04533958874113117,0.0348428606667524,0.9983638098175145,170.43203365128903,17.865218830703668,93.3248863524612,-6.8114613778937745,-70.536865234375,4381.2578125,True
1599565162.2867553,0.0,10,0.5,0.5,-0.06804301376342778,-0.001,-0.00825,-0.37525,0.2672451611367586,10,1,100,-0.6395606493324794,-10,-1,-100,6485.683716056403,0.0467662286477224,0.03372942939302052,0.998336238674571,169.8788919704441,17.802835187425398,95.64929817074449,-7.003079842573247,-70.92514038085938,4381.2578125,True
1599565162.348591,0.0,10,0.5,0.5,0.22322217407226558,-0.001,-0.00825,-0.37525,-0.019288190994343146,10,1,100,-0.9321802710215226,-10,-1,-100,6485.282060779515,0.05068890959872968,0.030122913034301264,0.9982601086660828,168.23546889941787,17.616954046719346,102.53553883368194,-7.578017931619771,-72.06539916992188,4381.2578125,True
1599565162.4194016,0.0,10,0.5,0.5,0.2424482788085937,-0.001,-0.00825,-0.37525,-0.1005909514472435,10,1,100,-0.9205495861527666,-10,-1,-100,6484.817393484409,0.05411912079956569,0.026118673082856956,0.9981928349173184,166.53841123461888,17.425114429353936,109.2431121223381,-8.153071231727564,-73.23480224609375,4381.2578125,True
1599565162.4942017,0.0,10,0.5,0.5,-0.042495174407959,-0.001,-0.00825,-0.37525,0.14688089463733123,10,1,100,-0.6854852342377367,-10,-1,-100,6484.599182884791,0.05506729869873366,0.024745366506504593,0.998175966175545,165.9423651804229,17.357980356697443,111.42561772844135,-8.344779230723328,-73.62228393554688,4381.2578125,True
1599565162.5580308,0.0,10,0.5,0.5,0.09609455337524411,-0.001,-0.00825,-0.37525,-0.03099995548834278,10,1,100,-0.7844585257409565,-10,-1,-100,6484.290675210301,0.0567988405009055,0.02189775846633899,0.9981454703057578,164.75670337476512,17.22444398103576,115.74289431192044,-8.728227307608252,-74.3570556640625,4381.2578125,True
1599565162.622858,0.0,10,0.5,0.5,0.21213966674804685,-0.001,-0.00825,-0.37525,-0.24607635124028987,10,1,100,-0.8510011319441627,-10,-1,-100,6483.699453396024,0.05894967527856296,0.017373502760743387,0.9981097620935157,163.12945473177,17.0402154217221,122.20223306185972,-9.303468662957258,-75.37884521484375,4381.2578125,True
1599565162.6906765,0.0,10,0.5,0.5,0.08523726806640622,-0.001,-0.00825,-0.37525,-0.13396068957825744,10,1,100,-0.7496315494370498,-10,-1,-100,6483.3269282100955,0.059960431519304226,0.014301455254281845,0.9980982992820039,162.07674272224386,16.92103220290569,126.45478885521065,-9.687001353344773,-76.04327392578125,4381.2578125,True
1599565162.7734556,0.0,10,0.5,0.5,0.07575998077392576,-0.001,-0.00825,-0.37525,-0.16769876449800966,10,1,100,-0.7266807449449174,-10,-1,-100,6482.952914688154,0.06065006421451126,0.011225033634188744,0.998095971503085,161.05774748590673,16.805672107510144,130.6737358079111,-10.070559250915522,-76.6640625,4381.2578125,True
1599565162.8432753,0.0,10,0.5,0.5,0.0677499038696289,-0.001,-0.00825,-0.37525,-0.2102716848616649,10,1,100,-0.7085732750902209,-10,-1,-100,6482.5183315256145,0.06109419014278647,0.008065503231355084,0.9980994176876481,160.1272750039371,16.699885447382815,134.90841455821138,-10.454137347433436,-77.24581909179688,4381.2578125,True
1599565162.915084,0.0,10,0.5,0.5,-0.1446935043334961,-0.001,-0.00825,-0.37525,0.10289728191658522,10,1,100,-0.66588533624206,-10,-1,-100,6482.5183315256145,0.06109419014278647,0.008065503231355084,0.9980994176876481,160.1272750039371,16.699885447382815,134.90841455821138,-10.454137347433436,-77.24581909179688,4381.2578125,True
1599565162.98789,0.0,10,0.5,0.5,0.06969182357788087,-0.001,-0.00825,-0.37525,-0.2454970365488575,10,1,100,-0.6819220859190623,-10,-1,-100,6482.082261969103,0.06122565641130317,0.004922625206610512,0.9981118107497177,159.34676460207322,16.61010028545364,139.22080908111948,-10.837730695315335,-77.8009033203125,4381.2578125,True
1599565163.0547104,0.0,10,0.5,0.5,0.273310578918457,-0.001,-0.00825,-0.37525,-0.6368711071739518,10,1,100,-0.609318174571933,-10,-1,-100,6481.210066889413,0.0606719907088321,-0.001466294726852312,0.9981566808488541,158.17576122620923,16.472342691154118,148.07904251434599,-11.604943405016819,-78.880615234375,4381.2578125,True
1599565163.1390166,0.0,10,0.5,0.5,0.0804400520324707,-0.001,-0.00825,-0.37525,-0.34350721584165905,10,1,100,-0.5879737238236604,-10,-1,-100,6480.7114462787285,0.059965542262410375,-0.004578741829014805,0.9981899462849936,157.57401125309642,16.402448969933804,152.4449629821642,-11.988554223190844,-79.42990112304688,4381.2578125,True
1599565163.206836,0.0,10,0.5,0.5,-0.12056852111816407,-0.001,-0.00825,-0.37525,-0.03533224711659694,10,1,100,-0.6592032106121174,-10,-1,-100,6480.7114462787285,0.059965542262410375,-0.004578741829014805,0.9981899462849936,157.57401125309642,16.402448969933804,152.4449629821642,-11.988554223190844,-79.42990112304688,4381.2578125,True
1599565163.2766633,0.0,10,0.5,0.5,0.15876309204101557,-0.001,-0.00825,-0.37525,-0.5329081427060448,10,1,100,-0.4918210964555716,-10,-1,-100,6479.99302495853,0.0584394337304748,-0.009075500781341131,0.9982497021641575,156.8078749163681,16.312765098880536,159.071161860318,-12.56396415824689,-80.15957641601562,4381.2578125,True
1599565163.3444824,0.0,10,0.5,0.5,0.14477152328491208,-0.001,-0.00825,-0.37525,-0.5834492877431869,10,1,100,-0.41295638297452697,-10,-1,-100,6479.21256201854,0.056333618948678804,-0.013594770911750284,0.9983194406501369,156.28395494755068,16.249361606546863,165.89401716948316,-13.139351210687854,-80.83740234375,4381.2578125,True
1599565163.4222763,0.0,10,0.5,0.5,-0.10507934646606445,-0.001,-0.00825,-0.37525,-0.13461910206952105,10,1,100,-0.6232762555211379,-10,-1,-100,6479.21256201854,0.056333618948678804,-0.013594770911750284,0.9983194406501369,156.28395494755068,16.249361606546863,165.89401716948316,-13.139351210687854,-80.83740234375,4381.2578125,True
1599565163.515026,0.0,10,0.5,0.5,0.21261650161743162,-0.001,-0.00825,-0.37525,-0.7281389089590624,10,1,100,-0.22996808573369565,-10,-1,-100,6478.088252383284,0.05276138723476626,-0.01896504531423154,0.9984270444420524,155.7138545260759,16.179996134593704,175.07738151015954,-13.90647819379712,-81.6712646484375,4381.2578125,True
1599565163.6117675,0.0,10,0.5,0.5,0.051525168609619115,-0.001,-0.00825,-0.37525,-0.4929234143542338,10,1,100,-0.34755712311513515,-10,-1,-100,6477.526086619357,0.05059006663193135,-0.021681344748308403,0.998484133298112,155.59175472732454,16.1630155128498,179.83868565028362,-14.290010061594831,-82.06378173828125,4381.2578125,True
1599565163.6895602,0.0,10,0.5,0.5,0.05787893218994139,-0.001,-0.00825,-0.37525,-0.49132123377569564,10,1,100,-0.3095343462936415,-10,-1,-100,6476.962941182312,0.0482800264068959,-0.02410910000313733,0.9985428335064992,155.82411785042513,16.183397323367917,185.01877700079172,-14.673514985561763,-82.46157836914062,4381.2578125,True
1599565163.774332,0.0,10,0.5,0.5,-0.01880637817382813,-0.001,-0.00825,-0.37525,-0.3756477707502489,10,1,100,-0.4063950764809433,-10,-1,-100,6476.680635314435,0.047072191171053594,-0.025235323658900934,0.9985726750007664,156.24600751367893,16.225545373111608,187.98427608035234,-14.86525453897304,-82.64306640625,4381.2578125,True
1599565163.8521245,0.0,10,0.5,0.5,0.1074146102905273,-0.001,-0.00825,-0.37525,-0.6337789163865057,10,1,100,-0.09188912472842192,-10,-1,-100,6475.774637276656,0.04312788090911971,-0.02857839380731972,0.9986607338309055,158.55905167727286,16.461460162276392,198.27924938977836,-15.44040555318514,-83.14892578125,4381.2578125,True
1599565163.9478703,0.0,10,0.5,0.5,-0.018307472229003904,-0.001,-0.00825,-0.37525,-0.41702941028431706,10,1,100,-0.32999296927036575,-10,-1,-100,6475.429832670721,0.04172267390301541,-0.029622451069425564,0.9986900063958896,159.47891895741836,16.555774132498772,201.9511569246561,-15.63209717684776,-83.3099365234375,4381.2578125,True
1599565164.011699,0.0,10,0.5,0.5,0.04271837081909177,-0.001,-0.00825,-0.37525,-0.5234560411878154,10,1,100,-0.15450568606876408,-10,-1,-100,6474.803702181671,0.03886645847596002,-0.0315163418529714,0.9987472746404584,161.33252126672423,16.746165258215935,209.40497653741127,-16.01544001860276,-83.62420654296875,4381.2578125,True
1599565164.0765247,0.0,10,0.5,0.5,0.03785829925537107,-0.001,-0.00825,-0.37525,-0.5282645808118361,10,1,100,-0.10816968201468385,-10,-1,-100,6474.116541950614,0.03586784358158753,-0.033257286016391475,0.9988030089680501,163.17980816122187,16.93632695115682,216.97426672000006,-16.398727691665517,-83.91552734375,4381.2578125,True
1599565164.1443434,0.0,10,0.5,0.5,0.09018558120727536,-0.001,-0.00825,-0.37525,-0.6080502118203541,10,1,100,0.11135693960500098,-10,-1,-100,6473.146116075339,0.03116665310847803,-0.03554330300572803,0.9988820317462213,165.94810470450776,17.22206965428305,228.5568591959536,-16.9735502185887,-84.3369140625,4381.2578125,True
1599565164.2081726,0.0,10,0.5,0.5,-0.06505268783569336,-0.001,-0.00825,-0.37525,-0.3816433660960967,10,1,100,-0.356245411121929,-10,-1,-100,6473.146116075339,0.03116665310847803,-0.03554330300572803,0.9988820317462213,165.94810470450776,17.22206965428305,228.5568591959536,-16.9735502185887,-84.3369140625,4381.2578125,True
1599565164.2725527,0.0,10,0.5,0.5,0.03689168319702147,-0.001,-0.00825,-0.37525,-0.5257969785622476,10,1,100,0.0021552306788340525,-10,-1,-100,6472.457997106714,0.02793134451559855,-0.03683383718078942,0.9989309828171765,167.79499041970897,17.413224027432005,236.43578600934433,-17.356689991947434,-84.60018920898438,4381.2578125,True
1599565164.3333983,0.0,10,0.5,0.5,0.07477586517333984,-0.001,-0.00825,-0.37525,-0.5720846688363365,10,1,100,0.22665488886627427,-10,-1,-100,6471.362115137512,0.022971821668294264,-0.03841160289527644,0.9989979200039686,170.52852414128986,17.69688948968554,248.43466189316075,-17.931282977263205,-84.95703125,4381.2578125,True
1599565164.3902464,0.0,10,0.5,0.5,-0.011949966430664066,-0.001,-0.00825,-0.37525,-0.4670032299284391,10,1,100,-0.0752791478811487,-10,-1,-100,6471.017333806958,0.02123312690932479,-0.03887544022915015,0.9990184455097126,171.43341019358687,17.790986441770034,252.4868527647061,-18.122781802456515,-85.07608032226562,4381.2578125,True
1599565164.4536138,0.0,10,0.5,0.5,0.11295635681152343,-0.001,-0.00825,-0.37525,-0.5561395520220727,10,1,100,0.4923561231400483,-10,-1,-100,6469.515188826597,0.014516762755066725,-0.0400940167878629,0.9990904530706554,175.05512072403175,18.168631187932355,269.007617637662,-18.8886136876732,-85.52105712890625,4381.2578125,True
1599565164.5184748,0.0,10,0.5,0.5,0.02475596923828123,-0.001,-0.00825,-0.37525,-0.4775534990150171,10,1,100,0.20949872881375434,-10,-1,-100,6468.763644794584,0.011012003861812962,-0.04047388709287494,0.9991199128405662,176.8358245077787,18.354933226574254,277.40674693955077,-19.271428938942755,-85.72412109375,4381.2578125,True
1599565164.58626,0.0,10,0.5,0.5,-0.0137013427734375,-0.001,-0.00825,-0.37525,-0.44946528823792037,10,1,100,0.0393262150987055,-10,-1,-100,6468.356871201773,0.009402078517216628,-0.04055306227828904,0.9991331493146492,177.7163827377367,18.44722119139705,281.636771037069,-19.46281093046673,-85.81878662109375,4381.2578125,True
1599565164.6730638,0.0,10,0.5,0.5,0.01658312683105468,-0.001,-0.00825,-0.37525,-0.44776683120082195,10,1,100,0.24430206879519828,-10,-1,-100,6467.604855179088,0.006104475529784389,-0.04059966228177472,0.9991568459461768,179.44031234092233,18.628232609657935,290.12801529213044,-19.84552357259105,-85.98818969726562,4381.2578125,True
1599565164.7419205,0.0,10,0.5,0.5,0.014018062591552728,-0.001,-0.00825,-0.37525,-0.43039069401485697,10,1,100,0.282632709314358,-10,-1,-100,6466.790836872067,0.0027879778846228785,-0.04047580347377221,0.9991766292865678,181.11490389082508,18.80449923914025,298.65757606201424,-20.228166015933137,-86.1451416015625,4381.2578125,True
1599565164.7927487,0.0,10,0.5,0.5,0.015359958648681636,-0.001,-0.00825,-0.37525,-0.40952412027139495,10,1,100,0.3142199919870926,-10,-1,-100,6465.977316622972,-0.00048410448464247704,-0.0401669461438681,0.9991928653069554,182.75048089519686,18.97709792755888,307.2385064255955,-20.61073778544266,-86.30035400390625,4381.2578125,True
1599565164.853176,0.0,10,0.5,0.5,0.015745658111572254,-0.001,-0.00825,-0.37525,-0.3870673409647807,10,1,100,0.33761021249058276,-10,-1,-100,6465.100817994447,-0.003642589772558056,-0.03967781090195138,0.9992058861224637,184.36926489484006,19.148354502523016,315.90558084450885,-20.993238084166695,-86.45187377929688,4381.2578125,True
1599565164.9259455,0.0,10,0.5,0.5,0.015265196228027342,-0.001,-0.00825,-0.37525,-0.365200539360226,10,1,100,0.36774894081800097,-10,-1,-100,6464.28780550533,-0.0067562837073841695,-0.03903059475117094,0.9992151746765234,185.9685136286539,19.31799678351626,324.6528425234598,-21.375665869295695,-86.59707641601562,4381.2578125,True
1599565165.623195,0.0,10,0.5,0.5,-0.011211441040039068,-0.001,-0.00825,-0.37525,-0.3877515337915441,10,1,100,0.22804248452671774,-10,-1,-100,6463.818069993402,-0.008285321656193532,-0.03864522842022763,0.9992186446245895,186.75473930961522,19.40158413101151,329.0453899963422,-21.566852222273194,-86.66714477539062,4381.2578125,True
1599565165.6850266,0.0,10,0.5,0.5,0.06306686477661132,-0.001,-0.00825,-0.37525,-0.21518852563140314,10,1,100,0.7216252639550524,-10,-1,-100,6462.063169433735,-0.014134056746891915,-0.03672592838561883,0.9992254173228833,189.79831561981734,19.726483777406205,346.7109396793586,-22.331411799897264,-86.93069458007812,4381.2578125,True
1599565165.7478905,0.0,10,0.5,0.5,-0.034300142669677736,-0.001,-0.00825,-0.37525,-0.4069035779079294,10,1,100,0.14028847325083582,-10,-1,-100,6462.063169433735,-0.014134056746891915,-0.03672592838561883,0.9992254173228833,189.79831561981734,19.726483777406205,346.7109396793586,-22.331411799897264,-86.93069458007812,4381.2578125,True
1599565165.8077002,0.0,10,0.5,0.5,0.013170677185058592,-0.001,-0.00825,-0.37525,-0.27593696789708966,10,1,100,0.4500609523180339,-10,-1,-100,6461.186217395007,-0.016924123993410117,-0.03553838473861324,0.9992249983047992,191.2533371004283,19.88265330851024,355.5836893714084,-22.71357856704327,-87.05377197265625,4381.2578125,True
1599565165.8785102,0.0,10,0.5,0.5,0.0509272003173828,-0.001,-0.00825,-0.37525,-0.09259658280876021,10,1,100,0.7326878656453386,-10,-1,-100,6459.308300570003,-0.022004487858806505,-0.03279655565176358,0.9992197898617964,194.0166866227077,20.181083078305186,373.36421918412793,-23.477681299996767,-87.27395629882812,4381.2578125,True
1599565165.9333627,0.0,10,0.5,0.5,-0.010035103607177735,-0.001,-0.00825,-0.37525,-0.2833458856368144,10,1,100,0.3547542086096741,-10,-1,-100,6458.837602530955,-0.023158688521228068,-0.03204511969545213,0.9992180870308949,194.6674548535727,20.25180292689896,377.7949807865512,-23.66865804354201,-87.32833862304688,4381.2578125,True
1599565165.9872184,0.0,10,0.5,0.5,-0.009242530059814454,-0.001,-0.00825,-0.37525,-0.27118091116252785,10,1,100,0.3667970194490939,-10,-1,-100,6458.367882593186,-0.024290839072832384,-0.03125918227866305,0.9992161020822308,195.30476409396132,20.321239381301083,382.22357879032745,-23.8596153729277,-87.38174438476562,4381.2578125,True
1599565166.0470583,0.0,10,0.5,0.5,0.010087832641601555,-0.001,-0.00825,-0.37525,-0.16918310074597864,10,1,100,0.4904204704386771,-10,-1,-100,6457.3674076469615,-0.026419299295143923,-0.029625819642518078,0.9992118551314644,196.5631982886814,20.458778580525447,391.1199098235907,-24.24147052666895,-87.48367309570312,4381.2578125,True
1599565166.1078963,0.0,10,0.5,0.5,0.00911067886352539,-0.001,-0.00825,-0.37525,-0.13510699719613653,10,1,100,0.5103903661577951,-10,-1,-100,6456.426503595896,-0.028512230190318667,-0.02784074460147986,0.9992056573446776,197.76520119459354,20.59091016711968,399.9964555590181,-24.623245410338566,-87.58013916015625,4381.2578125,True
1599565166.1647441,0.0,10,0.5,0.5,0.01050539550781249,-0.001,-0.00825,-0.37525,-0.1070021465197501,10,1,100,0.5131435958694879,-10,-1,-100,6455.4250542916125,-0.030417315237476768,-0.025973211436478395,0.9991997694262243,198.90383549655448,20.71691450144399,408.83373376082966,-25.004938966336894,-87.67758178710938,4381.2578125,True
1599565166.2215924,0.0,10,0.5,0.5,0.028878364562988274,-0.001,-0.00825,-0.37525,0.028795206184742295,10,1,100,0.6020860033944078,-10,-1,-100,6453.89187480812,-0.03293626804736514,-0.023052802973995035,0.9991915584722251,200.52522624723144,20.89781571060397,422.07104338065,-25.577325972900987,-87.82122802734375,4381.2578125,True
1599565166.280435,0.0,10,0.5,0.5,-0.0066771766662597695,-0.001,-0.00825,-0.37525,-0.15022012348055058,10,1,100,0.4367634104593325,-10,-1,-100,6453.359167260118,-0.033700882532952815,-0.0220394732100094,0.9991889271489779,201.0403290089096,20.955716922486978,426.4715509721556,-25.768079992592767,-87.86746215820312,4381.2578125,True
1599565166.3482542,0.0,10,0.5,0.5,0.04234432907104492,-0.001,-0.00825,-0.37525,0.203251704817331,10,1,100,0.6458972883289951,-10,-1,-100,6451.292783077806,-0.03627941565886031,-0.01791823539929227,0.9991810350680337,202.9506389243385,21.172892240198852,443.94714114372243,-26.530885580492455,-88.04180908203125,4381.2578125,True
1599565166.4070969,0.0,10,0.5,0.5,0.00807005004882812,-0.001,-0.00825,-0.37525,0.031854025096942906,10,1,100,0.5080555081903468,-10,-1,-100,6450.227847576607,-0.03735029744577762,-0.01574691419881325,0.9991781572742305,203.81705062700667,21.272932931123574,452.6019736629177,-26.91216031469572,-88.12216186523438,4381.2578125,True
1599565166.4614685,0.0,10,0.5,0.5,-0.021200910186767577,-0.001,-0.00825,-0.37525,-0.183298947896979,10,1,100,0.4030099468438524,-10,-1,-100,6450.227847576607,-0.03735029744577762,-0.01574691419881325,0.9991781572742305,203.81705062700667,21.272932931123574,452.6019736629177,-26.91216031469572,-88.12216186523438,4381.2578125,True
1599565166.5272927,0.0,10,0.5,0.5,0.03408542251586914,-0.001,-0.00825,-0.37525,0.2753848826508475,10,1,100,0.5629218342107398,-10,-1,-100,6448.0379023524,-0.03879009114039753,-0.011592560867881147,0.999180134591278,205.35969157617643,21.454526037611853,469.6883945933516,-27.674451005192516,-88.26724243164062,4381.2578125,True
1599565166.5881298,0.0,10,0.5,0.5,0.006598040008544921,-0.001,-0.00825,-0.37525,0.10226843413393072,10,1,100,0.47636855072235496,-10,-1,-100,6446.9099628118565,-0.03929793610141289,-0.00940825515248536,0.999183244932157,206.03722650195277,21.536165835804248,478.11071490645276,-28.055465625218083,-88.33682250976562,4381.2578125,True
1599565166.6499982,0.0,10,0.5,0.5,-0.01872394485473633,-0.001,-0.00825,-0.37525,-0.11397704469303022,10,1,100,0.4270847643236772,-10,-1,-100,6446.9099628118565,-0.03929793610141289,-0.00940825515248536,0.999183244932157,206.03722650195277,21.536165835804248,478.11071490645276,-28.055465625218083,-88.33682250976562,4381.2578125,True
1599565166.7078097,0.0,10,0.5,0.5,0.020238722991943355,-0.001,-0.00825,-0.37525,0.2211592094899687,10,1,100,0.46681563431065565,-10,-1,-100,6445.186304296018,-0.03964741797692518,-0.0063799415367217635,0.9991933639660299,206.94689417498776,21.64825520217781,490.601118166869,-28.626823476682073,-88.43850708007812,4381.2578125,True
1599565166.760249,0.0,10,0.5,0.5,0.019027687072753905,-0.001,-0.00825,-0.37525,0.266335816206288,10,1,100,0.4361825180792681,-10,-1,-100,6443.469469129341,-0.03967652300002682,-0.0032357425550290078,0.9992073375895245,207.74559212195953,21.749612297641765,502.9441761264459,-29.197982080838266,-88.53482055664062,4381.2578125,True
1599565166.8198752,0.0,10,0.5,0.5,-0.0037418136596679714,-0.001,-0.00825,-0.37525,0.06053914790550567,10,1,100,0.42510987777585296,-10,-1,-100,6442.876191359246,-0.0395939042839404,-0.0022689290733894775,0.9992132778863652,207.97921409126775,21.780172199485914,507.0035734267323,-29.3883238839941,-88.5684814453125,4381.2578125,True
1599565166.882707,0.0,10,0.5,0.5,0.01959723510742187,-0.001,-0.00825,-0.37525,0.2841005498832445,10,1,100,0.3833121151697957,-10,-1,-100,6441.093422658974,-0.0391327643035917,0.0006234742243526252,0.9992338255072488,208.61700701586207,21.865794081298805,519.0920175888791,-29.959215238746953,-88.66244506835938,4381.2578125,True
1599565166.9485307,0.0,10,0.5,0.5,0.00725730743408203,-0.001,-0.00825,-0.37525,0.21070872337026328,10,1,100,0.37600901121581143,-10,-1,-100,6439.838984892005,-0.038642216211174266,0.0025651306654234695,0.9992498182291345,208.98662971668455,21.917478802123977,527.0633315003051,-30.339696871885828,-88.72161865234375,4381.2578125,True
1599565166.9989557,0.0,10,0.5,0.5,-0.003145625305175785,-0.001,-0.00825,-0.37525,0.11615107273642002,10,1,100,0.3930470221642056,-10,-1,-100,6439.244723179378,-0.03834900640800535,0.0034520366369395566,0.9992584436223574,209.14999025896057,21.941192752117875,531.0088852546927,-30.5299038273102,-88.75149536132812,4381.2578125,True
1599565167.060828,0.0,10,0.5,0.5,0.007392999267578122,-0.001,-0.00825,-0.37525,0.22116807922939027,10,1,100,0.34605667612936825,-10,-1,-100,6437.986372590298,-0.0376543591602967,0.005195561260221408,0.9992773165540279,209.4478004723471,21.985818300011104,538.8521609882272,-30.91024989070466,-88.80792236328125,4381.2578125,True
1599565167.1176722,0.0,10,0.5,0.5,0.006901401519775389,-0.001,-0.00825,-0.37525,0.23833415683425688,10,1,100,0.32437863339166473,-10,-1,-100,6436.737294381368,-0.036825512126841965,0.006917600281922756,0.9992977676663424,209.7098109846923,22.026974391212526,546.6355684117186,-31.29050491777361,-88.86138916015625,4381.2578125,True
1599565167.1834967,0.0,10,0.5,0.5,0.007812471008300778,-0.001,-0.00825,-0.37525,0.24674350163764322,10,1,100,0.30250724172912535,-10,-1,-100,6435.491629782948,-0.0358749699713269,0.008542711471545854,0.999319772950716,209.92621673854114,22.063608482758994,554.3295533924556,-31.67066867682854,-88.91583251953125,4381.2578125,True
1599565167.238348,0.0,10,0.5,0.5,-0.0019320060729980486,-0.001,-0.00825,-0.37525,0.171557429384672,10,1,100,0.3401819928715074,-10,-1,-100,6434.893943748553,-0.035356450264089484,0.00932025647197254,0.9993313035445349,210.01919366714833,22.080422408498983,558.146526637743,-31.86071625346223,-88.94296264648438,4381.2578125,True
1599565167.2951994,0.0,10,0.5,0.5,0.008527326202392578,-0.001,-0.00825,-0.37525,0.2608112763622924,10,1,100,0.2684526707250887,-10,-1,-100,6433.578450139146,-0.034236567134212866,0.010821488252498387,0.999355168527619,210.1804496967895,22.11163754140614,565.7332985000822,-32.24074225094476,-88.99649047851562,4381.2578125,True
1599565167.3542182,0.0,10,0.5,0.5,0.008696723175048826,-0.001,-0.00825,-0.37525,0.2681832201557037,10,1,100,0.24546670985995198,-10,-1,-100,6432.261977713439,-0.03301444723631716,0.012237624424017242,0.9993799511807994,210.36127697630099,22.145145945779234,573.3974285607318,-32.62067556612188,-89.04910278320312,4381.2578125,True
1599565167.4060798,0.0,10,0.5,0.5,0.019232059478759764,-0.001,-0.00825,-0.37525,0.3469383812981851,10,1,100,0.14322249710165844,-10,-1,-100,6430.287264687708,-0.03097999273657632,0.014226910256712353,0.9994187486107058,210.70733177470962,22.2037142319469,585.1487062275037,-33.19039525880109,-89.12844848632812,4381.2578125,True
1599565167.4619298,0.0,10,0.5,0.5,-0.00012534179687500105,-0.001,-0.00825,-0.37525,0.21666034955107347,10,1,100,0.266773415938216,-10,-1,-100,6429.63586279063,-0.030261509645823678,0.014836009962070438,0.9994319055555316,210.8085557141165,22.22186015898688,589.040586050978,-33.380253365529015,-89.1549072265625,4381.2578125,True
1599565167.5247624,0.0,10,0.5,0.5,0.0195057014465332,-0.001,-0.00825,-0.37525,0.3418623326828949,10,1,100,0.08949911301782612,-10,-1,-100,6427.6025537226815,-0.028004823404642977,0.016515016326560057,0.9994713523167177,211.08210132445444,22.273435653161094,600.6702011672222,-33.949681458408286,-89.23239135742188,4381.2578125,True
1599565167.581614,0.0,10,0.5,0.5,0.018201861572265624,-0.001,-0.00825,-0.37525,0.33735774475338437,10,1,100,0.04673714502534726,-10,-1,-100,6425.55899168225,-0.025574215651643924,0.017987753235226764,0.9995110805925823,211.3273983827355,22.32245945954456,612.27414703725,-34.51888824481139,-89.30508422851562,4381.2578125,True
1599565167.6514573,0.0,10,0.5,0.5,-0.008619427490234376,-0.001,-0.00825,-0.37525,0.1915376255465424,10,1,100,0.2885204412496164,-10,-1,-100,6425.55899168225,-0.025574215651643924,0.017987753235226764,0.9995110805925823,211.3273983827355,22.32245945954456,612.27414703725,-34.51888824481139,-89.30508422851562,4381.2578125,True
1599565167.7202816,0.0,10,0.5,0.5,0.026122624969482422,-0.001,-0.00825,-0.37525,0.35821356747017224,10,1,100,-0.07371578687088759,-10,-1,-100,6422.745867689722,-0.022292140981010844,0.019491359805464303,0.9995614775207259,211.62029893339923,22.384801305868887,627.7269450102467,-35.27748330093975,-89.39633178710938,4381.2578125,True
1599565167.7891388,0.0,10,0.5,0.5,-0.007676693725585939,-0.001,-0.00825,-0.37525,0.2091102863987725,10,1,100,0.25303834307783724,-10,-1,-100,6422.745867689722,-0.022292140981010844,0.019491359805464303,0.9995614775207259,211.62029893339923,22.384801305868887,627.7269450102467,-35.27748330093975,-89.39633178710938,4381.2578125,True
1599565167.864937,0.0,10,0.5,0.5,0.02534075851440429,-0.001,-0.00825,-0.37525,0.33152606669405343,10,1,100,-0.1252856183892923,-10,-1,-100,6419.860484446748,-0.018865180266755408,0.020594277218754203,0.9996099142762341,211.90983052476807,22.447361631300307,643.2581113599541,-36.03567762013597,-89.4830322265625,4381.2578125,True
1599565167.94572,0.0,10,0.5,0.5,-0.006748023986816406,-0.001,-0.00825,-0.37525,0.22236172743974153,10,1,100,0.21576132603651788,-10,-1,-100,6419.860484446748,-0.018865180266755408,0.020594277218754203,0.9996099142762341,211.90983052476807,22.447361631300307,643.2581113599541,-36.03567762013597,-89.4830322265625,4381.2578125,True
1599565168.0105495,0.0,10,0.5,0.5,0.024930991363525386,-0.001,-0.00825,-0.37525,0.29895297169040974,10,1,100,-0.16900034330208905,-10,-1,-100,6416.984876069706,-0.015381320897193034,0.021281676903790955,0.999655193151929,212.2134716834771,22.51191733082497,658.9203604376186,-36.79346647713995,-89.566162109375,4381.2578125,True
1599565168.0823545,0.0,10,0.5,0.5,0.00803362121582031,-0.001,-0.00825,-0.37525,0.25429520326150223,10,1,100,-0.015090809848905123,-10,-1,-100,6415.487750474364,-0.01362938370747357,0.021492384129489048,0.9996761062084982,212.38619890361275,22.546578669277665,666.8503752259423,-37.17220740705405,-89.60302734375,4381.2578125,True
1599565168.1392312,0.0,10,0.5,0.5,0.0089557502746582,-0.001,-0.00825,-0.37525,0.24111297453735192,10,1,100,-0.01772434789195626,-10,-1,-100,6413.977933268994,-0.012028545561000048,0.02155749273365615,0.99969524786243,212.57315900477516,22.582851806340166,674.8492294499252,-37.550845836253394,-89.64120483398438,4381.2578125,True
1599565168.1935709,0.0,10,0.5,0.5,-0.004969157409667969,-0.001,-0.00825,-0.37525,0.23527426239780017,10,1,100,0.14053617034691349,-10,-1,-100,6413.977933268994,-0.012028545561000048,0.02155749273365615,0.99969524786243,212.57315900477516,22.582851806340166,674.8492294499252,-37.550845836253394,-89.64120483398438,4381.2578125,True
1599565168.257397,0.0,10,0.5,0.5,0.015795016479492188,-0.001,-0.00825,-0.37525,0.22979485370851807,10,1,100,-0.1297646724414777,-10,-1,-100,6411.698075164808,-0.00958578906096344,0.021503095857928953,0.9997228263456844,212.91273056223494,22.643732673549685,687.084511497548,-38.118609293237576,-89.69549560546875,4381.2578125,True
1599565168.3172362,0.0,10,0.5,0.5,0.002404192352294921,-0.001,-0.00825,-0.37525,0.2281009079636604,10,1,100,0.02642833565452367,-10,-1,-100,6410.912408473203,-0.008799572704158064,0.02143504887993034,0.9997315170583245,213.03785357034843,22.665343711987546,691.2153490614922,-38.30781161095047,-89.71319580078125,4381.2578125,True
1599565168.3780742,0.0,10,0.5,0.5,0.009980912780761717,-0.001,-0.00825,-0.37525,0.21260059997334274,10,1,100,-0.07499744867132843,-10,-1,-100,6409.411874670652,-0.007178027652234053,0.02122914219488807,0.9997488681867528,213.30241179090666,22.7101584511041,699.5457103045165,-38.68613758417986,-89.75009155273438,4381.2578125,True
1599565168.4438987,0.0,10,0.5,0.5,0.010229284667968748,-0.001,-0.00825,-0.37525,0.20088296274892534,10,1,100,-0.07707334395550758,-10,-1,-100,6407.846402011579,-0.00569876411456403,0.020933850522455465,0.9997646212933672,213.5843857519052,22.756917015310723,707.9636296927627,-39.064357258742184,-89.78677368164062,4381.2578125,True
1599565168.4937649,0.0,10,0.5,0.5,0.017236297607421874,-0.001,-0.00825,-0.37525,0.16395877046055626,10,1,100,-0.18055382645309093,-10,-1,-100,6405.493802527548,-0.0034283323093100217,0.020328417716970658,0.9997874784026358,214.0547209384891,22.83225935832691,720.8081461241545,-39.63148546722841,-89.84112548828125,4381.2578125,True
1599565168.5516107,0.0,10,0.5,0.5,0.010478570556640624,-0.001,-0.00825,-0.37525,0.16857786881530304,10,1,100,-0.11263395787306922,-10,-1,-100,6403.872671374818,-0.0019957902443133433,0.019820257751120153,0.9998015674142444,214.40232789403152,22.886215822130875,729.5284324287494,-40.00943533411733,-89.8765869140625,4381.2578125,True
1599565168.6124818,0.0,10,0.5,0.5,0.01614350891113281,-0.001,-0.00825,-0.37525,0.1212253115529018,10,1,100,-0.19250007896521118,-10,-1,-100,6401.458557443111,1.7240561046344007e-05,0.01892852000656844,0.9998208393672958,214.98163385568537,22.973462489055358,742.8755150030761,-40.576154070643355,-89.9261474609375,4381.2578125,True
1599565168.6732857,0.0,10,0.5,0.5,0.009175871276855468,-0.001,-0.00825,-0.37525,0.13469743322149866,10,1,100,-0.13323337989781092,-10,-1,-100,6399.826202020748,0.0012944817003440214,0.018242462396597058,0.9998327544558822,215.41074523084353,23.03628748503319,751.9712502359498,-40.953828193515164,-89.95626831054688,4381.2578125,True
1599565168.7351198,0.0,10,0.5,0.5,0.00842956771850586,-0.001,-0.00825,-0.37525,0.12275630583187527,10,1,100,-0.1341451943848111,-10,-1,-100,6398.1391611133,0.0024503320810348047,0.017513172431020036,0.9998436301062752,215.8768424139565,23.10312176467638,761.2388765414589,-41.33139065754343,-89.98355102539062,4381.2578125,True
1599565168.7959912,0.0,10,0.5,0.5,0.007981458282470703,-0.001,-0.00825,-0.37525,0.10780212404581246,10,1,100,-0.14122794162127383,-10,-1,-100,6396.511203956441,0.003552331149592419,0.016717911100897296,0.9998539355284981,216.37931554308923,23.173896352873246,770.6803016339783,-41.70884072318199,-90.00881958007812,4381.2578125,True
1599565168.8557975,0.0,10,0.5,0.5,0.0033410701751708976,-0.001,-0.00825,-0.37525,0.14133806809963873,10,1,100,-0.08930876989619368,-10,-1,-100,6395.665976154152,0.004067991581043528,0.01630421809366846,0.9998588019899863,216.64466647171986,23.210811932817634,775.4691518816973,-41.897523422323495,-90.02088165283203,4381.2578125,True
1599565168.911648,0.0,10,0.5,0.5,0.012046668434143065,-0.001,-0.00825,-0.37525,0.03805891530307384,10,1,100,-0.19538562219233635,-10,-1,-100,6393.122971121571,0.005488696284471282,0.01499395840509553,0.9998725195865935,217.4987838971711,23.327843454818257,790.120359345089,-42.463400599094115,-90.05533599853516,4381.2578125,True
1599565168.9665396,0.0,10,0.5,0.5,-0.0006000591278076173,-0.001,-0.00825,-0.37525,0.16844077511288344,10,1,100,-0.05474397874842391,-10,-1,-100,6393.122971121571,0.005488696284471282,0.01499395840509553,0.9998725195865935,217.4987838971711,23.327843454818257,790.120359345089,-42.463400599094115,-90.05533599853516,4381.2578125,True
1599565169.0253432,0.0,10,0.5,0.5,0.008165847587585448,-0.001,-0.00825,-0.37525,0.06372555821982176,10,1,100,-0.15168909495115548,-10,-1,-100,6391.439843383152,0.0063585003190991096,0.01404767023678569,0.9998811091497881,218.11537763423036,23.410972813396985,800.1260515104868,-42.84050880834252,-90.07796478271484,4381.2578125,True
1599565169.0822322,0.0,10,0.5,0.5,0.007754127502441406,-0.001,-0.00825,-0.37525,0.05375911488047938,10,1,100,-0.1477423839805167,-10,-1,-100,6389.680056764511,0.007102390919542543,0.013103064399133332,0.9998889267046507,218.77182882347165,23.49841657056211,810.3350871184207,-43.21750122168602,-90.09880065917969,4381.2578125,True
1599565169.1470594,0.0,10,0.5,0.5,0.008303306961059569,-0.001,-0.00825,-0.37525,0.032153801805381424,10,1,100,-0.15500439924212933,-10,-1,-100,6387.9305252595805,0.007835100037570458,0.01205448838541924,0.999896644917447,219.46399664047843,23.589729763312704,820.7365205005908,-43.594376935785995,-90.12047576904297,4381.2578125,True
1599565169.200956,0.0,10,0.5,0.5,0.00816162929534912,-0.001,-0.00825,-0.37525,0.022595156776498926,10,1,100,-0.14910955606587964,-10,-1,-100,6386.17757675075,0.008438672579373672,0.01102140048120359,0.999903654127002,220.2010381396634,23.685900860196323,831.3690202214007,-43.971134922531206,-90.14118194580078,4381.2578125,True
1599565169.2578323,0.0,10,0.5,0.5,0.008055459594726562,-0.001,-0.00825,-0.37525,0.006498265866515654,10,1,100,-0.1488831692334534,-10,-1,-100,6384.417793749366,0.008977660980701511,0.009943082577758028,0.9999102643298384,220.97400123979997,23.785962830453645,842.2035617487068,-44.347774089739346,-90.16107940673828,4381.2578125,True
1599565169.326648,0.0,10,0.5,0.5,0.007736237144470214,-0.001,-0.00825,-0.37525,-0.0071745640736422395,10,1,100,-0.1454883356479795,-10,-1,-100,6382.598929816508,0.009429803604513096,0.008846040011368662,0.9999164096963794,221.78590576219395,23.890242539210693,853.2560003045,-44.724293562417074,-90.17962646484375,4381.2578125,True
1599565169.3835046,0.0,10,0.5,0.5,0.01320124683380127,-0.001,-0.00825,-0.37525,-0.1439973480484113,10,1,100,-0.1723715428994625,-10,-1,-100,6379.034447817132,0.010078890172515766,0.006612764307989204,0.9999273410208851,223.5219468071522,24.110957541685195,876.0150291807801,-45.47697068238427,-90.21221923828125,4381.2578125,True
1599565169.440386,0.0,10,0.5,0.5,0.0011386133193969728,-0.001,-0.00825,-0.37525,0.07831970761024376,10,1,100,-0.10811554200148787,-10,-1,-100,6379.034447817132,0.010078890172515766,0.006612764307989204,0.9999273410208851,223.5219468071522,24.110957541685195,876.0150291807801,-45.47697068238427,-90.21221923828125,4381.2578125,True
1599565169.4973211,0.0,10,0.5,0.5,0.0065381088256835935,-0.001,-0.00825,-0.37525,-0.04628860392261189,10,1,100,-0.13016903333953583,-10,-1,-100,6377.156993762706,0.010273912004142136,0.00548877188840477,0.9999321577563591,224.4443139830959,24.227201702826353,887.7236100628347,-45.85312643884104,-90.22615051269531,4381.2578125,True
1599565169.5531707,0.0,10,0.5,0.5,0.007502459907531738,-0.001,-0.00825,-0.37525,-0.11595176353850471,10,1,100,-0.12503388435585738,-10,-1,-100,6374.427484455868,0.01040017120966024,0.003842300225471432,0.9999385346949017,225.88281608885703,24.407522789400264,905.6582292015331,-46.41712957187066,-90.24223327636719,4381.2578125,True
1599565169.6068718,0.0,10,0.5,0.5,0.006966575241088867,-0.001,-0.00825,-0.37525,-0.1335868546999171,10,1,100,-0.10688627748544742,-10,-1,-100,6371.583232008154,0.010345509084104618,0.0021953266651370345,0.9999440739274493,227.39937836118386,24.596312149150542,924.0994745455097,-46.98085419904729,-90.25643920898438,4381.2578125,True
1599565169.6637225,0.0,10,0.5,0.5,0.0017830404281616212,-0.001,-0.00825,-0.37525,0.029925266976357796,10,1,100,-0.11275119091751015,-10,-1,-100,6371.583232008154,0.010345509084104618,0.0021953266651370345,0.9999440739274493,227.39937836118386,24.596312149150542,924.0994745455097,-46.98085419904729,-90.25643920898438,4381.2578125,True
1599565169.7235892,0.0,10,0.5,0.5,0.005779736137390136,-0.001,-0.00825,-0.37525,-0.14400067763262644,10,1,100,-0.08776322882047194,-10,-1,-100,6368.761442185496,0.01011539750307285,0.0006240978393589927,0.9999486432988655,228.98039574297727,24.792102665366038,943.006027399995,-47.54429682223011,-90.26671600341797,4381.2578125,True
1599565169.7784436,0.0,10,0.5,0.5,0.00409933795928955,-0.001,-0.00825,-0.37525,-0.10332871737860279,10,1,100,-0.0836457689221346,-10,-1,-100,6366.791709057405,0.009866700705363175,-0.00042415564490623015,0.9999512329654779,230.05851998527615,24.925256946487504,955.8266102843638,-47.91976812996731,-90.27217864990234,4381.2578125,True
1599565169.847259,0.0,10,0.5,0.5,0.003182341957092285,-0.001,-0.00825,-0.37525,-0.057618145510581316,10,1,100,-0.09179995080810874,-10,-1,-100,6365.804401306203,0.009713443426294153,-0.0009511576535052286,0.9999523710237015,230.60840105786934,24.99301357936201,962.3177674180198,-48.10745641581995,-90.27490234375,4381.2578125,True
1599565169.8936443,0.0,10,0.5,0.5,0.004674061584472656,-0.001,-0.00825,-0.37525,-0.2175150002847887,10,1,100,-0.022398866158865327,-10,-1,-100,6361.894236216787,0.008942530782651382,-0.002873954304514146,0.9999558847918525,232.87684002880903,25.271572258049517,988.819156949381,-48.85788991714959,-90.28133392333984,4381.2578125,True
1599565170.3920522,0.0,10,0.5,0.5,0.0023445199966430665,-0.001,-0.00825,-0.37525,-0.026407334615485254,10,1,100,-0.09944140324095628,-10,-1,-100,6361.894236216787,0.008942530782651382,-0.002873954304514146,0.9999558847918525,232.87684002880903,25.271572258049517,988.819156949381,-48.85788991714959,-90.28133392333984,4381.2578125,True
1599565170.4588726,0.0,10,0.5,0.5,0.003277060317993164,-0.001,-0.00825,-0.37525,-0.13165758150111156,10,1,100,-0.04547705993755899,-10,-1,-100,6359.95087392698,0.008452978897520374,-0.003822150441099382,0.9999569682310154,234.03906752901875,25.41393422585556,1002.3413645032305,-49.23291418652958,-90.28366088867188,4381.2578125,True
1599565170.5246978,0.0,10,0.5,0.5,0.0028618137359619138,-0.001,-0.00825,-0.37525,-0.13552027735996325,10,1,100,-0.034603790036465104,-10,-1,-100,6357.946478081634,0.007910561922186782,-0.004709776059667259,0.9999576196117228,235.22230787428558,25.55861515751475,1016.0584713961883,-49.6078092495263,-90.28472137451172,4381.2578125,True
1599565170.593513,0.0,10,0.5,0.5,0.0025121873855590824,-0.001,-0.00825,-0.37525,-0.047777570297982776,10,1,100,-0.08860915256162878,-10,-1,-100,6357.946478081634,0.007910561922186782,-0.004709776059667259,0.9999576196117228,235.22230787428558,25.55861515751475,1016.0584713961883,-49.6078092495263,-90.28472137451172,4381.2578125,True
1599565170.6742985,0.0,10,0.5,0.5,0.002584557342529297,-0.001,-0.00825,-0.37525,-0.23166498453964768,10,1,100,0.048714060915226814,-10,-1,-100,6353.936712842784,0.006664432353567616,-0.006373705210695905,0.9999574797076582,237.6308493042138,25.852690842263108,1043.997674482759,-50.357208788482794,-90.28482055664062,4381.2578125,True
1599565170.7311456,0.0,10,0.5,0.5,0.002570753860473633,-0.001,-0.00825,-0.37525,-0.0661289726243664,10,1,100,-0.07553078827363607,-10,-1,-100,6353.936712842784,0.006664432353567616,-0.006373705210695905,0.9999574797076582,237.6308493042138,25.852690842263108,1043.997674482759,-50.357208788482794,-90.28482055664062,4381.2578125,True
1599565170.8085258,0.0,10,0.5,0.5,0.002132008361816406,-0.001,-0.00825,-0.37525,-0.19458477731305804,10,1,100,0.04336430631592064,-10,-1,-100,6350.897165986127,0.005586914290690316,-0.007533695224342344,0.9999560139451011,239.47528421818433,26.077545012240886,1065.4087831074014,-50.91891443964254,-90.2835922241211,4381.2578125,True
1599565170.861385,0.0,10,0.5,0.5,0.002213596343994141,-0.001,-0.00825,-0.37525,-0.11707234794858623,10,1,100,-0.023610629534790033,-10,-1,-100,6349.862500278628,0.005220332271455942,-0.00787615697610418,0.9999553561445947,240.0968109341996,26.15326474516484,1072.6321288647093,-51.10608344948028,-90.28254699707031,4381.2578125,True
1599565170.921807,0.0,10,0.5,0.5,0.0016068052291870118,-0.001,-0.00825,-0.37525,-0.1983717352204009,10,1,100,0.07481375315762503,-10,-1,-100,6346.761922696838,0.003996532746251745,-0.008919796633512167,0.9999522313360898,241.9570367923036,26.38008033798758,1094.4542963896222,-51.66739210340783,-90.27986907958984,4381.2578125,True
1599565170.980328,0.0,10,0.5,0.5,0.002058902740478516,-0.001,-0.00825,-0.37525,-0.12814800685584593,10,1,100,-0.0018327837565276159,-10,-1,-100,6345.727258627652,0.003585971614085719,-0.009222918210587103,0.9999510380949979,242.58359352796518,26.456441020927244,1101.8153729991134,-51.85442843451772,-90.27838897705078,4381.2578125,True
1599565171.0321894,0.0,10,0.5,0.5,0.00022070541381836008,-0.001,-0.00825,-0.37525,-0.2230205431850925,10,1,100,0.15101044794144547,-10,-1,-100,6341.5910451096715,0.0018281198959246366,-0.01035518909827922,0.9999447124898382,245.07873765799533,26.760964737940018,1131.501727517155,-52.602239498626304,-90.27203369140625,4381.2578125,True
1599565171.0910723,0.0,10,0.5,0.5,0.0012573022842407228,-0.001,-0.00825,-0.37525,-0.1659138550874066,10,1,100,0.07939664326124155,-10,-1,-100,6339.460684670601,0.0008875751136770759,-0.010858573436389669,0.9999406500354628,246.3162820421336,26.912330080123553,1146.475146157889,-52.97594406016775,-90.26847076416016,4381.2578125,True
1599565171.147957,0.0,10,0.5,0.5,0.0008852581024169927,-0.001,-0.00825,-0.37525,-0.16042407831793962,10,1,100,0.08404702408566726,-10,-1,-100,6337.329836685327,-2.8641469665372075e-06,-0.011259891752226477,0.999936605405325,247.55132270356685,27.063576702730845,1161.5552172683172,-53.349514217150215,-90.26396179199219,4381.2578125,True
1599565171.210753,0.0,10,0.5,0.5,0.0009813154220581059,-0.001,-0.00825,-0.37525,-0.16200529343310383,10,1,100,0.09957698345616989,-10,-1,-100,6335.199966743705,-0.0009463418090387972,-0.011633146617040922,0.9999318848486465,248.75801322898292,27.211891641761195,1176.6202112037674,-53.72295001028181,-90.259765625,4381.2578125,True
1599565171.2759423,0.0,10,0.5,0.5,0.0008417083740234377,-0.001,-0.00825,-0.37525,-0.1592662833408318,10,1,100,0.10913709666041449,-10,-1,-100,6333.006620505126,-0.0018829071639328704,-0.011941275156435787,0.9999269276343398,249.95008224407192,27.358792052316883,1191.733104563839,-54.09625124381884,-90.25526428222656,4381.2578125,True
1599565171.3387752,0.0,10,0.5,0.5,0.0007726352691650392,-0.001,-0.00825,-0.37525,-0.15656477811693284,10,1,100,0.11926671824082226,-10,-1,-100,6330.814251822536,-0.002818647374097098,-0.012191771444808638,0.999921704902948,251.12602830454807,27.504130328228303,1206.8858668277128,-54.46941786736838,-90.25065612792969,4381.2578125,True
1599565171.395139,0.0,10,0.5,0.5,0.0007197475433349614,-0.001,-0.00825,-0.37525,-0.15384350693629237,10,1,100,0.1297345656146818,-10,-1,-100,6328.620907211793,-0.0037558615597108784,-0.012389467363292578,0.9999161937894585,252.28391112198216,27.647710177044626,1222.0680808238176,-54.8424498469047,-90.2459945678711,4381.2578125,True
1599565171.453982,0.0,10,0.5,0.5,0.0006984207153320316,-0.001,-0.00825,-0.37525,-0.1505074688647908,10,1,100,0.13973379892498333,-10,-1,-100,6326.426098331111,-0.004690283144134873,-0.012534448968410735,0.9999104404060827,253.422737444106,27.789439465399752,1237.2736264063537,-55.2153470646409,-90.24137115478516,4381.2578125,True
1599565171.5093777,0.0,10,0.5,0.5,0.0023993864059448245,-0.001,-0.00825,-0.37525,-0.1364751375522057,10,1,100,0.04728270202414292,-10,-1,-100,6326.426098331111,-0.004690283144134873,-0.012534448968410735,0.9999104404060827,253.422737444106,27.789439465399752,1237.2736264063537,-55.2153470646409,-90.24137115478516,4381.2578125,True
1599565171.5661914,0.0,10,0.5,0.5,-0.0010024114608764645,-0.001,-0.00825,-0.37525,-0.1518763497648413,10,1,100,0.25129770321620515,-10,-1,-100,6321.978376994026,-0.006537067867798724,-0.012671173940948424,0.99989834888085,255.6364068296592,28.06666453149964,1267.7152816706011,-55.96073698442728,-90.23241424560547,4381.2578125,True
1599565171.6285336,0.0,10,0.5,0.5,0.0014968889236450194,-0.001,-0.00825,-0.37525,-0.13921340780070168,10,1,100,0.12025679752786358,-10,-1,-100,6320.881705761654,-0.007015479347161043,-0.012677216938371998,0.9998950301007735,256.17534781101233,28.134558161627904,1275.325115399737,-56.147000259796606,-90.230224609375,4381.2578125,True
1599565171.6893716,0.0,10,0.5,0.5,0.0006076505661010742,-0.001,-0.00825,-0.37525,-0.13562671251232078,10,1,100,0.17257587206404018,-10,-1,-100,6318.625863842433,-0.007917987188507405,-0.012647993317189882,0.9998886606737426,257.2447971939109,28.269647492554558,1290.5872639490003,-56.51942539331746,-90.22576904296875,4381.2578125,True
1599565171.7482135,0.0,10,0.5,0.5,1.9689178466797148e-05,-0.001,-0.00825,-0.37525,-0.1243844010722718,10,1,100,0.23161354385963775,-10,-1,-100,6315.209387260955,-0.009267149913053,-0.012517596812223149,0.999878707495332,258.79646772723424,28.46711821236596,1313.4263999339332,-57.07781048209996,-90.21985626220703,4381.2578125,True
1599565171.8040676,0.0,10,0.5,0.5,0.002202073097229004,-0.001,-0.00825,-0.37525,-0.13754982207494476,10,1,100,0.09762369998168695,-10,-1,-100,6315.209387260955,-0.009267149913053,-0.012517596812223149,0.999878707495332,258.79646772723424,28.46711821236596,1313.4263999339332,-57.07781048209996,-90.21985626220703,4381.2578125,True
1599565171.8658998,0.0,10,0.5,0.5,-0.0003856502532958981,-0.001,-0.00825,-0.37525,-0.10181796401176987,10,1,100,0.28413862698525894,-10,-1,-100,6310.573192127049,-0.010955175787536369,-0.012191957693289575,0.9998656611220675,260.7717554579093,28.721328718708964,1343.7862788655896,-57.82185256850104,-90.21306610107422,4381.2578125,True
1599565171.9337218,0.0,10,0.5,0.5,0.0015563028335571288,-0.001,-0.00825,-0.37525,-0.12223585246966592,10,1,100,0.1641127716259917,-10,-1,-100,6309.414021089207,-0.01139035310777918,-0.012081311405206423,0.9998621413829062,261.2450527171257,28.782851291777863,1351.337989395043,-58.00777916287132,-90.2115478515625,4381.2578125,True
