Timestamp,Input Throttle,horizon,dT,dt,Input Roll,Roll P,Roll I,Roll D,Input Pitch,Pitch P,Pitch I,Pitch D,Input Yaw,Yaw P,Yaw I,Yaw D,Altitude,Direction X,Direction Y,Direction Z,Drag X,Drag Y,Drag Z,Vertical Velocity,Roll,Mass,Has Fuel
1599567980.9820452,0.0,10,0.5,0.5,-2.7445165405273437,-0.05075,-0.03,-0.37525,-0.06721310425165866,10,1,100,0.6903429322634868,-10,-1,-100,6483.6179668603,-0.0672577477331006,-0.007002858812528935,0.9977110580415166,205.07327674394685,21.49878372780045,-156.76527738209106,9.590823783034168,-35.944549560546875,4381.2578125,True
1599567981.0359447,0.0,10,0.5,0.5,-2.906897514343262,-0.05075,-0.03,-0.37525,-0.06735160803197118,10,1,100,0.699900024957644,-10,-1,-100,6483.997882404015,-0.06744499112267631,-0.006972156394578289,0.9976986329587063,204.61208810196106,21.45673626618984,-150.26667038542968,9.210801372817743,-35.94122314453125,4381.2578125,True
1599567981.0898006,0.0,10,0.5,0.5,-3.0510549774169924,-0.05075,-0.03,-0.37525,-0.05199032574153427,10,1,100,0.700522097175422,-10,-1,-100,6484.316759972018,-0.06755955395961341,-0.006798258760715022,0.9976920819303922,204.14940480903073,21.41435017513444,-143.78930267144338,8.830797627387142,-35.9805908203125,4381.2578125,True
1599567981.1416616,0.0,10,0.5,0.5,-3.183853271484375,-0.05075,-0.03,-0.37525,-0.05282470158213467,10,1,100,0.6980659618334202,-10,-1,-100,6484.5389357312815,-0.06757995571375656,-0.006641575002335042,0.9976917555373578,203.9425057359142,21.395616208360565,-140.57588582356058,8.64080057663444,-36.083953857421875,4381.2578125,True
1599567981.1965148,0.0,10,0.5,0.5,-3.071739646911621,-0.05075,-0.03,-0.37525,0.001772015831933843,10,1,100,0.6987456287097302,-10,-1,-100,6485.01694885327,-0.06754324522938611,-0.005996763631859588,0.9976983255723277,203.4469417249006,21.351709567025804,-131.0455751472618,8.070815806816345,-36.81787109375,4381.2578125,True
1599567981.2513704,0.0,10,0.5,0.5,-3.3404642333984373,-0.05075,-0.03,-0.37525,-0.028358148615107527,10,1,100,0.7011824132978475,-10,-1,-100,6485.175622879877,-0.06747062169873277,-0.0056790304594624055,0.997705098624151,203.31811717306158,21.340493062366132,-127.8989775137329,7.88081981228301,-37.20806884765625,4381.2578125,True
1599567981.306881,0.0,10,0.5,0.5,-2.959004959106445,-0.05075,-0.03,-0.37525,0.07933282825278583,10,1,100,0.668110062146718,-10,-1,-100,6485.590080842376,-0.06704260564067517,-0.004406010485339153,0.9977403851205543,202.97283091626161,21.309546017319395,-118.4986821723231,7.310815107687802,-38.819000244140625,4381.2578125,True
1599567981.36273,0.0,10,0.5,0.5,-3.103088905334473,-0.05075,-0.03,-0.37525,0.07397090564618436,10,1,100,0.6657022017791909,-10,-1,-100,6485.909321982646,-0.06657066267033558,-0.0032934588866640824,0.9977762775292837,202.71015338005896,21.283919516759077,-112.22472385870536,6.930787512993922,-40.260223388671875,4381.2578125,True
1599567981.4205816,0.0,10,0.5,0.5,-3.0538934555053716,-0.05075,-0.03,-0.37525,0.10518440965271315,10,1,100,0.6491580005312292,-10,-1,-100,6486.165060370462,-0.06593070299261782,-0.0019952951615486076,0.9978222092137045,202.33865938801267,21.245418718238472,-105.90455712656996,6.550729904174678,-41.995513916015625,4381.2578125,True
1599567981.475945,0.0,10,0.5,0.5,-2.9845162124633795,-0.05075,-0.03,-0.37525,0.13700679022842516,10,1,100,0.6295995735195656,-10,-1,-100,6486.420284559717,-0.06511118058277507,-0.0005240380469721134,0.9978778780728846,201.76992151756485,21.184649166490438,-99.50449375374656,6.170632282245766,-44.024993896484375,4381.2578125,True
1599567981.5337884,0.0,10,0.5,0.5,-3.4047405929565433,-0.05075,-0.03,-0.37525,0.07791146295292899,10,1,100,0.6654603865178554,-10,-1,-100,6486.517858246341,-0.06463297561873632,0.0002767145710901634,0.9979090649411467,201.37867643431758,21.142448863165345,-96.2643616027831,5.980564112364291,-45.1500244140625,4381.2578125,True
1599567981.5906358,0.0,10,0.5,0.5,-2.7466553344726568,-0.05075,-0.03,-0.37525,0.18545997505741182,10,1,100,0.5911624431576448,-10,-1,-100,6486.772069252911,-0.06352519414098497,0.0019757674490206052,0.9979782793489733,200.3093857909608,21.026782665005754,-89.68734626150368,5.600378647895228,-47.621002197265625,4381.2578125,True
1599567981.6464875,0.0,10,0.5,0.5,-1.8246452713012697,-0.05075,-0.03,-0.37525,0.3233660027493218,10,1,100,0.4759309136575135,-10,-1,-100,6487.061790935346,-0.06147412416301135,0.004765917659026008,0.9980972989079061,197.74230198656292,20.74950789955195,-79.5460222234806,5.029941241582392,-51.87969970703125,4381.2578125,True
1599567981.7033348,0.0,10,0.5,0.5,-2.008607864379883,-0.05075,-0.03,-0.37525,0.2637207077939031,10,1,100,0.5001571885821274,-10,-1,-100,6487.254427720909,-0.05983528616398329,0.00674967500814553,0.9981854439015622,195.18019209737187,20.47387266722166,-72.59179409640512,4.649511669510739,-55.087249755859375,4381.2578125,True
1599567981.7601833,0.0,10,0.5,0.5,-2.4248637008666996,-0.05075,-0.03,-0.37525,0.1782414071946577,10,1,100,0.5639053867582263,-10,-1,-100,6487.351961419568,-0.05893200312060392,0.007763832365524246,0.9982318077056016,193.58631024076968,20.302938689547375,-69.05933734892412,4.459244717490806,-56.801727294921875,4381.2578125,True
1599567981.8170316,0.0,10,0.5,0.5,-1.4529044113159182,-0.05075,-0.03,-0.37525,0.2984125961724935,10,1,100,0.4372894999367624,-10,-1,-100,6487.544086924638,-0.05696761160289008,0.009765749321123965,0.9983282633324869,189.6634425226102,19.883761517353,-61.895509039039034,4.078585597993841,-60.45281982421875,4381.2578125,True
1599567981.8728824,0.0,10,0.5,0.5,-1.0721494903564452,-0.05075,-0.03,-0.37525,0.3255768834698533,10,1,100,0.39204107596201443,-10,-1,-100,6487.675166376168,-0.05478000001437601,0.01181858118366281,0.9984285015649493,184.63248606811834,19.34871378622787,-54.63649087050161,3.6977318740189475,-64.3990478515625,4381.2578125,True
1599567981.9277349,0.0,10,0.5,0.5,0.28171817016601564,-0.05075,-0.03,-0.37525,0.4568858417145303,10,1,100,0.20245441148903853,-10,-1,-100,6487.839789888938,-0.051078894898360074,0.014863760141223368,0.9985840050443561,174.76073905045655,18.304805625021167,-43.729136577670054,3.126002195284073,-70.87310791015625,4381.2578125,True
1599567981.9855807,0.0,10,0.5,0.5,-1.07334831237793,-0.05075,-0.03,-0.37525,0.2615156905611574,10,1,100,0.42448327187774454,-10,-1,-100,6487.934865377727,-0.049746781494399255,0.015839505802131497,0.9986362539918588,170.76365319074,17.88389520784503,-40.12463830821795,2.9352713188336694,-73.17941284179688,4381.2578125,True
1599567982.0434256,0.0,10,0.5,0.5,0.2144688186645507,-0.05075,-0.03,-0.37525,0.3741413320192999,10,1,100,0.2473174934884934,-10,-1,-100,6488.003922385164,-0.04693988397953097,0.017734203324427746,0.9987402792139888,161.69014400258789,16.930500220943745,-33.05632031019721,2.553575040937151,-78.014404296875,4381.2578125,True
1599567982.1012735,0.0,10,0.5,0.5,0.6061185302734375,-0.05075,-0.03,-0.37525,0.3761239577378603,10,1,100,0.2051407410829933,-10,-1,-100,6488.133533014567,-0.04402125330469457,0.01945808108634634,0.9988410846265391,151.2792602353903,15.838608156071013,-26.304964823177947,2.1716330514727797,-82.95339965820312,4381.2578125,True
1599567982.161111,0.0,10,0.5,0.5,1.0296729049682618,-0.05075,-0.03,-0.37525,0.3907834764139056,10,1,100,0.14695981932837093,-10,-1,-100,6488.200651092804,-0.04085777315008677,0.021141073433767966,0.998941288258366,147.41050953598005,15.43313116417347,-21.12480675858967,1.7895588994595748,-88.03204345703125,4381.2578125,True
1599567982.219954,0.0,10,0.5,0.5,2.5352337646484373,-0.05075,-0.03,-0.37525,0.4592556738122024,10,1,100,-0.07261440871460717,-10,-1,-100,6488.301350192516,-0.03600635950095342,0.023276117993240555,0.9990804594258925,158.3332498766957,16.57583013095126,-15.425681172109462,1.2164125887522919,-95.75525665283203,4381.2578125,True
1599567982.2777991,0.0,10,0.5,0.5,0.8408262004852295,-0.05075,-0.03,-0.37525,0.31768189187239904,10,1,100,0.22618133290815493,-10,-1,-100,6488.273401144776,-0.03433546089345917,0.023913205756640864,0.999124233874684,162.00446960968102,16.959240712114823,-13.305604106069419,1.025394339360275,-98.27192687988281,4381.2578125,True
1599567982.3336494,0.0,10,0.5,0.5,2.090691776275635,-0.05075,-0.03,-0.37525,0.3810688524431439,10,1,100,0.020222956409348403,-10,-1,-100,6488.341540123452,-0.030967294941448457,0.025053018336967468,0.9992063715350382,168.4211939577361,17.628545664582113,-8.680691547211836,0.6434112768980755,-103.11862182617188,4381.2578125,True
1599567982.3924928,0.0,10,0.5,0.5,3.2831505584716796,-0.05075,-0.03,-0.37525,0.42104144475409105,10,1,100,-0.1998664841991844,-10,-1,-100,6488.318301987951,-0.02592993525970583,0.026436881352844405,0.9993141296718281,176.75087369526247,18.498018112477776,-0.9978633195960072,0.07046257300171943,-109.86094665527344,4381.2578125,True
1599567982.448851,0.0,10,0.5,0.5,1.8025048942565918,-0.05075,-0.03,-0.37525,0.3255368304016014,10,1,100,0.11180453111526711,-10,-1,-100,6488.350442234543,-0.024212106303110444,0.02681155929859015,0.9993472440530092,179.08867494450217,18.74236539451531,1.7298900355264906,-0.12055106890266476,-111.97640991210938,4381.2578125,True
1599567982.506696,0.0,10,0.5,0.5,2.8637167053222656,-0.05075,-0.03,-0.37525,0.35900760638397944,10,1,100,-0.08341965674382953,-10,-1,-100,6488.355168787995,-0.020903467265405817,0.02744282541445797,0.9994047910579353,182.88670294690758,19.13918523724268,7.367162833091865,-0.5026677235126344,-115.99591064453125,4381.2578125,True
1599567982.5680406,0.0,10,0.5,0.5,3.0786438522338866,-0.05075,-0.03,-0.37525,0.35300172084959297,10,1,100,-0.10765900668935668,-10,-1,-100,6488.29839662672,-0.017702688074926778,0.027950669228322258,0.9994525376047684,186.39129605863528,19.505390315773766,13.219482053587646,-0.8848955446528666,-119.72332000732422,4381.2578125,True
1599567982.6278837,0.0,10,0.5,0.5,3.282230646133423,-0.05075,-0.03,-0.37525,0.33990567683669404,10,1,100,-0.15048546734681556,-10,-1,-100,6488.241645266535,-0.014432688344350273,0.028282280328603266,0.9994957779433434,188.89887073642993,19.76748725985627,19.18872085482958,-1.267238137201809,-123.15680694580078,4381.2578125,True
1599567982.6867275,0.0,10,0.5,0.5,3.46599758720398,-0.05075,-0.03,-0.37525,0.3344399047044651,10,1,100,-0.16517928230334117,-10,-1,-100,6488.181985062198,-0.011355933176617018,0.02852446696674376,0.9995285876681824,190.56068753509243,19.941170712457833,25.203417892035066,-1.649696558816735,-126.29473114013672,4381.2578125,True
1599567982.7436154,0.0,10,0.5,0.5,3.629501260757446,-0.05075,-0.03,-0.37525,0.3253571282702313,10,1,100,-0.19086134402700772,-10,-1,-100,6488.12429842155,-0.008355105481306252,0.02865382377394172,0.99955447605197,191.5871591117178,20.048281934562215,31.220104560866986,-2.0322643306572656,-129.13742065429688,4381.2578125,True
1599567982.8034556,0.0,10,0.5,0.5,4.266411506652832,-0.05075,-0.03,-0.37525,0.3178368005045879,10,1,100,-0.3644656734704709,-10,-1,-100,6487.97481559997,-0.004078407006691145,0.02869622448230659,0.9995798583888877,192.22450336244836,20.114224299613547,40.18123381192999,-2.6062982998083526,-132.84707641601562,4381.2578125,True
1599567982.8613007,0.0,10,0.5,0.5,3.4494180603027345,-0.05075,-0.03,-0.37525,0.31169911333793937,10,1,100,-0.0898124686964818,-10,-1,-100,6487.883005317883,-0.002716372029981187,0.02867404605522415,0.9995851241419201,192.25963233244318,20.117496405881763,43.14324478731202,-2.797685908405636,-133.93576049804688,4381.2578125,True
1599567982.9201436,0.0,10,0.5,0.5,4.349841003417969,-0.05075,-0.03,-0.37525,0.30253776872431876,10,1,100,-0.38031535156796037,-10,-1,-100,6487.732596345246,0.0011340322578017818,0.028566270861117578,0.9995912575347622,192.06937281978603,20.095682702390796,51.96077834629223,-3.371958577213367,-136.75726318359375,4381.2578125,True
1599567982.9779892,0.0,10,0.5,0.5,4.035668220520019,-0.05075,-0.03,-0.37525,0.29922162713540656,10,1,100,-0.26248485370065977,-10,-1,-100,6487.54998620064,0.003534030423175157,0.028434952804281356,0.9995893977468882,191.8191751869673,20.067554698101066,57.79634167564601,-3.7548872011378487,-138.26824951171875,4381.2578125,True
1599567983.0364113,0.0,10,0.5,0.5,3.8285148239135744,-0.05075,-0.03,-0.37525,0.3023936004911085,10,1,100,-0.1528877800629981,-10,-1,-100,6487.518743206514,0.004692724480733227,0.02834259244543532,0.9995872527150493,191.68656169264906,20.0524737049046,60.70720793379386,-3.946372790757732,-138.91290283203125,4381.2578125,True
1599567983.0922613,0.0,10,0.5,0.5,4.121226188659668,-0.05075,-0.03,-0.37525,0.30199951953699666,10,1,100,-0.27269023208019433,-10,-1,-100,6487.336637244793,0.006808918796138853,0.028253654080404412,0.9995775956152342,191.50191836078739,20.030242714509225,66.54719933273704,-4.3293829272150095,-139.97817993164062,4381.2578125,True
1599567983.1496162,0.0,10,0.5,0.5,4.2379404602050785,-0.05075,-0.03,-0.37525,0.28434133886393276,10,1,100,-0.39034646523068883,-10,-1,-100,6487.059343150235,0.00977714085145615,0.02801153498910669,0.9995597838170186,191.39558837631108,20.013466424275556,75.35941278591991,-4.903985186455169,-141.02163696289062,4381.2578125,True
1599567983.2064645,0.0,10,0.5,0.5,4.0486228561401365,-0.05075,-0.03,-0.37525,0.2917502506865004,10,1,100,-0.291823270510821,-10,-1,-100,6486.813288436155,0.011554877468903638,0.0278587251356223,0.9995450846462588,191.4695219226862,20.016615165305065,81.29461784517545,-5.287104422053927,-141.3463897705078,4381.2578125,True
1599567983.2628264,0.0,10,0.5,0.5,4.003097431182861,-0.05075,-0.03,-0.37525,0.29921622204903886,10,1,100,-0.2076587425123924,-10,-1,-100,6486.721024669241,0.012382244534039953,0.02778806460410773,0.9995371446253797,191.55659776816287,20.023209372706468,84.28733049320448,-5.478677729573343,-141.39749145507812,4381.2578125,True
1599567983.3186774,0.0,10,0.5,0.5,3.904756629943848,-0.05075,-0.03,-0.37525,0.28736283379124483,10,1,100,-0.3731318341037142,-10,-1,-100,6486.382224537083,0.014617117082529841,0.027616739138898755,0.999511708589514,192.05060833045954,20.06661511394459,93.40039202311311,-6.053445953674098,-141.1053009033203,4381.2578125,True
1599567983.376523,0.0,10,0.5,0.5,3.809542232513428,-0.05075,-0.03,-0.37525,0.2905900101147797,10,1,100,-0.295994191611443,-10,-1,-100,6486.135199729819,0.01592668426526015,0.02749126948677277,0.9994951579824289,192.56823069605548,20.114827191641794,99.60337688459973,-6.4366576574400405,-140.54013061523438,4381.2578125,True
1599567983.4353654,0.0,10,0.5,0.5,3.6773987503051755,-0.05075,-0.03,-0.37525,0.29334188319854154,10,1,100,-0.29170895291836635,-10,-1,-100,6485.825672631385,0.017060056723921597,0.02740331860832474,0.9994788705089405,193.21381908629064,20.176307627601926,105.91246992669453,-6.8198882123288325,-139.67791748046875,4381.2578125,True
1599567983.4941115,0.0,10,0.5,0.5,3.2303541107177733,-0.05075,-0.03,-0.37525,0.28962497955078487,10,1,100,-0.33455944137851146,-10,-1,-100,6485.423387846444,0.0184619666462025,0.02729072843788956,0.9994570385608798,194.33702824068672,20.28501581457338,115.55071517742874,-7.394753882849456,-137.82858276367188,4381.2578125,True
1599567983.5529547,0.0,10,0.5,0.5,3.601790687561036,-0.05075,-0.03,-0.37525,0.2969782201181655,10,1,100,-0.23875081346196456,-10,-1,-100,6485.268619825598,0.018849690017772532,0.027256380963036703,0.9994507385974718,194.72950327331154,20.323372895181333,118.79975110010356,-7.586376910210385,-137.06393432617188,4381.2578125,True
1599567983.6177797,0.0,10,0.5,0.5,3.5278066482543946,-0.05075,-0.03,-0.37525,0.29686127226908676,10,1,100,-0.2396074750724961,-10,-1,-100,6485.112873975653,0.01919603031602776,0.027225164252579974,0.9994449974118267,195.11807174910317,20.361516749055653,122.05955016671375,-7.777998490054836,-136.22518920898438,4381.2578125,True
1599567983.6756248,0.0,10,0.5,0.5,2.5731947402954107,-0.05075,-0.03,-0.37525,0.2907271636145208,10,1,100,-0.2936741303485784,-10,-1,-100,6484.585566056194,0.019989215357101173,0.027142036644571307,0.9994317090808117,196.16018631231603,20.46475591130507,131.83447130697448,-8.352841775009578,-133.26441955566406,4381.2578125,True
1599567983.7334704,0.0,10,0.5,0.5,3.1806396141052247,-0.05075,-0.03,-0.37525,0.29482024816138974,10,1,100,-0.23681461614731825,-10,-1,-100,6484.429324519704,0.02018140590482831,0.02710468651265845,0.999428860312106,196.43056031810798,20.491893970259003,135.06350608440994,-8.544445497715454,-132.12957763671875,4381.2578125,True
1599567983.792313,0.0,10,0.5,0.5,2.5183750000000003,-0.05075,-0.03,-0.37525,0.28960058870394045,10,1,100,-0.24777525726593896,-10,-1,-100,6484.058239821461,0.02044630835379192,0.02702410480537581,0.9994256581828235,196.77578530694734,20.527252394434644,141.40947372673887,-8.927632179153225,-129.637939453125,4381.2578125,True
1599567983.8521533,0.0,10,0.5,0.5,1.589874206542969,-0.05075,-0.03,-0.37525,0.2806048795896215,10,1,100,-0.23376204035163656,-10,-1,-100,6483.528449344449,0.02055165276191528,0.026869828279834373,0.99942765716032,196.59442072547967,20.5119417702713,150.44177471187749,-9.502351062436095,-125.34600830078125,4381.2578125,True
1599567983.9139884,0.0,10,0.5,0.5,1.7761002349853516,-0.05075,-0.03,-0.37525,0.27942160392367466,10,1,100,-0.21259693050240536,-10,-1,-100,6483.156362934271,0.020447583581372712,0.026719654601764706,0.9994338179107435,195.82399618032562,20.437656829877895,155.94229628037758,-9.885454657549923,-122.11557006835938,4381.2578125,True
1599567984.4558702,0.0,10,0.5,0.5,1.4294423294067387,-0.05075,-0.03,-0.37525,0.2734713064211236,10,1,100,-0.19669032297244232,-10,-1,-100,6482.7188363338355,0.0202030692883354,0.026529854993984667,0.9994438467394399,194.3625716951661,20.29449169919161,160.82789305262068,-10.268532975563504,-118.58995819091797,4381.2578125,True
1599567984.5077307,0.0,10,0.5,0.5,1.059030290603638,-0.05075,-0.03,-0.37525,0.2654602732286658,10,1,100,-0.18069053042363248,-10,-1,-100,6482.283252520254,0.019831443285109506,0.026285356334701186,0.9994577499322257,192.65211377673367,20.12852070282683,165.41388293009356,-10.651599767487003,-114.76942443847656,4381.2578125,True
1599567984.5652308,0.0,10,0.5,0.5,0.6648377571105957,-0.05075,-0.03,-0.37525,0.25611062978151183,10,1,100,-0.16412095916895436,-10,-1,-100,6481.8466821806505,0.019340449555715084,0.025979104396990825,0.9994753789592382,190.02422510043206,19.869486535476202,169.08274395050688,-11.034677913348405,-110.65411376953125,4381.2578125,True
1599567984.620084,0.0,10,0.5,0.5,0.2489523696899416,-0.05075,-0.03,-0.37525,0.24523034690208986,10,1,100,-0.147532058178025,-10,-1,-100,6481.410102464841,0.018742484808248513,0.025602974267478387,0.999496476718088,186.29871602242335,19.497440199939422,171.58325160908618,-11.417800180258393,-106.24417877197266,4381.2578125,True
1599567984.6769323,0.0,10,0.5,0.5,0.8249546642303468,-0.05075,-0.03,-0.37525,0.25878817877500665,10,1,100,-0.17029659639261968,-10,-1,-100,6481.191809256561,0.018405928299056604,0.025385793900125922,0.9995082707369212,183.9793883671342,19.263851947817283,172.32127661804603,-11.609388816362827,-103.92876434326172,4381.2578125,True
1599567984.7347767,0.0,10,0.5,0.5,-0.44828941154479973,-0.05075,-0.03,-0.37525,0.22575168297856188,10,1,100,-0.12302956046349102,-10,-1,-100,6480.69369327079,0.01767098578408731,0.02488969757743096,0.9995340110351035,179.20767546570463,18.782152901332942,173.45671230070351,-11.992636849931081,-99.12779235839844,4381.2578125,True
1599567984.7936199,0.0,10,0.5,0.5,-1.9307993049621581,-0.05075,-0.03,-0.37525,0.1747899470355357,10,1,100,-0.059260524582168,-10,-1,-100,6479.9758031561505,0.0164252451984423,0.0239774599928327,0.9995775571372453,169.71257884694913,17.809182547940225,172.24206550723304,-12.567733239229852,-91.65909576416016,4381.2578125,True
1599567984.8494737,0.0,10,0.5,0.5,-1.4505162677764891,-0.05075,-0.03,-0.37525,0.18573272832497062,10,1,100,-0.08385859982176361,-10,-1,-100,6479.476206465508,0.0155197873143126,0.02325047586084717,0.9996091994244363,162.6431225668719,17.075970514510868,170.17169748653043,-12.951287325060791,-86.49258422851562,4381.2578125,True
1599567984.9058661,0.0,10,0.5,0.5,-1.8036550979614256,-0.05075,-0.03,-0.37525,0.16898903321172276,10,1,100,-0.07083633364445782,-10,-1,-100,6478.914594298345,0.01458273820080053,0.022440796357053098,0.99964181305377,158.47114598728572,16.63922919180184,170.78585640233814,-13.334920130459553,-81.41644287109375,4381.2578125,True
1599567984.9647083,0.0,10,0.5,0.5,-2.0841138763427733,-0.05075,-0.03,-0.37525,0.1504741679081857,10,1,100,-0.05738040741992764,-10,-1,-100,6478.352492878097,0.013613975054258478,0.02154043351622886,0.9996752819826822,168.3817364095552,17.67349551892429,186.7617195699486,-13.718441203881225,-76.59603881835938,4381.2578125,True
1599567985.0225537,0.0,10,0.5,0.5,-1.392143669128418,-0.05075,-0.03,-0.37525,0.1865901757720842,10,1,100,-0.09938472528230002,-10,-1,-100,6478.072175087058,0.013121351091175557,0.02105495756977457,0.9996922120869388,172.81021172022113,18.132860256231233,194.3921037962005,-13.910135150905543,-74.2947998046875,4381.2578125,True
1599567985.0795548,0.0,10,0.5,0.5,-3.4126655349731445,-0.05075,-0.03,-0.37525,0.0627629723658204,10,1,100,0.014726082579869043,-10,-1,-100,6477.228779222816,0.011642578069805145,0.019492891130599373,0.9997422055566421,184.2273306090042,19.307712623104205,215.93384981736787,-14.484915495360418,-67.83663940429688,4381.2578125,True
1599567985.135405,0.0,10,0.5,0.5,-1.9835602569580078,-0.05075,-0.03,-0.37525,0.15692175849896073,10,1,100,-0.07806415453246462,-10,-1,-100,6476.947485888493,0.011149230992503536,0.01893499466456329,0.9997585511638942,187.57608035230658,19.649779463182153,222.8125827937832,-14.676404110120872,-65.83306884765625,4381.2578125,True
1599567985.1907654,0.0,10,0.5,0.5,-2.977646064758301,-0.05075,-0.03,-0.37525,0.0805097163485813,10,1,100,-0.01736982947368701,-10,-1,-100,6476.322400327539,0.010156413620388832,0.017739564866556517,0.9997910557215026,193.3905415491167,20.240275777209785,235.81180309993232,-15.059227651850488,-62.05029296875,4381.2578125,True
1599567985.2486112,0.0,10,0.5,0.5,-3.870012924194336,-0.05075,-0.03,-0.37525,-0.0038699650288679666,10,1,100,0.044343731901253264,-10,-1,-100,6475.416029948625,0.008700625516137699,0.01589287104621075,0.9998358444092393,200.18645894766004,20.924380842483473,253.56424997134062,-15.633102884169183,-56.93463134765625,4381.2578125,True
1599567985.3049707,0.0,10,0.5,0.5,-3.3852168960571287,-0.05075,-0.03,-0.37525,0.03531822060543849,10,1,100,0.005372713474419782,-10,-1,-100,6474.791443698923,0.007740286773228717,0.014578944645166398,0.9998637618864388,203.65256903376186,21.270735341679917,264.37888674429985,-16.015468158732713,-53.897369384765625,4381.2578125,True
1599567985.3628154,0.0,10,0.5,0.5,-2.9805501251220705,-0.05075,-0.03,-0.37525,0.09259880902190706,10,1,100,-0.03749845609842657,-10,-1,-100,6474.448147536721,0.007266017365801754,0.013914572132486942,0.9998767872463136,205.11520245687433,21.416421482983274,269.51442487789217,-16.20659167799155,-52.490386962890625,4381.2578125,True
1599567985.4206605,0.0,10,0.5,0.5,-4.178103492736816,-0.05075,-0.03,-0.37525,-0.06226010800366483,10,1,100,0.0707737862995848,-10,-1,-100,6473.47783841053,0.005858896817097721,0.011911936864237097,0.9999118856620463,208.63327998298257,21.76641633764018,284.02106080164555,-16.77975285376027,-48.7156982421875,4381.2578125,True
1599567985.4834943,0.0,10,0.5,0.5,-3.788318511962891,-0.05075,-0.03,-0.37525,-0.015285725201757222,10,1,100,0.032358745410615244,-10,-1,-100,6472.790284438641,0.004937706590445791,0.010528706954024225,0.9999323804055468,210.3998589876612,21.942722265408076,293.077918834573,-17.161707853748865,-46.57171630859375,4381.2578125,True
1599567985.5423357,0.0,10,0.5,0.5,-3.497435836791992,-0.05075,-0.03,-0.37525,0.04472884790804785,10,1,100,-0.0087480158579177,-10,-1,-100,6472.446510281065,0.004482726970121932,0.009827641417922596,0.9999416596097355,211.15064343957926,22.018060162277937,297.4638404599153,-17.352645249657307,-45.611358642578125,4381.2578125,True
1599567985.6011796,0.0,10,0.5,0.5,-4.267974647521973,-0.05075,-0.03,-0.37525,-0.10800485875187432,10,1,100,0.09755540159394867,-10,-1,-100,6471.3522101319395,0.003111015563977944,0.007812468862829373,0.9999646428311493,213.30500742882873,22.23752981445792,310.63133357324233,-17.925310824371934,-43.174835205078125,4381.2578125,True
1599567985.6580265,0.0,10,0.5,0.5,-3.7296337356567384,-0.05075,-0.03,-0.37525,0.017198832790575852,10,1,100,0.011237801524017432,-10,-1,-100,6471.007955220644,0.002657810954962055,0.007130747816500487,0.9999710438190225,213.97163961706016,22.30641946857221,314.9936474158956,-18.116152752505165,-42.511444091796875,4381.2578125,True
1599567985.7188644,0.0,10,0.5,0.5,-4.026847465515137,-0.05075,-0.03,-0.37525,-0.06756110665351683,10,1,100,0.06556134082020644,-10,-1,-100,6470.257927130791,0.0017601243778139317,0.0057516948188134735,0.9999819098208157,215.1925890154129,22.43386205269389,323.6181998011151,-18.49777045094268,-41.407745361328125,4381.2578125,True
1599567985.7757146,0.0,10,0.5,0.5,-4.03018741607666,-0.05075,-0.03,-0.37525,-0.0725432252403602,10,1,100,0.07760865586009688,-10,-1,-100,6469.506929073948,0.0008430601769663514,0.004464703106350112,0.9999896777845809,216.3103711614548,22.552013155781232,332.169225617533,-18.87930241734694,-40.599700927734375,4381.2578125,True
1599567985.8365507,0.0,10,0.5,0.5,-4.008623680114746,-0.05075,-0.03,-0.37525,-0.09311400041261075,10,1,100,0.08576166421858769,-10,-1,-100,6468.7569152941,-5.628612393279963e-05,0.003119771649599512,0.9999951319165142,217.36917009488872,22.665013877680465,340.70636788208634,-19.26074972891896,-40.089599609375,4381.2578125,True
1599567985.8943954,0.0,10,0.5,0.5,-3.9573556213378906,-0.05075,-0.03,-0.37525,-0.16798922421567336,10,1,100,0.14842655728948967,-10,-1,-100,6467.599192127236,-0.0014355936875401632,0.0012280347447044075,0.9999982154991228,218.90205999529834,22.82952818564674,353.56332806301043,-19.832760682728367,-39.879241943359375,4381.2578125,True
1599567985.9532375,0.0,10,0.5,0.5,-3.822410606384277,-0.05075,-0.03,-0.37525,-0.11460426913801089,10,1,100,0.11352975442464898,-10,-1,-100,6466.787183197681,-0.002363924282538516,5.728886324391185e-06,0.9999972059106796,219.90276012298548,22.936741850811096,362.1905841695296,-20.213992793031622,-40.10943603515625,4381.2578125,True
1599567986.0110834,0.0,10,0.5,0.5,-3.8496131744384767,-0.05075,-0.03,-0.37525,-0.05912216073298562,10,1,100,0.07319004992206252,-10,-1,-100,6466.379472157103,-0.0028323821082877412,-0.000588431051024337,0.9999958156714912,220.39540013637796,22.989266457815628,366.5181842528248,-20.40457594276227,-40.335540771484375,4381.2578125,True
1599567986.0669332,0.0,10,0.5,0.5,-3.6726916732788086,-0.05075,-0.03,-0.37525,-0.12293017461841668,10,1,100,0.13208626418405234,-10,-1,-100,6465.503507859539,-0.0037857718259638666,-0.0016972853312859529,0.9999913935400574,221.35326339154278,23.09055118986867,375.1798276572893,-20.785676132373077,-41.009033203125,4381.2578125,True
1599567986.122784,0.0,10,0.5,0.5,-3.2752867126464844,-0.05075,-0.03,-0.37525,-0.18951687441096313,10,1,100,0.19625834849078677,-10,-1,-100,6464.2842978375265,-0.005227941900806649,-0.0032995537730148346,0.9999808906016058,222.66282773665642,23.225895950300533,388.079876103803,-21.35716379196664,-42.5743408203125,4381.2578125,True
1599567986.18114,0.0,10,0.5,0.5,-3.5865487365722655,-0.05075,-0.03,-0.37525,-0.08647764664994534,10,1,100,0.10649839395712565,-10,-1,-100,6463.814583090716,-0.005714178137747778,-0.003807507381130986,0.999976425249992,223.04265234103102,23.26393677290554,392.3120946542823,-21.547618283472755,-43.243896484375,4381.2578125,True
1599567986.2429767,0.0,10,0.5,0.5,-3.172955352783203,-0.05075,-0.03,-0.37525,-0.1395105198983724,10,1,100,0.1667603759572466,-10,-1,-100,6462.938145444728,-0.006696024377057426,-0.004740836803273224,0.9999663432955865,223.6712367205473,23.32420400144518,400.58459728508825,-21.92847022698149,-44.8040771484375,4381.2578125,True
1599567986.30468,0.0,10,0.5,0.5,-2.5189199523925785,-0.05075,-0.03,-0.37525,-0.18636382415770505,10,1,100,0.2325256751552699,-10,-1,-100,6461.593466507504,-0.008177974737019119,-0.006004464876105761,0.9999485322409111,224.1495208896472,23.359925427411444,412.2315240261777,-22.49962645291722,-47.697540283203125,4381.2578125,True
1599567986.3685114,0.0,10,0.5,0.5,-2.6069768447875976,-0.05075,-0.03,-0.37525,-0.14466162875116892,10,1,100,0.19419630548614258,-10,-1,-100,6460.717037784518,-0.00916771888625147,-0.006763419384353267,0.9999351024384803,224.0316393114564,23.3334962997915,419.2171271643406,-22.880337663058324,-49.99530029296875,4381.2578125,True
1599567986.434341,0.0,10,0.5,0.5,-2.3368670196533206,-0.05075,-0.03,-0.37525,-0.14147634487009375,10,1,100,0.20407757223504047,-10,-1,-100,6459.778110703686,-0.010148215284122481,-0.007414213517940586,0.9999210184631874,223.48603020553574,23.258470952345636,425.39250229688764,-23.26102401026779,-52.58721923828125,4381.2578125,True
1599567986.4951777,0.0,10,0.5,0.5,-2.04237956237793,-0.05075,-0.03,-0.37525,-0.14032351712600177,10,1,100,0.21348956687003173,-10,-1,-100,6458.838208736386,-0.011115964752359512,-0.007985787946103185,0.9999063268719246,222.69779813241507,23.15421323522164,431.07614837464484,-23.641705488783437,-55.4736328125,4381.2578125,True
1599567986.5560157,0.0,10,0.5,0.5,-2.4169072265625,-0.05075,-0.03,-0.37525,-0.11221371112499534,10,1,100,0.17034714421088165,-10,-1,-100,6458.369479137822,-0.011594732816523795,-0.00824148116925021,0.9998988149603191,222.06479336759406,23.075867972285604,433.4380828554017,-23.832052485456558,-57.027191162109375,4381.2578125,True
1599567986.6188478,0.0,10,0.5,0.5,-1.5316054916381836,-0.05075,-0.03,-0.37525,-0.13548609853443008,10,1,100,0.22627086235628013,-10,-1,-100,6457.367565868888,-0.012529982304782233,-0.008677999248510026,0.9998838391895755,220.248433689313,22.859760834683062,437.02074571992375,-24.212778063835923,-60.354705810546875,4381.2578125,True
1599567986.683879,0.0,10,0.5,0.5,-0.3591271896362307,-0.05075,-0.03,-0.37525,-0.14768637747784857,10,1,100,0.2819981390742004,-10,-1,-100,6455.8959451272385,-0.01387800471863782,-0.009178391339870494,0.999861569477216,216.2492873590756,22.400327547707843,439.6173822806342,-24.784000757554143,-65.89712524414062,4381.2578125,True
1599567986.744717,0.0,10,0.5,0.5,-1.5146218948364258,-0.05075,-0.03,-0.37525,-0.11291100809983111,10,1,100,0.19608660202009673,-10,-1,-100,6455.427703101421,-0.014313290909930436,-0.009310352514026593,0.9998542128927558,214.4138710688552,22.195282244072263,439.377060250794,-24.974460088294567,-67.89157104492188,4381.2578125,True
1599567986.8054047,0.0,10,0.5,0.5,-0.39412364959716806,-0.05075,-0.03,-0.37525,-0.12099551597093328,10,1,100,0.24370975928366484,-10,-1,-100,6454.4257873988245,-0.015133684014402411,-0.009498348381413965,0.9998403637512226,209.8836133469748,21.698424135134132,436.94426173252566,-25.355478558768752,-72.10040283203125,4381.2578125,True
1599567986.8652446,0.0,10,0.5,0.5,-0.01018077087402336,-0.05075,-0.03,-0.37525,-0.11494441394330943,10,1,100,0.24536814251276445,-10,-1,-100,6453.3613692459185,-0.01588600895157179,-0.009609070205151102,0.999827635389912,204.1486896148435,21.08248047175204,431.69037337941654,-25.736646779238857,-76.50588989257812,4381.2578125,True
1599567986.9236362,0.0,10,0.5,0.5,0.40033858489990215,-0.05075,-0.03,-0.37525,-0.11132560992811144,10,1,100,0.25079669575029995,-10,-1,-100,6452.358959480887,-0.01661093666518108,-0.009672402523499537,0.9998152436388079,197.28047471506926,20.357976734052468,423.6479702739496,-26.117967812825732,-81.126953125,4381.2578125,True
1599567986.9814823,0.0,10,0.5,0.5,1.853707794189453,-0.05075,-0.03,-0.37525,-0.10131370150764402,10,1,100,0.2805679728965743,-10,-1,-100,6450.763297826052,-0.017532943504402782,-0.009635625520314417,0.9997998552774969,194.46803300086867,20.065376252989623,427.22403827643046,-26.690100281245012,-88.37374877929688,4381.2578125,True
1599567987.0403242,0.0,10,0.5,0.5,0.2897983932495116,-0.05075,-0.03,-0.37525,-0.10124146414459856,10,1,100,0.21918327024089285,-10,-1,-100,6450.231571922195,-0.017805484038990724,-0.009598924081267566,0.9997953917650448,198.99530877165412,20.53766545851863,440.456086452816,-26.88070363745504,-90.81580352783203,4381.2578125,True
1599567987.0981693,0.0,10,0.5,0.5,1.544721845626831,-0.05075,-0.03,-0.37525,-0.09357999967262187,10,1,100,0.245806244710639,-10,-1,-100,6449.10415178258,-0.018288314048563938,-0.009493923359149434,0.9997876789541426,207.4425889680027,21.427720167583146,466.0096374632713,-27.2616711035013,-95.64354705810547,4381.2578125,True
1599567987.1590416,0.0,10,0.5,0.5,1.82491086769104,-0.05075,-0.03,-0.37525,-0.08928639519442852,10,1,100,0.24067793487770897,-10,-1,-100,6448.039226473309,-0.018674109104880036,-0.009358064357046605,0.9997818283408778,215.45495707528326,22.281715215263485,491.1327210261979,-27.64228816526628,-100.27098846435547,4381.2578125,True
1599567987.2168522,0.0,10,0.5,0.5,3.0328070850372315,-0.05075,-0.03,-0.37525,-0.07483985083244044,10,1,100,0.2516079644818638,-10,-1,-100,6446.3175622675335,-0.019117759992215756,-0.009102208876218872,0.9997758053916155,225.24346796222028,23.341730804442825,524.6140281293461,-28.21255989990418,-106.87805938720703,4381.2578125,True
1599567987.2756958,0.0,10,0.5,0.5,3.269065282821655,-0.05075,-0.03,-0.37525,-0.06991877263261023,10,1,100,0.2342891938881197,-10,-1,-100,6444.601260234485,-0.019357646722861978,-0.008824490264897287,0.9997736793319365,233.4985907317289,24.244845109543164,555.4114448552889,-28.782087863832942,-112.92498779296875,4381.2578125,True
1599567987.3325784,0.0,10,0.5,0.5,1.9372051391601561,-0.05075,-0.03,-0.37525,-0.08779133033311234,10,1,100,0.2148919368622166,-10,-1,-100,6444.067568555707,-0.019394405375937403,-0.00873481832558675,0.9997737544009309,235.6701205021754,24.4844486037673,564.4683063215288,-28.97178627007289,-114.7939224243164,4381.2578125,True
1599567987.391419,0.0,10,0.5,0.5,2.1411239376068116,-0.05075,-0.03,-0.37525,-0.08700662621442933,10,1,100,0.2134967022057332,-10,-1,-100,6443.468446422019,-0.019410519186887024,-0.008646687919851362,0.9997742077753918,237.5817736992785,24.695989713583153,572.9700156112675,-29.16142208122561,-116.58859252929688,4381.2578125,True
1599567987.450228,0.0,10,0.5,0.5,3.7046793060302736,-0.05075,-0.03,-0.37525,-0.06821959511526918,10,1,100,0.2053126791335403,-10,-1,-100,6441.680351046263,-0.01934687986420994,-0.008396552414155519,0.9997775733367278,241.9509736612762,25.180562381525554,595.495104169326,-29.730008575673047,-121.52648162841797,4381.2578125,True
1599567987.5091035,0.0,10,0.5,0.5,2.624634653091431,-0.05075,-0.03,-0.37525,-0.08473845092193599,10,1,100,0.2053656251273311,-10,-1,-100,6441.091967815184,-0.019286361015435564,-0.00832043020521172,0.9997793790231837,243.12520758295065,25.309742323752438,602.4026282366578,-29.91944619387517,-123.02375030517578,4381.2578125,True
1599567987.5669167,0.0,10,0.5,0.5,3.3691988201141356,-0.05075,-0.03,-0.37525,-0.07749519844191963,10,1,100,0.19228217668746422,-10,-1,-100,6439.902990861447,-0.01910997123586893,-0.00818660951300656,0.9997838708561195,245.07606649772544,25.52206528589225,615.340950318611,-30.298207593325742,-125.79540252685547,4381.2578125,True
1599567988.0554926,0.0,10,0.5,0.5,3.49559462928772,-0.05075,-0.03,-0.37525,-0.0792006722945891,10,1,100,0.18375890970997888,-10,-1,-100,6438.648093554657,-0.018870698983984423,-0.008081775933305509,0.9997892686049494,246.5044667456636,25.673882915157936,627.0878734926764,-30.676838071057652,-128.27003479003906,4381.2578125,True
1599567988.102971,0.0,10,0.5,0.5,3.607033908843994,-0.05075,-0.03,-0.37525,-0.08043294152253548,10,1,100,0.17355252806289523,-10,-1,-100,6437.395635031164,-0.018559425090075028,-0.007999054352147667,0.999795760578028,247.53131429738212,25.778163402184518,637.9050360836843,-31.055357950101325,-130.44769287109375,4381.2578125,True
1599567988.155829,0.0,10,0.5,0.5,2.894280151367188,-0.05075,-0.03,-0.37525,-0.08855561273761944,10,1,100,0.20470702855798587,-10,-1,-100,6437.395635031164,-0.018559425090075028,-0.007999054352147667,0.999795760578028,247.53131429738212,25.778163402184518,637.9050360836843,-31.055357950101325,-130.44769287109375,4381.2578125,True
1599567988.2096853,0.0,10,0.5,0.5,4.139325126647949,-0.05075,-0.03,-0.37525,-0.08078534863688233,10,1,100,0.1420354742272208,-10,-1,-100,6435.547460564063,-0.01798978794526335,-0.007929651051236329,0.9998067254044104,248.54766432233558,25.870640080400776,652.9049239929543,-31.622960608333365,-133.15782165527344,4381.2578125,True
1599567988.2645395,0.0,10,0.5,0.5,3.8129785652160644,-0.05075,-0.03,-0.37525,-0.08701588760652451,10,1,100,0.14862408304018834,-10,-1,-100,6434.232986252522,-0.017532857868322396,-0.007924264366336389,0.9998148853308905,249.00885037698507,25.904556909094374,662.4020530215518,-32.00125596712973,-134.5939483642578,4381.2578125,True
1599567988.3223836,0.0,10,0.5,0.5,3.824595134735108,-0.05075,-0.03,-0.37525,-0.08977653776068348,10,1,100,0.13865437446201068,-10,-1,-100,6432.981498457142,-0.017028492073896766,-0.007945282586827489,0.9998234358837086,249.3828898909883,25.926108200064817,671.7089900834285,-32.3794698338901,-135.73365783691406,4381.2578125,True
1599567988.3814502,0.0,10,0.5,0.5,3.655155200958252,-0.05075,-0.03,-0.37525,-0.0896818589081515,10,1,100,0.159434572868914,-10,-1,-100,6432.326702040969,-0.016761039440210807,-0.007964247102922525,0.9998278043368106,249.55633856907124,25.934459657870153,676.3402628038826,-32.56854599920081,-136.1923828125,4381.2578125,True
1599567988.4382992,0.0,10,0.5,0.5,3.9388974380493167,-0.05075,-0.03,-0.37525,-0.09878645286809662,10,1,100,0.08892144612794359,-10,-1,-100,6430.352056181291,-0.01587928087534809,-0.008064877008841995,0.9998413905203734,250.09707778235534,25.958610516287358,690.3458864009441,-33.13564635307569,-137.1244659423828,4381.2578125,True
1599567988.4954314,0.0,10,0.5,0.5,3.7430577201843263,-0.05075,-0.03,-0.37525,-0.09956491083784533,10,1,100,0.10593008422757938,-10,-1,-100,6428.9731254319195,-0.01523545852545946,-0.008163737155225876,0.9998506059402972,250.5160808323242,25.979072361637513,699.8934393569804,-33.513599881681714,-137.37594604492188,4381.2578125,True
1599567988.5522788,0.0,10,0.5,0.5,3.6980646362304688,-0.05075,-0.03,-0.37525,-0.0962160973917035,10,1,100,0.13258616822934988,-10,-1,-100,6428.311980872881,-0.01489617615511314,-0.00822330870520083,0.9998552300857835,250.75116622116343,25.991676057808277,704.75451503459,-33.7025401157404,-137.39077758789062,4381.2578125,True
1599567988.608366,0.0,10,0.5,0.5,3.6453171463012697,-0.05075,-0.03,-0.37525,-0.10236162200331425,10,1,100,0.09006040750794092,-10,-1,-100,6426.93988601875,-0.014204970534677092,-0.008333299702381619,0.9998643782674626,251.27696687382024,26.022462900971878,714.6678874727374,-34.08034328340827,-137.1983642578125,4381.2578125,True
1599567988.6652133,0.0,10,0.5,0.5,3.385400756835937,-0.05075,-0.03,-0.37525,-0.1145341887436347,10,1,100,0.035229666872256954,-10,-1,-100,6424.909576418577,-0.013082382081637473,-0.008543722557667907,0.9998779205902726,252.20401663278676,26.083671652175966,730.0267801672159,-34.64684116461846,-136.35586547851562,4381.2578125,True
1599567988.7216065,0.0,10,0.5,0.5,3.3227125473022463,-0.05075,-0.03,-0.37525,-0.10979267842813956,10,1,100,0.06008059344007988,-10,-1,-100,6423.524299352546,-0.012292743768589335,-0.00869141627032774,0.9998866674447939,252.88642004848703,26.132563609419535,740.5203978824702,-35.02435946570718,-135.4249725341797,4381.2578125,True
1599567988.7804523,0.0,10,0.5,0.5,3.441506244659424,-0.05075,-0.03,-0.37525,-0.10321240825706934,10,1,100,0.09376536287853568,-10,-1,-100,6422.800655748928,-0.011886812916460158,-0.00876523322399224,0.9998909312346114,253.23584303833917,26.158550324720274,745.8126369076455,-35.213072733726,-134.84878540039062,4381.2578125,True
1599567988.8372638,0.0,10,0.5,0.5,2.737802116394043,-0.05075,-0.03,-0.37525,-0.1181250373346586,10,1,100,-0.0038650347490415266,-10,-1,-100,6420.645349505474,-0.01063578395884548,-0.008967149280599183,0.9999032304845107,254.2547730178778,26.237414092918605,761.6877897808242,-35.779025932694026,-132.6774444580078,4381.2578125,True
1599567988.895145,0.0,10,0.5,0.5,2.7732087364196776,-0.05075,-0.03,-0.37525,-0.1127745827514381,10,1,100,0.024360807231963558,-10,-1,-100,6419.201481471653,-0.009761353537122616,-0.009101120758654161,0.9999109388230831,254.84059964576767,26.284679106228282,772.0586671810256,-36.15617398387377,-130.86138916015625,4381.2578125,True
1599567988.9529545,0.0,10,0.5,0.5,3.0061753845214847,-0.05075,-0.03,-0.37525,-0.10647233707401606,10,1,100,0.06183795885669032,-10,-1,-100,6418.480280579417,-0.009313724658087323,-0.009164569106935007,0.9999146289589315,255.07958022061186,26.304376986583417,777.0988556820777,-36.344703625911215,-129.84286499023438,4381.2578125,True
1599567989.0117962,0.0,10,0.5,0.5,1.879189308166504,-0.05075,-0.03,-0.37525,-0.1141303358341355,10,1,100,-0.04138342635159774,-10,-1,-100,6416.263944254722,-0.007975183370509096,-0.009290776392278668,0.9999250361523285,255.45983459797313,26.336542012185618,791.2438777937932,-36.91013074048237,-126.34488677978516,4381.2578125,True
1599567989.0706394,0.0,10,0.5,0.5,2.600065633773804,-0.05075,-0.03,-0.37525,-0.10543224928098908,10,1,100,0.04132451596576345,-10,-1,-100,6415.539326639264,-0.00751740358241839,-0.009325322319941178,0.9999282609302572,255.43887807397692,26.334959789180083,795.5145312834688,-37.098558801650974,-125.03173828125,4381.2578125,True
1599567989.1304798,0.0,10,0.5,0.5,1.8430284347534183,-0.05075,-0.03,-0.37525,-0.10818867239717081,10,1,100,-0.016409290640757176,-10,-1,-100,6414.03589292441,-0.006583403764952144,-0.009380730114177189,0.9999343281923032,255.0976585612887,26.305789421468624,803.1239685280952,-37.47535893142744,-122.18487548828125,4381.2578125,True
1599567989.193312,0.0,10,0.5,0.5,1.5274712295532227,-0.05075,-0.03,-0.37525,-0.10240699232901909,10,1,100,-0.023392184686755094,-10,-1,-100,6412.53246018698,-0.005678389232646631,-0.00937748790703675,0.9999399075025839,254.2658701975101,26.232749098511153,809.16862262685,-37.85210704351139,-119.04350280761719,4381.2578125,True
1599567989.252154,0.0,10,0.5,0.5,1.1885400352478028,-0.05075,-0.03,-0.37525,-0.10133418624235668,10,1,100,-0.03745590417402385,-10,-1,-100,6411.029028759804,-0.004735548190941022,-0.009363838401389733,0.9999449450413378,252.83128717719197,26.10413175246462,813.2412695832028,-38.22883606516249,-115.60860443115234,4381.2578125,True
1599567989.3109975,0.0,10,0.5,0.5,0.8267239551544194,-0.05075,-0.03,-0.37525,-0.09508824508300033,10,1,100,-0.044263231395099585,-10,-1,-100,6409.46309870854,-0.0038241232090995034,-0.00929390291676764,0.9999494984499243,250.6661991826435,25.90597379272813,814.8691037366696,-38.6055846557221,-111.87968444824219,4381.2578125,True
1599567989.3688447,0.0,10,0.5,0.5,-0.4618344841003412,-0.05075,-0.03,-0.37525,-0.08272322087343015,10,1,100,-0.10198299930436885,-10,-1,-100,6407.114938004874,-0.002478528626940666,-0.00911736817734561,0.9999553642505071,245.77523767227456,25.446354669051875,811.666962213461,-39.17083918010656,-105.73602294921875,4381.2578125,True
1599567989.4276857,0.0,10,0.5,0.5,0.8213450927734375,-0.05075,-0.03,-0.37525,-0.09146506529079398,10,1,100,-0.01639521734042739,-10,-1,-100,6406.335636852309,-0.002041884555822572,-0.009036033240798567,0.9999570894847098,243.6436682790751,25.24202995372019,808.8413254975852,-39.35931518949964,-103.54144287109375,4381.2578125,True
1599567989.4880357,0.0,10,0.5,0.5,-1.3859612884521484,-0.05075,-0.03,-0.37525,-0.06613640899441411,10,1,100,-0.11061907187763412,-10,-1,-100,6403.986991592101,-0.0007961675402888099,-0.008731769255824895,0.9999615604226547,236.41048936589388,24.53872654828273,797.1506431368211,-39.92497243269583,-96.63201904296875,4381.2578125,True
1599567989.54588,0.0,10,0.5,0.5,0.12127822875976557,-0.05075,-0.03,-0.37525,-0.08322961442465052,10,1,100,-0.029614872472486394,-10,-1,-100,6403.141773512587,-0.0004082495080293089,-0.00861089418385355,0.9999628422264968,233.65185152689844,24.265647338894407,791.925957580193,-40.11360664147814,-94.32489776611328,4381.2578125,True
1599567989.6037252,0.0,10,0.5,0.5,-1.1293681507110596,-0.05075,-0.03,-0.37525,-0.06529698166115282,10,1,100,-0.07724185089222328,-10,-1,-100,6401.502606982132,0.0003692798931587018,-0.00833848716141424,0.9999651660254069,227.54285251308406,23.651742778192236,779.1841265506599,-40.49100543029925,-89.60696411132812,4381.2578125,True
1599567989.660573,0.0,10,0.5,0.5,-1.4531818313598632,-0.05075,-0.03,-0.37525,-0.06010691861750132,10,1,100,-0.07489916528399661,-10,-1,-100,6399.878578168224,0.0010472417857424075,-0.008044527739918822,0.9999670938876357,221.3126639631166,23.014475030486363,765.6187913649908,-40.86856408595925,-84.94967651367188,4381.2578125,True
1599567989.7227178,0.0,10,0.5,0.5,-2.7228096542358395,-0.05075,-0.03,-0.37525,-0.0342337916259198,10,1,100,-0.11354986731696745,-10,-1,-100,6397.407868328039,0.0020071547562380923,-0.007543246015526812,0.9999695349206063,218.98835213666325,22.765376271492894,769.13126007367,-41.43502362910625,-78.14913940429688,4381.2578125,True
1599567989.7840607,0.0,10,0.5,0.5,-1.2283120651245119,-0.05075,-0.03,-0.37525,-0.06504624940267169,10,1,100,-0.04957728373731263,-10,-1,-100,6396.621734300512,0.0022904243709453162,-0.007369319049594229,0.9999702231031413,223.17851365232053,23.192373081232827,787.7738292973041,-41.623689232967905,-75.97708129882812,4381.2578125,True
1599567989.8459318,0.0,10,0.5,0.5,-3.134197868347168,-0.05075,-0.03,-0.37525,-0.023435866275782896,10,1,100,-0.10576759096934518,-10,-1,-100,6394.086085236631,0.0030515188013307323,-0.006834753023826931,0.9999719867996846,234.0125354347539,24.278020774102103,838.3570319836462,-42.18909775037184,-69.89315795898438,4381.2578125,True
1599567989.905804,0.0,10,0.5,0.5,-2.557536911010742,-0.05075,-0.03,-0.37525,-0.036278557158815006,10,1,100,-0.07794718523915445,-10,-1,-100,6392.395653196378,0.0034834308977773113,-0.006467834813318372,0.9999730160469371,239.87897335424293,24.85227408191075,867.7971455730683,-42.56557189494181,-66.20962524414062,4381.2578125,True
1599567989.9676082,0.0,10,0.5,0.5,-2.753652572631836,-0.05075,-0.03,-0.37525,-0.03282621403407392,10,1,100,-0.07566940605051325,-10,-1,-100,6390.646139050368,0.0038487279436439387,-0.0061054570190888086,0.9999739550047311,244.7931875046961,25.324168373635235,894.1621199238143,-42.941706615520644,-62.826171875,4381.2578125,True
1599567990.0241005,0.0,10,0.5,0.5,-2.2854255142211914,-0.05075,-0.03,-0.37525,-0.049613691875597,10,1,100,-0.05692824684790891,-10,-1,-100,6389.7940877593355,0.00400468994116212,-0.005931374196674194,0.9999743903013787,246.9319793074041,25.526569506344206,906.302670315004,-43.129656521551084,-61.247100830078125,4381.2578125,True
1599567990.0809798,0.0,10,0.5,0.5,-3.0693690643310547,-0.05075,-0.03,-0.37525,-0.027442489148444223,10,1,100,-0.0721194444960346,-10,-1,-100,6388.037738090265,0.0042790784861643505,-0.005574383114272359,0.9999753075652441,250.64630590190313,25.873222771550473,928.717284770001,-43.50534155581591,-58.313751220703125,4381.2578125,True
1599567990.1387913,0.0,10,0.5,0.5,-3.205409561157227,-0.05075,-0.03,-0.37525,-0.024998431682466744,10,1,100,-0.06848981520406715,-10,-1,-100,6386.291642231983,0.004490912128033535,-0.005230497413435944,0.9999762365201817,253.70700934718886,26.153794734483576,948.9440516669944,-43.88076641719053,-55.68035888671875,4381.2578125,True
1599567990.197636,0.0,10,0.5,0.5,-3.327388046264648,-0.05075,-0.03,-0.37525,-0.021054856383745588,10,1,100,-0.06471966581393723,-10,-1,-100,6384.5318744232645,0.004644760297426101,-0.004885096452478481,0.9999772807591326,256.2228527948899,26.380697411683,967.3280442050745,-44.255960368004,-53.34649658203125,4381.2578125,True
1599567990.252488,0.0,10,0.5,0.5,-3.8123996429443356,-0.05075,-0.03,-0.37525,-0.001879270313137553,10,1,100,-0.06337982995611408,-10,-1,-100,6381.867807029281,0.004768555143253434,-0.00439991151524702,0.9999789506087134,259.190592791448,26.644048277967848,992.1557620371507,-44.81837304401712,-50.407501220703125,4381.2578125,True
1599567990.3113937,0.0,10,0.5,0.5,-3.1667944412231446,-0.05075,-0.03,-0.37525,-0.032645792868090454,10,1,100,-0.052890952386731555,-10,-1,-100,6380.95716160757,0.00478235946759525,-0.00424184324664951,0.9999795676931572,260.00925260005664,26.715983352649854,999.8482328701091,-45.00575364714457,-49.577392578125,4381.2578125,True
1599567990.3716567,0.0,10,0.5,0.5,-3.8107960815429687,-0.05075,-0.03,-0.37525,0.0016058109648324145,10,1,100,-0.04803025484630759,-10,-1,-100,6378.237429485074,0.004748197780528176,-0.003789767879233273,0.9999815459683536,262.08322019212494,26.897396762448256,1021.6227309739286,-45.567653868679145,-47.53564453125,4381.2578125,True
1599567990.4333377,0.0,10,0.5,0.5,-3.356227935791016,-0.05075,-0.03,-0.37525,-0.02753562093221666,10,1,100,-0.047702425423678016,-10,-1,-100,6377.326783446595,0.004711927094434583,-0.0036469665180738314,0.9999822485315791,262.6741890340741,26.949037638685173,1028.5419530211664,-45.75487892231204,-47.004486083984375,4381.2578125,True
1599567990.4925623,0.0,10,0.5,0.5,-3.582843162536621,-0.05075,-0.03,-0.37525,-0.009916706372298911,10,1,100,-0.038707278713892554,-10,-1,-100,6375.504514258821,0.004595670220357718,-0.0033598731360257716,0.9999837954025732,263.7437820898682,27.042637940877412,1042.0082595403387,-46.12922389893557,-46.16583251953125,4381.2578125,True
1599567990.5503998,0.0,10,0.5,0.5,-3.62588996887207,-0.05075,-0.03,-0.37525,0.00528345326532817,10,1,100,-0.022578891684496737,-10,-1,-100,6372.712515143678,0.004342349326090987,-0.0029635213026193733,0.9999861806764226,265.1452732532722,27.1657287736907,1061.5623640561448,-46.69049267468456,-45.467193603515625,4381.2578125,True
1599567990.608434,0.0,10,0.5,0.5,-3.4556361465454106,-0.05075,-0.03,-0.37525,-0.006028071771978644,10,1,100,-0.02277226644812042,-10,-1,-100,6370.819444786292,0.0041133668097155865,-0.002708889805058591,0.9999878709911999,265.9836012826851,27.23931983500959,1074.3116581046772,-47.064514439355435,-45.373687744140625,4381.2578125,True
1599567990.6672769,0.0,10,0.5,0.5,-3.381273048400879,-0.05075,-0.03,-0.37525,-0.004302016301552816,10,1,100,-0.016275658778773607,-10,-1,-100,6368.848248954164,0.0038460420188633844,-0.002464644743355477,0.9999895666891122,266.76156211967344,27.30700525056879,1086.890040077367,-47.4384150938173,-45.577667236328125,4381.2578125,True
1599567990.7276285,0.0,10,0.5,0.5,-3.405099189758301,-0.05075,-0.03,-0.37525,-0.015285731448914817,10,1,100,-0.026664694036652968,-10,-1,-100,6367.924907338456,0.0036978589263123775,-0.002345282768938589,0.9999904126980893,267.1275675068822,27.338374424174113,1093.1120266028263,-47.625321236923725,-45.791107177734375,4381.2578125,True
1599567990.783477,0.0,10,0.5,0.5,-3.0524069137573244,-0.05075,-0.03,-0.37525,0.01159300760752597,10,1,100,0.014486830495096782,-10,-1,-100,6364.973239950719,0.0031897632129789383,-0.0019950426322687723,0.9999929225827253,268.1137777149356,27.41947157312764,1111.4183473332948,-48.18587019265544,-46.876678466796875,4381.2578125,True
1599567990.8393612,0.0,10,0.5,0.5,-3.2618608322143556,-0.05075,-0.03,-0.37525,-0.010622789155600236,10,1,100,-0.015580528852856691,-10,-1,-100,6364.002535179025,0.0030025203740976134,-0.0018812316184339132,0.9999937228997996,268.3976814976787,27.441100787735206,1117.3662763530997,-48.37266563951394,-47.386810302734375,4381.2578125,True
1599567990.8971741,0.0,10,0.5,0.5,-2.621153282165528,-0.05075,-0.03,-0.37525,0.015241746675015249,10,1,100,0.033737969994837205,-10,-1,-100,6361.088466637884,0.0023855551081075153,-0.0015449246254846396,0.9999959611592079,269.05663408699,27.482676231265135,1134.4879230152246,-48.93290285525973,-49.3614501953125,4381.2578125,True
1599567990.954021,0.0,10,0.5,0.5,-3.019363830566407,-0.05075,-0.03,-0.37525,-0.005918868391320447,10,1,100,-0.003802301600509518,-10,-1,-100,6360.116297077737,0.002168131702946476,-0.0014340119676075926,0.9999966214015902,269.1940292582259,27.486685219094692,1139.873361970889,-49.11960313905853,-50.1676025390625,4381.2578125,True
1599567991.0128632,0.0,10,0.5,0.5,-2.5327382812500003,-0.05075,-0.03,-0.37525,0.007282734146219836,10,1,100,0.027379962541539855,-10,-1,-100,6358.111411320511,0.001689344447942884,-0.0012153093063886615,0.9999978345669684,269.2996852107748,27.474917768308615,1149.9549663418693,-49.492945435618424,-52.001495361328125,4381.2578125,True
1599567991.0697498,0.0,10,0.5,0.5,-2.2989624710083008,-0.05075,-0.03,-0.37525,0.009994775317057265,10,1,100,0.0329429361550269,-10,-1,-100,6356.168049327214,0.0012062586220410922,-0.000994044383010825,0.9999987784072045,269.1302193366613,27.431495599410606,1158.886544149365,-49.866224094317474,-54.1304931640625,4381.2578125,True
1599567991.1295516,0.0,10,0.5,0.5,-2.041424133300781,-0.05075,-0.03,-0.37525,0.01197931088968406,10,1,100,0.04373819286270163,-10,-1,-100,6354.162188185845,0.0006720322753317992,-0.0007770039736007436,0.9999994723185837,268.6042663110777,27.34812245776075,1166.289153161207,-50.23946014817873,-56.5543212890625,4381.2578125,True
1599567991.6761663,0.0,10,0.5,0.5,-1.1338422546386717,-0.05075,-0.03,-0.37525,0.026677905189790733,10,1,100,0.08141475853366359,-10,-1,-100,6351.122636050917,-0.00015280562136652212,-0.00044805866898062587,0.9999998879469294,266.9665104667343,27.13074103889236,1173.658948345901,-50.79929059146139,-60.741790771484375,4381.2578125,True
1599567991.7290244,0.0,10,0.5,0.5,-1.313353324890137,-0.05075,-0.03,-0.37525,0.018046738290270137,10,1,100,0.06303723780541451,-10,-1,-100,6349.055253554136,-0.0007317115458981117,-0.0002295379376271406,0.9999997059552311,265.16466885000557,26.91108284911951,1175.3794388512272,-51.17253959950651,-63.900787353515625,4381.2578125,True
1599567991.7818835,0.0,10,0.5,0.5,-0.9730911941528322,-0.05075,-0.03,-0.37525,0.02047198148266801,10,1,100,0.07028713480378607,-10,-1,-100,6346.986895350623,-0.0013197362194895148,-1.0866977198290006e-05,0.9999991290887305,262.6718023754907,26.621113030702457,1173.9290391822296,-51.5458525664738,-67.3531494140625,4381.2578125,True
1599567991.8377337,0.0,10,0.5,0.5,-0.608393005371094,-0.05075,-0.03,-0.37525,0.022656620094493388,10,1,100,0.07808784139197253,-10,-1,-100,6344.918538712896,-0.0019206581688781203,0.00020566295985204099,0.9999981343857324,259.3737811419912,26.2516887391307,1168.7209525457736,-51.919267131970315,-71.09848022460938,4381.2578125,True
1599567991.8915904,0.0,10,0.5,0.5,-1.096651268005371,-0.05075,-0.03,-0.37525,0.013121831377695639,10,1,100,0.05219603933794677,-10,-1,-100,6343.884361055447,-0.0022269249938476573,0.0003138278182977071,0.9999974711553886,257.3879105267467,26.034576871909476,1164.522425411835,-52.10602479254993,-73.08090209960938,4381.2578125,True
1599567991.9474409,0.0,10,0.5,0.5,0.017230079650878638,-0.05075,-0.03,-0.37525,0.025993468412260152,10,1,100,0.08960701978629014,-10,-1,-100,6341.815517538693,-0.0028406951611976805,0.0005271788813473249,0.9999958262580041,252.67612920731483,25.530983386035317,1152.5707259096873,-52.47966433958157,-77.26095581054688,4381.2578125,True
1599567992.0012958,0.0,10,0.5,0.5,1.3872836685180663,-0.05075,-0.03,-0.37525,0.039282721055865694,10,1,100,0.13217063011759245,-10,-1,-100,6338.588474936783,-0.0037808588161010815,0.0008400620504189988,0.9999924996730546,243.67032703251382,24.599960359394352,1125.132315590535,-53.04049675778005,-83.962646484375,4381.2578125,True
1599567992.0571485,0.0,10,0.5,0.5,-0.020344848632812496,-0.05075,-0.03,-0.37525,0.019576672460134444,10,1,100,0.07417000404829815,-10,-1,-100,6337.553810815909,-0.0041028664558205455,0.000943288058688394,0.9999911383079771,240.13894723151623,24.24314104013226,1113.3281357354952,-53.22755298795427,-86.32366943359375,4381.2578125,True
1599567992.113032,0.0,10,0.5,0.5,1.2342760925292966,-0.05075,-0.03,-0.37525,0.03109844784184615,10,1,100,0.11241585175769676,-10,-1,-100,6335.421983373002,-0.004738024552102079,0.0011399109357078806,0.9999881257927028,246.09818192273602,24.8560124594993,1150.204566325577,-53.60142810812904,-91.1068344116211,4381.2578125,True
1599567992.1698463,0.0,10,0.5,0.5,2.496249353408813,-0.05075,-0.03,-0.37525,0.04184607676672549,10,1,100,0.1551453696821593,-10,-1,-100,6332.194459027844,-0.005698487272422093,0.0014144247638438454,0.9999827631741425,257.01519754709756,26.001845600338537,1215.7392730092724,-54.1614100379547,-98.02215576171875,4381.2578125,True
1599567992.2266943,0.0,10,0.5,0.5,2.8429818344116207,-0.05075,-0.03,-0.37525,0.04196079322970127,10,1,100,0.1665755112185743,-10,-1,-100,6328.904926580726,-0.006669754196182466,0.0016630334584150073,0.999976374070247,266.7077884103445,27.047182090147356,1276.6347161055587,-54.72038175037894,-104.63554382324219,4381.2578125,True
1599567992.2840507,0.0,10,0.5,0.5,1.3766064109802247,-0.05075,-0.03,-0.37525,0.024920366814356127,10,1,100,0.1048935347398229,-10,-1,-100,6327.808252874296,-0.006986054387453414,0.0017322092204971116,0.9999740969121711,269.4422696799796,27.34841776809495,1294.7836981210673,-54.90649482205369,-106.70976257324219,4381.2578125,True
1599567992.3399005,0.0,10,0.5,0.5,3.188559215545654,-0.05075,-0.03,-0.37525,0.03730604496357984,10,1,100,0.17821353017445024,-10,-1,-100,6324.454269973561,-0.00793445966270402,0.0019059099445118545,0.9999667053743061,277.29517016283523,28.219436959291453,1348.117623630063,-55.464229987932534,-112.48881530761719,4381.2578125,True
1599567992.3987446,0.0,10,0.5,0.5,1.1553766746520995,-0.05075,-0.03,-0.37525,0.020127650254276562,10,1,100,0.08403447499371111,-10,-1,-100,6324.454269973561,-0.00793445966270402,0.0019059099445118545,0.9999667053743061,277.29517016283523,28.219436959291453,1348.117623630063,-55.464229987932534,-112.48881530761719,4381.2578125,True
1599567992.4552355,0.0,10,0.5,0.5,3.4547958793640134,-0.05075,-0.03,-0.37525,0.033609869975301694,10,1,100,0.18926708130253528,-10,-1,-100,6321.164252741262,-0.008885652627789852,0.002026929899262392,0.9999584675038068,283.32678141794963,28.901401189289263,1393.3478604468303,-56.02116892689688,-117.59503173828125,4381.2578125,True
1599567992.5140388,0.0,10,0.5,0.5,2.3336303939819336,-0.05075,-0.03,-0.37525,0.023620310917449427,10,1,100,0.1286207610710154,-10,-1,-100,6320.0041046449915,-0.009192989932459572,0.002044576501163347,0.9999556533382031,284.9769753406173,29.089788568548848,1406.7926498388376,-56.20666387910977,-119.14761352539062,4381.2578125,True
1599567992.5698893,0.0,10,0.5,0.5,3.669776397705078,-0.05075,-0.03,-0.37525,0.025335859988580657,10,1,100,0.2034352979146467,-10,-1,-100,6316.58957866719,-0.010146744821854818,0.002074835314792848,0.999946367875766,289.045287618116,29.55587568366983,1443.092935849168,-56.76276225368825,-123.35675048828125,4381.2578125,True
1599567992.6277354,0.0,10,0.5,0.5,3.2450414962768552,-0.05075,-0.03,-0.37525,0.018763251789809338,10,1,100,0.17787085845781825,-10,-1,-100,6314.332271898747,-0.010775603557146825,0.002041469822408679,0.9999398575759162,291.1593408236703,29.797233220965577,1464.5466970155337,-57.13321268188404,-125.78999328613281,4381.2578125,True
1599567992.6835861,0.0,10,0.5,0.5,3.3600427742004393,-0.05075,-0.03,-0.37525,0.013924389424631888,10,1,100,0.18444083619263177,-10,-1,-100,6312.01344264939,-0.011400954262182112,0.001966149551681712,0.9999330740093819,292.9090999897532,29.994632030788328,1484.3265802586757,-57.50346815564629,-127.92538452148438,4381.2578125,True
1599567992.7414324,0.0,10,0.5,0.5,3.0765371627807614,-0.05075,-0.03,-0.37525,0.014966404022528516,10,1,100,0.15633842204623297,-10,-1,-100,6310.852807968622,-0.011707921202055948,0.0019063983122599168,0.9999296426382217,293.67522319754136,30.079793456193656,1493.7193840226978,-57.688529129372036,-128.881591796875,4381.2578125,True
