Timestamp,Input Throttle,horizon,dT,dt,Input Roll,Roll P,Roll I,Roll D,Input Pitch,Pitch P,Pitch I,Pitch D,Input Yaw,Yaw P,Yaw I,Yaw D,Altitude,Direction X,Direction Y,Direction Z,Drag X,Drag Y,Drag Z,Vertical Velocity,Roll,Mass,Has Fuel
1599565357.6122491,0.0,10,0.5,0.5,-0.05445827484130859,-0.001,-0.0155,-0.12575,-0.06719642002826175,10,1,100,0.6903685394191263,-10,-1,-100,6483.617967098253,-0.06725793192429921,-0.007002679069044267,0.9977110468863831,205.07323036113263,21.498777446675675,-156.76525427649074,9.590824618443234,-35.944671630859375,4381.2578125,True
1599565357.6690972,0.0,10,0.5,0.5,-0.13804996490478516,-0.001,-0.0155,-0.12575,-0.06907786323523268,10,1,100,0.6894685944052534,-10,-1,-100,6483.776674881694,-0.06735032721493404,-0.006987686383934136,0.9977049191334285,204.84274592220407,21.477787105642996,-153.51325528752855,9.400810815628319,-35.943023681640625,4381.2578125,True
1599565357.7259464,0.0,10,0.5,0.5,-0.22218418731689454,-0.001,-0.0155,-0.12575,-0.050422489100889305,10,1,100,0.7100117173553031,-10,-1,-100,6484.316760299145,-0.06755985102667986,-0.006798109917718228,0.9976920628284056,204.14974080857297,21.41438359074647,-143.78955639787642,8.83079877691581,-35.93865966796875,4381.2578125,True
1599565357.7778065,0.0,10,0.5,0.5,-0.3038832489013672,-0.001,-0.0155,-0.12575,-0.03418464287081499,10,1,100,0.6998139671779475,-10,-1,-100,6484.697140437434,-0.06759620235299402,-0.006471970791868801,0.9976917695468487,203.72133708934996,21.3753792855655,-137.35776992052735,8.450807097982505,-35.95086669921875,4381.2578125,True
1599565357.8396401,0.0,10,0.5,0.5,-0.3868658416748047,-0.001,-0.0155,-0.12575,-0.04421252738730119,10,1,100,0.7023487115574463,-10,-1,-100,6484.856804754352,-0.06759084105095416,-0.006260759654162952,0.9976934805312588,203.51727411713387,21.35684759368566,-134.15624251244,8.260813487234161,-35.96923828125,4381.2578125,True
1599565357.8984852,0.0,10,0.5,0.5,-0.4631335800170899,-0.001,-0.0155,-0.12575,-0.0015877248534123117,10,1,100,0.6974712128295946,-10,-1,-100,6485.175624445546,-0.06748018002334567,-0.005675559724436679,0.9977044719383749,203.1310880085847,21.321858773699322,-127.78149667537566,7.880826175680779,-36.046478271484375,4381.2578125,True
1599565357.9529464,0.0,10,0.5,0.5,-0.5373892471313476,-0.001,-0.0155,-0.12575,0.02736262800386962,10,1,100,0.6891759202204879,-10,-1,-100,6485.493929930264,-0.06724282171996122,-0.004875215162597107,0.9977247291734608,202.77380998503685,21.289540727260473,-121.44216553368635,7.500832699274104,-36.197052001953125,4381.2578125,True
1599565358.0098302,0.0,10,0.5,0.5,-0.6082514450073242,-0.001,-0.0155,-0.12575,0.05992945560860576,10,1,100,0.6792161599908044,-10,-1,-100,6485.750199286616,-0.06687536833141464,-0.0038471351143702613,0.9977539198930513,202.44427611236068,21.25969284199573,-115.13506037329859,7.120825171067924,-36.4453125,4381.2578125,True
1599565358.065646,0.0,10,0.5,0.5,-0.6105099899291992,-0.001,-0.0155,-0.12575,0.25111566344895403,10,1,100,0.592076839951724,-10,-1,-100,6486.261203213828,-0.06568834837026118,-0.001170963058238717,0.9978395009889633,201.85630724098553,21.20580912393316,-102.60164158405755,6.360734157524,-37.328704833984375,4381.2578125,True
1599565358.117543,0.0,10,0.5,0.5,-0.8032370834350586,-0.001,-0.0155,-0.12575,-0.01661863847002428,10,1,100,0.7173476709040961,-10,-1,-100,6486.261203213828,-0.06568834837026118,-0.001170963058238717,0.9978395009889633,201.85630724098553,21.20580912393316,-102.60164158405755,6.360734157524,-37.328704833984375,4381.2578125,True
1599565358.2042778,0.0,10,0.5,0.5,-0.7987852218627929,-0.001,-0.0155,-0.12575,0.16310170738336885,10,1,100,0.6325056449488433,-10,-1,-100,6486.51789331797,-0.06485734054487682,0.0004639227795723467,0.9978944383816859,201.57838466746298,21.179575955732716,-96.3618763579672,5.980633184840563,-38.0079345703125,4381.2578125,True
1599565358.2711318,0.0,10,0.5,0.5,-0.6377314361572265,-0.001,-0.0155,-0.12575,0.4152054403574458,10,1,100,0.47335492061769247,-10,-1,-100,6486.96529451292,-0.06265723647458915,0.004235246930211634,0.9980261185965063,200.95185684177946,21.117393587160052,-83.8888400020027,5.220274253966048,-39.927215576171875,4381.2578125,True
1599565358.3414233,0.0,10,0.5,0.5,-0.8729055252075195,-0.001,-0.0155,-0.12575,0.03919531862493159,10,1,100,0.6928960185724253,-10,-1,-100,6486.96529451292,-0.06265723647458915,0.004235246930211634,0.9980261185965063,200.95185684177946,21.117393587160052,-83.8888400020027,5.220274253966048,-39.927215576171875,4381.2578125,True
1599565358.412756,0.0,10,0.5,0.5,-0.6102332199096678,-0.001,-0.0155,-0.12575,0.3901415871096042,10,1,100,0.4547396468314,-10,-1,-100,6487.254544909461,-0.06049663547199082,0.007415637228392358,0.998140854499537,200.28467756282546,21.0478695827275,-74.49802418628376,4.6498260376177605,-41.9508056640625,4381.2578125,True
1599565358.4885397,0.0,10,0.5,0.5,-0.6511291152954102,-0.001,-0.0155,-0.12575,0.32844994263008415,10,1,100,0.48591610530299423,-10,-1,-100,6487.447688137414,-0.058822329243807744,0.009733442905997142,0.9982210144409547,199.63673828627046,20.979189484977145,-68.1958979195372,4.269418839404259,-43.562408447265625,4381.2578125,True
1599565358.5703208,0.0,10,0.5,0.5,-0.7284280380249023,-0.001,-0.0155,-0.12575,0.2340880304175133,10,1,100,0.5526679503315904,-10,-1,-100,6487.544258479727,-0.057915039001907774,0.01096816322683252,0.9982612622218879,199.2288479544216,20.935768395488214,-65.0304128482372,4.079177158802858,-44.458587646484375,4381.2578125,True
1599565358.6421359,0.0,10,0.5,0.5,-0.5814651580810548,-0.001,-0.0155,-0.12575,0.36899425723540813,10,1,100,0.4206537875536522,-10,-1,-100,6487.674403567682,-0.05589879652130967,0.013301925832344389,0.998347826820202,198.210905210204,20.827199115014295,-58.673204551736326,3.6986087892346458,-46.404296875,4381.2578125,True
1599565358.7099543,0.0,10,0.5,0.5,-0.24308276367187498,-0.001,-0.0155,-0.12575,0.6873898627357268,10,1,100,0.10976506406186326,-10,-1,-100,6487.935177113046,-0.051249900439202994,0.01830150903190813,0.9985181533012442,195.09544582425008,20.495110433712842,-45.87624810435825,2.937075673346499,-50.8795166015625,4381.2578125,True
1599565358.7837596,0.0,10,0.5,0.5,-0.46261721801757816,-0.001,-0.0155,-0.12575,0.4609249861363511,10,1,100,0.28164266920107467,-10,-1,-100,6488.004289194825,-0.04860035992754631,0.020767677931384225,0.998602377609953,192.94814103578324,20.26675894407889,-39.492061431706574,2.5560750809667523,-53.410888671875,4381.2578125,True
1599565358.8416085,0.0,10,0.5,0.5,-0.41917932739257807,-0.001,-0.0155,-0.12575,0.4670611181579709,10,1,100,0.23340633172075104,-10,-1,-100,6488.13248801243,-0.04576870911116704,0.023045488457477562,0.9986862023318706,190.35649700582027,19.991826310708163,-33.15648932083643,2.1748976948198266,-56.068328857421875,4381.2578125,True
1599565358.90145,0.0,10,0.5,0.5,-0.550852537536621,-0.001,-0.0155,-0.12575,0.37218624694138236,10,1,100,0.35004809769024137,-10,-1,-100,6488.167536776047,-0.04427296954987133,0.024231711514215503,0.9987255520533797,188.86726460394883,19.834156094719958,-30.015451067333682,1.9842400538401006,-57.436798095703125,4381.2578125,True
1599565358.9667883,0.0,10,0.5,0.5,-0.33356113281249994,-0.001,-0.0155,-0.12575,0.5019437600636851,10,1,100,0.15358407719127082,-10,-1,-100,6488.234223938314,-0.04114588282688005,0.026468102786239435,0.9988025109406232,185.4824255027511,19.47646996907329,-23.814087592110518,1.602785900606598,-60.271209716796875,4381.2578125,True
1599565359.01768,0.0,10,0.5,0.5,-0.2824678527832031,-0.001,-0.0155,-0.12575,0.513345932344148,10,1,100,0.09994284953112242,-10,-1,-100,6488.301900470862,-0.03783498496693,0.028584630185305375,0.998875083696516,181.4921099929278,19.056253461905197,-17.755690728033297,1.221138839918106,-63.237579345703125,4381.2578125,True
1599565359.0765274,0.0,10,0.5,0.5,-0.4240185668945313,-0.001,-0.0155,-0.12575,0.4167642629469472,10,1,100,0.23856677949235966,-10,-1,-100,6488.273977212142,-0.036107861049811805,0.02960859502334068,0.9989091817933956,179.2570480185587,18.821596769354958,-14.796501105915322,1.030242025355752,-64.77871704101562,4381.2578125,True
1599565359.1443107,0.0,10,0.5,0.5,0.24075697631835946,-0.001,-0.0155,-0.12575,0.718390888602563,10,1,100,-0.38488673978486093,-10,-1,-100,6488.345923705841,-0.028892160744840693,0.03326135696588297,0.9990289911610586,168.70025131248278,17.716610939031984,-3.5997711014986775,0.26625948514320763,-71.2733154296875,4381.2578125,True
1599565359.2121332,0.0,10,0.5,0.5,-0.10095457000732416,-0.001,-0.0155,-0.12575,0.5363990887403806,10,1,100,-0.08930911412015097,-10,-1,-100,6488.351166499313,-0.02504671176318156,0.03490618972030168,0.9990766838181454,162.5448603492466,17.07234123637563,1.5096357507694358,-0.11587566298913732,-74.68185424804688,4381.2578125,True
1599565359.2809453,0.0,10,0.5,0.5,-0.2643701110839844,-0.001,-0.0155,-0.12575,0.4455301364163121,10,1,100,0.08982235205795769,-10,-1,-100,6488.322789866244,-0.02320919722441854,0.035553648997287635,0.999098229008127,159.22270393146547,16.724221139018063,3.91753111729421,-0.30695532567617123,-76.40463256835938,4381.2578125,True
1599565359.8118393,0.0,10,0.5,0.5,-0.0002641143798828294,-0.001,-0.0155,-0.12575,0.518902638256779,10,1,100,-0.1479176451128745,-10,-1,-100,6488.328552269726,-0.019407174577896313,0.03678904224476553,0.9991345895051457,152.89483583802456,16.060237673600817,8.446174450521927,-0.6891048231167449,-79.83062744140625,4381.2578125,True
1599565359.8627033,0.0,10,0.5,0.5,0.0512427597045898,-0.001,-0.0155,-0.12575,0.5134260111403661,10,1,100,-0.198561791341531,-10,-1,-100,6488.27085765067,-0.015519336957034963,0.037845532647584536,0.9991630827042374,146.47187579754973,15.385526571860767,12.579408023395784,-1.0712139917548535,-83.28192138671875,4381.2578125,True
1599565359.915529,0.0,10,0.5,0.5,-0.11455201873779297,-0.001,-0.0155,-0.12575,0.4581295921323637,10,1,100,-0.027398842407530155,-10,-1,-100,6488.24153006007,-0.013571039585625118,0.03828775842760525,0.9991745965741697,143.02974264542755,15.023846857171431,14.475243776725545,-1.2622536558537334,-85.03265380859375,4381.2578125,True
1599565359.9719224,0.0,10,0.5,0.5,0.6026987030029296,-0.001,-0.0155,-0.12575,0.5450438668946882,10,1,100,-0.6672498607141422,-10,-1,-100,6488.126220940612,-0.0060123033265792785,0.03946605502549055,0.9992028236096184,153.17714531601183,16.08889382567724,24.892122505541117,-2.026364022765131,-92.07415771484375,4381.2578125,True
1599565360.0227501,0.0,10,0.5,0.5,-0.005504216766357428,-0.001,-0.0155,-0.12575,0.44832931117881125,10,1,100,-0.12473382323755025,-10,-1,-100,6488.09691683331,-0.004107471310164161,0.03964416111386805,0.9992054189049486,155.6597578476967,16.349295947472267,27.682059626965952,-2.217408045432895,-93.83808898925781,4381.2578125,True
1599565360.0816267,0.0,10,0.5,0.5,0.049233161544799786,-0.001,-0.0155,-0.12575,0.4455049991837925,10,1,100,-0.1452089026295258,-10,-1,-100,6488.0056055447785,-0.0022233400385112917,0.039768421941231404,0.99920644982675,157.9775997521187,16.59242507309665,30.51690854146,-2.408473800334611,-95.6094741821289,4381.2578125,True
1599565360.1395082,0.0,10,0.5,0.5,0.31523600311279293,-0.001,-0.0155,-0.12575,0.4454023211807072,10,1,100,-0.33593486359089997,-10,-1,-100,6487.885494693997,0.0011910047217961561,0.03987028580993738,0.9992041542233433,163.01124689651903,17.12098639017596,36.491352433045954,-2.790700124513183,-99.06965637207031,4381.2578125,True
1599565360.1933615,0.0,10,0.5,0.5,0.3632135353088379,-0.001,-0.0155,-0.12575,0.42775337925174217,10,1,100,-0.38936857106698275,-10,-1,-100,6487.763931908645,0.004746807421156763,0.03979311559050986,0.9991966652120625,167.58086766458194,17.60212031951968,42.66054058765499,-3.1730883647861092,-102.46172332763672,4381.2578125,True
1599565360.2496314,0.0,10,0.5,0.5,0.4129671657562256,-0.001,-0.0155,-0.12575,0.4082888702544414,10,1,100,-0.40417719892872905,-10,-1,-100,6487.643356287037,0.008083398339167738,0.039540072801396084,0.9991852887798891,171.7332756650672,18.041219213430793,48.99584553610314,-3.555654406050453,-105.83816528320312,4381.2578125,True
1599565360.3214388,0.0,10,0.5,0.5,0.6641748855590821,-0.001,-0.0155,-0.12575,0.36494890159063553,10,1,100,-0.5850437822931241,-10,-1,-100,6487.431016528397,0.012730786195124626,0.03891182156609342,0.9991615471110077,178.14189146904255,18.721101705352787,59.045434715713704,-4.129782270772014,-110.78887939453125,4381.2578125,True
1599565360.3792856,0.0,10,0.5,0.5,0.4975161338806152,-0.001,-0.0155,-0.12575,0.3652765908775387,10,1,100,-0.44223632064415797,-10,-1,-100,6487.247473006137,0.015624761882440701,0.03834061018881848,0.9991425646155138,181.77531703434067,19.108144211201562,65.84797737695068,-4.512696031224343,-113.96519470214844,4381.2578125,True
1599565360.4351344,0.0,10,0.5,0.5,0.3467629222869873,-0.001,-0.0155,-0.12575,0.3869891259234739,10,1,100,-0.30740277265336624,-10,-1,-100,6487.156679923297,0.016998042128756902,0.03801730328449153,0.9991324993286747,183.3719652328759,19.278693275812536,69.25176123313658,-4.704195472213851,-115.50965118408203,4381.2578125,True
1599565360.4969695,0.0,10,0.5,0.5,0.5776533081054687,-0.001,-0.0155,-0.12575,0.34712550735432546,10,1,100,-0.45119157991336,-10,-1,-100,6486.909665187122,0.01952408843769358,0.03736083522935031,0.9991110939037973,186.22614589255312,19.58418843769667,76.07173009672195,-5.087264111664033,-118.46943664550781,4381.2578125,True
1599565360.5519085,0.0,10,0.5,0.5,0.6116036029815674,-0.001,-0.0155,-0.12575,0.3303943749245122,10,1,100,-0.46127066227765856,-10,-1,-100,6486.725151206832,0.021882035714562986,0.036612787541858406,0.9990899260333883,188.56245282281517,19.834968955566353,82.84448909549357,-5.470405735991241,-121.26483154296875,4381.2578125,True
1599565360.6087942,0.0,10,0.5,0.5,0.9638166919708252,-0.001,-0.0155,-0.12575,0.22662612766311552,10,1,100,-0.6738777695297538,-10,-1,-100,6486.231602160726,0.025933057542153182,0.03499199036674728,0.9990510683326899,191.84135359586787,20.188089077114025,96.13679432726349,-6.2368367957922635,-126.46000671386719,4381.2578125,True
1599565360.6739168,0.0,10,0.5,0.5,0.6595869632720948,-0.001,-0.0155,-0.12575,0.29701291571647437,10,1,100,-0.4585227091434273,-10,-1,-100,6485.985064478475,0.027630721810221012,0.03416264752690144,0.999034262038194,192.89134579224117,20.301195308232614,102.62735125431368,-6.620094518063555,-128.81503295898438,4381.2578125,True
1599565360.7327588,0.0,10,0.5,0.5,0.553528369140625,-0.001,-0.0155,-0.12575,0.33903866538276056,10,1,100,-0.3736870063940867,-10,-1,-100,6485.830299055902,0.028375679245426187,0.03379584791892995,0.9990258562673947,193.29328721435985,20.344335815549,105.83108476933627,-6.81172796915949,-129.90866088867188,4381.2578125,True
1599565360.7886093,0.0,10,0.5,0.5,0.5939010231018066,-0.001,-0.0155,-0.12575,0.3350512820246382,10,1,100,-0.37800416378551227,-10,-1,-100,6485.7385215556715,0.02906744682233146,0.033431667006510214,0.9990182216438279,193.62109406709047,20.37934349164967,109.0064946447074,-7.003362730766984,-130.93505859375,4381.2578125,True
1599565360.853437,0.0,10,0.5,0.5,0.7484510440826416,-0.001,-0.0155,-0.12575,0.2844697572625775,10,1,100,-0.4501449637769705,-10,-1,-100,6485.428007418057,0.030330042219984806,0.0326465445415499,0.9990066524645522,194.09792063673106,20.429540579151862,115.28449962465558,-7.386632201939719,-132.82449340820312,4381.2578125,True
1599565360.9202926,0.0,10,0.5,0.5,0.8682761486053467,-0.001,-0.0155,-0.12575,0.23991622767594134,10,1,100,-0.48908619226081684,-10,-1,-100,6484.963192537078,0.03181164316417662,0.031534031602852786,0.9989963084066253,194.48826662682356,20.46806366269098,124.55620622071739,-7.961523830013451,-135.3143768310547,4381.2578125,True
1599565360.9881124,0.0,10,0.5,0.5,0.8557314540863037,-0.001,-0.0155,-0.12575,0.2387875583663786,10,1,100,-0.45516025432818846,-10,-1,-100,6484.435851691989,0.03283278926226432,0.030519102655735056,0.9989947909385457,194.64877173201637,20.47926804057106,133.71536641549875,-8.536386079641954,-137.38572692871094,4381.2578125,True
1599565361.041968,0.0,10,0.5,0.5,0.7047087665557862,-0.001,-0.0155,-0.12575,0.3055700180324534,10,1,100,-0.38156019151328563,-10,-1,-100,6484.280085178325,0.033076368755499644,0.03021066370762242,0.9989961309376003,194.68176738648737,20.480179960770013,136.75939842724074,-8.727998400951368,-137.96282958984375,4381.2578125,True
1599565361.1018064,0.0,10,0.5,0.5,0.7321219375610352,-0.001,-0.0155,-0.12575,0.3029132063494618,10,1,100,-0.38023156379914436,-10,-1,-100,6484.1248049630085,0.03327110956410616,0.0299132087754718,0.9989986152188242,194.7156367013684,20.480877473773493,139.80613529353636,-8.9196057910683,-138.47708129882812,4381.2578125,True
1599565361.1636443,0.0,10,0.5,0.5,0.8047214904785157,-0.001,-0.0155,-0.12575,0.27014434703971596,10,1,100,-0.38998287792927017,-10,-1,-100,6483.752224381664,0.03352429768118012,0.029351667049295257,0.9990068073373728,194.81462929605001,20.484726633398104,145.92939093488457,-9.302804145006498,-139.3153839111328,4381.2578125,True
1599565361.2165012,0.0,10,0.5,0.5,0.8323680480957031,-0.001,-0.0155,-0.12575,0.24001213202832167,10,1,100,-0.3682088418544679,-10,-1,-100,6483.160859570955,0.033545939039688596,0.028573846362206234,0.9990286308600043,195.09718700078065,20.50286943345009,155.24072993806476,-9.877553322314242,-140.1444549560547,4381.2578125,True
1599565361.278338,0.0,10,0.5,0.5,0.790913102722168,-0.001,-0.0155,-0.12575,0.24516685044012754,10,1,100,-0.3246622432505708,-10,-1,-100,6482.505990451784,0.033162814031481296,0.027919432399509485,0.9990599246591781,195.5981787950756,20.542435454392873,164.77262656228874,-10.452231022343984,-140.4725799560547,4381.2578125,True
1599565361.3371792,0.0,10,0.5,0.5,0.767720581817627,-0.001,-0.0155,-0.12575,0.3099839251970632,10,1,100,-0.3635279532934269,-10,-1,-100,6482.505990451784,0.033162814031481296,0.027919432399509485,0.9990599246591781,195.5981787950756,20.542435454392873,164.77262656228874,-10.452231022343984,-140.4725799560547,4381.2578125,True
1599565361.3939924,0.0,10,0.5,0.5,0.7738113044738769,-0.001,-0.0155,-0.12575,0.2672672278826957,10,1,100,-0.31315155725085375,-10,-1,-100,6482.070861915476,0.032700494854016035,0.027536440983487436,0.9990857931400412,196.0858272228777,20.584417597134987,171.2932425394,-10.835300948637341,-140.39144897460938,4381.2578125,True
1599565361.4498432,0.0,10,0.5,0.5,0.7265346771240235,-0.001,-0.0155,-0.12575,0.2477599255768942,10,1,100,-0.24826332614777913,-10,-1,-100,6481.4154647993855,0.031687008911718134,0.02701628715343558,0.9991326506999316,197.05604974021603,20.672203818939213,181.35973342611265,-11.40981707972318,-139.82232666015625,4381.2578125,True
1599565361.5057268,0.0,10,0.5,0.5,0.6710215660095215,-0.001,-0.0155,-0.12575,0.249469716437452,10,1,100,-0.19795850859411046,-10,-1,-100,6480.698521612445,0.030307107925785115,0.026564082004291795,0.9991875843686431,198.26602357252486,20.78558742198629,191.7596767558924,-11.984207474718778,-138.73414611816406,4381.2578125,True
1599565361.5665314,0.0,10,0.5,0.5,0.7529287452697753,-0.001,-0.0155,-0.12575,0.2779217950667528,10,1,100,-0.27780385870779395,-10,-1,-100,6480.479718317976,0.029779887062550758,0.026416159810426144,0.9992073582732524,198.7128917718716,20.828214232131657,195.29671521523616,-12.17563886159471,-138.25894165039062,4381.2578125,True
1599565361.6329064,0.0,10,0.5,0.5,0.673259580230713,-0.001,-0.0155,-0.12575,0.26018752823153485,10,1,100,-0.2018854648108516,-10,-1,-100,6479.980583404773,0.028613203517092515,0.026124194429178398,0.9992491236172869,199.64701306168243,20.91834680681938,202.45727149914762,-12.558448821173627,-137.14825439453125,4381.2578125,True
1599565361.689746,0.0,10,0.5,0.5,0.7316251892089843,-0.001,-0.0155,-0.12575,0.2727387779615212,10,1,100,-0.24835271716991392,-10,-1,-100,6479.700740716769,0.02797906910197505,0.025976588597660725,0.9992709284958784,200.1235807617391,20.964820233371743,206.07107138681494,-12.74982605910625,-136.5167694091797,4381.2578125,True
1599565361.7496307,0.0,10,0.5,0.5,0.527030477142334,-0.001,-0.0155,-0.12575,0.23880001820437674,10,1,100,-0.07635643684109239,-10,-1,-100,6478.919796081493,0.025843791667480912,0.025537446044104992,0.9993397506763114,201.5250679917135,21.10349100952666,216.978985024002,-13.323840996271255,-134.30007934570312,4381.2578125,True
1599565361.8104656,0.0,10,0.5,0.5,0.5778543807983398,-0.001,-0.0155,-0.12575,0.2475460147136097,10,1,100,-0.1148269459253724,-10,-1,-100,6478.357168513234,0.024259344542355787,0.025221202073688435,0.9993875000060454,202.3804388315168,21.1900237201377,224.24294863666594,-13.70641861118591,-132.5631866455078,4381.2578125,True
1599565361.8762949,0.0,10,0.5,0.5,0.5385295280456543,-0.001,-0.0155,-0.12575,0.23996526471744886,10,1,100,-0.0861481966179996,-10,-1,-100,6477.856551127159,0.02256666452080895,0.02486783950451603,0.9994360090625026,203.10800781149473,21.26554055382066,231.42025952679444,-14.088918598402573,-130.62245178222656,4381.2578125,True
1599565361.9380975,0.0,10,0.5,0.5,0.35825540924072274,-0.001,-0.0155,-0.12575,0.20811998369556284,10,1,100,0.04694215428006246,-10,-1,-100,6476.950594941503,0.019827585083520966,0.024259872425883053,0.9995090422100421,204.08195883666065,21.37179010144187,242.1433411533333,-14.6625343522647,-127.39520263671875,4381.2578125,True
1599565361.9969385,0.0,10,0.5,0.5,0.4450958641052246,-0.001,-0.0155,-0.12575,0.21639273393464195,10,1,100,-0.012515720856005663,-10,-1,-100,6476.387478272547,0.01789016194081247,0.023785708774729818,0.9995569929542863,204.63921275779285,21.43696232107216,249.23881009704866,-15.044864118935514,-125.03846740722656,4381.2578125,True
1599565362.0578194,0.0,10,0.5,0.5,0.7176581977844239,-0.001,-0.0155,-0.12575,0.2634340258290897,10,1,100,-0.20477700183553477,-10,-1,-100,6476.387478272547,0.01789016194081247,0.023785708774729818,0.9995569929542863,204.63921275779285,21.43696232107216,249.23881009704866,-15.044864118935514,-125.03846740722656,4381.2578125,True
1599565362.11865,0.0,10,0.5,0.5,0.04861141815185532,-0.001,-0.0155,-0.12575,0.13441453194003689,10,1,100,0.23870642009189638,-10,-1,-100,6475.1377235658,0.013871037056900284,0.022615741174264525,0.9996479993388198,204.81799584757036,21.47968130659387,262.3580329991665,-15.809385075210379,-119.94078063964844,4381.2578125,True
1599565362.178488,0.0,10,0.5,0.5,0.6605158126831054,-0.001,-0.0155,-0.12575,0.2510164579035635,10,1,100,-0.16156246121243387,-10,-1,-100,6475.1377235658,0.013871037056900284,0.022615741174264525,0.9996479993388198,204.81799584757036,21.47968130659387,262.3580329991665,-15.809385075210379,-119.94078063964844,4381.2578125,True
1599565362.236817,0.0,10,0.5,0.5,0.09777614173889171,-0.001,-0.0155,-0.12575,0.13418119894892422,10,1,100,0.1904151406765488,-10,-1,-100,6474.167829700164,0.010685703267005579,0.02155705738252795,0.9997105126098735,203.90926919992793,21.411158396334997,270.8491287524369,-16.382720136143128,-115.72502899169922,4381.2578125,True
1599565362.808332,0.0,10,0.5,0.5,0.22377980957031252,-0.001,-0.0155,-0.12575,0.15143825849256354,10,1,100,0.11230723061002236,-10,-1,-100,6473.480229022796,0.008516314913387984,0.02075565187411565,0.9997483059728468,202.7424514999218,21.310127830420726,275.71131581885305,-16.764955180189578,-112.79862976074219,4381.2578125,True
1599565362.8840892,0.0,10,0.5,0.5,0.3620684833526612,-0.001,-0.0155,-0.12575,0.18397110426826307,10,1,100,0.022398369276487307,-10,-1,-100,6473.135943705565,0.007379190380575568,0.020327600861450416,0.9997661407511983,201.97734057413987,21.24136472598315,277.8686939382161,-16.956082544244627,-111.27639770507812,4381.2578125,True
1599565362.972849,0.0,10,0.5,0.5,-0.27498943328857417,-0.001,-0.0155,-0.12575,0.014881305172505632,10,1,100,0.3813331899353025,-10,-1,-100,6471.759318626835,0.0030991829822904207,0.018406019808323,0.9998257915755414,197.55050853261778,20.82579917326356,284.31780228266217,-17.720715325197858,-105.0216293334961,4381.2578125,True
1599565363.031749,0.0,10,0.5,0.5,0.26507500381469723,-0.001,-0.0155,-0.12575,0.14808969529440996,10,1,100,0.07618506518001056,-10,-1,-100,6471.414070684463,0.0020015775375884547,0.01787630892682936,0.9998382025440484,196.11844050161992,20.687757211676836,285.37627175912894,-17.91191397787879,-103.41387176513672,4381.2578125,True
1599565363.0935516,0.0,10,0.5,0.5,0.007976768493652309,-0.001,-0.0155,-0.12575,0.0797213297906177,10,1,100,0.19754159908851304,-10,-1,-100,6470.664013993344,-8.079127768770044e-05,0.016779578921416745,0.9998592096910391,193.34787246131717,20.420633821048902,287.5049289069294,-18.294367006536383,-100.12313842773438,4381.2578125,True
1599565363.1564212,0.0,10,0.5,0.5,0.16959090080261233,-0.001,-0.0155,-0.12575,0.12680927919939722,10,1,100,0.10063425362694284,-10,-1,-100,6470.25822928641,-0.001074779445232468,0.016217424177943696,0.999867911277373,191.79067848277737,20.268144382837257,288.24937720061354,-18.48562348287239,-98.46693420410156,4381.2578125,True
1599565363.219249,0.0,10,0.5,0.5,-0.3018718082427979,-0.001,-0.0155,-0.12575,-0.018471890587417078,10,1,100,0.3414338196887888,-10,-1,-100,6469.1629610027885,-0.004150251160484451,0.014392516762721509,0.999887809144876,186.51754098023488,19.74193934305102,289.2697880657066,-19.059514527732226,-93.42910766601562,4381.2578125,True
1599565363.290237,0.0,10,0.5,0.5,0.0682159481048584,-0.001,-0.0155,-0.12575,0.0942822487423885,10,1,100,0.14231671372862703,-10,-1,-100,6468.756211569998,-0.005115942290074514,0.01376708691734685,0.9998921414094097,184.7406521429608,19.562255940734026,289.4733107832893,-19.250848978197748,-91.73739624023438,4381.2578125,True
1599565363.3514264,0.0,10,0.5,0.5,-0.4107357326507568,-0.001,-0.0155,-0.12575,-0.05885456738093611,10,1,100,0.35909615166688974,-10,-1,-100,6467.598479037872,-0.007947304589734255,0.011814405687936864,0.9998986249455486,178.65921082292198,18.93492450843477,288.54535540983636,-19.824943541876603,-86.62521362304688,4381.2578125,True
1599565363.414229,0.0,10,0.5,0.5,-0.033002371597290026,-0.001,-0.0155,-0.12575,0.06390324147215354,10,1,100,0.17505802669431436,-10,-1,-100,6467.191741374787,-0.008828361597268212,0.01116504041030708,0.9998986958208036,176.3991535025874,18.69780216724702,287.73060809458804,-20.01633225867949,-84.94091796875,4381.2578125,True
1599565363.4741125,0.0,10,0.5,0.5,-0.505758179473877,-0.001,-0.0155,-0.12575,-0.09611134344650775,10,1,100,0.375346463569158,-10,-1,-100,6465.972518640803,-0.01143238642583014,0.00912947758317601,0.9998929708622161,181.38602382497763,19.223064418712976,304.62269098351385,-20.59038595618565,-79.91653442382812,4381.2578125,True
1599565363.53894,0.0,10,0.5,0.5,-0.5438327575683594,-0.001,-0.0155,-0.12575,-0.11875610355167138,10,1,100,0.38000306842734705,-10,-1,-100,6464.687398961512,-0.01382387931292523,0.007083673716001677,0.9998793536859468,191.70622791421277,20.298679488646748,331.2243482570172,-21.16399078815534,-75.03350830078125,4381.2578125,True
1599565363.5987802,0.0,10,0.5,0.5,-0.1881351058959961,-0.001,-0.0155,-0.12575,0.014302783752482992,10,1,100,0.2222437612501914,-10,-1,-100,6464.282141765463,-0.014544512718043441,0.00644551820055864,0.9998734482147834,194.89245188081279,20.627386133507002,339.8729792408015,-21.355079882248557,-73.43850708007812,4381.2578125,True
1599565363.6636055,0.0,10,0.5,0.5,-0.23453347206115724,-0.001,-0.0155,-0.12575,0.0068925399437752,10,1,100,0.22926051184217916,-10,-1,-100,6463.8744453112595,-0.015247382913805037,0.005808884153356503,0.9998668782288833,197.93050609616864,20.939133459934748,348.3645803715365,-21.546110304712528,-71.87625122070312,4381.2578125,True
1599565363.731426,0.0,10,0.5,0.5,-0.6537833229064942,-0.001,-0.0155,-0.12575,-0.13825300583457706,10,1,100,0.37997385592095145,-10,-1,-100,6462.527827299316,-0.017240796255712242,0.003921591353163606,0.9998436758142384,206.13335839619833,21.771831332428942,372.7848357952179,-22.11884614973475,-67.404296875,4381.2578125,True
1599565363.7892706,0.0,10,0.5,0.5,-0.684263907623291,-0.001,-0.0155,-0.12575,-0.15033563465034083,10,1,100,0.37920436206424957,-10,-1,-100,6461.182196757058,-0.019030394799677844,0.0021077176251797143,0.9998166839977121,213.1114872272191,22.46905354359338,395.7329092695898,-22.69105620665247,-63.12725830078125,4381.2578125,True
1599565363.8511388,0.0,10,0.5,0.5,-0.3751668701171875,-0.001,-0.0155,-0.12575,-0.029417499255746035,10,1,100,0.26131625248934853,-10,-1,-100,6460.713960174704,-0.019569269193188885,0.0015708242911022777,0.9998072695346295,215.20333671294887,22.67606527741941,403.0955611818116,-22.881679374655448,-61.7547607421875,4381.2578125,True
1599565363.9328878,0.0,10,0.5,0.5,-0.4201032180786133,-0.001,-0.0155,-0.12575,-0.03516058287246663,10,1,100,0.26642861156706765,-10,-1,-100,6460.244260506821,-0.020091613707966638,0.0010421856749449837,0.9997975999709285,217.16512505036326,22.8692525927762,410.2810102372612,-23.072248043222977,-60.4259033203125,4381.2578125,True
1599565363.9947221,0.0,10,0.5,0.5,-0.6199776611328125,-0.001,-0.0155,-0.12575,-0.09413776074761523,10,1,100,0.32436898593854685,-10,-1,-100,6459.306813719915,-0.021079588787125413,3.7017044339185435e-05,0.9997778000967537,220.70578164447318,23.215441743252473,424.1094054366205,-23.453229365634126,-57.91351318359375,4381.2578125,True
1599565364.0565846,0.0,10,0.5,0.5,-0.6473896408081055,-0.001,-0.0155,-0.12575,-0.10220168243367549,10,1,100,0.32755075793547783,-10,-1,-100,6458.366925568902,-0.02199473470978968,-0.0009393742818633628,0.9997576452425879,223.89249224618254,23.525241403326266,437.47996087661517,-23.834015238336935,-55.5557861328125,4381.2578125,True
1599565364.1224139,0.0,10,0.5,0.5,-0.9430153762817383,-0.001,-0.0155,-0.12575,-0.18528601795132613,10,1,100,0.41300631769316365,-10,-1,-100,6456.427577511291,-0.023591584843542956,-0.0025713108879423484,0.9997183730855843,229.5408776850273,24.07372628116806,463.3935416434606,-24.59504278674323,-51.24365234375,4381.2578125,True
1599565364.2171283,0.0,10,0.5,0.5,-0.685463134765625,-0.001,-0.0155,-0.12575,-0.09794951075418862,10,1,100,0.3314942956754675,-10,-1,-100,6455.42567489529,-0.02429119458459623,-0.0032502842930664322,0.999699641651265,231.86369318808622,24.29878894585666,475.6066768586463,-24.975310962241153,-49.34814453125,4381.2578125,True
1599565364.2909625,0.0,10,0.5,0.5,-0.6974948699951172,-0.001,-0.0155,-0.12575,-0.08860244933529433,10,1,100,0.3322608370306675,-10,-1,-100,6454.423768474255,-0.02492465625671769,-0.003773165050271953,0.9996822118733473,233.89011549040174,24.49536252005763,487.3609075429677,-25.355432793071824,-47.686767578125,4381.2578125,True
1599565364.378694,0.0,10,0.5,0.5,-0.7094417739868164,-0.001,-0.0155,-0.12575,-0.08764737380993921,10,1,100,0.33332687889356266,-10,-1,-100,6453.421859363676,-0.02550078529963745,-0.0042305389763638976,0.9996658504165636,235.65465400036203,24.667029309837297,498.70136793476956,-25.73542058322013,-46.2591552734375,4381.2578125,True
1599565364.441525,0.0,10,0.5,0.5,-0.7240909835815429,-0.001,-0.0155,-0.12575,-0.07836843126886461,10,1,100,0.33347140425490684,-10,-1,-100,6452.358421951416,-0.026016531567044147,-0.004552852683228878,0.999651144958913,237.2164247754745,24.819844291662278,509.73039077728293,-26.115283654768696,-45.040496826171875,4381.2578125,True
1599565364.5402637,0.0,10,0.5,0.5,-0.7337168487548827,-0.001,-0.0155,-0.12575,-0.06964360346799944,10,1,100,0.33355977266720716,-10,-1,-100,6451.294003621209,-0.026478217218151755,-0.0047588444876106376,0.9996380632069244,238.6207466865862,24.95834261996817,520.5277933000115,-26.495029884955294,-44.02899169921875,4381.2578125,True
1599565364.6080809,0.0,10,0.5,0.5,-0.6902062088012696,-0.001,-0.0155,-0.12575,-0.05655221758426451,10,1,100,0.3111582026063541,-10,-1,-100,6450.76179229829,-0.026687510061861396,-0.004820854836184838,0.9996322004444169,239.27429123594405,25.023231048089123,525.8579435292078,-26.68486097017061,-43.602294921875,4381.2578125,True
1599565364.6934385,0.0,10,0.5,0.5,-0.7862057357788086,-0.001,-0.0155,-0.12575,-0.053095393390943546,10,1,100,0.3510316995075622,-10,-1,-100,6449.165640954627,-0.027233791490818712,-0.004839991588470023,0.9996173743400312,241.0813165308455,25.204236664034898,541.6477653589351,-27.254192913153943,-42.6435546875,4381.2578125,True
1599565364.7582629,0.0,10,0.5,0.5,-0.6932067916870118,-0.001,-0.0155,-0.12575,-0.05176993588876655,10,1,100,0.29711777439011566,-10,-1,-100,6449.165640954627,-0.027233791490818712,-0.004839991588470023,0.9996173743400312,241.0813165308455,25.204236664034898,541.6477653589351,-27.254192913153943,-42.6435546875,4381.2578125,True
1599565364.8240898,0.0,10,0.5,0.5,-0.7842382415771483,-0.001,-0.0155,-0.12575,-0.013805864972054854,10,1,100,0.35629755624815806,-10,-1,-100,6446.9112817965215,-0.027766194777979376,-0.004490430026833726,0.9996043589669492,243.22465767003436,25.421612067918726,562.4013882923497,-28.012938110054172,-42.112091064453125,4381.2578125,True
1599565364.895907,0.0,10,0.5,0.5,-0.7306281234741211,-0.001,-0.0155,-0.12575,-0.01374770960722145,10,1,100,0.3250858152462126,-10,-1,-100,6445.790197983151,-0.027961207884409395,-0.004168889871352271,0.9996003157316854,244.20823823201923,25.521813044698302,572.6945281341548,-28.39215842354105,-42.17218017578125,4381.2578125,True
1599565364.9587364,0.0,10,0.5,0.5,-0.7522451110839845,-0.001,-0.0155,-0.12575,-0.046061483053707976,10,1,100,0.3060214669072974,-10,-1,-100,6445.790197983151,-0.027961207884409395,-0.004168889871352271,0.9996003157316854,244.20823823201923,25.521813044698302,572.6945281341548,-28.39215842354105,-42.17218017578125,4381.2578125,True
1599565365.0206082,0.0,10,0.5,0.5,-0.6642786605834962,-0.001,-0.0155,-0.12575,0.0595083076653543,10,1,100,0.324436368464574,-10,-1,-100,6443.473795599421,-0.028125279704657533,-0.0032083294051987177,0.9995992573346394,246.00475266612318,25.70359713663167,593.099021822745,-29.15029952343684,-42.953948974609375,4381.2578125,True
1599565365.088473,0.0,10,0.5,0.5,-0.6784993408203126,-0.001,-0.0155,-0.12575,0.032506722266065866,10,1,100,0.30889064699608626,-10,-1,-100,6442.28091931669,-0.028130201506580552,-0.0025810750629118124,0.9996009352810344,246.79612746027365,25.781983923628484,603.1468856612418,-29.529223142339593,-43.67523193359375,4381.2578125,True
1599565365.1692238,0.0,10,0.5,0.5,-0.7174354446411133,-0.001,-0.0155,-0.12575,0.0067365974229893,10,1,100,0.3038396602419503,-10,-1,-100,6441.686188052641,-0.02808636743219393,-0.0022466172175093693,0.9996029755235535,247.15880191508606,25.817185246696884,608.1137772998347,-29.71864916371971,-44.115234375,4381.2578125,True
1599565365.2430599,0.0,10,0.5,0.5,-0.7121091186523437,-0.001,-0.0155,-0.12575,0.012899992271673523,10,1,100,0.30202100841829915,-10,-1,-100,6441.092432530248,-0.028028103406295492,-0.0018886303462152185,0.9996053513736617,247.4956648153132,25.849254516595025,613.0318334240943,-29.908051874980863,-44.6051025390625,4381.2578125,True
1599565365.2994223,0.0,10,0.5,0.5,-0.5483278411865233,-0.001,-0.0155,-0.12575,0.10982986030201948,10,1,100,0.279519204134009,-10,-1,-100,6439.304810648784,-0.027769165265450507,-0.0006846164030732049,0.9996141279317938,248.31384623761136,25.922222162175817,627.3858821151954,-30.476125959619573,-46.376220703125,4381.2578125,True
1599565365.3612533,0.0,10,0.5,0.5,-0.6788011749267578,-0.001,-0.0155,-0.12575,0.03820414062259804,10,1,100,0.29176002848740246,-10,-1,-100,6438.713981101057,-0.027644063854073562,-0.00024496139587803443,0.9996177998252865,248.5102849816169,25.93736348462381,632.0012216434516,-30.665441751540367,-47.070068359375,4381.2578125,True
1599565365.4270809,0.0,10,0.5,0.5,-0.5632797393798828,-0.001,-0.0155,-0.12575,0.09685371214162321,10,1,100,0.2701197876295391,-10,-1,-100,6437.456634435686,-0.02733323286105644,0.0006837255970245385,0.9996261435660191,248.7608107695064,25.95069187571628,640.8951500687504,-31.044015953700352,-48.61572265625,4381.2578125,True
1599565365.4988534,0.0,10,0.5,0.5,-0.5289552902221678,-0.001,-0.0155,-0.12575,0.10983629153460686,10,1,100,0.2562870970761004,-10,-1,-100,6436.211003496777,-0.026924817097491217,0.0016409883876126428,0.999636114484355,248.78822094525464,25.937711309420205,649.2381898433812,-31.422521684496296,-50.346954345703125,4381.2578125,True
1599565365.5716918,0.0,10,0.5,0.5,-0.49109667816162095,-0.001,-0.0155,-0.12575,0.12943647358499738,10,1,100,0.24486312292917856,-10,-1,-100,6434.949256029446,-0.02645044061807853,0.0026838367445922457,0.999646523132771,248.55814784033004,25.894706925317646,656.9183821265998,-31.80097064713526,-52.26251220703125,4381.2578125,True
1599565365.630509,0.0,10,0.5,0.5,-0.31002865447998046,-0.001,-0.0155,-0.12575,0.20081461955875604,10,1,100,0.1938613071464633,-10,-1,-100,6432.974599816371,-0.025556909827193525,0.004274543190138832,0.9996642299495369,247.6270950017276,25.76323122758865,666.8647148586156,-32.36856833743057,-55.468109130859375,4381.2578125,True
1599565366.3052962,0.0,10,0.5,0.5,-0.3962773712158204,-0.001,-0.0155,-0.12575,0.16300375518509125,10,1,100,0.2053385754348237,-10,-1,-100,6431.6654843201395,-0.024851133636335173,0.005369228979910148,0.9996767440213613,246.56204952543777,25.625753592177286,672.2564168077107,-32.74693954183836,-57.80535888671875,4381.2578125,True
1599565366.3821387,0.0,10,0.5,0.5,-0.19069777984619135,-0.001,-0.0155,-0.12575,0.23113103221451886,10,1,100,0.14083791230827336,-10,-1,-100,6429.687404797878,-0.02362612574901196,0.00697593898143786,0.9996965251802264,244.2121315848237,25.33732994207175,678.1614694881273,-33.314498755093126,-61.564483642578125,4381.2578125,True
1599565366.4379957,0.0,10,0.5,0.5,-0.635679377746582,-0.001,-0.0155,-0.12575,0.07141573346618264,10,1,100,0.26288829346483766,-10,-1,-100,6429.687404797878,-0.02362612574901196,0.00697593898143786,0.9996965251802264,244.2121315848237,25.33732994207175,678.1614694881273,-33.314498755093126,-61.564483642578125,4381.2578125,True
1599565366.5167894,0.0,10,0.5,0.5,0.07178175354003913,-0.001,-0.0155,-0.12575,0.29799397036539177,10,1,100,0.05158060966480765,-10,-1,-100,6426.995438097045,-0.021709201570541854,0.009027356993067991,0.9997235704898075,239.61166015595083,24.797826250956494,681.576196743747,-34.07133593904043,-66.93264770507812,4381.2578125,True
1599565366.5721557,0.0,10,0.5,0.5,-0.3905387741088868,-0.001,-0.0155,-0.12575,0.1515610449794931,10,1,100,0.18342925399077148,-10,-1,-100,6426.285458898754,-0.021170911722019386,0.00955115042073332,0.9997302476280784,238.19749284941744,24.636082835337394,681.593126346319,-34.2605739393472,-68.33792114257812,4381.2578125,True
1599565366.628038,0.0,10,0.5,0.5,-0.16061624908447264,-0.001,-0.0155,-0.12575,0.2102850333367941,10,1,100,0.11192196633314443,-10,-1,-100,6424.9030989638995,-0.020037489475150924,0.010551875461110166,0.99974354558546,234.96853832866827,24.27293682221678,680.3430214384445,-34.6390969191084,-71.27752685546875,4381.2578125,True
1599565366.703703,0.0,10,0.5,0.5,0.08954638671875004,-0.001,-0.0155,-0.12575,0.25847130529556744,10,1,100,0.027412219018022432,-10,-1,-100,6422.80734458752,-0.018245750251841143,0.011889867209389796,0.9997628337038192,229.10787777976523,23.63055127529269,675.1084775207697,-35.20702449148837,-75.87158203125,4381.2578125,True
1599565366.7615767,0.0,10,0.5,0.5,-0.4459094696044922,-0.001,-0.0155,-0.12575,0.12579274462884105,10,1,100,0.20567739308807897,-10,-1,-100,6422.80734458752,-0.018245750251841143,0.011889867209389796,0.9997628337038192,229.10787777976523,23.63055127529269,675.1084775207697,-35.20702449148837,-75.87158203125,4381.2578125,True
1599565366.8233802,0.0,10,0.5,0.5,-0.005502516174316463,-0.001,-0.0155,-0.12575,0.21697556628833597,10,1,100,0.06623422815894658,-10,-1,-100,6421.432312068995,-0.01698597517689053,0.012709484789183588,0.9997749474975274,224.57094342992943,23.144512904575798,669.4397375222344,-35.585748848002076,-79.0340576171875,4381.2578125,True
1599565366.888726,0.0,10,0.5,0.5,0.45101212463378904,-0.001,-0.0155,-0.12575,0.2945584580507563,10,1,100,-0.10049766981366218,-10,-1,-100,6418.546510884073,-0.014333584641221883,0.014150776470432138,0.9997971313604659,214.2441154075323,22.066442241716626,653.4136706246094,-36.343452874824365,-85.44589233398438,4381.2578125,True
1599565366.9480789,0.0,10,0.5,0.5,-0.3088105270385742,-0.001,-0.0155,-0.12575,0.15141691325393064,10,1,100,0.16361905123460543,-10,-1,-100,6418.546510884073,-0.014333584641221883,0.014150776470432138,0.9997971313604659,214.2441154075323,22.066442241716626,653.4136706246094,-36.343452874824365,-85.44589233398438,4381.2578125,True
1599565367.024875,0.0,10,0.5,0.5,0.1510099380493164,-0.001,-0.0155,-0.12575,0.21567544597767818,10,1,100,0.015492439695630217,-10,-1,-100,6417.043066275073,-0.01299654048995403,0.01472696172474755,0.9998070846586609,210.22264744719848,21.658470009461897,648.4157510579835,-36.722395801904305,-88.73565673828125,4381.2578125,True
1599565367.0857484,0.0,10,0.5,0.5,0.39214973716735835,-0.001,-0.0155,-0.12575,0.23705168154358955,10,1,100,-0.0719412838169737,-10,-1,-100,6414.825745343114,-0.010995857034376907,0.015438049531321383,0.9998203627426018,218.252840288627,22.51316598718536,684.5236411684826,-37.29039390427656,-93.5696792602539,4381.2578125,True
1599565367.1545272,0.0,10,0.5,0.5,0.03902333526611329,-0.001,-0.0155,-0.12575,0.18942992327784977,10,1,100,0.050166712587323595,-10,-1,-100,6414.098684089608,-0.01029860864999553,0.01564387508892734,0.9998245885314466,220.69831607973603,22.77867832896568,696.019669964808,-37.47958885584557,-95.18817138671875,4381.2578125,True
1599565367.220386,0.0,10,0.5,0.5,0.49006167793273925,-0.001,-0.0155,-0.12575,0.2185883921762869,10,1,100,-0.09424330341397794,-10,-1,-100,6411.815451254835,-0.008362301421382943,0.01609005120574049,0.999835577566199,227.56247564876713,23.53799157529797,729.5077211776203,-38.046747435233044,-100.00685119628906,4381.2578125,True
1599565367.282187,0.0,10,0.5,0.5,0.13151040649414064,-0.001,-0.0155,-0.12575,0.1866730488941739,10,1,100,0.028909280805767337,-10,-1,-100,6411.036146216211,-0.007733235261278854,0.01619958191774687,0.9998388723279786,229.86889016697128,23.796259752331814,740.8886768230202,-38.23565348461603,-101.5714340209961,4381.2578125,True
1599565367.3510392,0.0,10,0.5,0.5,0.7560752174377442,-0.001,-0.0155,-0.12575,0.20384878116992178,10,1,100,-0.17848729133847574,-10,-1,-100,6407.959943143651,-0.005287119236430993,0.016450164034389796,0.999850708092674,237.94144487329032,24.720714061295624,783.4102110085265,-38.99055299850831,-107.68074798583984,4381.2578125,True
1599565367.4108763,0.0,10,0.5,0.5,0.037133193588256834,-0.001,-0.0155,-0.12575,0.17924659918812907,10,1,100,0.0648284480447694,-10,-1,-100,6407.959943143651,-0.005287119236430993,0.016450164034389796,0.999850708092674,237.94144487329032,24.720714061295624,783.4102110085265,-38.99055299850831,-107.68074798583984,4381.2578125,True
1599565367.484646,0.0,10,0.5,0.5,0.4576766548156738,-0.001,-0.0155,-0.12575,0.18064837521186278,10,1,100,-0.06547232333759191,-10,-1,-100,6406.401336069452,-0.00411434734296899,0.016458761728401012,0.9998560802977143,241.7822315286458,25.1662439075508,804.4346579855805,-39.36757588322778,-110.60965728759766,4381.2578125,True
1599565367.5604446,0.0,10,0.5,0.5,0.4916606681823731,-0.001,-0.0155,-0.12575,0.17654771200058042,10,1,100,-0.06079663915606527,-10,-1,-100,6404.762652790174,-0.003102398775866431,0.016425890623818443,0.9998602728576879,245.15535189189058,25.563336827101384,824.1488327078933,-39.744328872767284,-113.39744567871094,4381.2578125,True
1599565367.6531954,0.0,10,0.5,0.5,0.8538679744720459,-0.001,-0.0155,-0.12575,0.14800641164876227,10,1,100,-0.1764550501509243,-10,-1,-100,6401.575617926894,-0.0011412156020611643,0.016134473149041956,0.9998691796445934,250.5407182135962,26.21067423847976,859.6002583926434,-40.49711239392682,-118.6790771484375,4381.2578125,True
1599565367.7280293,0.0,10,0.5,0.5,0.5532744323730469,-0.001,-0.0155,-0.12575,0.15310795802225452,10,1,100,-0.07576537564253329,-10,-1,-100,6399.948166004731,-0.0002856755478046223,0.01591412250565998,0.9998733215234599,252.6616757490333,26.46986674795695,875.6226617656343,-40.87318251814586,-121.1410903930664,4381.2578125,True
1599565367.8142936,0.0,10,0.5,0.5,0.585604140472412,-0.001,-0.0155,-0.12575,0.14782519761127072,10,1,100,-0.0749199546787562,-10,-1,-100,6398.315830908599,0.0004728471609923064,0.015664699407230226,0.9998771892627831,254.43012196078053,26.6879800208957,890.5596384602117,-41.249065512233074,-123.44246673583984,4381.2578125,True
1599565367.8995852,0.0,10,0.5,0.5,0.47925116310119625,-0.001,-0.0155,-0.12575,0.1567992485869451,10,1,100,-0.039668621780252704,-10,-1,-100,6397.467192891403,0.0008315205024618742,0.015519327372185756,0.9998792222321498,255.19051842606308,26.782369160384825,897.6397989541663,-41.43694294291952,-124.52130126953125,4381.2578125,True
1599565367.978384,0.0,10,0.5,0.5,0.7664619831085205,-0.001,-0.0155,-0.12575,0.11843411969335202,10,1,100,-0.10804348511368302,-10,-1,-100,6394.934950767551,0.0017690585439631592,0.015038510302855156,0.9998853502475866,257.0692129216166,27.016407070111992,917.6104088173303,-42.00034521487967,-127.4988784790039,4381.2578125,True
1599565368.0452428,0.0,10,0.5,0.5,0.5500501121520996,-0.001,-0.0155,-0.12575,0.14655097491167215,10,1,100,-0.045384718591956016,-10,-1,-100,6394.086312160944,0.002042530376980131,0.014857967597178326,0.9998875281093069,257.5829622253169,27.080323033255446,923.9110324048684,-42.18807534460755,-128.4093780517578,4381.2578125,True
1599565368.1140378,0.0,10,0.5,0.5,0.5878857894897461,-0.001,-0.0155,-0.12575,0.14382285493263186,10,1,100,-0.04673212020994931,-10,-1,-100,6393.244509858894,0.0022945031802152635,0.01467025642340863,0.9998897533386506,258.0519066639459,27.138415899855794,930.0702916629025,-42.375772728266206,-129.2830047607422,4381.2578125,True
1599565368.1798933,0.0,10,0.5,0.5,0.8921320667266845,-0.001,-0.0155,-0.12575,0.0759128111618183,10,1,100,-0.10942658644731637,-10,-1,-100,6389.859720182139,0.003086626674026315,0.013883863965347859,0.999898850412964,259.56858611057027,27.32255236772899,953.5780931145438,-43.12625864306291,-132.2859344482422,4381.2578125,True
1599565368.2406995,0.0,10,0.5,0.5,0.6336439727783202,-0.001,-0.0155,-0.12575,0.13051495057413415,10,1,100,-0.0474546507288523,-10,-1,-100,6388.952487022849,0.0032357452110408184,0.01366767781637643,0.9999013574028375,259.88373205946203,27.35947972676018,959.259366458031,-43.31380877946223,-132.9249267578125,4381.2578125,True
1599565368.3185225,0.0,10,0.5,0.5,0.7315832530975341,-0.001,-0.0155,-0.12575,0.1044769636131744,10,1,100,-0.059461500990977856,-10,-1,-100,6387.192707405309,0.003473778799296954,0.0132369733303137,0.9999063533141022,260.47110607343666,27.42631138521384,970.5051499471592,-43.68882780982305,-134.05868530273438,4381.2578125,True
1599565368.3831446,0.0,10,0.5,0.5,0.7349556056976319,-0.001,-0.0155,-0.12575,0.09709254556401739,10,1,100,-0.05410922535182959,-10,-1,-100,6385.439763636095,0.0036355375759237626,0.012781191740076615,0.9999117081043893,261.02804762451547,27.487008062521834,981.6917530437455,-44.063740337236,-134.9574432373047,4381.2578125,True
1599565368.4459786,0.0,10,0.5,0.5,0.6945157779693603,-0.001,-0.0155,-0.12575,0.11583745953682006,10,1,100,-0.04411088229299703,-10,-1,-100,6384.5979595708195,0.0036873544785242154,0.012540301586349258,0.9999145684772639,261.30586873044246,27.51637008115732,987.3027336316127,-44.25115688951616,-135.33099365234375,4381.2578125,True
1599565368.5093956,0.0,10,0.5,0.5,0.7915728797912597,-0.001,-0.0155,-0.12575,0.03301494744332342,10,1,100,-0.04244197737172138,-10,-1,-100,6381.022733925725,0.0037156770452163677,0.011571445719310154,0.9999261449667474,262.4803608460613,27.6357456584579,1010.1251057862087,-45.00055511820835,-136.29380798339844,4381.2578125,True
1599565368.5786922,0.0,10,0.5,0.5,0.6904185565948486,-0.001,-0.0155,-0.12575,0.12949120877844172,10,1,100,-0.03993400369092856,-10,-1,-100,6381.022733925725,0.0037156770452163677,0.011571445719310154,0.9999261449667474,262.4803608460613,27.6357456584579,1010.1251057862087,-45.00055511820835,-136.29380798339844,4381.2578125,True
1599565368.6415544,0.0,10,0.5,0.5,0.7293370845794679,-0.001,-0.0155,-0.12575,0.04443243085807819,10,1,100,-0.022810070841348142,-10,-1,-100,6378.303470903775,0.003557382967908587,0.0108017730851731,0.9999353312712959,263.4900143578895,27.735578005139956,1027.8927043049255,-45.56231302392936,-136.45689392089844,4381.2578125,True
1599565368.705355,0.0,10,0.5,0.5,0.6808127258300781,-0.001,-0.0155,-0.12575,0.03170284314293152,10,1,100,-0.003977900348073743,-10,-1,-100,6375.511454140535,0.003240651961849978,0.009990198745108701,0.9999448455309399,264.6389357551964,27.84908237057136,1046.3519344100243,-46.12380858325836,-136.12631225585938,4381.2578125,True
1599565368.7701774,0.0,10,0.5,0.5,0.7070087341308594,-0.001,-0.0155,-0.12575,0.08276438907972325,10,1,100,-0.022283441953336612,-10,-1,-100,6374.600312442053,0.0031180394967673867,0.009721025007068326,0.9999478883934444,265.05433663565265,27.890400934625294,1052.6683798313045,-46.310913069442975,-135.91064453125,4381.2578125,True
1599565368.8280556,0.0,10,0.5,0.5,0.6226996665954591,-0.001,-0.0155,-0.12575,0.016833658076761418,10,1,100,0.015717895417384532,-10,-1,-100,6371.811714520096,0.0026603582466707006,0.008881450628292278,0.9999570202407383,266.377782244083,28.023552600928337,1072.039414939225,-46.87203860205026,-134.95046997070312,4381.2578125,True
1599565368.8928509,0.0,10,0.5,0.5,0.747571647644043,-0.001,-0.0155,-0.12575,0.10029085462066066,10,1,100,-0.030007602749548522,-10,-1,-100,6371.811714520096,0.0026603582466707006,0.008881450628292278,0.9999570202407383,266.377782244083,28.023552600928337,1072.039414939225,-46.87203860205026,-134.95046997070312,4381.2578125,True
1599565368.9736726,0.0,10,0.5,0.5,0.4989518859863281,-0.001,-0.0155,-0.12575,-0.0300016011177017,10,1,100,0.056743044430708066,-10,-1,-100,6367.932289172662,0.0018722390786359772,0.007701324873569061,0.9999685916647703,268.24117875507966,28.216402210682592,1098.5446430657307,-47.619756842579484,-132.96420288085938,4381.2578125,True
1599565369.032478,0.0,10,0.5,0.5,0.5831389335632324,-0.001,-0.0155,-0.12575,0.01884505201600871,10,1,100,0.03196542090195249,-10,-1,-100,6366.019189391169,0.0013824741758846075,0.007077576169087816,0.9999739980023099,269.1664089107215,28.315450941370525,1111.8939391057877,-47.993421969930964,-131.6711883544922,4381.2578125,True
1599565369.0993001,0.0,10,0.5,0.5,0.5540580635070801,-0.001,-0.0155,-0.12575,0.012189572778252625,10,1,100,0.033966136070422835,-10,-1,-100,6364.068492886261,0.0009210932749427584,0.006455212640644347,0.9999787406824922,270.05710239548625,28.413816884542346,1125.182590965165,-48.36695995484898,-130.19912719726562,4381.2578125,True
1599565369.6783636,0.0,10,0.5,0.5,0.6302559379577636,-0.001,-0.0155,-0.12575,0.038251534963743686,10,1,100,0.016912359456543603,-10,-1,-100,6363.096319019096,0.0006592052080341445,0.006131886442787207,0.999980982527741,270.47266665366993,28.461127944285156,1131.7330730318713,-48.55368259172674,-129.40260314941406,4381.2578125,True
1599565369.7512596,0.0,10,0.5,0.5,0.5020000160217286,-0.001,-0.0155,-0.12575,-0.00210628699725858,10,1,100,0.04999992621871425,-10,-1,-100,6361.153437336325,0.0001231076964949281,0.005476009298977534,0.9999849989708111,271.2284108027967,28.550626630404235,1144.5753882219176,-48.927038997226134,-127.68475341796875,4381.2578125,True
1599565369.8290184,0.0,10,0.5,0.5,0.5880735534667969,-0.001,-0.0155,-0.12575,0.02630431965346821,10,1,100,0.026916387850433463,-10,-1,-100,6360.119741389062,-0.00015113735669387843,0.005143576898175651,0.9999867602994512,271.56119845378413,28.592142921366897,1150.8337631115264,-49.113674675937524,-126.76481628417969,4381.2578125,True
1599565369.9157834,0.0,10,0.5,0.5,0.1682110065460204,-0.001,-0.0155,-0.12575,-0.09205764522082618,10,1,100,0.12775784980930877,-10,-1,-100,6356.171485935454,-0.0013138202225602032,0.0037704915769412595,0.9999920286030738,272.47848815196716,28.72575075027193,1174.2640613769602,-49.85996351636729,-122.65813446044922,4381.2578125,True
1599565369.9915917,0.0,10,0.5,0.5,0.6637505702972412,-0.001,-0.0155,-0.12575,0.04462891618579617,10,1,100,0.011945010441117319,-10,-1,-100,6356.171485935454,-0.0013138202225602032,0.0037704915769412595,0.9999920286030738,272.47848815196716,28.72575075027193,1174.2640613769602,-49.85996351636729,-122.65813446044922,4381.2578125,True
1599565370.0634305,0.0,10,0.5,0.5,0.35229882125854495,-0.001,-0.0155,-0.12575,-0.03439512810323198,10,1,100,0.08119284349215426,-10,-1,-100,6354.166599129676,-0.001939317014188423,0.003057500750159301,0.999993445347859,272.6179636410752,28.76598286967499,1184.6839482015066,-50.23297876130342,-120.36298370361328,4381.2578125,True
1599565370.1915765,0.0,10,0.5,0.5,-0.00677041969299319,-0.001,-0.0155,-0.12575,-0.12262271856904648,10,1,100,0.15584632032815565,-10,-1,-100,6350.092867819243,-0.003182436909395127,0.0016125527669211457,0.9999936358641948,272.07728635621044,28.773729016713574,1202.0356231744538,-50.9788323383939,-115.43143463134766,4381.2578125,True
1599565370.2673738,0.0,10,0.5,0.5,0.24513703422546385,-0.001,-0.0155,-0.12575,-0.05892834719293003,10,1,100,0.09995868971519667,-10,-1,-100,6348.087500561844,-0.0037991649038688078,0.0008846115199978553,0.9999923918753042,271.3197754284437,28.732079796342003,1208.5708766182586,-51.35170841930244,-112.76492309570312,4381.2578125,True
1599565370.3471642,0.0,10,0.5,0.5,0.3750686367034912,-0.001,-0.0155,-0.12575,-0.027345718752040886,10,1,100,0.07372838183338959,-10,-1,-100,6347.052346249926,-0.004116213550844358,0.0005161585662152846,0.9999913951461474,270.8035729312009,28.697878031222135,1211.219472383831,-51.538143198173145,-111.39156341552734,4381.2578125,True
1599565370.4149797,0.0,10,0.5,0.5,0.16396841850280763,-0.001,-0.0155,-0.12575,-0.07081112984885272,10,1,100,0.1096330650235019,-10,-1,-100,6344.984482500702,-0.004725846997344307,-0.00020797384028273052,0.9999888114959286,269.4948795743025,28.601851230300227,1215.24893954511,-51.9110187937912,-108.6115493774414,4381.2578125,True
1599565370.5157113,0.0,10,0.5,0.5,-0.06421244850158697,-0.001,-0.0155,-0.12575,-0.11959732241182881,10,1,100,0.151551251965162,-10,-1,-100,6341.818481686176,-0.005656000066111819,-0.0013037294272344113,0.9999831548345366,266.83917323919496,28.385878044625443,1218.041800434864,-52.47038341543377,-104.31721496582031,4381.2578125,True
1599565370.5855265,0.0,10,0.5,0.5,0.06318550567626952,-0.001,-0.0155,-0.12575,-0.08899098281578484,10,1,100,0.12477434237680572,-10,-1,-100,6339.68909998727,-0.006252426218484367,-0.0020148717682537017,0.9999784234962971,264.562754953457,28.186875321277842,1217.4743214197597,-52.84335565081047,-101.36863708496094,4381.2578125,True
1599565370.6523812,0.0,10,0.5,0.5,0.014663071060180666,-0.001,-0.0155,-0.12575,-0.09497484596239808,10,1,100,0.12981869346796643,-10,-1,-100,6337.558255359298,-0.006834693608819982,-0.0027089536695429667,0.99997297390144,262.3778769664788,27.994724521135165,1217.2122862652534,-53.21638376629,-98.38231658935547,4381.2578125,True
1599565370.7301385,0.0,10,0.5,0.5,0.15724316596984864,-0.001,-0.0155,-0.12575,-0.06338660639856575,10,1,100,0.10338969972582304,-10,-1,-100,6336.523595204693,-0.00711768806033094,-0.003045632737800442,0.9999700308698767,261.15912510177463,27.88358372388147,1216.450055879492,-53.40292060341742,-96.89153289794922,4381.2578125,True
1599565370.8079317,0.0,10,0.5,0.5,-0.2625385456085205,-0.001,-0.0155,-0.12575,-0.13950976454540542,10,1,100,0.1685841774215967,-10,-1,-100,6333.295105884201,-0.007962356569995417,-0.004037536851810561,0.9999601487929519,257.1203105953459,27.500521737219863,1212.1541414122212,-53.962635355161595,-92.41571807861328,4381.2578125,True
1599565370.9286096,0.0,10,0.5,0.5,-0.12756261596679686,-0.001,-0.0155,-0.12575,-0.11151728570028971,10,1,100,0.14584634762016976,-10,-1,-100,6331.102742631687,-0.00851748536572521,-0.004677692576474388,0.9999527847029602,254.44871424929946,27.238272788400725,1209.1879214949436,-54.3358570845261,-89.40994262695312,4381.2578125,True
1599565371.0034068,0.0,10,0.5,0.5,-0.17549270477294923,-0.001,-0.0155,-0.12575,-0.1121163220610044,10,1,100,0.14798253160759176,-10,-1,-100,6328.908426626469,-0.009035587608682007,-0.005258066117332879,0.9999453539555405,251.43768478590508,26.93089234501069,1204.428796259366,-54.709143450030524,-86.42825317382812,4381.2578125,True
1599565371.0841954,0.0,10,0.5,0.5,-0.031084034347534206,-0.001,-0.0155,-0.12575,-0.08566817167858952,10,1,100,0.12517748970114073,-10,-1,-100,6327.812245312962,-0.009293950038857461,-0.005538994679287505,0.9999414693023877,249.83844425296093,26.763560224934018,1201.5239246473611,-54.8958115944189,-84.96408081054688,4381.2578125,True
1599565371.1895258,0.0,10,0.5,0.5,-0.43622407646179195,-0.001,-0.0155,-0.12575,-0.14620425902115652,10,1,100,0.1841008291097182,-10,-1,-100,6324.521750751068,-0.010059496438063134,-0.006338872705815696,0.999929310113586,246.80912257256577,26.43568631529257,1201.083428594933,-55.455866778208716,-80.65505981445312,4381.2578125,True
1599565371.2603364,0.0,10,0.5,0.5,-0.29996052093505865,-0.001,-0.0155,-0.12575,-0.12115138780750653,10,1,100,0.1635079713938433,-10,-1,-100,6322.265913902433,-0.01056283692820832,-0.0068320493268335695,0.9999208716583646,252.61167010817437,27.041977755990082,1238.9815947983434,-55.82893619176168,-77.83096313476562,4381.2578125,True
1599565371.3451123,0.0,10,0.5,0.5,-0.34609649314880375,-0.001,-0.0155,-0.12575,-0.12072501611243024,10,1,100,0.16750231999722567,-10,-1,-100,6320.071601333679,-0.011051425097524816,-0.00727049371645226,0.9999124991340157,258.14050893237845,27.609053662200782,1275.9802321409334,-56.20164187620064,-75.04156494140625,4381.2578125,True
1599565371.4239104,0.0,10,0.5,0.5,-0.0407069278717041,-0.001,-0.0155,-0.12575,-0.077477253579483,10,1,100,0.11918304556871734,-10,-1,-100,6320.071601333679,-0.011051425097524816,-0.00727049371645226,0.9999124991340157,258.14050893237845,27.609053662200782,1275.9802321409334,-56.20164187620064,-75.04156494140625,4381.2578125,True
1599565371.503343,0.0,10,0.5,0.5,-0.7531596950531007,-0.001,-0.0155,-0.12575,-0.1608955556713546,10,1,100,0.2262845015056961,-10,-1,-100,6315.496940382989,-0.012020711970698223,-0.00802406407915273,0.9998955529850959,268.111765701429,28.601578784802072,1345.8062477386459,-56.94597662278996,-69.74258422851562,4381.2578125,True
1599565371.6034675,0.0,10,0.5,0.5,-0.2909571105957032,-0.001,-0.0155,-0.12575,-0.10335488434691587,10,1,100,0.15624131540725694,-10,-1,-100,6314.399294741917,-0.01226041105599562,-0.008181199114649524,0.9998913692505725,270.36773872198455,28.820107231716715,1362.3085329797052,-57.13184222835987,-68.48220825195312,4381.2578125,True
1599565371.6822596,0.0,10,0.5,0.5,-0.6345832538604737,-0.001,-0.0155,-0.12575,-0.12965906021623824,10,1,100,0.2107606499993357,-10,-1,-100,6310.922277868958,-0.012969274427107002,-0.008558509321752405,0.9998792676313595,276.61331203758186,29.41256760556621,1409.6702041406622,-57.688938266714636,-64.86813354492188,4381.2578125,True
1599565371.753578,0.0,10,0.5,0.5,-0.3628142364501953,-0.001,-0.0155,-0.12575,-0.10245276262746414,10,1,100,0.1660751184868843,-10,-1,-100,6309.762620089343,-0.01320291182540678,-0.008650078647884403,0.9998754218695026,278.48846808928624,29.586189641392444,1424.559062363379,-57.87447644191978,-63.763580322265625,4381.2578125,True
1599565371.8223917,0.0,10,0.5,0.5,-0.5312677658081055,-0.001,-0.0155,-0.12575,-0.11155273129390489,10,1,100,0.1963160957318596,-10,-1,-100,6307.443792802747,-0.013685967956579372,-0.008812439217634398,0.9998675088211074,281.9332456784611,29.89924993666478,1452.9780004688153,-58.24532679560232,-61.65234375,4381.2578125,True
1599565371.891251,0.0,10,0.5,0.5,-0.5526306838989258,-0.001,-0.0155,-0.12575,-0.10364377377248407,10,1,100,0.1993732477817558,-10,-1,-100,6305.12398794177,-0.014148674566873604,-0.00888490887348484,0.9998604269608387,285.0694533589965,30.178274367348504,1480.0605644951772,-58.61588838918318,-59.69219970703125,4381.2578125,True
