Timestamp,Input Throttle,horizon,dT,dt,Input Roll,Roll P,Roll I,Roll D,Input Pitch,Pitch P,Pitch I,Pitch D,Input Yaw,Yaw P,Yaw I,Yaw D,Altitude,Direction X,Direction Y,Direction Z,Drag X,Drag Y,Drag Z,Vertical Velocity,Roll,Mass,Has Fuel
1599568700.6273303,0.0,10,0.5,0.5,-5.434156616210938,-0.1005,-0.00825,-0.5,-0.06717323717182186,10,1,100,0.6903860756706366,-10,-1,-100,6483.6179671901045,-0.06725941732740066,-0.007001845474682824,0.997710952601367,205.07300201547804,21.498753367675295,-156.765060628457,9.590823384012904,-35.944580078125,4381.2578125,True
1599568700.688139,0.0,10,0.5,0.5,-5.479181262207032,-0.1005,-0.00825,-0.5,-0.06731837882596933,10,1,100,0.6999335552461213,-10,-1,-100,6483.997883101809,-0.0674468122386677,-0.006970934015879849,0.9976985183900937,204.61200351112794,21.45672565323497,-150.26660216276582,9.210801013833056,-35.94122314453125,4381.2578125,True
1599568700.7509725,0.0,10,0.5,0.5,-5.498460997009278,-0.1005,-0.00825,-0.5,-0.05198937213163022,10,1,100,0.7005765813726011,-10,-1,-100,6484.316760367015,-0.06756170165711604,-0.0067971408706414445,0.9976919441115978,204.1493883714291,21.41434650673395,-143.78928642562738,8.830797366204779,-35.9805908203125,4381.2578125,True
1599568700.816795,0.0,10,0.5,0.5,-5.500641343688965,-0.1005,-0.00825,-0.5,-0.05280350444478842,10,1,100,0.6980609056340208,-10,-1,-100,6484.538935982622,-0.06758185707475733,-0.006640369086116477,0.9976916347713493,203.94213785211042,21.395575505982915,-140.57562841185893,8.640800374778458,-36.083953857421875,4381.2578125,True
1599568700.8786561,0.0,10,0.5,0.5,-5.346491420745849,-0.1005,-0.00825,-0.5,-0.02704190367902512,10,1,100,0.7032934887692285,-10,-1,-100,6484.856804121053,-0.06758631106741061,-0.006257616212235825,0.9976938071350546,203.5919238490997,21.364398177185805,-134.20538192302487,8.26081057577422,-36.50079345703125,4381.2578125,True
1599568700.940505,0.0,10,0.5,0.5,-4.895978531646729,-0.1005,-0.00825,-0.5,0.03879438515436056,10,1,100,0.6855787019085291,-10,-1,-100,6485.33575504052,-0.06736787453375505,-0.005305458595484239,0.9977140981212482,203.1996373453908,21.330107687402283,-124.76130260922069,7.690821876500254,-37.671600341796875,4381.2578125,True
1599568701.002218,0.0,10,0.5,0.5,-5.202128678894043,-0.1005,-0.00825,-0.5,-0.009964268863470675,10,1,100,0.6988638876713769,-10,-1,-100,6485.493927550851,-0.06722882676051792,-0.0048782981089671865,0.9977256572124243,203.0867042017384,21.320027177778712,-121.62921462251819,7.5008206842914715,-38.208526611328125,4381.2578125,True
1599568701.06331,0.0,10,0.5,0.5,-4.736104035186767,-0.1005,-0.00825,-0.5,0.058090136026752705,10,1,100,0.6760775695350281,-10,-1,-100,6485.750194363762,-0.0668341542320078,-0.003866859169396047,0.9977566052040228,202.84995218802038,21.297789389203363,-115.36517920380507,7.12080480316669,-39.5028076171875,4381.2578125,True
1599568701.1251829,0.0,10,0.5,0.5,-3.9280895668029787,-0.1005,-0.00825,-0.5,0.16352802567086744,10,1,100,0.6237031914011886,-10,-1,-100,6486.165061578155,-0.06593847199193459,-0.00198532762832179,0.9978217157316116,202.33832285264626,21.24538033245785,-105.9043890300697,6.550730463867307,-41.99542236328125,4381.2578125,True
1599568701.185023,0.0,10,0.5,0.5,-4.626860228729249,-0.1005,-0.00825,-0.5,0.05550675154191394,10,1,100,0.678201288331836,-10,-1,-100,6486.261183353374,-0.06555970858942671,-0.0012550511488553862,0.9978478588724252,202.0845454745646,21.218405709122447,-102.71624703563516,6.360687425250878,-42.973175048828125,4381.2578125,True
1599568701.2478564,0.0,10,0.5,0.5,-3.127717921447754,-0.1005,-0.00825,-0.5,0.24535298442116177,10,1,100,0.5642437613370664,-10,-1,-100,6486.674999151612,-0.06411980097029489,0.0011358523596971023,0.9979415618977631,200.89661104826834,21.09031666226444,-92.99275450550293,5.790480912328691,-46.348388671875,4381.2578125,True
1599568701.3096924,0.0,10,0.5,0.5,-4.042702101135254,-0.1005,-0.00825,-0.5,0.10212225168715391,10,1,100,0.6442312450492449,-10,-1,-100,6486.772072747583,-0.06354080718333768,0.0019999055264044024,0.9979772373157493,200.30884102536535,21.026717105160454,-89.68710861557983,5.600379095995249,-47.6207275390625,4381.2578125,True
1599568701.8263254,0.0,10,0.5,0.5,-3.0089362762451177,-0.1005,-0.00825,-0.5,0.22357742130836655,10,1,100,0.5587465237213418,-10,-1,-100,6486.965227522189,-0.062240866278627766,0.0038813910022018044,0.9980536104682826,198.74660675062952,20.8578571083637,-82.96388760828118,5.220112034973635,-50.385589599609375,4381.2578125,True
1599568701.8761928,0.0,10,0.5,0.5,-3.482599927520752,-0.1005,-0.00825,-0.5,0.138776411587713,10,1,100,0.606818253590282,-10,-1,-100,6487.0617967809085,-0.061500954668953195,0.0048112063174000075,0.9980954287384441,197.7402641730361,20.7492795956682,-79.54520903727193,5.029941717312808,-51.879150390625,4381.2578125,True
1599568701.9327185,0.0,10,0.5,0.5,-3.2752458618164066,-0.1005,-0.00825,-0.5,0.15258839096190024,10,1,100,0.5930827802502472,-10,-1,-100,6487.157873639604,-0.06070896790470855,0.005771645893342334,0.9981388226692852,196.55802888056803,20.62194922009844,-76.08762494773043,4.8397430222589435,-53.44635009765625,4381.2578125,True
1599568701.9871192,0.0,10,0.5,0.5,-0.9564359283447268,-0.1005,-0.00825,-0.5,0.3949205813275998,10,1,100,0.3745981917866087,-10,-1,-100,6487.448519858415,-0.0580090085358737,0.008836857000154828,0.9982769479894064,191.75024636268802,20.10648156714375,-65.49116920010212,4.2689381266440405,-58.589447021484375,4381.2578125,True
1599568702.045002,0.0,10,0.5,0.5,-1.2302089324951173,-0.1005,-0.00825,-0.5,0.3213870278360028,10,1,100,0.41400108807616104,-10,-1,-100,6487.578628888703,-0.055921216226836025,0.01094206905133745,0.9983752244024224,187.29285392058313,19.631317972523835,-58.27356328978441,3.8881857771790296,-62.38714599609375,4381.2578125,True
1599568702.101858,0.0,10,0.5,0.5,-1.9023567558288574,-0.1005,-0.00825,-0.5,0.22943345941248502,10,1,100,0.4972739396380669,-10,-1,-100,6487.675174172153,-0.05479052878784972,0.012005574505689396,0.9984256928464613,184.631891282334,19.348625384091473,-54.63632904312802,3.6977328387279687,-64.396728515625,4381.2578125,True
1599568702.1666846,0.0,10,0.5,0.5,-0.3429520530700687,-0.1005,-0.00825,-0.5,0.3449499607594442,10,1,100,0.3465185017696038,-10,-1,-100,6487.805272370111,-0.05240307588582538,0.014008118173095262,0.9985277613882115,178.38304681330803,18.68700017578872,-47.35436178554455,3.3166521738394907,-68.63262939453125,4381.2578125,True
1599568702.225906,0.0,10,0.5,0.5,1.7042629768371582,-0.1005,-0.00825,-0.5,0.4780303637077178,10,1,100,0.1439383433847058,-10,-1,-100,6487.969408669975,-0.048403331258764275,0.017023894764992702,0.998682784737018,166.4268323801137,17.427879961525882,-36.56588664857671,2.7444615334820672,-75.53219604492188,4381.2578125,True
1599568702.2839243,0.0,10,0.5,0.5,-0.24878293533325202,-0.1005,-0.00825,-0.5,0.28479544569829857,10,1,100,0.38374120197840916,-10,-1,-100,6488.003939007525,-0.04696282247349754,0.017992211552164884,0.9987345861783223,161.72957102675136,16.934590646256797,-33.06440386020637,2.5535767701513388,-77.97994995117188,4381.2578125,True
1599568702.3427641,0.0,10,0.5,0.5,1.567682991027832,-0.1005,-0.00825,-0.5,0.38744826241964236,10,1,100,0.19982975858415575,-10,-1,-100,6488.1335503564915,-0.04399694407284984,0.019790383002340477,0.9988356269441291,151.29516916065558,15.840234867415505,-26.307754673460913,2.171634904434102,-82.99951171875,4381.2578125,True
1599568702.4021144,0.0,10,0.5,0.5,2.050409031677246,-0.1005,-0.00825,-0.5,0.3886705940866353,10,1,100,0.1581963922145717,-10,-1,-100,6488.200672124047,-0.04093997298081979,0.021420023265403737,0.9989319802747528,147.46200965958107,15.438494538992318,-21.13220910211479,1.789560717798698,-87.93426513671875,4381.2578125,True
1599568702.4609559,0.0,10,0.5,0.5,2.532875584411621,-0.1005,-0.00825,-0.5,0.39931473041235693,10,1,100,0.09954107442182303,-10,-1,-100,6488.269269747776,-0.03764704263840186,0.022982335078183078,0.9990267826514645,154.37550024308442,16.162031627767607,-17.40114135839447,1.4074499580084727,-92.79499053955078,4381.2578125,True
1599568702.5213072,0.0,10,0.5,0.5,2.973272681617737,-0.1005,-0.00825,-0.5,0.3916363829376966,10,1,100,0.06385372699461711,-10,-1,-100,6488.273429055465,-0.03435072454325691,0.024316296177521218,0.9991139802162515,160.95829012652464,16.8497367710154,-13.219516414452741,1.025382548956122,-97.51939392089844,4381.2578125,True
1599568702.5801504,0.0,10,0.5,0.5,4.594704418754578,-0.1005,-0.00825,-0.5,0.4476563718641923,10,1,100,-0.16757642634028347,-10,-1,-100,6488.311683856184,-0.029274123284045547,0.026021401939629325,0.9992326617695435,169.55637421779056,17.7460835708798,-6.144986184546746,0.45238922129110515,-104.09270477294922,4381.2578125,True
1599568702.6385038,0.0,10,0.5,0.5,3.7578928646087646,-0.1005,-0.00825,-0.5,0.38023030933415936,10,1,100,-0.03764614702475183,-10,-1,-100,6488.317845125683,-0.025866338210587165,0.02694291156860051,0.9993022626131607,174.59607470055968,18.271808478908802,-0.9847891643747453,0.07039791646621563,-108.10986328125,4381.2578125,True
1599568702.699341,0.0,10,0.5,0.5,2.926918290328979,-0.1005,-0.00825,-0.5,0.3333370125334735,10,1,100,0.11288204208192598,-10,-1,-100,6488.350475155632,-0.024164112479336843,0.02733979867627966,0.9993340938226947,176.84027916628872,18.5062058744753,1.7091599865024913,-0.12062147023576886,-110.00808715820312,4381.2578125,True
1599568702.7601783,0.0,10,0.5,0.5,4.162409229660034,-0.1005,-0.00825,-0.5,0.3703286431861645,10,1,100,-0.0808941794524109,-10,-1,-100,6488.3556956513785,-0.020882874724532135,0.028022952485402812,0.9993891232534204,180.56390901315308,18.895258643200716,7.274608785857822,-0.50274143926945,-113.5833969116211,4381.2578125,True
1599568702.8200548,0.0,10,0.5,0.5,5.300466761207581,-0.1005,-0.00825,-0.5,0.3841148937019994,10,1,100,-0.29845768639789166,-10,-1,-100,6488.268597562332,-0.015950735976261024,0.028756590194465716,0.9994591700225692,185.5769354718105,19.419101465398995,16.00687526908164,-1.07611683466761,-118.39376831054688,4381.2578125,True
1599568702.8838475,0.0,10,0.5,0.5,4.635005925941467,-0.1005,-0.00825,-0.5,0.3468006032267995,10,1,100,-0.157270090499515,-10,-1,-100,6488.210394616355,-0.012779999436256623,0.0290736466570852,0.9994955701174809,187.8869419042705,19.660638526293095,21.96796453805822,-1.458505723848026,-121.23200988769531,4381.2578125,True
1599568702.9456823,0.0,10,0.5,0.5,4.037268678855896,-0.1005,-0.00825,-0.5,0.32899793580941505,10,1,100,-0.013391887505070366,-10,-1,-100,6488.183009783621,-0.011236570629872338,0.0291899633419404,0.9995107230643281,188.78168437673895,19.754263665197133,24.968529652662472,-1.6497428409821784,-122.54042053222656,4381.2578125,True
1599568703.0045254,0.0,10,0.5,0.5,4.853765554237366,-0.1005,-0.00825,-0.5,0.3390321344019914,10,1,100,-0.1870598139454427,-10,-1,-100,6488.124350967584,-0.008284436359558674,0.029378380696887092,0.9995340308673003,190.16309250096214,19.898890954009442,30.988179468317703,-2.0322996137429064,-124.93522644042969,4381.2578125,True
1599568703.0643642,0.0,10,0.5,0.5,5.511808772850037,-0.1005,-0.00825,-0.5,0.32723965660148846,10,1,100,-0.36950546194557804,-10,-1,-100,6487.974873498199,-0.00397176798347344,0.029435229987350892,0.9995587988180972,191.45004195340485,20.033587494146527,40.01920655470114,-2.6063254257238317,-127.97422790527344,4381.2578125,True
1599568703.1272326,0.0,10,0.5,0.5,4.540959130859375,-0.1005,-0.00825,-0.5,0.3190466430075478,10,1,100,-0.09338300190363463,-10,-1,-100,6487.883063592832,-0.002591978437099921,0.029406562950637462,0.9995641728789664,191.75050002729122,20.064985505725097,43.028825589079915,-2.7977137294072194,-128.8395538330078,4381.2578125,True
1599568703.1910589,0.0,10,0.5,0.5,5.4259213401794435,-0.1005,-0.00825,-0.5,0.3104970888754009,10,1,100,-0.3814383277310652,-10,-1,-100,6487.732654320309,0.00125218888884705,0.029298151273539266,0.9995699326985279,192.33579156972402,20.125862913430286,52.03285849294755,-3.372001801997053,-130.99073791503906,4381.2578125,True
1599568703.2491443,0.0,10,0.5,0.5,5.011806744194031,-0.1005,-0.00825,-0.5,0.30388413239900436,10,1,100,-0.2664646150788825,-10,-1,-100,6487.550041604671,0.0036739196954400062,0.02913649855427011,0.9995686903690354,192.559675724334,20.148761078147956,58.019822856722044,-3.754951803577286,-132.05532836914062,4381.2578125,True
1599568703.3069901,0.0,10,0.5,0.5,4.752391716575623,-0.1005,-0.00825,-0.5,0.3079382906426812,10,1,100,-0.15617592926919646,-10,-1,-100,6487.518797762459,0.004846013959612795,0.029024403350799147,0.9995669563160005,192.65183535602475,20.15803910865111,61.01352904526026,-3.9464512340719162,-132.4768524169922,4381.2578125,True
1599568703.36683,0.0,10,0.5,0.5,4.93213446445465,-0.1005,-0.00825,-0.5,0.30266087034448536,10,1,100,-0.27627077897180063,-10,-1,-100,6487.33668858849,0.006976952718485414,0.028872990613410567,0.9995587389162288,192.80303209426884,20.172919537389728,67.00061530062517,-4.329494733191909,-133.09628295898438,4381.2578125,True
1599568703.4296618,0.0,10,0.5,0.5,4.86374147605896,-0.1005,-0.00825,-0.5,0.27877071014306637,10,1,100,-0.3958483648399361,-10,-1,-100,6487.0603637547465,0.009975911618586283,0.02851738663383713,0.9995435157345349,193.1763663686506,20.21010384964072,76.06316276455613,-4.904156581954608,-133.47134399414062,4381.2578125,True
1599568703.4885046,0.0,10,0.5,0.5,4.674813975143433,-0.1005,-0.00825,-0.5,0.2996108843706716,10,1,100,-0.2004970165375467,-10,-1,-100,6486.905106757185,0.010902746863570036,0.028383783875894627,0.999537638572813,193.3122641226076,20.223603825280218,79.09819190139137,-5.095732201797845,-133.44830322265625,4381.2578125,True
1599568703.5473475,0.0,10,0.5,0.5,4.38743971939087,-0.1005,-0.00825,-0.5,0.27342150297037227,10,1,100,-0.3842054398653395,-10,-1,-100,6486.628791819443,0.01339387116535354,0.028024868685745257,0.999517489066776,193.75493675302593,20.26767976278914,88.2499301441118,-5.6705108042662,-132.93377685546875,4381.2578125,True
1599568703.605193,0.0,10,0.5,0.5,4.225094972610473,-0.1005,-0.00825,-0.5,0.2790595966267915,10,1,100,-0.3009281133561973,-10,-1,-100,6486.382734718616,0.014879071706168864,0.027750896723082546,0.9995041275333622,194.06783585359685,20.29906164483967,94.38722051051342,-6.0537298001642466,-132.22073364257812,4381.2578125,True
1599568703.6650336,0.0,10,0.5,0.5,3.981354493713379,-0.1005,-0.00825,-0.5,0.27688528081527175,10,1,100,-0.29949432353315947,-10,-1,-100,6486.13521156332,0.01619516182845906,0.027483544325987905,0.9994910562504457,194.37084773187402,20.32977511133299,100.54254852064373,-6.436965447817003,-131.21112060546875,4381.2578125,True
1599568703.7259102,0.0,10,0.5,0.5,3.7045602695465094,-0.1005,-0.00825,-0.5,0.2744950510884611,10,1,100,-0.29612626807638276,-10,-1,-100,6485.825673543033,0.017342655135650423,0.02722054159080483,0.9994790014944531,194.6122431468491,20.35467640284232,106.6866911628961,-6.820209043950037,-129.90509033203125,4381.2578125,True
1599568703.7877452,0.0,10,0.5,0.5,2.8486279968261723,-0.1005,-0.00825,-0.5,0.25461220827062925,10,1,100,-0.34113092592174576,-10,-1,-100,6485.423370004399,0.01877684172844337,0.02680268237080341,0.9994643797717029,194.7479357015171,20.370210361447445,115.80360540960028,-7.395071661544064,-127.39080810546875,4381.2578125,True
1599568703.8505764,0.0,10,0.5,0.5,4.102799168014527,-0.1005,-0.00825,-0.5,0.29614858338049765,10,1,100,-0.1994647319264107,-10,-1,-100,6485.423370004399,0.01877684172844337,0.02680268237080341,0.9994643797717029,194.7479357015171,20.370210361447445,115.80360540960028,-7.395071661544064,-127.39080810546875,4381.2578125,True
1599568703.9149034,0.0,10,0.5,0.5,2.1889896579742434,-0.1005,-0.00825,-0.5,0.24862023414667006,10,1,100,-0.3188615475777442,-10,-1,-100,6484.95855058881,0.019848537396152763,0.026372728119753584,0.9994551089342408,194.3851713821416,20.336809531162498,124.62245748133394,-7.9699096531417215,-124.21018981933594,4381.2578125,True
1599568703.977732,0.0,10,0.5,0.5,2.2772213428497317,-0.1005,-0.00825,-0.5,0.2557382422600979,10,1,100,-0.2720429492818863,-10,-1,-100,6484.585510799428,0.020383543906438466,0.026048980397313126,0.9994528311821799,193.71253097254888,20.271846107132607,130.19841141610192,-8.353111861695083,-121.72016906738281,4381.2578125,True
1599568704.0361226,0.0,10,0.5,0.5,2.6987225082397464,-0.1005,-0.00825,-0.5,0.26799139746181516,10,1,100,-0.24414191899380527,-10,-1,-100,6484.429261157522,0.02060407992118114,0.025868623888033866,0.9994529934863076,193.20519948210185,20.222301010260036,132.85468312424516,-8.544705406908964,-120.36442565917969,4381.2578125,True
1599568704.0944746,0.0,10,0.5,0.5,1.603956373977661,-0.1005,-0.00825,-0.5,0.24854249065894454,10,1,100,-0.2555178078907784,-10,-1,-100,6484.057672215509,0.02089832240791733,0.025530263147522807,0.999455584698066,191.77314681519843,20.081295668480927,137.82319968285518,-8.927879601961697,-117.43049621582031,4381.2578125,True
1599568704.1553116,0.0,10,0.5,0.5,0.08278674240112327,-0.1005,-0.00825,-0.5,0.2138724401086003,10,1,100,-0.2510372253537236,-10,-1,-100,6483.52883390279,0.021115996122300324,0.0249100743063536,0.9994666592267173,188.94103475665503,19.802560155172063,144.5941690515072,-9.502625109793769,-112.47642517089844,4381.2578125,True
1599568704.2141552,0.0,10,0.5,0.5,0.3380573154449462,-0.1005,-0.00825,-0.5,0.22391953958970617,10,1,100,-0.22776493908851805,-10,-1,-100,6483.156243542675,0.021095294964822136,0.024440435168191093,0.9994786909480045,186.2203375749611,19.53200636574129,148.30450667514557,-9.885799260318137,-108.80467224121094,4381.2578125,True
1599568704.2729974,0.0,10,0.5,0.5,0.9857131782531738,-0.1005,-0.00825,-0.5,0.24255720670415432,10,1,100,-0.22408183004326498,-10,-1,-100,6482.9369857192505,0.021037341809195434,0.02418593334504279,0.9994861033940552,184.51208837836015,19.360733574870142,149.81574681906437,-10.07739833454811,-106.85812377929688,4381.2578125,True
1599568704.3318398,0.0,10,0.5,0.5,-1.660104206085205,-0.1005,-0.00825,-0.5,0.1748019630651221,10,1,100,-0.19333139312998288,-10,-1,-100,6482.283103653463,0.020700705713977016,0.02334160911908126,0.9995132065494058,178.36990018433735,18.740470987399746,153.16550147523117,-10.652282633117057,-100.86478424072266,4381.2578125,True
1599568704.395669,0.0,10,0.5,0.5,-1.1703011213302612,-0.1005,-0.00825,-0.5,0.18691399302322467,10,1,100,-0.18817886557439684,-10,-1,-100,6481.8465208825655,0.02034477896729283,0.022687677306436917,0.9995355717868227,173.76324112837588,18.27199428529362,154.6319095378352,-11.035635410701744,-96.73004913330078,4381.2578125,True
1599568704.458501,0.0,10,0.5,0.5,-0.42442209129333486,-0.1005,-0.00825,-0.5,0.21274038275884385,10,1,100,-0.20032225734198014,-10,-1,-100,6481.629691496026,0.020130178270704464,0.022331720115324385,0.9995479329174168,171.10061090230994,17.999067215047447,154.93439801851204,-11.227348638438457,-94.57152557373047,4381.2578125,True
1599568704.5223312,0.0,10,0.5,0.5,-3.1249168188095093,-0.1005,-0.00825,-0.5,0.1214825718818226,10,1,100,-0.13884434745027985,-10,-1,-100,6480.973332884023,0.019374966332479347,0.021182570717481416,0.9995878697630408,162.59262205025644,17.119388379714835,154.8570078409898,-11.802646758227977,-88.322265625,4381.2578125,True
1599568704.585163,0.0,10,0.5,0.5,-2.344113772773743,-0.1005,-0.00825,-0.5,0.1393545945495204,10,1,100,-0.1481262290335244,-10,-1,-100,6480.475695520872,0.01877322128581662,0.020305080704968944,0.9996175618005712,156.82595167988853,16.51647619109216,154.27599636073944,-12.186290776528768,-84.46844482421875,4381.2578125,True
1599568704.6499894,0.0,10,0.5,0.5,-1.5677710515975953,-0.1005,-0.00825,-0.5,0.17464598674817447,10,1,100,-0.1722556737868901,-10,-1,-100,6480.1953811106505,0.018447002852627122,0.01983341507693841,0.9996331045599385,154.85102265379797,16.308526085642868,154.75978456614888,-12.378132681802471,-82.60360717773438,4381.2578125,True
1599568704.732769,0.0,10,0.5,0.5,-3.792374227333069,-0.1005,-0.00825,-0.5,0.05807964130160692,10,1,100,-0.09020032775062255,-10,-1,-100,6479.476503355196,0.017406443928551105,0.01835042064631558,0.9996800877139975,166.02069123917087,17.47696897733946,173.73476002995102,-12.953516382368331,-77.39816284179688,4381.2578125,True
1599568704.8115597,0.0,10,0.5,0.5,-2.177636467552185,-0.1005,-0.00825,-0.5,0.14654936260960008,10,1,100,-0.15279259535111037,-10,-1,-100,6479.1966758430935,0.01703267631983131,0.017813041214459497,0.9996962456166752,169.26750941940526,17.813909895130216,179.7894760651898,-13.145253556597392,-75.80789184570312,4381.2578125,True
1599568704.8883533,0.0,10,0.5,0.5,-4.00995899143219,-0.1005,-0.00825,-0.5,0.01102376161689883,10,1,100,-0.05998998028766794,-10,-1,-100,6478.353772593546,0.015852939556602448,0.016098915388376586,0.9997447220319456,177.6689021496583,18.678241736302724,197.08602526226397,-13.720268481643288,-71.48281860351562,4381.2578125,True
1599568704.9671443,0.0,10,0.5,0.5,-3.3860418638229373,-0.1005,-0.00825,-0.5,0.04711824722525523,10,1,100,-0.08609458843861922,-10,-1,-100,6477.791676198482,0.015022531987228693,0.014876334069995193,0.9997764841289929,182.46866481452182,19.166642226514007,208.1481791600697,-14.103440140472424,-68.97186279296875,4381.2578125,True
1599568705.0524309,0.0,10,0.5,0.5,-4.0884487249374395,-0.1005,-0.00825,-0.5,-0.04112727897555221,10,1,100,-0.02639335424936845,-10,-1,-100,6476.948293764493,0.013730345531370243,0.012971127723527539,0.9998215978149148,188.40897817814218,19.763487149173017,223.8193960727625,-14.677941506251454,-65.76348876953125,4381.2578125,True
1599568705.1232493,0.0,10,0.5,0.5,-2.5132202819824223,-0.1005,-0.00825,-0.5,0.14835630753165785,10,1,100,-0.15491496381695283,-10,-1,-100,6476.948293764493,0.013730345531370243,0.012971127723527539,0.9998215978149148,188.40897817814218,19.763487149173017,223.8193960727625,-14.677941506251454,-65.76348876953125,4381.2578125,True
1599568705.1940594,0.0,10,0.5,0.5,-3.5996302583694457,-0.1005,-0.00825,-0.5,0.00031940422625534315,10,1,100,-0.05571067885444633,-10,-1,-100,6476.323707016767,0.01283450151665284,0.01163417092037198,0.9998499495613402,191.61421993436014,20.080691827556226,233.66347928285043,-15.060780203042022,-63.996856689453125,4381.2578125,True
1599568705.2653902,0.0,10,0.5,0.5,-3.998212117767334,-0.1005,-0.00825,-0.5,-0.09121190906522662,10,1,100,0.0071619081217096925,-10,-1,-100,6475.4163783501135,0.011455161327812012,0.009596377841394318,0.9998883381714576,195.48140305489258,20.456663667880438,247.62588142279373,-15.634814336537481,-61.904144287109375,4381.2578125,True
1599568705.3342068,0.0,10,0.5,0.5,-3.5880968048095707,-0.1005,-0.00825,-0.5,-0.043433955008926245,10,1,100,-0.02578374142999204,-10,-1,-100,6474.792293830891,0.010507921429340063,0.008188716618177437,0.9999112603163254,197.53255441891747,20.65162822362128,256.4598023675567,-16.017366146135945,-60.88092041015625,4381.2578125,True
1599568705.402025,0.0,10,0.5,0.5,-3.532391961669922,-0.1005,-0.00825,-0.5,-0.05656275051784321,10,1,100,-0.013443647633579997,-10,-1,-100,6474.104739655973,0.00954212548699498,0.006800686787069019,0.9999313468935829,199.21706437811432,20.80792726125467,264.9412764366891,-16.399817909456278,-60.15411376953125,4381.2578125,True
1599568705.4678504,0.0,10,0.5,0.5,-3.5077712532043455,-0.1005,-0.00825,-0.5,-0.15162117302989758,10,1,100,0.05470550055266908,-10,-1,-100,6473.134946604609,0.008052686808047759,0.0046865219434880255,0.9999565944316007,201.1542879437601,20.98012721148644,277.06253966865194,-16.97332726979601,-59.62078857421875,4381.2578125,True
1599568705.5339322,0.0,10,0.5,0.5,-3.2557749893188475,-0.1005,-0.00825,-0.5,0.05842892145791897,10,1,100,-0.09330299163000265,-10,-1,-100,6473.134946604609,0.008052686808047759,0.0046865219434880255,0.9999565944316007,201.1542879437601,20.98012721148644,277.06253966865194,-16.97332726979601,-59.62078857421875,4381.2578125,True
1599568705.5977619,0.0,10,0.5,0.5,-3.18922883682251,-0.1005,-0.00825,-0.5,-0.16907106978019948,10,1,100,0.07583601075587884,-10,-1,-100,6472.102669945685,0.006523223140459548,0.0026302734042969226,0.999975264304912,202.42653188114224,21.081879037446498,288.4352037765662,-17.54666379650863,-59.75384521484375,4381.2578125,True
1599568705.6621017,0.0,10,0.5,0.5,-2.9895568817138676,-0.1005,-0.00825,-0.5,-0.11623893035911909,10,1,100,0.03900232086487079,-10,-1,-100,6471.353623078903,0.005476134911130469,0.0012534929470276325,0.9999842202264329,202.91056583219046,21.11098063783368,295.56292999231573,-17.9288092643224,-60.2132568359375,4381.2578125,True
1599568705.725439,0.0,10,0.5,0.5,-2.7730897842407227,-0.1005,-0.00825,-0.5,-0.1263374606646639,10,1,100,0.0522153480884462,-10,-1,-100,6470.665130091831,0.004412796634322529,-7.754607042852246e-05,0.9999902605588072,203.08318585935797,21.106937141084508,302.2658460920079,-18.310905117479813,-60.968292236328125,4381.2578125,True
1599568705.7892685,0.0,10,0.5,0.5,-2.5237526390075686,-0.1005,-0.00825,-0.5,-0.1353630013308528,10,1,100,0.06530272106715329,-10,-1,-100,6469.914633574896,0.003335619854597107,-0.0013577694798140572,0.9999935150300852,202.9086281475958,21.06602480542939,308.46058517982425,-18.692964702582685,-62.018768310546875,4381.2578125,True
1599568705.8521013,0.0,10,0.5,0.5,-2.2436554794311525,-0.1005,-0.00825,-0.5,-0.14705839326304626,10,1,100,0.07901920721472815,-10,-1,-100,6469.101643772447,0.0022411226586658366,-0.002614904417545082,0.9999940698044745,202.5942608722191,21.009868814900905,314.4365730464981,-19.07499970764446,-63.365020751953125,4381.2578125,True
1599568705.9149327,0.0,10,0.5,0.5,-1.9316678329467778,-0.1005,-0.00825,-0.5,-0.15455896101965205,10,1,100,0.092123587602592,-10,-1,-100,6468.350672953995,0.001136624821436817,-0.0038129876356897785,0.9999920845733257,201.87529686855365,20.911197165809266,319.7618191299112,-19.457024315821354,-65.00637817382812,4381.2578125,True
1599568705.9767697,0.0,10,0.5,0.5,-1.587014831542969,-0.1005,-0.00825,-0.5,-0.1616334964823761,10,1,100,0.10508048563248326,-10,-1,-100,6467.538184229867,2.4126384144492226e-05,-0.0049542778241396445,0.9999877271992685,200.68350028147148,20.763373148551402,324.2881308190798,-19.839054959188417,-66.94271850585938,4381.2578125,True
1599568706.5432527,0.0,10,0.5,0.5,-1.2103477104187013,-0.1005,-0.00825,-0.5,-0.1674941245355548,10,1,100,0.11762090378820028,-10,-1,-100,6466.78722546855,-0.0010917089102230526,-0.006033144619175404,0.9999812044921941,198.94202854521546,20.559112418200307,327.84430737877256,-20.221108885340758,-69.17391967773438,4381.2578125,True
1599568706.5981061,0.0,10,0.5,0.5,-0.8017716506958008,-0.1005,-0.00825,-0.5,-0.1722833247169773,10,1,100,0.12967171109032732,-10,-1,-100,6465.911271583987,-0.002205990303851777,-0.007045803678669714,0.9999727447572263,196.56529642935217,20.290515547521622,330.23441463914736,-20.603203463180066,-71.69970703125,4381.2578125,True
1599568706.652961,0.0,10,0.5,0.5,-1.2300389648437502,-0.1005,-0.00825,-0.5,-0.12504860774107235,10,1,100,0.08033636418757273,-10,-1,-100,6465.505035068956,-0.0027611441652056674,-0.007526330555136171,0.9999678646992982,195.11011344481167,20.129514339043684,330.9247292445326,-20.79427111245796,-73.072998046875,4381.2578125,True
1599568706.7098377,0.0,10,0.5,0.5,0.8282572891235351,-0.1005,-0.00825,-0.5,-0.22463403768185408,10,1,100,0.20674298303467714,-10,-1,-100,6464.284376541618,-0.0044051498187071955,-0.008857392667295853,0.9999510694280056,189.53247174506654,19.526991726241608,330.6212418536056,-21.367575793557062,-77.6256103515625,4381.2578125,True
1599568706.7676542,0.0,10,0.5,0.5,-0.4446457672119142,-0.1005,-0.00825,-0.5,-0.13743778762588704,10,1,100,0.10276084666634139,-10,-1,-100,6463.815155267133,-0.004944473379488108,-0.009264312617776233,0.9999448608271957,187.24428764242052,19.284431570693155,329.65195357835205,-21.55871472500332,-79.27200317382812,4381.2578125,True
1599568706.824504,0.0,10,0.5,0.5,1.9183922737121581,-0.1005,-0.00825,-0.5,-0.2213743535944022,10,1,100,0.22457551677578586,-10,-1,-100,6462.531029329519,-0.006532700337292416,-0.010387737894685986,0.9999247065293139,178.9703423006252,18.42192249579562,323.7703682274312,-22.13224189710764,-84.55178833007812,4381.2578125,True
1599568706.8813522,0.0,10,0.5,0.5,0.3411892189025878,-0.1005,-0.00825,-0.5,-0.14594468125921004,10,1,100,0.121896717417252,-10,-1,-100,6462.062786729308,-0.00703314894388092,-0.010713936405352871,0.9999178698186344,180.52500062311177,18.582250052423802,329.5088996500122,-22.323409672154966,-86.2890625,4381.2578125,True
1599568706.9421868,0.0,10,0.5,0.5,1.5956629104614257,-0.1005,-0.00825,-0.5,-0.1850153572493554,10,1,100,0.18547628751143863,-10,-1,-100,6461.123372229398,-0.008056672160909913,-0.011357162863209962,0.9999030477428248,187.46983528471915,19.303317355509563,348.26983394833263,-22.705600080960842,-89.79129028320312,4381.2578125,True
1599568707.0030272,0.0,10,0.5,0.5,1.901990347290039,-0.1005,-0.00825,-0.5,-0.17968122527677738,10,1,100,0.1851858370707843,-10,-1,-100,6460.24792292004,-0.008975145722548889,-0.011885474572015095,0.9998890849756573,193.91985009557126,19.98059410248047,366.5545655521204,-23.08757298585957,-93.18119812011719,4381.2578125,True
1599568707.0619094,0.0,10,0.5,0.5,2.1647206310272216,-0.1005,-0.00825,-0.5,-0.18229824156796878,10,1,100,0.19578337424337128,-10,-1,-100,6459.309484672151,-0.009897270416022399,-0.012382210376361205,0.9998743545588655,199.68413609025544,20.593335726238347,383.9465167524507,-23.469312700444043,-96.40258026123047,4381.2578125,True
1599568707.120752,0.0,10,0.5,0.5,3.2243283044815065,-0.1005,-0.00825,-0.5,-0.19926444984581074,10,1,100,0.23905757377016174,-10,-1,-100,6457.838348679477,-0.011119947954150805,-0.01298127397142694,0.9998539059700551,207.72296309815007,21.45853464030705,409.5488951307259,-24.04145958382513,-100.80889892578125,4381.2578125,True
1599568707.1785982,0.0,10,0.5,0.5,2.594117016029358,-0.1005,-0.00825,-0.5,-0.17642771748393207,10,1,100,0.19907230698804,-10,-1,-100,6456.898441988626,-0.011858853982571952,-0.013311954100603937,0.9998410671002884,212.25008490218647,21.9532575766362,425.39076469582255,-24.42259055949787,-103.38483428955078,4381.2578125,True
1599568707.2364428,0.0,10,0.5,0.5,2.0388501644134522,-0.1005,-0.00825,-0.5,-0.15987232654074046,10,1,100,0.16373247319314654,-10,-1,-100,6456.429708798765,-0.012200540188747853,-0.013456372345443161,0.9998350228224672,214.45709327127403,22.19546891647945,433.3095100372191,-24.613068421403963,-104.56145477294922,4381.2578125,True
1599568707.2952862,0.0,10,0.5,0.5,2.755581250190735,-0.1005,-0.00825,-0.5,-0.17333819948961737,10,1,100,0.19712327177071215,-10,-1,-100,6455.428273705766,-0.012806135457773322,-0.01370468773865924,0.9998240767398147,218.35413603655311,22.62712961961102,448.3044924331009,-24.993859022715665,-106.69145202636719,4381.2578125,True
1599568707.3561232,0.0,10,0.5,0.5,2.8149486883163455,-0.1005,-0.00825,-0.5,-0.17153001323316322,10,1,100,0.19717754730894718,-10,-1,-100,6454.3648236687295,-0.013349532765744916,-0.013909584316459398,0.9998141394474672,221.63480676499557,22.995223422230946,462.2726113621661,-25.374445374057586,-108.5239028930664,4381.2578125,True
1599568707.415965,0.0,10,0.5,0.5,3.2385068939208983,-0.1005,-0.00825,-0.5,-0.17650786976787694,10,1,100,0.2170206583365361,-10,-1,-100,6452.831652710331,-0.014016281273800576,-0.0141368841995945,0.9998018265458316,225.5823068164107,23.445713324805983,481.55835934806237,-25.94498375815237,-110.71482849121094,4381.2578125,True
1599568707.4768062,0.0,10,0.5,0.5,2.8186216297149658,-0.1005,-0.00825,-0.5,-0.16559918156735104,10,1,100,0.18835231583309317,-10,-1,-100,6451.829228618764,-0.014354991730241233,-0.014240942249435349,0.9997955439870059,227.67173031660022,23.688895743255358,493.46333989679096,-26.325141783230144,-111.80390930175781,4381.2578125,True
1599568707.5346518,0.0,10,0.5,0.5,2.5552199699401856,-0.1005,-0.00825,-0.5,-0.15985269981799516,10,1,100,0.17066147829189626,-10,-1,-100,6451.297009405331,-0.014495428310461531,-0.014280093364438265,0.9997929593128765,228.57579716455436,23.795597591711978,499.16273903619737,-26.515166526207146,-112.23703002929688,4381.2578125,True
1599568707.5930061,0.0,10,0.5,0.5,2.870066246032715,-0.1005,-0.00825,-0.5,-0.1638978710387934,10,1,100,0.18935652583018464,-10,-1,-100,6449.637843485689,-0.014787199491783013,-0.014349802361447056,0.999787688413584,230.78936132549126,24.062938611694985,515.337814008251,-27.085046084369953,-113.09113311767578,4381.2578125,True
1599568707.6518488,0.0,10,0.5,0.5,2.578617693901062,-0.1005,-0.00825,-0.5,-0.15793775140753677,10,1,100,0.1719075044073198,-10,-1,-100,6448.573394470033,-0.01488853486753174,-0.014356750973180505,0.9997860847356261,231.8892332807392,24.20158981865468,525.4024010921701,-27.464819866143348,-113.28959655761719,4381.2578125,True
1599568707.7121956,0.0,10,0.5,0.5,2.4344323673248294,-0.1005,-0.00825,-0.5,-0.1549813460271716,10,1,100,0.16442469955262487,-10,-1,-100,6447.446929760976,-0.014908094924577437,-0.014334396443483211,0.9997861140185539,232.71174533661082,24.31134018302098,534.9123166505085,-27.8444915280605,-113.19153594970703,4381.2578125,True
1599568707.7700405,0.0,10,0.5,0.5,2.397481611442566,-0.1005,-0.00825,-0.5,-0.15486836781419627,10,1,100,0.16063755411308442,-10,-1,-100,6446.914701883448,-0.014888004429740953,-0.014311816957756754,0.9997867368691524,233.0207724547573,24.355664018657052,539.4552108868239,-28.03429291677012,-113.03134155273438,4381.2578125,True
1599568707.8348675,0.0,10,0.5,0.5,1.9300682643890381,-0.1005,-0.00825,-0.5,-0.14474439252578994,10,1,100,0.14571141318641148,-10,-1,-100,6445.201311912038,-0.014731294380149695,-0.014198345047331596,0.9997906760736481,233.52538648113008,24.445482157787286,552.1649792919583,-28.60357759763779,-112.10633087158203,4381.2578125,True
1599568707.89371,0.0,10,0.5,0.5,1.806191968536377,-0.1005,-0.00825,-0.5,-0.14345794225395228,10,1,100,0.14051165904987656,-10,-1,-100,6444.006964015891,-0.014539259520924233,-0.014082819242017576,0.9997951210797039,233.48330800856343,24.46696429598462,559.7757563471962,-28.98301773699174,-111.11947631835938,4381.2578125,True
1599568707.9525535,0.0,10,0.5,0.5,1.5329104724884033,-0.1005,-0.00825,-0.5,-0.1387495059726938,10,1,100,0.1320441175819396,-10,-1,-100,6442.879995826981,-0.014286129159135158,-0.01393464806053579,0.9998008462174243,233.09864146082913,24.45375595647087,566.5664155709859,-29.362408759427428,-109.83660888671875,4381.2578125,True
1599568708.0133903,0.0,10,0.5,0.5,1.723622757911682,-0.1005,-0.00825,-0.5,-0.14404504557477105,10,1,100,0.1411048107243017,-10,-1,-100,6442.2857488921145,-0.014137529134808936,-0.013848065470349346,0.9998041614999865,232.76322494709743,24.432617656889043,569.6082413770326,-29.55209090676107,-109.084228515625,4381.2578125,True
1599568708.073788,0.0,10,0.5,0.5,0.4766338972091675,-0.1005,-0.00825,-0.5,-0.11805030436977484,10,1,100,0.09803988061218691,-10,-1,-100,6440.503491020412,-0.0136108286136195,-0.013533300758070108,0.9998157805891255,231.09665165923715,24.301543151831083,577.045178591148,-30.121112122808963,-106.3834228515625,4381.2578125,True
1599568708.1356227,0.0,10,0.5,0.5,1.193169613838196,-0.1005,-0.00825,-0.5,-0.13584551256269262,10,1,100,0.12859115674623928,-10,-1,-100,6439.843323192676,-0.013410425343862874,-0.01340956895001675,0.9998201558043683,230.29277536766656,24.232152334995707,578.8726023155469,-30.310785997694005,-105.3353042602539,4381.2578125,True
1599568708.1974576,0.0,10,0.5,0.5,-0.4288687198638914,-0.1005,-0.00825,-0.5,-0.10080637409403725,10,1,100,0.07499805781108353,-10,-1,-100,6437.994163175346,-0.012742016929188705,-0.01297933925153903,0.9998345751959018,226.99632678282308,23.9308420880815,581.9571028183129,-30.87984747967241,-101.77093505859375,4381.2578125,True
1599568708.258295,0.0,10,0.5,0.5,0.5706918588638306,-0.1005,-0.00825,-0.5,-0.12588115007753636,10,1,100,0.11545613156485282,-10,-1,-100,6437.39551704668,-0.01250403284321245,-0.012817419728327376,0.9998396686040036,225.59863009780264,23.79848183961455,582.1515018725879,-31.069557128488768,-100.48320007324219,4381.2578125,True
1599568708.3191323,0.0,10,0.5,0.5,-1.312803353691101,-0.1005,-0.00825,-0.5,-0.08109012155865288,10,1,100,0.05362031077979004,-10,-1,-100,6435.491176134907,-0.011727707577937391,-0.012264428385458616,0.9998560119693956,221.23094522134923,23.379548283216298,582.0276221186576,-31.638770684881326,-96.29203033447266,4381.2578125,True
1599568708.3799698,0.0,10,0.5,0.5,-0.0774920965194702,-0.1005,-0.00825,-0.5,-0.11398818738510386,10,1,100,0.10175473062303712,-10,-1,-100,6434.901805936708,-0.011462434232941075,-0.01206266409768932,0.9998615427829605,219.5798728332708,23.217584389082013,581.3827170105124,-31.82853926203237,-94.88265228271484,4381.2578125,True
1599568708.44081,0.0,10,0.5,0.5,-1.9810375915527343,-0.1005,-0.00825,-0.5,-0.05985181469249136,10,1,100,0.03513404363635994,-10,-1,-100,6432.922755526728,-0.010618748192335358,-0.01138913785965718,0.9998787575129505,214.47191000630204,22.708087160244265,578.72685112854,-32.39793536709314,-90.56414794921875,4381.2578125,True
1599568708.502642,0.0,10,0.5,0.5,-1.4714340684890748,-0.1005,-0.00825,-0.5,-0.07237527708639341,10,1,100,0.05568848660739978,-10,-1,-100,6431.602900570957,-0.010042358133510355,-0.010893244762470411,0.9998902381069951,211.03470712304505,22.35777690408657,576.6039774441189,-32.77759311140136,-87.84661865234375,4381.2578125,True
1599568708.5674684,0.0,10,0.5,0.5,-0.9313144739151001,-0.1005,-0.00825,-0.5,-0.0923120721481461,10,1,100,0.0802468661661685,-10,-1,-100,6430.951030505821,-0.009745713259101353,-0.01062657606057069,0.999896043073629,209.28418990181416,22.17687151946888,575.3732294197666,-32.96743502634651,-86.51531982421875,4381.2578125,True
1599568708.6302998,0.0,10,0.5,0.5,-1.7841759363174439,-0.1005,-0.00825,-0.5,-0.0601007213436831,10,1,100,0.04702824799787543,-10,-1,-100,6429.634594518924,-0.009178176313472354,-0.01009432684425761,0.9999069284914073,205.69965843653333,21.80124617796988,572.51093393732,-33.34713780744509,-84.01861572265625,4381.2578125,True
1599568708.689144,0.0,10,0.5,0.5,-2.4900954233169554,-0.1005,-0.00825,-0.5,-0.016379581813183358,10,1,100,0.0070165442149226626,-10,-1,-100,6427.601348158787,-0.008302999376529454,-0.009216411505173988,0.9999230560199723,204.3656992121016,21.65436510515091,579.2390477597296,-33.91665770526241,-80.79864501953125,4381.2578125,True
1599568708.7509778,0.0,10,0.5,0.5,-1.4609242700576783,-0.1005,-0.00825,-0.5,-0.06973531188035341,10,1,100,0.0619389817431157,-10,-1,-100,6426.943131980137,-0.008011504165235018,-0.008907283187756692,0.9999282354785385,206.6467172462314,21.89135421775377,589.2279153667678,-34.1064113118044,-79.8665771484375,4381.2578125,True
1599568708.8098204,0.0,10,0.5,0.5,-2.431094050979614,-0.1005,-0.00825,-0.5,0.002654228123469368,10,1,100,-0.0023856227258766544,-10,-1,-100,6424.836647927063,-0.007166647497229807,-0.00797226370439918,0.9999425394366808,212.46428923646675,22.486514449385304,616.6975955074853,-34.675363518389396,-77.5098876953125,4381.2578125,True
1599568708.8676653,0.0,10,0.5,0.5,-1.6554991397857666,-0.1005,-0.00825,-0.5,-0.05534850005623425,10,1,100,0.05123127123046643,-10,-1,-100,6424.185757652973,-0.006891090807220879,-0.007654095408023419,0.9999469624389944,214.0775146355077,22.648408679659447,625.0391202769079,-34.86491675897983,-76.87252807617188,4381.2578125,True
1599568708.9275055,0.0,10,0.5,0.5,-2.2370363548278807,-0.1005,-0.00825,-0.5,0.023190296049593564,10,1,100,-0.012376360710863621,-10,-1,-100,6422.024103763746,-0.006067436200506118,-0.006655556377920024,0.9999594440712348,218.0212396875856,23.034987927806924,647.7463157128708,-35.43331118133196,-75.40585327148438,4381.2578125,True
1599568708.988349,0.0,10,0.5,0.5,-1.8849721780776978,-0.1005,-0.00825,-0.5,-0.002023908135386887,10,1,100,0.011270180861654891,-10,-1,-100,6420.652014197432,-0.005538773546313259,-0.005982112635878159,0.9999667676058112,219.96093882011988,23.21726621774817,661.0497086175618,-35.81204048217082,-74.79962158203125,4381.2578125,True
1599568709.0491865,0.0,10,0.5,0.5,-1.7136391738891603,-0.1005,-0.00825,-0.5,-0.030533623557851663,10,1,100,0.03462360339002695,-10,-1,-100,6419.92544301413,-0.005275860120656431,-0.0056345980573732435,0.9999702078585736,220.73554454962223,23.287297932809732,667.1652123280455,-36.001351781832305,-74.60775756835938,4381.2578125,True
1599568709.1120183,0.0,10,0.5,0.5,-1.7085542793273927,-0.1005,-0.00825,-0.5,0.044620217089043124,10,1,100,-0.0211469166838011,-10,-1,-100,6417.7076456530485,-0.004534700358544223,-0.004640690379944535,0.999978950021177,222.32200995111074,23.41866432699705,683.4225769373181,-36.56909875011575,-74.4783935546875,4381.2578125,True
1599568709.1768453,0.0,10,0.5,0.5,-1.5917320060729983,-0.1005,-0.00825,-0.5,-0.017055386511814943,10,1,100,0.025829478894143217,-10,-1,-100,6416.984006750281,-0.004292983859855315,-0.004303509391728534,0.9999815248775822,222.60944809153827,23.436961563796228,688.1383827802242,-36.75829310740008,-74.58358764648438,4381.2578125,True
1599568709.235688,0.0,10,0.5,0.5,-1.1974386764526368,-0.1005,-0.00825,-0.5,0.060109803099015785,10,1,100,-0.02723480545008746,-10,-1,-100,6414.763285746332,-0.0035957960300989794,-0.0033012277393144733,0.9999880860021899,222.76049287695056,23.41792830984266,700.1314685852981,-37.32574450010414,-75.34417724609375,4381.2578125,True
1599568709.297522,0.0,10,0.5,0.5,-1.057839717102051,-0.1005,-0.00825,-0.5,0.0330195162639814,10,1,100,-0.006604102924840767,-10,-1,-100,6413.2569290779065,-0.003154615644443984,-0.0026425134802610427,0.9999915327254738,222.26029834944188,23.343666811866278,706.2458342172948,-37.70395863226429,-76.22186279296875,4381.2578125,True
1599568709.358362,0.0,10,0.5,0.5,-1.170282295227051,-0.1005,-0.00825,-0.5,0.004466240896999509,10,1,100,0.01316889519262492,-10,-1,-100,6412.476652595913,-0.0029379774437637536,-0.0023092338372076803,0.9999930178394373,221.8231615702162,23.28763725633889,708.6988020456051,-37.89304658839876,-76.77169799804688,4381.2578125,True
1599568709.421225,0.0,10,0.5,0.5,-0.18999815292358413,-0.1005,-0.00825,-0.5,0.07404560654952244,10,1,100,-0.031558788489997644,-10,-1,-100,6410.184162873309,-0.002339030615777404,-0.0013797108824549142,0.9999963126600314,219.73304083858878,23.04202716676554,713.4650362998616,-38.46026139827112,-78.8662109375,4381.2578125,True
1599568709.4810662,0.0,10,0.5,0.5,0.4211952308654785,-0.1005,-0.00825,-0.5,0.08289659380867843,10,1,100,-0.033827725059682755,-10,-1,-100,6407.835036918987,-0.0017782955459576329,-0.0004602197237982035,0.9999983129299553,216.37639510424185,22.672328773802832,713.8762219742882,-39.02745002410761,-81.62612915039062,4381.2578125,True
1599568709.538877,0.0,10,0.5,0.5,-0.9548421546936036,-0.1005,-0.00825,-0.5,-0.008333134488570117,10,1,100,0.02173450239616804,-10,-1,-100,6407.835036918987,-0.0017782955459576329,-0.0004602197237982035,0.9999983129299553,216.37639510424185,22.672328773802832,713.8762219742882,-39.02745002410761,-81.62612915039062,4381.2578125,True
1599568709.59772,0.0,10,0.5,0.5,0.9320016242980956,-0.1005,-0.00825,-0.5,0.08408340001729094,10,1,100,-0.03230715095759494,-10,-1,-100,6405.489819674636,-0.0012909070069730135,0.00037429846566042267,0.9999990967294711,211.83980493561762,22.190974210283432,710.0219482955985,-39.59466423702012,-84.75970458984375,4381.2578125,True
1599568709.6575933,0.0,10,0.5,0.5,0.6223163032531738,-0.1005,-0.00825,-0.5,0.061646989004629754,10,1,100,-0.01709862469326804,-10,-1,-100,6403.920972334803,-0.0009899475435166407,0.000923205436779037,0.9999990838473716,214.22907101438219,22.444595233200854,725.542746553872,-39.97270736324602,-86.83944702148438,4381.2578125,True
1599568709.7164044,0.0,10,0.5,0.5,0.9167406227111816,-0.1005,-0.00825,-0.5,0.06405436644198807,10,1,100,-0.016923064406736868,-10,-1,-100,6402.295973653323,-0.0007218403180494395,0.001438135384049987,0.9999987053557483,218.00590306257124,22.849552482529713,745.9936859257804,-40.3505418095035,-89.04461669921875,4381.2578125,True
1599568709.77728,0.0,10,0.5,0.5,1.051097257232666,-0.1005,-0.00825,-0.5,0.06657367609933908,10,1,100,-0.016189543402934124,-10,-1,-100,6400.66120997048,-0.00048824108587791317,0.0019236301277595013,0.9999980306319477,221.5778419088338,23.23892347119702,766.0144213920224,-40.72815959949942,-91.08445739746094,4381.2578125,True
1599568709.8381171,0.0,10,0.5,0.5,0.6148738697052002,-0.1005,-0.00825,-0.5,0.04477833040596367,10,1,100,-0.00501089994051156,-10,-1,-100,6399.881426341017,-0.0003809610360839829,0.0021611884434470214,0.9999975920637014,223.20873540059802,23.419320267531738,775.5845118555445,-40.91688885924924,-92.03380584716797,4381.2578125,True
1599568709.8999517,0.0,10,0.5,0.5,1.6371035295486451,-0.1005,-0.00825,-0.5,0.09494626755505477,10,1,100,-0.024179350542561588,-10,-1,-100,6397.3492044036975,-0.00011209765351996875,0.002828256871624903,0.9999959941905688,227.48691471863324,23.902721627359323,802.4877504484185,-41.48277117162462,-94.5036392211914,4381.2578125,True
1599568709.960789,0.0,10,0.5,0.5,1.2026583614349367,-0.1005,-0.00825,-0.5,0.07468432241953957,10,1,100,-0.012874500887849536,-10,-1,-100,6395.717372062034,2.67863174127309e-05,0.003245509786598397,0.9999947329604885,229.7973543462168,24.172600804454973,818.7578328929328,-41.85978755391584,-95.81153106689453,4381.2578125,True
1599568710.0222044,0.0,10,0.5,0.5,0.9101870206832886,-0.1005,-0.00825,-0.5,0.055652739571683485,10,1,100,-0.005605754737214794,-10,-1,-100,6394.868741537095,8.426972256289067e-05,0.003446766461935785,0.9999940563321218,230.81791674913407,24.294448108537207,826.4759331165217,-42.048229383689986,-96.3873291015625,4381.2578125,True
1599568710.0826235,0.0,10,0.5,0.5,1.4304427320480348,-0.1005,-0.00825,-0.5,0.09556040353419887,10,1,100,-0.01190245171319376,-10,-1,-100,6392.343356327387,0.00019156706308253533,0.003988136314315923,0.999992029003631,233.41777741788894,24.614775779337236,848.1855253813862,-42.61330734623621,-97.70906066894531,4381.2578125,True
1599568710.1464508,0.0,10,0.5,0.5,1.0957401727676392,-0.1005,-0.00825,-0.5,0.07890999990999718,10,1,100,-0.004785241084506231,-10,-1,-100,6390.58359466109,0.00022261740092228917,0.004324879459861384,0.9999906228856102,234.73231166678136,24.786289502660647,861.2911446505146,-42.98983820407567,-98.23011779785156,4381.2578125,True
1599568710.2073202,0.0,10,0.5,0.5,0.94343898601532,-0.1005,-0.00825,-0.5,0.06319682852261968,10,1,100,-0.002104515437968935,-10,-1,-100,6389.734963770141,0.00022465573585638094,0.004483812489395953,0.9999899224269014,235.2720363972168,24.860069008040867,867.4506766716909,-43.1780530968239,-98.38753509521484,4381.2578125,True
1599568710.267162,0.0,10,0.5,0.5,0.8989538578033448,-0.1005,-0.00825,-0.5,0.09343594806272061,10,1,100,0.003959910371573619,-10,-1,-100,6387.133406340843,0.00016999983957986898,0.004899462226588537,0.9999879831127695,236.44671633127086,25.03544884766691,884.4045319361992,-43.74251788454802,-98.4258041381836,4381.2578125,True
1599568710.327,0.0,10,0.5,0.5,0.8087582803726197,-0.1005,-0.00825,-0.5,0.06626050470333512,10,1,100,0.0022423719912943426,-10,-1,-100,6386.222275932203,0.0001348721488009456,0.005026661360051192,0.9999873571626167,236.68788880588775,25.078140109152894,889.5267758564323,-43.93061934558918,-98.29154968261719,4381.2578125,True
1599568710.3888338,0.0,10,0.5,0.5,0.38845175075531013,-0.1005,-0.00825,-0.5,0.0907641065308764,10,1,100,0.016067034275175168,-10,-1,-100,6383.565541849122,-2.3519693094128968e-05,0.005361794656198525,0.9999856251991269,236.95106190670697,25.156996759738714,903.2181673485577,-44.49479077234612,-97.46713256835938,4381.2578125,True
1599568710.449802,0.0,10,0.5,0.5,0.2758245973587037,-0.1005,-0.00825,-0.5,0.0779729735351666,10,1,100,0.01653493196935777,-10,-1,-100,6381.812615172821,-0.00017218836603020564,0.005547052657709248,0.999984600160412,236.74728108286263,25.168300475829565,910.9273879043365,-44.87081355116017,-96.58436584472656,4381.2578125,True
1599568711.0483322,0.0,10,0.5,0.5,0.40077369461059575,-0.1005,-0.00825,-0.5,0.0690060739451425,10,1,100,0.011215466079701732,-10,-1,-100,6380.904901926522,-0.00025917271758436026,0.005630873695342176,0.9999841129192649,236.53205966696257,25.161384261331,914.3464513537884,-45.05880294352063,-96.05116271972656,4381.2578125,True
1599568711.0992005,0.0,10,0.5,0.5,-0.8145287916183471,-0.1005,-0.00825,-0.5,0.08700480841095906,10,1,100,0.04865445171716898,-10,-1,-100,6377.267699361197,-0.000678470111097781,0.005868151663948881,0.9999825520849639,235.0564406258552,25.06310598151948,925.5805662396903,-45.8106491008559,-93.58125305175781,4381.2578125,True
1599568711.1590445,0.0,10,0.5,0.5,-0.4083201030731201,-0.1005,-0.00825,-0.5,0.0715909152647127,10,1,100,0.034839505557407,-10,-1,-100,6375.383423656807,-0.0009334179979044086,0.0059413483869187825,0.9999819143915486,234.064823146406,24.982953232400604,930.1428997052034,-46.18651769652585,-92.2042236328125,4381.2578125,True
1599568711.2168908,0.0,10,0.5,0.5,-0.12858204383850097,-0.1005,-0.00825,-0.5,0.06678544169451829,10,1,100,0.023755134537427926,-10,-1,-100,6374.475709442282,-0.0010634966241647446,0.005961936937230577,0.999981661973302,233.50296879085764,24.93462700940761,932.1418303136373,-46.374440746062135,-91.52924346923828,4381.2578125,True
1599568711.2777297,0.0,10,0.5,0.5,-0.1732254369735718,-0.1005,-0.00825,-0.5,0.06634640728793775,10,1,100,0.02595425570839552,-10,-1,-100,6373.571413396159,-0.0012006009644218033,0.005974868215069736,0.9999814295811382,232.96350975742936,24.88787181004896,934.2156176899301,-46.562355810778534,-90.90137481689453,4381.2578125,True
1599568711.337563,0.0,10,0.5,0.5,-0.8773112197875976,-0.1005,-0.00825,-0.5,0.0652269843021766,10,1,100,0.06254024487879971,-10,-1,-100,6370.709109839867,-0.0016565473404179455,0.005974947359820953,0.9999807777427305,231.63175012377124,24.773616973479275,941.5155918658173,-47.12604026411546,-89.21615600585938,4381.2578125,True
1599568711.4014015,0.0,10,0.5,0.5,-0.35681233043670657,-0.1005,-0.00825,-0.5,0.06359089758212345,10,1,100,0.03505823072921058,-10,-1,-100,6369.784794127103,-0.001819497368985197,0.005958790216803008,0.9999805909358824,231.25049477810046,24.74076122429724,944.1825288480743,-47.313911611705095,-88.69235229492188,4381.2578125,True
1599568711.4632237,0.0,10,0.5,0.5,-0.9790423641204834,-0.1005,-0.00825,-0.5,0.0550884639422846,10,1,100,0.07522976802980899,-10,-1,-100,6366.8238580189645,-0.0023310209184076247,0.005865844028251601,0.999980078909232,230.19733200911983,24.647557193560566,952.5040236600955,-47.877447952997976,-87.2333984375,4381.2578125,True
1599568711.5230367,0.0,10,0.5,0.5,-0.7093749488830567,-0.1005,-0.00825,-0.5,0.05377995818385729,10,1,100,0.06446519764851293,-10,-1,-100,6364.918585518841,-0.0026959408752642235,0.005768689092975346,0.9999797268589729,229.7372106961889,24.607996683522373,959.0215071101833,-48.25306529008675,-86.48287963867188,4381.2578125,True
1599568711.5818803,0.0,10,0.5,0.5,-0.6983683235168457,-0.1005,-0.00825,-0.5,0.05000435690351669,10,1,100,0.0697137967396744,-10,-1,-100,6362.9752275677165,-0.0030729713539788084,0.005645672872505857,0.9999793413990483,229.5285338782043,24.593239257531668,966.5829423034895,-48.62861082945689,-85.89138793945312,4381.2578125,True
1599568711.6447132,0.0,10,0.5,0.5,-0.6179210330963135,-0.1005,-0.00825,-0.5,0.046021166116315876,10,1,100,0.07483388848057627,-10,-1,-100,6360.970833931817,-0.0034596355477384947,0.005497539464727408,0.9999789037683298,229.64890475078963,24.612146611186464,975.5457717440083,-49.00407268877695,-85.54754638671875,4381.2578125,True
1599568711.7055497,0.0,10,0.5,0.5,-0.507334105682373,-0.1005,-0.00825,-0.5,0.05163495202951805,10,1,100,0.058367465060201136,-10,-1,-100,6360.000131645822,-0.0036585441811255682,0.005414028360713033,0.9999786514478116,229.85461621382814,24.636836987729087,980.6586061442679,-49.191767474876286,-85.4598388671875,4381.2578125,True
1599568711.7663863,0.0,10,0.5,0.5,-0.43990628166198736,-0.1005,-0.00825,-0.5,0.028991182547651057,10,1,100,0.10536779162566967,-10,-1,-100,6357.022107110242,-0.004263936749281687,0.005132669564776843,0.9999777370254485,230.9955143670404,24.766662712058185,998.3359695744539,-49.75468564340436,-85.51025390625,4381.2578125,True
1599568711.8292925,0.0,10,0.5,0.5,-0.4022810710906983,-0.1005,-0.00825,-0.5,0.04556453060643593,10,1,100,0.06775972276226898,-10,-1,-100,6356.050916790613,-0.0044693743499823555,0.00502829080429848,0.9999773702362006,231.5405450339706,24.82774926268832,1004.981694817533,-49.94226385874534,-85.62408447265625,4381.2578125,True
1599568711.8932369,0.0,10,0.5,0.5,-0.11585947704315191,-0.1005,-0.00825,-0.5,0.0182010625545131,10,1,100,0.11687236989771839,-10,-1,-100,6353.012346098665,-0.005099518163009032,0.004685490990785153,0.9999760202568263,233.6011264876136,25.058159136827893,1026.9420843915198,-50.504793473927215,-86.20394897460938,4381.2578125,True
1599568711.973534,0.0,10,0.5,0.5,-0.25131381759643556,-0.1005,-0.00825,-0.5,0.03905607597772852,10,1,100,0.07717332725440895,-10,-1,-100,6351.977679906879,-0.005307931317004483,0.004564617988915255,0.9999754947636214,234.4079781927808,25.148557318423062,1034.8536866123948,-50.6922303206012,-86.4676513671875,4381.2578125,True
1599568712.0344052,0.0,10,0.5,0.5,0.19349799652099609,-0.1005,-0.00825,-0.5,0.007476123189542085,10,1,100,0.1280190687923135,-10,-1,-100,6348.939110628911,-0.005956312394638946,0.004168925079478113,0.9999735708539197,237.1229722856628,25.454318565128926,1060.1178475925244,-51.25430362028497,-87.43173217773438,4381.2578125,True
1599568712.0932493,0.0,10,0.5,0.5,0.1467733383178711,-0.1005,-0.00825,-0.5,0.015936835815730216,10,1,100,0.11127116921967758,-10,-1,-100,6346.871732258936,-0.006389735364532082,0.003887746972170898,0.9999720279615083,239.0877689825645,25.677669285918675,1077.8549041141673,-51.628811269221,-88.15838623046875,4381.2578125,True
1599568712.154094,0.0,10,0.5,0.5,0.2504545745849609,-0.1005,-0.00825,-0.5,0.011790642514359295,10,1,100,0.11587643534003733,-10,-1,-100,6344.802889438346,-0.006821932561487182,0.0035962361146574043,0.9999702637188438,241.13280296343294,25.91219453942368,1096.1257879793093,-52.00314587292097,-88.934814453125,4381.2578125,True
1599568712.214888,0.0,10,0.5,0.5,0.09139334487915038,-0.1005,-0.00825,-0.5,0.024497015063819925,10,1,100,0.09631565782020884,-10,-1,-100,6343.769201063435,-0.007033262952460447,0.0034487136791659773,0.9999693193224484,242.16019377810707,26.030974824629975,1105.3492466856892,-52.19024700860275,-89.31304931640625,4381.2578125,True
1599568712.2732403,0.0,10,0.5,0.5,0.34083146514892576,-0.1005,-0.00825,-0.5,0.0050347523804025116,10,1,100,0.12312401600534768,-10,-1,-100,6341.6398125676205,-0.0074654935717569666,0.00313966994904574,0.9999672039013785,244.1568976490199,26.264203388296842,1123.6611136290658,-52.564316981185144,-90.03866577148438,4381.2578125,True
1599568712.3330803,0.0,10,0.5,0.5,0.3823625930786133,-0.1005,-0.00825,-0.5,0.000991548609738449,10,1,100,0.12706731547150396,-10,-1,-100,6339.570971529116,-0.00789063698624248,0.0028241082233082886,0.999964880513658,246.07128779931662,26.490993451108878,1141.7632852210634,-52.93821206720601,-90.7058334350586,4381.2578125,True
1599568712.3919258,0.0,10,0.5,0.5,0.5978229543685913,-0.1005,-0.00825,-0.5,-0.022176646013502894,10,1,100,0.15538527359466447,-10,-1,-100,6336.344419411966,-0.00853071962525339,0.002328968448915143,0.999960900599938,248.77291334425792,26.81697929095123,1168.4305182170208,-53.49873144988436,-91.6129379272461,4381.2578125,True
1599568712.50064,0.0,10,0.5,0.5,0.3083138568878174,-0.1005,-0.00825,-0.5,0.00861155193619445,10,1,100,0.11482947816307401,-10,-1,-100,6335.247743977001,-0.00874004499054342,0.002161282909114861,0.9999594694135108,249.63114089751838,26.922089068289516,1177.19928060064,-53.68548606675296,-91.87773132324219,4381.2578125,True
1599568712.5754397,0.0,10,0.5,0.5,0.4515973793029785,-0.1005,-0.00825,-0.5,-0.012448903931914408,10,1,100,0.14014866783844118,-10,-1,-100,6333.11640429066,-0.009156632800909913,0.0018199891904001457,0.9999564209079794,251.24392709044523,27.122437049802453,1194.3584944358875,-54.058870924618425,-92.3282241821289,4381.2578125,True
1599568712.6422608,0.0,10,0.5,0.5,0.47734037036895755,-0.1005,-0.00825,-0.5,-0.035476960971996374,10,1,100,0.1653421340634745,-10,-1,-100,6329.8268668624805,-0.00976069221725439,0.0013029812019318273,0.9999515143882864,253.33092189382535,27.389690802899715,1218.7722852033608,-54.618650113332116,-92.73777770996094,4381.2578125,True
1599568712.710079,0.0,10,0.5,0.5,0.35207509136199955,-0.1005,-0.00825,-0.5,-0.02277245390041148,10,1,100,0.14887306708803208,-10,-1,-100,6327.634493377991,-0.0101560703860633,0.0009514345828722946,0.9999479731498775,254.4990248107227,27.544869543945996,1234.1280913008623,-54.99165006780029,-92.861572265625,4381.2578125,True
1599568712.775903,0.0,10,0.5,0.5,0.29205974864959716,-0.1005,-0.00825,-0.5,-0.026148167368925092,10,1,100,0.15114463951942894,-10,-1,-100,6325.441632288159,-0.010532337781637351,0.0006040834344649647,0.9999443509236191,255.5124627594317,27.68382565698278,1248.8420351853315,-55.36450932490604,-92.85724639892578,4381.2578125,True
1599568712.842724,0.0,10,0.5,0.5,0.21605919113159183,-0.1005,-0.00825,-0.5,-0.030075566845502593,10,1,100,0.1541417012675964,-10,-1,-100,6323.184806592064,-0.010897879064036097,0.0002555911802509656,0.999940583687378,256.34460151002656,27.803276428458364,1262.7661703712245,-55.737236198469546,-92.72062683105469,4381.2578125,True
1599568712.9075508,0.0,10,0.5,0.5,0.0473875644683838,-0.1005,-0.00825,-0.5,-0.052718004436817074,10,1,100,0.1755003484309463,-10,-1,-100,6319.832283622702,-0.011420653434517638,-0.00026402335174243217,0.9999347473544453,257.29677098936594,27.94980403803105,1282.346558157177,-56.29609551895759,-92.32078552246094,4381.2578125,True
1599568712.9723783,0.0,10,0.5,0.5,0.24978960113525392,-0.1005,-0.00825,-0.5,-0.001127824940568142,10,1,100,0.12366165043099787,-10,-1,-100,6319.832283622702,-0.011420653434517638,-0.00026402335174243217,0.9999347473544453,257.29677098936594,27.94980403803105,1282.346558157177,-56.29609551895759,-92.32078552246094,4381.2578125,True
1599568713.037205,0.0,10,0.5,0.5,-0.08740086936950683,-0.1005,-0.00825,-0.5,-0.056961665128221275,10,1,100,0.1770505517531738,-10,-1,-100,6316.417748504318,-0.011902411483025819,-0.0007685094504476533,0.9999288684672093,257.9747074801987,28.065019798946086,1300.7159129272106,-56.854696446511205,-91.75613403320312,4381.2578125,True
1599568713.0990398,0.0,10,0.5,0.5,-0.057819451332092264,-0.1005,-0.00825,-0.5,-0.04381768039952649,10,1,100,0.16320665393658224,-10,-1,-100,6314.160923392978,-0.012210872661067166,-0.0011043763902153962,0.9999248346459068,258.3330389821894,28.130444290827604,1312.564981702604,-57.22696001233823,-91.33380126953125,4381.2578125,True
1599568713.1648629,0.0,10,0.5,0.5,0.012832600402832045,-0.1005,-0.00825,-0.5,-0.029302156842117563,10,1,100,0.1495884715207917,-10,-1,-100,6313.002237680135,-0.012364144661837736,-0.0012746294441740537,0.9999227486393942,258.48686507315637,28.159979964240424,1318.3812141406822,-57.413051740052296,-91.10018920898438,4381.2578125,True
1599568713.227696,0.0,10,0.5,0.5,-0.2898299671173096,-0.1005,-0.00825,-0.5,-0.06417048001506827,10,1,100,0.17928826948359602,-10,-1,-100,6309.524714172352,-0.012770186371589845,-0.0017432661472057587,0.9999169382319587,258.86444192906646,28.237514881958287,1335.4754612430354,-57.97117036393779,-90.40272521972656,4381.2578125,True
1599568713.288533,0.0,10,0.5,0.5,-0.34445230960845946,-0.1005,-0.00825,-0.5,-0.06876336264538607,10,1,100,0.18154623548927945,-10,-1,-100,6306.046703143395,-0.01315655711362463,-0.0022078136690214653,0.9999110113223671,259.2358904126517,28.31144752360469,1352.6455117771195,-58.529052747435834,-89.73367309570312,4381.2578125,True
