Timestamp,Input Throttle,horizon,dT,dt,Input Roll,Roll P,Roll I,Roll D,Input Pitch,Pitch P,Pitch I,Pitch D,Input Yaw,Yaw P,Yaw I,Yaw D,Altitude,Direction X,Direction Y,Direction Z,Drag X,Drag Y,Drag Z,Vertical Velocity,Roll,Mass,Has Fuel
1599566916.809576,0.0,10,0.5,0.5,-2.7439164047241213,-0.05075,-0.00825,-0.37525,-0.06856196569374047,10,1,100,0.6815809948823276,-10,-1,-100,6483.617966750287,-0.06725760540055692,-0.007002410685262721,0.9977110707817057,205.0733428772521,21.498789749998906,-156.76532825208494,9.590823795584853,-35.94464111328125,4381.2578125,True
1599566916.9092793,0.0,10,0.5,0.5,-2.789335188293457,-0.05075,-0.00825,-0.37525,-0.06733572304217326,10,1,100,0.6998979455565538,-10,-1,-100,6483.997882549884,-0.06744484295520173,-0.006971605004544719,0.9976986468279931,204.61214069173565,21.45674066282211,-150.26671026760908,9.210801455928957,-35.9412841796875,4381.2578125,True
1599566916.9880679,0.0,10,0.5,0.5,-2.7718446548461917,-0.05075,-0.00825,-0.37525,-0.03510357286713101,10,1,100,0.7030526998199562,-10,-1,-100,6484.53893580602,-0.06758242500458685,-0.0066442424704783835,0.9976915705128979,203.94223956088612,21.39558686726929,-140.57570430220153,8.64080070565467,-36.084075927734375,4381.2578125,True
1599566917.0559216,0.0,10,0.5,0.5,-2.7963771339416503,-0.05075,-0.00825,-0.37525,-0.050108511021650315,10,1,100,0.6978554160284342,-10,-1,-100,6484.697140738019,-0.06759881299228258,-0.006477008475031455,0.9976915599739473,203.75619860547963,21.378926762208533,-137.38124061515447,8.450805491535874,-36.256683349609375,4381.2578125,True
1599566917.1187549,0.0,10,0.5,0.5,-2.80141739654541,-0.05075,-0.00825,-0.37525,-0.04421676387440082,10,1,100,0.7020532445223813,-10,-1,-100,6484.856804942479,-0.06759041977377615,-0.006265528042854678,0.9976934791373295,203.5911977096421,21.36432298881064,-134.20490936142346,8.260810930940174,-36.5009765625,4381.2578125,True
1599566917.1831298,0.0,10,0.5,0.5,-2.4384093841552734,-0.05075,-0.00825,-0.37525,0.03762643656165155,10,1,100,0.6853114840255061,-10,-1,-100,6485.335756014567,-0.0673691459162771,-0.005323548075054537,0.9977139159169847,203.19827669418223,21.329967488222753,-124.76047172941725,7.690822153537856,-37.671905517578125,4381.2578125,True
1599566917.253532,0.0,10,0.5,0.5,-2.1408508522033696,-0.05075,-0.00825,-0.37525,0.1004140712543595,10,1,100,0.6561567647922866,-10,-1,-100,6485.750195391825,-0.06684170028377935,-0.0038915663815979233,0.9977560036473201,202.84850617407267,21.297643938686555,-115.36436127365145,7.120805076763007,-39.503173828125,4381.2578125,True
1599566917.3265393,0.0,10,0.5,0.5,-2.5469960472106936,-0.05075,-0.00825,-0.37525,0.019374556084836153,10,1,100,0.6867745107992715,-10,-1,-100,6485.909324328182,-0.06657978221767782,-0.0033229499196497612,0.9977755712602299,202.70811274763403,21.283709363120277,-112.22360253239533,6.930788082080538,-40.26068115234375,4381.2578125,True
1599566917.3923905,0.0,10,0.5,0.5,-2.5182953132629398,-0.05075,-0.00825,-0.37525,0.030513412220193485,10,1,100,0.6867278002771895,-10,-1,-100,6486.004482242162,-0.06628072316900507,-0.0027017426712666838,0.997797357344031,202.54140167705228,21.266649377271673,-109.07163375665482,6.740763711681911,-41.091644287109375,4381.2578125,True
1599566917.458189,0.0,10,0.5,0.5,-2.0684375000000004,-0.05075,-0.00825,-0.37525,0.11770092883458941,10,1,100,0.6424361978549215,-10,-1,-100,6486.26118328725,-0.06554594517258286,-0.001341938891995499,0.9978486499822721,202.0832904893743,21.21828671219811,-102.71561318827666,6.360687641894804,-42.974334716796875,4381.2578125,True
1599566917.52596,0.0,10,0.5,0.5,-1.886557434844971,-0.05075,-0.00825,-0.37525,0.15394375274248656,10,1,100,0.6233577808854038,-10,-1,-100,6486.5178591576405,-0.06464493779868288,0.0002249465236791845,0.9979083031100933,201.37629403086692,21.142214130646515,-96.26323386024917,5.980564845939335,-45.1507568359375,4381.2578125,True
1599566917.590813,0.0,10,0.5,0.5,-1.0697327217102055,-0.05075,-0.00825,-0.37525,0.2854651267093106,10,1,100,0.5227540400888214,-10,-1,-100,6486.869138953625,-0.06291363587662477,0.0028384663401646226,0.9980149385302902,199.5979222957082,20.949863626599125,-86.34469506338633,5.410257423201783,-48.967498779296875,4381.2578125,True
1599566917.6576052,0.0,10,0.5,0.5,-1.250399905395508,-0.05075,-0.00825,-0.37525,0.23350493370414455,10,1,100,0.5399379566648487,-10,-1,-100,6487.061795349116,-0.06150006174097089,0.004733109808427412,0.998095857158719,197.7418553625691,20.749484351019202,-79.54585963247773,5.029942329987643,-51.880218505859375,4381.2578125,True
1599566917.7238028,0.0,10,0.5,0.5,-0.963819839477539,-0.05075,-0.00825,-0.37525,0.26105341635783685,10,1,100,0.5013181808122146,-10,-1,-100,6487.254433083464,-0.05986943489468307,0.006695610665264509,0.9981837604184965,195.1784201169612,20.473709536429997,-72.59115538408079,4.649512952519882,-55.08807373046875,4381.2578125,True
1599566917.8005989,0.0,10,0.5,0.5,-0.6597315666198733,-0.05075,-0.00825,-0.37525,0.2877063097961745,10,1,100,0.4601577836056624,-10,-1,-100,6487.448519180296,-0.05801988813081421,0.008710026276246488,0.9982774303887446,191.7504755389283,20.106549873614224,-65.4912616418857,4.26893897850654,-58.59112548828125,4381.2578125,True
1599566917.8918698,0.0,10,0.5,0.5,-0.3385326148986818,-0.05075,-0.00825,-0.37525,0.3118509595018288,10,1,100,0.4161660449650067,-10,-1,-100,6487.578626942239,-0.055947257568421074,0.010747195870536871,0.9983758821964267,187.2924409899924,19.631321934720827,-58.273452540204346,3.8881868723080624,-62.3880615234375,4381.2578125,True
1599566918.4857943,0.0,10,0.5,0.5,-0.888211930847168,-0.05075,-0.00825,-0.37525,0.22115725173954678,10,1,100,0.4991808885978163,-10,-1,-100,6487.6751720608445,-0.05482811189776909,0.011760070209375027,0.9984265515772286,184.63374505415095,19.348869629018434,-54.63689597627102,3.6977339920195242,-64.39447021484375,4381.2578125,True
1599566918.541644,0.0,10,0.5,0.5,2.0075167938232417,-0.05075,-0.00825,-0.37525,0.5531474232040374,10,1,100,0.06158411743970138,-10,-1,-100,6487.934870962403,-0.04984347572154443,0.015684728770186018,0.9986338754575681,171.0185442009583,17.910604447783605,-40.184650804233435,2.9352792486801462,-72.9111328125,4381.2578125,True
1599566918.6034803,0.0,10,0.5,0.5,-0.20998348846435566,-0.05075,-0.00825,-0.37525,0.26876556443352506,10,1,100,0.4060167846633298,-10,-1,-100,6487.969398843474,-0.04845840917836966,0.016650030856018773,0.9986864167757542,166.8974439383315,17.47720275670919,-36.66946194917638,2.7444732151483393,-75.14456176757812,4381.2578125,True
1599566918.6643164,0.0,10,0.5,0.5,1.8723775863647458,-0.05075,-0.00825,-0.37525,0.4569046004057097,10,1,100,0.0725357474085771,-10,-1,-100,6488.134026174783,-0.044183814085886335,0.019220340557861787,0.9988385100113351,152.88360215161438,16.006482077129757,-26.584372584576748,2.1716643423502946,-81.93414306640625,4381.2578125,True
1599566918.7321346,0.0,10,0.5,0.5,-0.6432709541320801,-0.05075,-0.00825,-0.37525,0.20192985816639394,10,1,100,0.49785904354824,-10,-1,-100,6488.134026174783,-0.044183814085886335,0.019220340557861787,0.9988385100113351,152.88360215161438,16.006482077129757,-26.584372584576748,2.1716643423502946,-81.93414306640625,4381.2578125,True
1599566918.8069358,0.0,10,0.5,0.5,1.2713791114807127,-0.05075,-0.00825,-0.37525,0.3867781744440584,10,1,100,0.150832632549032,-10,-1,-100,6488.200656668516,-0.04104762955290517,0.02088351125671857,0.9989389225902042,145.214086759574,15.20282073350556,-20.810476549894677,1.789592378381614,-86.35739135742188,4381.2578125,True
1599566918.8813186,0.0,10,0.5,0.5,3.2824540672302245,-0.05075,-0.00825,-0.37525,0.522140421130051,10,1,100,-0.2502928152337479,-10,-1,-100,6488.273407751112,-0.034569835912464035,0.02360964591199144,0.9991233712935035,157.06659785281988,16.442423152419686,-12.899372528486063,1.025344253568341,-94.90211486816406,4381.2578125,True
1599566918.9431875,0.0,10,0.5,0.5,0.11153963432312014,-0.05075,-0.00825,-0.37525,0.25141460921312053,10,1,100,0.39479352622751474,-10,-1,-100,6488.273407751112,-0.034569835912464035,0.02360964591199144,0.9991233712935035,157.06659785281988,16.442423152419686,-12.899372528486063,1.025344253568341,-94.90211486816406,4381.2578125,True
1599566919.0071018,0.0,10,0.5,0.5,1.9213807098388673,-0.05075,-0.00825,-0.37525,0.37417467830172224,10,1,100,0.028725899865729543,-10,-1,-100,6488.341054659453,-0.03126494803552255,0.024710270144390794,0.9992056372807989,162.77653849962863,17.037822991050035,-8.387926442108633,0.6432761786822132,-99.0734634399414,4381.2578125,True
1599566919.0745046,0.0,10,0.5,0.5,2.8581135557174684,-0.05075,-0.00825,-0.37525,0.4172459616558379,10,1,100,-0.19422837573139573,-10,-1,-100,6488.318300844636,-0.026257970132961238,0.02608784907354749,0.9993147367747622,169.84713600203926,17.773750808230538,-0.955614428642975,0.0702232121666011,-104.86837768554688,4381.2578125,True
1599566919.1363335,0.0,10,0.5,0.5,2.288274450111389,-0.05075,-0.00825,-0.37525,0.3595303092813119,10,1,100,-0.0714394898989692,-10,-1,-100,6488.322034987737,-0.022849424899505248,0.026801559757373333,0.9993795976386218,174.52666707081497,18.2617784911535,4.361307194362275,-0.311857686483751,-108.55301666259766,4381.2578125,True
1599566919.1951468,0.0,10,0.5,0.5,2.404700160217285,-0.05075,-0.00825,-0.37525,0.35195816913574673,10,1,100,-0.09528026613472629,-10,-1,-100,6488.327744824812,-0.01956308461876407,0.027367875932666236,0.9994339823555797,178.83796727454612,18.712221900285428,9.94695875847885,-0.694025488307378,-111.98648071289062,4381.2578125,True
1599566919.2590249,0.0,10,0.5,0.5,3.1116166683197024,-0.05075,-0.00825,-0.37525,0.3617102231777308,10,1,100,-0.30631917755619686,-10,-1,-100,6488.241628606687,-0.014684494615261248,0.027960742813166475,0.9995011568173549,184.06854354345225,19.258937240275323,18.70066927279966,-1.267457289022245,-116.59466552734375,4381.2578125,True
1599566919.3427994,0.0,10,0.5,0.5,2.5685584186553956,-0.05075,-0.00825,-0.37525,0.3299431431360832,10,1,100,-0.16673666992018174,-10,-1,-100,6488.181966483244,-0.011549048240188918,0.02820063860237249,0.9995355638831287,186.54681403759795,19.518193392144525,24.674415751537445,-1.649881081008171,-119.29881286621094,4381.2578125,True
1599566919.448518,0.0,10,0.5,0.5,2.6106190162658693,-0.05075,-0.00825,-0.37525,0.32564052628031637,10,1,100,-0.18114914158244774,-10,-1,-100,6488.12428025296,-0.008597287943962289,0.028371447077466885,0.9995604772252348,188.38311010007317,19.71056653796777,30.699099644174606,-2.032416585712841,-121.70718383789062,4381.2578125,True
1599566919.5302985,0.0,10,0.5,0.5,2.6399418800354004,-0.05075,-0.00825,-0.37525,0.31558234119677125,10,1,100,-0.20793724945337203,-10,-1,-100,6488.003137351596,-0.005702692626876882,0.028426970275411738,0.9995796049628886,189.7490995663519,19.853908922234407,36.74899689965174,-2.4150590577712268,-123.82044982910156,4381.2578125,True
1599566919.6125493,0.0,10,0.5,0.5,2.280708221054077,-0.05075,-0.00825,-0.37525,0.3112213255355922,10,1,100,-0.07442290054745995,-10,-1,-100,6487.9747987224255,-0.004317140907694829,0.028430942622970256,0.9995864363805427,190.2928049410718,19.91101857584284,39.777630167880815,-2.6064176934685515,-124.7661361694336,4381.2578125,True
1599566919.7052956,0.0,10,0.5,0.5,2.321845937538147,-0.05075,-0.00825,-0.37525,0.3098165212096805,10,1,100,-0.08751813225188873,-10,-1,-100,6487.8829883640865,-0.0029660033247661272,0.028417399902596095,0.9995917437669509,190.75487869342925,19.95957345468949,42.80553824100164,-2.7977995706564913,-125.63789367675781,4381.2578125,True
1599566919.7621522,0.0,10,0.5,0.5,3.1906334150314333,-0.05075,-0.00825,-0.37525,0.28602782030204216,10,1,100,-0.5179510230510274,-10,-1,-100,6487.640779212583,0.002146599091899682,0.028184456735831413,0.9996004344290995,191.99702893459713,20.090141331879156,54.89481716057769,-3.5635371540463745,-128.38568115234375,4381.2578125,True
1599566919.8259473,0.0,10,0.5,0.5,2.397657780075073,-0.05075,-0.00825,-0.37525,0.2982133132212498,10,1,100,-0.14283449959159902,-10,-1,-100,6487.549960000324,0.003353895123667049,0.028080309077500462,0.9996000438323378,192.19907709454026,20.111363795796454,57.91056074303612,-3.7550187181232015,-128.88790893554688,4381.2578125,True
1599566919.893766,0.0,10,0.5,0.5,2.411455270004273,-0.05075,-0.00825,-0.37525,0.29572210974474183,10,1,100,-0.15457414837220843,-10,-1,-100,6487.5187136319,0.004531241173045987,0.027961170756500477,0.9995987398868396,192.37240325043012,20.129546726223435,60.92432542981142,-3.946517126611054,-129.31617736816406,4381.2578125,True
1599566919.9546273,0.0,10,0.5,0.5,2.5374357725143435,-0.05075,-0.00825,-0.37525,0.29053768763873933,10,1,100,-0.2740155707087938,-10,-1,-100,6487.3366009008605,0.0066624953609298425,0.02780467789008308,0.9995911719513105,192.64941154705264,20.158519524800663,66.9463746240589,-4.329560378931181,-129.94894409179688,4381.2578125,True
1599566920.0424,0.0,10,0.5,0.5,2.4590625097274783,-0.05075,-0.00825,-0.37525,0.27170706020637225,10,1,100,-0.2971899077414613,-10,-1,-100,6487.1520548246335,0.008786833522957876,0.027490827033084458,0.9995834362301512,192.95132049283583,20.189979117737447,72.99854517804083,-4.712658147136604,-130.28756713867188,4381.2578125,True
1599566920.1022055,0.0,10,0.5,0.5,2.322685081291199,-0.05075,-0.00825,-0.37525,0.252889010661265,10,1,100,-0.3995674749740108,-10,-1,-100,6486.813231518958,0.011627417619517248,0.027034862090657537,0.999566865893043,193.381449546676,20.23471476252151,82.10890728442538,-5.2873862440793795,-130.23919677734375,4381.2578125,True
1599566920.165067,0.0,10,0.5,0.5,2.1783724351882934,-0.05075,-0.00825,-0.37525,0.2625458269478375,10,1,100,-0.3056572480332056,-10,-1,-100,6486.628694716841,0.013334967947964169,0.026709197542430736,0.999554299373709,193.63742733889916,20.26143744368285,88.195204725546,-5.670579960777561,-129.83663940429688,4381.2578125,True
1599566920.2407384,0.0,10,0.5,0.5,2.2030853929519654,-0.05075,-0.00825,-0.37525,0.2761752930639507,10,1,100,-0.22516863457567443,-10,-1,-100,6486.474415243487,0.014135633346127517,0.026538554235584707,0.9995478422811931,193.75330045023608,20.27362780077798,91.23997395646245,-5.862186032331477,-129.52430725097656,4381.2578125,True
1599566920.306566,0.0,10,0.5,0.5,1.9639896570205688,-0.05075,-0.00825,-0.37525,0.25825864114242286,10,1,100,-0.3071300703435692,-10,-1,-100,6486.22689170856,0.015590580100554146,0.026222262044656088,0.9995345550732049,193.94379497414718,20.294015000153436,97.3223705235162,-6.245411212537608,-128.6768798828125,4381.2578125,True
1599566920.3743901,0.0,10,0.5,0.5,1.5073744258880615,-0.05075,-0.00825,-0.37525,0.23097582760778756,10,1,100,-0.3764689167307494,-10,-1,-100,6485.825086082448,0.017525514188999766,0.02568870600311367,0.9995163564125885,194.06564429582767,20.308697274468642,106.3853158026292,-6.820265832184837,-126.85096740722656,4381.2578125,True
1599566920.4362206,0.0,10,0.5,0.5,1.8711952610015867,-0.05075,-0.00825,-0.37525,0.26378936852527884,10,1,100,-0.24775739028960306,-10,-1,-100,6485.73281625798,0.01809581174038194,0.02550444060450638,0.9995109129503829,194.03769106669543,20.306877617506764,109.37207495038943,-7.011884641715091,-126.09426879882812,4381.2578125,True
1599566920.5090196,0.0,10,0.5,0.5,1.4137557239532472,-0.05075,-0.00825,-0.37525,0.2431115978927212,10,1,100,-0.30276504799617765,-10,-1,-100,6485.4247367347125,0.0190998343911087,0.02515138325105043,0.9995011777115578,193.8300927754528,20.28827487678356,115.2556984247057,-7.395117864764211,-124.35835266113281,4381.2578125,True
1599566920.5704424,0.0,10,0.5,0.5,1.195705855560303,-0.05075,-0.00825,-0.37525,0.23943714828656676,10,1,100,-0.2966595713847402,-10,-1,-100,6485.112745343358,0.019942763432331378,0.024799680593149482,0.999493502744845,193.35617821796032,20.24328752387873,120.96374630447134,-7.778339686766762,-122.32615661621094,4381.2578125,True
1599566920.6392267,0.0,10,0.5,0.5,0.4179072662353518,-0.05075,-0.00825,-0.37525,0.20754496428437963,10,1,100,-0.3268188983023556,-10,-1,-100,6484.585418522707,0.02096922778518551,0.024192896040640875,0.9994873662369422,191.9437240430063,20.105802902355443,129.0066370003007,-8.353143158627505,-118.7237777709961,4381.2578125,True
1599566920.7120726,0.0,10,0.5,0.5,-0.057773373985290366,-0.05075,-0.00825,-0.37525,0.1973622108655829,10,1,100,-0.30074245983314674,-10,-1,-100,6484.058073957451,0.021652312544947136,0.023551986672598026,0.9994881096267378,189.53900741823108,19.869044538112735,136.21435430131476,-8.927918093399803,-114.45567321777344,4381.2578125,True
1599566920.7749236,0.0,10,0.5,0.5,1.53077154712677,-0.05075,-0.00825,-0.37525,0.26105926363381904,10,1,100,-0.23372053175918311,-10,-1,-100,6484.058073957451,0.021652312544947136,0.023551986672598026,0.9994881096267378,189.53900741823108,19.869044538112735,136.21435430131476,-8.927918093399803,-114.45567321777344,4381.2578125,True
1599566920.8407536,0.0,10,0.5,0.5,-1.235460766792297,-0.05075,-0.00825,-0.37525,0.15587623369134873,10,1,100,-0.28134597959946905,-10,-1,-100,6483.311457830248,0.022076157620835708,0.022598943559864713,0.9995008409274492,184.85145905315588,19.40477575516363,144.33570942531222,-9.69429208643061,-107.99273681640625,4381.2578125,True
1599566920.902589,0.0,10,0.5,0.5,0.45419569835662854,-0.05075,-0.00825,-0.37525,0.22006172515050743,10,1,100,-0.24339482713616056,-10,-1,-100,6483.156169667025,0.02210851431318354,0.022319781792447296,0.9995063986466526,183.30690016325676,19.25038563444852,145.98138527884808,-9.885900963643056,-106.3083724975586,4381.2578125,True
1599566920.962774,0.0,10,0.5,0.5,-1.1268978908538818,-0.05075,-0.00825,-0.37525,0.153781772758029,10,1,100,-0.22969993078728118,-10,-1,-100,6482.501816401142,0.022006182356721707,0.021467288593448146,0.9995273300208096,177.85649004729711,18.701680791094347,149.949881159862,-10.4608035400707,-101.15814208984375,4381.2578125,True
1599566921.0295615,0.0,10,0.5,0.5,0.7830231109619141,-0.05075,-0.00825,-0.37525,0.23855559531282317,10,1,100,-0.24057468665908133,-10,-1,-100,6482.501816401142,0.022006182356721707,0.021467288593448146,0.9995273300208096,177.85649004729711,18.701680791094347,149.949881159862,-10.4608035400707,-101.15814208984375,4381.2578125,True
1599566921.0929077,0.0,10,0.5,0.5,-1.3785868610382077,-0.05075,-0.00825,-0.37525,0.12878335548596764,10,1,100,-0.20357035238251459,-10,-1,-100,6481.847931527649,0.0216657059831459,0.020473196792667337,0.9995556239636396,172.1201924634471,18.121009529097453,153.16794416659903,-11.035853675368548,-96.13369750976562,4381.2578125,True
1599566921.1537435,0.0,10,0.5,0.5,-0.8834170413970946,-0.05075,-0.00825,-0.37525,0.1465996064173241,10,1,100,-0.19867775285097045,-10,-1,-100,6481.4103719295235,0.021308458471205886,0.01973601674934424,0.999578130633344,168.07224349269032,17.707698511803372,154.81663194740696,-11.419317833820898,-92.92821502685547,4381.2578125,True
1599566921.216608,0.0,10,0.5,0.5,-1.097421594810486,-0.05075,-0.00825,-0.37525,0.13218190340940328,10,1,100,-0.18589709415187608,-10,-1,-100,6480.9747583741555,0.020865492359377655,0.018939706106707335,0.9996028805286589,164.0635534296726,17.295376601186735,156.25587242314344,-11.8028581650468,-89.66311645507812,4381.2578125,True
1599566921.2794404,0.0,10,0.5,0.5,-0.5644533521652221,-0.05075,-0.00825,-0.37525,0.16567987017576832,10,1,100,-0.20254467405481297,-10,-1,-100,6480.694449916948,0.020613298685081376,0.01852564156081023,0.9996158724840658,161.92642153789953,17.07377246776513,156.75513787689792,-11.994655763999125,-88.10134887695312,4381.2578125,True
1599566921.3537385,0.0,10,0.5,0.5,-1.835211362838745,-0.05075,-0.00825,-0.37525,0.056601947721758805,10,1,100,-0.13176881321507544,-10,-1,-100,6479.977052168688,0.019740938363632693,0.017162753819030804,0.999657809069619,155.59022743027748,16.41050233700365,157.9359013315355,-12.570132446794496,-83.80194091796875,4381.2578125,True
1599566921.4135776,0.0,10,0.5,0.5,-1.3245633216857908,-0.05075,-0.00825,-0.37525,0.08294722032482839,10,1,100,-0.14497055969125805,-10,-1,-100,6479.476485183579,0.019069637015900382,0.016169075834580656,0.9996874061078981,159.42561888655595,16.813112120431352,166.83210232694134,-12.95377542603649,-81.27279663085938,4381.2578125,True
1599566921.4774432,0.0,10,0.5,0.5,-1.8402247859954834,-0.05075,-0.00825,-0.37525,0.00843785824113863,10,1,100,-0.08991486777150569,-10,-1,-100,6478.635056065745,0.017961204660081484,0.014595086112354267,0.9997321534233715,167.03648629150135,17.606092745796058,182.66853835248733,-13.52908584109624,-77.89874267578125,4381.2578125,True
1599566921.5392752,0.0,10,0.5,0.5,-0.5989385845184326,-0.05075,-0.00825,-0.37525,0.1650364447190265,10,1,100,-0.20034660805732007,-10,-1,-100,6478.635056065745,0.017961204660081484,0.014595086112354267,0.9997321534233715,167.03648629150135,17.606092745796058,182.66853835248733,-13.52908584109624,-77.89874267578125,4381.2578125,True
1599566921.6110513,0.0,10,0.5,0.5,-2.110425418281555,-0.05075,-0.00825,-0.37525,-0.08449791350991345,10,1,100,-0.018233875149743034,-10,-1,-100,6477.510387361748,0.016309404642424512,0.012333614397254897,0.999790920780995,174.9420004573959,18.416741925377686,202.32398644415386,-14.295834988228265,-74.40567016601562,4381.2578125,True
1599566921.680863,0.0,10,0.5,0.5,-1.1220710290908813,-0.05075,-0.00825,-0.37525,0.07197375744392234,10,1,100,-0.13304529924296637,-10,-1,-100,6477.229587166919,0.01585668737059684,0.011708504096014153,0.9998057193262423,176.54518039214318,18.578684121215957,206.9589824394404,-14.487461739042654,-73.70062255859375,4381.2578125,True
1599566921.7397063,0.0,10,0.5,0.5,-1.6343516946792602,-0.05075,-0.00825,-0.37525,-0.06373853019589512,10,1,100,-0.02707682951193549,-10,-1,-100,6476.323227923363,0.014487366939549697,0.009915345556794622,0.9998458891857525,180.71850032235332,18.99495760776204,220.39901573697895,-15.062199178527319,-71.93020629882812,4381.2578125,True
1599566921.802538,0.0,10,0.5,0.5,-0.989970873451233,-0.05075,-0.00825,-0.37525,0.11452153860247077,10,1,100,-0.16329103871229014,-10,-1,-100,6476.323227923363,0.014487366939549697,0.009915345556794622,0.9998458891857525,180.71850032235332,18.99495760776204,220.39901573697895,-15.062199178527319,-71.93020629882812,4381.2578125,True
1599566921.864373,0.0,10,0.5,0.5,-1.3581514083862305,-0.05075,-0.00825,-0.37525,-0.02884817061627526,10,1,100,-0.05467324467256837,-10,-1,-100,6475.760173084331,0.013506133440581004,0.008620912446799248,0.9998716238738202,182.96049246909809,19.213907711992725,228.90939010425217,-15.445243762271566,-71.10659790039062,4381.2578125,True
1599566921.9252114,0.0,10,0.5,0.5,-1.289933955383301,-0.05075,-0.00825,-0.37525,-0.035229381758421247,10,1,100,-0.04382162937419558,-10,-1,-100,6475.073588202242,0.012522142265095891,0.007395524785202044,0.9998942454911142,184.7466605709902,19.383919006372516,236.98253926643895,-15.828205849748347,-70.57717895507812,4381.2578125,True
1599566921.9850857,0.0,10,0.5,0.5,-1.2074947586059572,-0.05075,-0.00825,-0.37525,-0.1317089036924057,10,1,100,0.03183003740674195,-10,-1,-100,6474.104755644337,0.01094721800430089,0.005414567726873461,0.9999254176558856,186.65027702953438,19.556113396952362,248.28421782346797,-16.402514098452603,-70.33828735351562,4381.2578125,True
1599566922.0613637,0.0,10,0.5,0.5,-1.100058113861084,-0.05075,-0.00825,-0.37525,-0.0057293784669516234,10,1,100,-0.06603002393432059,-10,-1,-100,6473.823481510277,0.010413099888823576,0.004769646254162657,0.9999344067614212,187.07602302621,19.59135614868158,251.81397323197828,-16.593919180523244,-70.4061279296875,4381.2578125,True
1599566922.1231983,0.0,10,0.5,0.5,-0.9818805603027344,-0.05075,-0.00825,-0.37525,-0.08664095672169964,10,1,100,0.0018233553991640478,-10,-1,-100,6473.135450153728,0.009318558641837137,0.003458157321728233,0.9999506015862868,187.63199396592333,19.630668439801646,258.51227639793785,-16.976690795973255,-70.76434326171875,4381.2578125,True
1599566922.192529,0.0,10,0.5,0.5,-0.6569772705078126,-0.05075,-0.00825,-0.37525,-0.16806848348678416,10,1,100,0.07802707029853197,-10,-1,-100,6472.1036607980495,0.007638617050962706,0.0015357688932785573,0.9999696460110454,187.67352800912266,19.606692755960363,267.5110723876518,-17.550774340472177,-71.85638427734375,4381.2578125,True
1599566922.2685745,0.0,10,0.5,0.5,-0.8535114105224612,-0.05075,-0.00825,-0.37525,-0.04887979073216876,10,1,100,-0.025280212259749094,-10,-1,-100,6471.697397865006,0.007059938707614977,0.0008835487262926974,0.9999746879831974,187.46627165738101,19.57575158739073,270.19706971493787,-17.742121794255734,-72.36868286132812,4381.2578125,True
1599566922.355661,0.0,10,0.5,0.5,-0.5179740829467774,-0.05075,-0.00825,-0.37525,-0.12107095541500235,10,1,100,0.044730132756783406,-10,-1,-100,6471.009388497681,0.005905818409816573,-0.00035525286292842405,0.9999824973989863,186.6802619815963,19.475646682905786,275.0087359767608,-18.124805771479995,-73.61154174804688,4381.2578125,True
1599566922.4444242,0.0,10,0.5,0.5,0.3786448234558105,-0.05075,-0.00825,-0.37525,-0.26166776766778616,10,1,100,0.18943449425450737,-10,-1,-100,6469.507904333528,0.0035501701881666976,-0.0027486219127375302,0.9999899206338111,183.6891725677673,19.13164008572929,282.3293338666415,-18.89016960405061,-76.81124877929688,4381.2578125,True
1599566922.5252075,0.0,10,0.5,0.5,-0.419514412689209,-0.05075,-0.00825,-0.37525,-0.08557680857220856,10,1,100,0.01983778938885246,-10,-1,-100,6469.1021419186145,0.002960402937037658,-0.003312072359450074,0.9999901330468896,182.6291231514983,19.014445656521666,283.6210569573471,-19.081516071920372,-77.7467041015625,4381.2578125,True
1599566922.6169615,0.0,10,0.5,0.5,0.06653284759521472,-0.05075,-0.00825,-0.37525,-0.1481043238483375,10,1,100,0.09000416696097277,-10,-1,-100,6468.351657358697,0.0017968537889942664,-0.004380707069956973,0.9999887902981854,180.16535138757038,18.746520324320922,285.5656929036988,-19.464221453461082,-79.70040893554688,4381.2578125,True
1599566922.7186897,0.0,10,0.5,0.5,0.1629708938598632,-0.05075,-0.00825,-0.37525,-0.1566763148928644,10,1,100,0.10386061485146622,-10,-1,-100,6467.538190499297,0.0006237589278154126,-0.0054183007076255285,0.9999851263605084,177.51303335947802,18.462384807388524,287.05762077233356,-19.84694054515463,-81.631103515625,4381.2578125,True
1599566922.7986648,0.0,10,0.5,0.5,0.7450329704284667,-0.05075,-0.00825,-0.37525,-0.21453110719258622,10,1,100,0.18066202667769388,-10,-1,-100,6466.380501252599,-0.001130068886824451,-0.006875871375964571,0.9999757223738646,173.44720789833192,18.0343666787452,288.84884414630284,-20.421028297055773,-84.67672729492188,4381.2578125,True
1599566922.882441,0.0,10,0.5,0.5,-0.38600813980102544,-0.05075,-0.00825,-0.37525,-0.0700030842689658,10,1,100,0.006486973902820056,-10,-1,-100,6466.380501252599,-0.001130068886824451,-0.006875871375964571,0.9999757223738646,173.44720789833192,18.0343666787452,288.84884414630284,-20.421028297055773,-84.67672729492188,4381.2578125,True
1599566922.966216,0.0,10,0.5,0.5,0.49528976287841786,-0.05075,-0.00825,-0.37525,-0.16856158816753464,10,1,100,0.1326983230149572,-10,-1,-100,6465.505035969778,-0.002266950998047836,-0.007761270940833263,0.9999673112690011,177.99996722106408,18.509563799893204,302.166345090781,-20.803658955862403,-86.71786499023438,4381.2578125,True
1599566923.045006,0.0,10,0.5,0.5,1.353882769012451,-0.05075,-0.00825,-0.37525,-0.2585246631602067,10,1,100,0.2649455071848779,-10,-1,-100,6463.815151267685,-0.0044921950373957515,-0.009373826292226764,0.9999459743228077,186.47509030935186,19.40655224971525,328.5978004640754,-21.568504060407648,-90.50041961669922,4381.2578125,True
1599566923.1736627,0.0,10,0.5,0.5,0.7689042367935179,-0.05075,-0.00825,-0.37525,-0.17728928055893645,10,1,100,0.1616052614527878,-10,-1,-100,6462.938231669948,-0.005564659373703621,-0.010091364410586121,0.9999335972605319,190.45402701185907,19.83378331954044,341.77264860920394,-21.950701713803618,-92.42305755615234,4381.2578125,True
1599566923.2863624,0.0,10,0.5,0.5,0.4493819343566894,-0.05075,-0.00825,-0.37525,-0.1414511516434604,10,1,100,0.10932469423223842,-10,-1,-100,6462.532487020129,-0.00605287216099549,-0.010407893425193137,0.9999275166196059,192.38299353354105,20.04245348302649,348.35004621954,-22.141740179072688,-93.3277587890625,4381.2578125,True
1599566923.4100304,0.0,10,0.5,0.5,0.4840686183929443,-0.05075,-0.00825,-0.37525,-0.14468772494019114,10,1,100,0.11526343571068358,-10,-1,-100,6462.062778363354,-0.006539818989636862,-0.01071593170429501,0.9999211966826645,194.2006872163752,20.24034687108045,354.7885589996053,-22.332738380818576,-94.16792297363281,4381.2578125,True
1599566923.5017843,0.0,10,0.5,0.5,1.3845271377563475,-0.05075,-0.00825,-0.37525,-0.23958585133293248,10,1,100,0.2783392206376921,-10,-1,-100,6460.248885330278,-0.008455832343031093,-0.011851433734511125,0.9998940155925643,200.3215511540463,20.918673907427753,378.9757744800007,-23.09634036590042,-96.9881362915039,4381.2578125,True
1599566923.5775833,0.0,10,0.5,0.5,0.8425245664596558,-0.05075,-0.00825,-0.37525,-0.1790165885480256,10,1,100,0.184216380623611,-10,-1,-100,6459.308491782867,-0.00933162208664323,-0.012325315589958386,0.9998804965718854,203.07193847654867,21.22868695929752,390.78251064825304,-23.47791404207962,-98.16280364990234,4381.2578125,True
1599566923.6683407,0.0,10,0.5,0.5,0.8462577396392822,-0.05075,-0.00825,-0.37525,-0.17721756042964473,10,1,100,0.18496134429895006,-10,-1,-100,6458.370051033446,-0.01012445018163404,-0.012732540104270614,0.9998676802112432,205.5963657990711,21.516773788963825,402.3338962340523,-23.85933996434739,-99.17053985595703,4381.2578125,True
1599566923.7441373,0.0,10,0.5,0.5,0.48257476329803467,-0.05075,-0.00825,-0.37525,-0.13722653293808648,10,1,100,0.10675335571081408,-10,-1,-100,6458.370051033446,-0.01012445018163404,-0.012732540104270614,0.9998676802112432,205.5963657990711,21.516773788963825,402.3338962340523,-23.85933996434739,-99.17053985595703,4381.2578125,True
1599566924.4710355,0.0,10,0.5,0.5,0.943052254486084,-0.05075,-0.00825,-0.37525,-0.19528218769674383,10,1,100,0.22933333009507828,-10,-1,-100,6456.900373250595,-0.011230636874859342,-0.013254994539596311,0.99984907756878,208.89706458736583,21.900500060186143,419.01019551773425,-24.431217588948584,-100.22340393066406,4381.2578125,True
1599566924.5378225,0.0,10,0.5,0.5,0.7923817169189453,-0.05075,-0.00825,-0.37525,-0.18815933156769643,10,1,100,0.22767742684058562,-10,-1,-100,6455.428250442259,-0.012212025140943288,-0.013659400676752304,0.999832129517305,211.42813277849206,22.205597430066856,434.4484847523703,-25.00281215051907,-100.76704406738281,4381.2578125,True
1599566924.6380725,0.0,10,0.5,0.5,0.6430874477386476,-0.05075,-0.00825,-0.37525,-0.16041289981371407,10,1,100,0.16355588486839423,-10,-1,-100,6454.897013804759,-0.012512232206597048,-0.013769440394825258,0.999826908297842,212.12383930293947,22.292089539628744,439.34808355068174,-25.193287038163103,-100.86825561523438,4381.2578125,True
1599566924.702898,0.0,10,0.5,0.5,0.6324144834518434,-0.05075,-0.00825,-0.37525,-0.1598212413048788,10,1,100,0.1626695863581359,-10,-1,-100,6454.364800781594,-0.012769799518762481,-0.01386010177562708,0.9998223991284753,212.76052823558464,22.372512944743082,444.1497906494081,-25.383735521741393,-100.91227722167969,4381.2578125,True
1599566924.7657623,0.0,10,0.5,0.5,0.5859613445281983,-0.05075,-0.00825,-0.37525,-0.16761729929674118,10,1,100,0.19092986673874543,-10,-1,-100,6453.363358825794,-0.01325431313315018,-0.01400996834231381,0.9998140046880798,213.7686306866847,22.505763292792444,453.2613208083659,-25.76455959688393,-100.82556915283203,4381.2578125,True
1599566924.8325534,0.0,10,0.5,0.5,0.4027236543655396,-0.05075,-0.00825,-0.37525,-0.16811596768752127,10,1,100,0.21346961336760756,-10,-1,-100,6451.76768290496,-0.013893140078335786,-0.014147469411111457,0.9998033955573594,214.6311500133549,22.63762613826615,465.66468267,-26.335636844488732,-100.30453491210938,4381.2578125,True
1599566924.9073868,0.0,10,0.5,0.5,0.35447511234283446,-0.05075,-0.00825,-0.37525,-0.15765503309354434,10,1,100,0.18668059354885064,-10,-1,-100,6450.703243481577,-0.014223670465526092,-0.014174251397612421,0.9997983685702859,214.8131062799783,22.68406670932034,473.1305482477617,-26.716266499643524,-99.72042846679688,4381.2578125,True
1599566924.9652343,0.0,10,0.5,0.5,0.2551866508483887,-0.05075,-0.00825,-0.37525,-0.1526875256147263,10,1,100,0.18266433513138325,-10,-1,-100,6449.63879988913,-0.014482397706338036,-0.014151327846748496,0.999794979021624,214.68672106937854,22.697667791443344,479.9322614749455,-27.096838378464188,-98.96754455566406,4381.2578125,True
1599566925.031025,0.0,10,0.5,0.5,0.3567209272384644,-0.05075,-0.00825,-0.37525,-0.15182436220420792,10,1,100,0.1686290284497226,-10,-1,-100,6449.106576723047,-0.01458532806849771,-0.01412098130381586,0.9997939118099046,214.51786796148292,22.693114694752726,483.0971634026773,-27.28710571163468,-98.5411376953125,4381.2578125,True
1599566925.0988748,0.0,10,0.5,0.5,0.114729765701294,-0.05075,-0.00825,-0.37525,-0.14425429949140786,10,1,100,0.17627106350545174,-10,-1,-100,6447.980602298048,-0.014744318827434167,-0.014023312566306605,0.9997929544495614,214.11769318006543,22.676871554613015,489.27802186646875,-27.667606754068785,-97.59869384765625,4381.2578125,True
1599566925.1596777,0.0,10,0.5,0.5,0.02571196918487556,-0.05075,-0.00825,-0.37525,-0.13809369019082463,10,1,100,0.17119672871269767,-10,-1,-100,6446.853647592012,-0.014838525684127909,-0.013877343836327402,0.9997935974407767,213.56925743271213,22.644007766057157,495.10306299624256,-28.04806648185952,-96.56260681152344,4381.2578125,True
1599566925.2225106,0.0,10,0.5,0.5,-0.06990185832977291,-0.05075,-0.00825,-0.37525,-0.13106176150476004,10,1,100,0.16596527739770528,-10,-1,-100,6445.734989333316,-0.01487332973388659,-0.013680152594385056,0.9997957978945607,212.86824413292794,22.59376690669399,500.54760457869423,-28.4284899523674,-95.4325942993164,4381.2578125,True
1599566925.3025463,0.0,10,0.5,0.5,-0.6812725574493408,-0.05075,-0.00825,-0.37525,-0.09185621315390535,10,1,100,0.1509682645043386,-10,-1,-100,6443.413676692406,-0.0147662139304612,-0.013144454887686396,0.9998045720198849,211.2177320102446,22.462079089806192,510.74056683378694,-29.18923558256582,-93.01239013671875,4381.2578125,True
1599566925.374356,0.0,10,0.5,0.5,-0.04002056655883787,-0.05075,-0.00825,-0.37525,-0.12745330669030414,10,1,100,0.1554722365690278,-10,-1,-100,6442.8194303557975,-0.01470773205364087,-0.01298163508238864,0.9998075613678995,210.72539042579515,22.41948122674339,513.0696016475883,-29.37940205021316,-92.40100860595703,4381.2578125,True
1599566925.442173,0.0,10,0.5,0.5,-0.07643516445159912,-0.05075,-0.00825,-0.37525,-0.1243896186035102,10,1,100,0.15362844664424824,-10,-1,-100,6442.224694984499,-0.01463604322763814,-0.012806563973777314,0.9998108711940594,210.21228667400294,22.374136074365893,515.3349541065959,-29.569560650923133,-91.79346466064453,4381.2578125,True
1599566925.5069995,0.0,10,0.5,0.5,-0.5467549825668334,-0.05075,-0.00825,-0.37525,-0.07831554257743811,10,1,100,0.13028396313556448,-10,-1,-100,6440.442925899988,-0.014357392872016272,-0.012229647187865032,0.9998221346817537,208.71053486949006,22.238792951790376,522.1434735465334,-30.13998421167524,-90.1717529296875,4381.2578125,True
1599566925.5698342,0.0,10,0.5,0.5,-0.37306121921539304,-0.05075,-0.00825,-0.37525,-0.08683748894671114,10,1,100,0.13160585501423702,-10,-1,-100,6439.2510083745,-0.01411566951780825,-0.0117843930969593,0.9998309236832997,207.79739543939172,22.15528832015348,526.8391377024165,-30.52021507695423,-89.17059326171875,4381.2578125,True
1599566925.633176,0.0,10,0.5,0.5,-0.21512751941680908,-0.05075,-0.00825,-0.37525,-0.10498709818303197,10,1,100,0.14080527769321,-10,-1,-100,6438.657246211078,-0.01397965031192591,-0.011546785696739418,0.9998356070460932,207.33188162947604,22.111776300740022,529.1462344117165,-30.710313894505337,-88.67987060546875,4381.2578125,True
1599566925.6975837,0.0,10,0.5,0.5,-0.5891968206405639,-0.05075,-0.00825,-0.37525,-0.04588927166957271,10,1,100,0.10458622109423528,-10,-1,-100,6436.748514822219,-0.01352718938058257,-0.01079589376655354,0.9998502206957017,206.11017843731358,21.996700541353455,536.4485142648691,-31.28053808079417,-87.38943481445312,4381.2578125,True
1599566925.769392,0.0,10,0.5,0.5,-0.4197244215011597,-0.05075,-0.00825,-0.37525,-0.059634239195488166,10,1,100,0.11159123664735332,-10,-1,-100,6435.486768228002,-0.013180505165015073,-0.010241241796199485,0.9998606859208271,205.54024258545434,21.943690233680428,541.9089660718348,-31.66061662145449,-86.67214965820312,4381.2578125,True
1599566925.8222492,0.0,10,0.5,0.5,-0.535915700340271,-0.05075,-0.00825,-0.37525,-0.018809301265571385,10,1,100,0.08400044036218553,-10,-1,-100,6433.581452734768,-0.012615933924327114,-0.009369315179033015,0.999876519448423,204.88394900802592,21.882275196138878,550.5848549616044,-32.23061471197133,-85.78872680664062,4381.2578125,True
1599566925.9060252,0.0,10,0.5,0.5,-0.3048491647720337,-0.05075,-0.00825,-0.37525,-0.07176537221345183,10,1,100,0.11816897952467187,-10,-1,-100,6432.922746675671,-0.0124153309631423,-0.00906217165264177,0.9998818613226333,204.75744076174877,21.870956273596427,553.7177355379569,-32.42057932535878,-85.57382202148438,4381.2578125,True
1599566925.96786,0.0,10,0.5,0.5,-0.4123963939666748,-0.05075,-0.00825,-0.37525,0.0006907489376534737,10,1,100,0.068972653811946,-10,-1,-100,6430.94760773459,-0.011787959854468366,-0.008128456419041264,0.999897480844268,204.72197080519365,21.87232281036133,564.0572174844941,-32.99035646625114,-85.15115356445312,4381.2578125,True
1599566926.0310094,0.0,10,0.5,0.5,-0.2602755756378174,-0.05075,-0.00825,-0.37525,-0.09217917457553253,10,1,100,0.13141193927174014,-10,-1,-100,6430.94760773459,-0.011787959854468366,-0.008128456419041264,0.999897480844268,204.72197080519365,21.87232281036133,564.0572174844941,-32.99035646625114,-85.15115356445312,4381.2578125,True
1599566926.0928426,0.0,10,0.5,0.5,-0.31779064159393317,-0.05075,-0.00825,-0.37525,-0.018601594699466525,10,1,100,0.08151268523712557,-10,-1,-100,6429.638010191382,-0.01133698461069839,-0.007463981309861889,0.9999078766381145,204.97137470978237,21.90168229093768,571.7254008845737,-33.37010229441685,-85.03018188476562,4381.2578125,True
1599566926.1537151,0.0,10,0.5,0.5,-0.2672763252258301,-0.05075,-0.00825,-0.37525,0.02493186667470676,10,1,100,0.050388935586187775,-10,-1,-100,6427.604768513353,-0.010647063081914378,-0.006469011182355351,0.9999223929595997,205.6480688152193,21.977746371630506,584.1426161710424,-33.93954912776089,-85.0552978515625,4381.2578125,True
1599566926.2215078,0.0,10,0.5,0.5,-0.22463005294799804,-0.05075,-0.00825,-0.37525,0.0018928083768414566,10,1,100,0.0657649983699023,-10,-1,-100,6426.222419165657,-0.0101630171081355,-0.005779175810971373,0.9999316547695676,206.28286142517686,22.04829753620475,593.0031350374353,-34.31905859471944,-85.18743896484375,4381.2578125,True
1599566926.2837875,0.0,10,0.5,0.5,-0.23466549911499024,-0.05075,-0.00825,-0.37525,-0.028694090720281437,10,1,100,0.08696748319479909,-10,-1,-100,6425.564693201217,-0.009919318496208012,-0.005435574753583408,0.9999360287776758,206.64607334910892,22.08862681335339,597.5869680313947,-34.508775078523236,-85.28799438476562,4381.2578125,True
1599566926.3456585,0.0,10,0.5,0.5,-0.16276899566650394,-0.05075,-0.00825,-0.37525,0.012559800798168791,10,1,100,0.05720598539426952,-10,-1,-100,6424.119846930727,-0.009430906443374316,-0.004753730424829489,0.9999442284701205,207.47224055020158,22.18041806982025,607.0935103482266,-34.88812938102869,-85.55191040039062,4381.2578125,True
1599566926.4119534,0.0,10,0.5,0.5,-0.03652592010498046,-0.05075,-0.00825,-0.37525,0.060408196465198405,10,1,100,0.022148640703989156,-10,-1,-100,6422.03094968095,-0.00867191624628405,-0.0037043794047544967,0.9999555367324304,208.92530390303867,22.342561678626726,622.1207392873631,-35.45695567830477,-86.08428955078125,4381.2578125,True
1599566926.4757833,0.0,10,0.5,0.5,-0.1464197868347168,-0.05075,-0.00825,-0.37525,-0.005212309890665651,10,1,100,0.06932702815314096,-10,-1,-100,6421.3068200449925,-0.008414918306574945,-0.0033529165919136726,0.9999589727084913,209.45717450631636,22.402216322787343,627.3119920349203,-35.64650782657296,-86.29641723632812,4381.2578125,True
1599566926.5495853,0.0,10,0.5,0.5,0.0777775382995605,-0.05075,-0.00825,-0.37525,0.07203155633183475,10,1,100,0.011699887098221937,-10,-1,-100,6419.148592675803,-0.007661219820538087,-0.002336657431478483,0.999967922356967,211.1706395097718,22.5956833279249,643.3745494282383,-36.21498784537248,-87.00857543945312,4381.2578125,True
1599566926.6164448,0.0,10,0.5,0.5,-0.08149014511108402,-0.05075,-0.00825,-0.37525,0.007544264688300894,10,1,100,0.059221395486037276,-10,-1,-100,6418.424953185255,-0.00741237501052345,-0.002005147677134221,0.9999705176051423,211.76675561670876,22.66352785192122,648.8512490688631,-36.404421189385175,-87.25924682617188,4381.2578125,True
1599566926.6822305,0.0,10,0.5,0.5,0.16558834152221677,-0.05075,-0.00825,-0.37525,0.08505915520637679,10,1,100,0.000573269592312603,-10,-1,-100,6416.207650016528,-0.006656965479516233,-0.001004660994604118,0.9999773374766503,213.5940599113362,22.87341571348989,665.5463595725957,-36.97253775926352,-88.05596923828125,4381.2578125,True
1599566926.744068,0.0,10,0.5,0.5,-0.01760801239013672,-0.05075,-0.00825,-0.37525,0.020353211548154393,10,1,100,0.049134901515387325,-10,-1,-100,6415.486942401156,-0.006416363463696672,-0.0006898396759464432,0.9999791769837627,214.21018005112361,22.944886565677596,671.1822244532422,-37.16184781773729,-88.32211303710938,4381.2578125,True
1599566926.8049033,0.0,10,0.5,0.5,0.11577502899169918,-0.05075,-0.00825,-0.37525,0.061045699055673225,10,1,100,0.017865618296133937,-10,-1,-100,6413.977168324869,-0.0059178414392738595,-3.986508312921803e-05,0.9999824886284132,215.42955356597855,23.08758099884586,682.4873368684988,-37.54037437104298,-88.86328125,4381.2578125,True
1599566926.8737192,0.0,10,0.5,0.5,0.2485257385253906,-0.05075,-0.00825,-0.37525,0.09565805245949986,10,1,100,-0.009676749065244822,-10,-1,-100,6411.69395594846,-0.005218553733461169,0.0008598339902855687,0.9999860135934102,217.22792761579365,23.301172139254643,699.5301513791197,-38.10792818820853,-89.64422607421875,4381.2578125,True
1599566926.9345896,0.0,10,0.5,0.5,0.17396661071777342,-0.05075,-0.00825,-0.37525,0.07052871708421965,10,1,100,0.009507836972623751,-10,-1,-100,6410.191022136947,-0.004761737931589051,0.0014432582719771392,0.9999876213521003,218.38235761725426,23.440606134675644,710.8683290054705,-38.48614035729286,-90.14848327636719,4381.2578125,True
1599566926.9993842,0.0,10,0.5,0.5,0.0920168773651123,-0.05075,-0.00825,-0.37525,0.04360968246279501,10,1,100,0.03050296437552587,-10,-1,-100,6409.407817605883,-0.004542004343154071,0.0017226720014787424,0.9999882012292556,218.94770728011397,23.509578356957082,716.5338072476783,-38.675199254774775,-90.39088439941406,4381.2578125,True
1599566927.0622182,0.0,10,0.5,0.5,0.2770669761657715,-0.05075,-0.00825,-0.37525,0.10326384609520912,10,1,100,-0.016607143647424612,-10,-1,-100,6407.059670641203,-0.003918417282641103,0.002513107422750957,0.9999891650898428,220.54832268770502,23.708207113813494,733.3516147869451,-39.2421885945273,-91.02942657470703,4381.2578125,True
1599566927.1280394,0.0,10,0.5,0.5,0.12010546398162841,-0.05075,-0.00825,-0.37525,0.052588491375297954,10,1,100,0.023311621000733487,-10,-1,-100,6406.279397369712,-0.0037187391780340627,0.0027653477747924095,0.9999892618576512,221.04113644867707,23.770629190632174,738.8655460805135,-39.431123610009095,-91.2138671875,4381.2578125,True
1599566927.197886,0.0,10,0.5,0.5,0.2656629343032837,-0.05075,-0.00825,-0.37525,0.10632445708344479,10,1,100,-0.01921885648118901,-10,-1,-100,6403.865335733397,-0.0031548421777634044,0.0034776039063889683,0.9999889765601937,222.4262130265423,23.949399934657695,755.2146131647554,-39.99774808561923,-91.70849609375,4381.2578125,True
1599566927.2606862,0.0,10,0.5,0.5,0.239800226020813,-0.05075,-0.00825,-0.37525,0.10709073226056756,10,1,100,-0.019697531743431952,-10,-1,-100,6401.454694126267,-0.0026419536548085744,0.004126789926416167,0.9999879947708318,223.65966177183142,24.113851601797325,771.2181346164924,-40.564106565979486,-92.07438659667969,4381.2578125,True
1599566927.3245134,0.0,10,0.5,0.5,0.1470793302536011,-0.05075,-0.00825,-0.37525,0.0638237725630817,10,1,100,0.014655247828582171,-10,-1,-100,6400.6060621246,-0.002492326104009507,0.004318048549551431,0.9999875713064214,224.03955619625825,24.16566828459195,776.4803474787202,-40.752834999602285,-92.16970825195312,4381.2578125,True
1599566927.3913689,0.0,10,0.5,0.5,0.19088982524871828,-0.05075,-0.00825,-0.37525,0.10354203594204117,10,1,100,-0.016029273106033512,-10,-1,-100,6398.135363564827,-0.002081136903309764,0.0048481563198975244,0.9999860820278887,225.0661290966465,24.30976896496043,791.9710213182574,-41.31885170077189,-92.34854888916016,4381.2578125,True
1599566927.4651728,0.0,10,0.5,0.5,0.14632940788269044,-0.05075,-0.00825,-0.37525,0.08687820532085865,10,1,100,-0.002771055102100451,-10,-1,-100,6396.5074370662915,-0.0018317989086733774,0.005173548563659728,0.9999849393405972,225.6579139429931,24.396344367711905,802.0479229246888,-41.69605959575954,-92.39368438720703,4381.2578125,True
1599566927.5379775,0.0,10,0.5,0.5,0.13393970623016357,-0.05075,-0.00825,-0.37525,0.07014424999047314,10,1,100,0.010339995240575618,-10,-1,-100,6395.658805674873,-0.0017280339553288086,0.005312493360761146,0.9999843955347208,225.93301160770298,24.437487420007844,807.0334415743142,-41.88462350187058,-92.39752197265625,4381.2578125,True
1599566927.599812,0.0,10,0.5,0.5,0.12145537128448487,-0.05075,-0.00825,-0.37525,0.08516255479758617,10,1,100,-0.0005924276157774182,-10,-1,-100,6393.971796914237,-0.0015374897170288388,0.005571288984217576,0.9999832982927386,226.44415637406203,24.515678842516717,816.9042933969483,-42.261672664957864,-92.36626434326172,4381.2578125,True
1599566927.663643,0.0,10,0.5,0.5,0.10291951065063479,-0.05075,-0.00825,-0.37525,0.08499343429954231,10,1,100,3.2551024627135855e-05,-10,-1,-100,6392.277464026585,-0.0013728804409548715,0.005801267518548259,0.9999822300893518,226.90907382668237,24.588940205087116,826.6585261194809,-42.638618754899056,-92.29092407226562,4381.2578125,True
1599566927.7284675,0.0,10,0.5,0.5,0.11033913803100587,-0.05075,-0.00825,-0.37525,0.07374643726913671,10,1,100,0.00832379506274408,-10,-1,-100,6391.428833055077,-0.0013014916120543272,0.005904385671738765,0.9999817220076689,227.12640701652867,24.623927178223337,831.4985588052591,-42.82705359957983,-92.23829650878906,4381.2578125,True
1599566927.7907758,0.0,10,0.5,0.5,0.07470508136749268,-0.05075,-0.00825,-0.37525,0.08300541263077932,10,1,100,0.002557512876055882,-10,-1,-100,6389.683229993563,-0.0011865509528753823,0.006079218970427806,0.9999808174127871,227.53309535246814,24.690796364863328,841.1103731239006,-43.20384849479187,-92.10594940185547,4381.2578125,True
1599566927.8626175,0.0,10,0.5,0.5,0.054943915939331074,-0.05075,-0.00825,-0.37525,0.08167199894853569,10,1,100,0.004292512410488444,-10,-1,-100,6387.916142527363,-0.0011001341568667817,0.006223023780128687,0.9999800316405668,227.91030328794858,24.754296468187054,850.6573009147272,-43.58054425405734,-91.94125366210938,4381.2578125,True
1599566927.9244537,0.0,10,0.5,0.5,-0.012348588562011709,-0.05075,-0.00825,-0.37525,0.08492876474717746,10,1,100,0.004376319484009753,-10,-1,-100,6385.328742779908,-0.00102420323209179,0.006380866550868286,0.9999791175568615,228.42990936784003,24.844025937431127,864.884114418682,-44.1454046033984,-91.63776397705078,4381.2578125,True
1599566927.9872513,0.0,10,0.5,0.5,0.0025507478713989312,-0.05075,-0.00825,-0.37525,0.07621280626980598,10,1,100,0.010513200411455273,-10,-1,-100,6383.50647787354,-0.0010124356274755903,0.006443074832087769,0.9999787306542117,228.75180517563012,24.900730276776777,874.326892452198,-44.52185757000092,-91.40625,4381.2578125,True
1599566928.0560672,0.0,10,0.5,0.5,-0.0676968629837036,-0.05075,-0.00825,-0.37525,0.0735612992268487,10,1,100,0.01578829299945174,-10,-1,-100,6380.846322650672,-0.0010510385472394983,0.00647359136345811,0.9999784937351559,229.22728996117883,24.984160726821745,888.5377790865937,-45.08635696916188,-91.03889465332031,4381.2578125,True
1599566928.1548045,0.0,10,0.5,0.5,-0.03495064086914061,-0.05075,-0.00825,-0.37525,0.06866419292613274,10,1,100,0.018534610249447483,-10,-1,-100,6379.024057146278,-0.0011120350841667126,0.006455336848294128,0.9999785457719313,229.5636951921903,25.04130967083965,898.1377646949304,-45.462569771618874,-90.79470825195312,4381.2578125,True
1599566928.2435653,0.0,10,0.5,0.5,-0.04381632404327392,-0.05075,-0.00825,-0.37525,0.06499345349197078,10,1,100,0.022128765658858372,-10,-1,-100,6377.208627110696,-0.001200814952208376,0.006404206213939369,0.9999787718677932,229.92339776937538,25.100524874585144,907.8715063240368,-45.838685390742526,-90.56189727783203,4381.2578125,True
1599566928.3193629,0.0,10,0.5,0.5,-0.05081138343811035,-0.05075,-0.00825,-0.37525,0.061381165586163314,10,1,100,0.025914463054560473,-10,-1,-100,6375.331184766488,-0.0013164186440281988,0.006323892371879357,0.9999791374959892,230.3230571982777,25.163654556680893,917.8081553777183,-46.21470219177297,-90.34395599365234,4381.2578125,True
1599566928.3891761,0.0,10,0.5,0.5,-0.015139490127563472,-0.05075,-0.00825,-0.37525,0.06383290030398228,10,1,100,0.02182385760014599,-10,-1,-100,6374.4200512062525,-0.0013845265607088156,0.0062724841007252815,0.9999793693018916,230.5360707450969,25.196501069862457,922.8467988287427,-46.40267294046119,-90.23963165283203,4381.2578125,True
1599566928.477938,0.0,10,0.5,0.5,-0.020696212959289546,-0.05075,-0.00825,-0.37525,0.06260590883750689,10,1,100,0.02312827073025547,-10,-1,-100,6373.512824401143,-0.0014582905624015044,0.006214166462178912,0.99997962855441,230.7581647561926,25.230238556907615,927.9341791292819,-46.59061844807995,-90.13866424560547,4381.2578125,True
1599566928.5447602,0.0,10,0.5,0.5,-0.06562118530273438,-0.05075,-0.00825,-0.37525,0.05341694641463693,10,1,100,0.033961220302517955,-10,-1,-100,6371.6348932049,-0.0016236875610060194,0.0060773327862102666,0.9999802146367246,231.23000346949533,25.300448313109364,938.258935322208,-46.966432918329865,-89.94833374023438,4381.2578125,True
1599566928.6145723,0.0,10,0.5,0.5,-0.14574532108306884,-0.05075,-0.00825,-0.37525,0.02776957647493135,10,1,100,0.06243185800343072,-10,-1,-100,6367.766725581954,-0.00203247505101103,0.005719782341499827,0.999981576397852,232.27729676619865,25.451156894760487,959.4947370420012,-47.71775016969144,-89.59677124023438,4381.2578125,True
1599566928.6813943,0.0,10,0.5,0.5,-0.05036299076080322,-0.05075,-0.00825,-0.37525,0.052011661328968416,10,1,100,0.034297614026567405,-10,-1,-100,6366.78137266601,-0.0021474866049585152,0.0056155765644712455,0.9999819266372417,232.55731434588043,25.490621196555193,964.9147558052637,-47.905513425070836,-89.51553344726562,4381.2578125,True
1599566928.747219,0.0,10,0.5,0.5,-0.05426057472229004,-0.05075,-0.00825,-0.37525,0.05016893275751749,10,1,100,0.03629695742900854,-10,-1,-100,6365.795044063241,-0.0022691972455030876,0.005504787680146978,0.999982273871121,232.8475473220673,25.53112954966648,970.3923348029479,-48.093249924448685,-89.43893432617188,4381.2578125,True
1599566928.826047,0.0,10,0.5,0.5,-0.10280263175964355,-0.05075,-0.00825,-0.37525,0.02179880597945693,10,1,100,0.06675351129106522,-10,-1,-100,6362.917599834036,-0.00265557853418228,0.005147013257462495,0.9999832279379371,233.7961658683537,25.660833514840593,987.2466954024197,-48.65629610854227,-89.26132202148438,4381.2578125,True
1599566928.8918052,0.0,10,0.5,0.5,-0.09124712600708008,-0.05075,-0.00825,-0.37525,0.012221343897518985,10,1,100,0.07633296788569745,-10,-1,-100,6359.942988997791,-0.0030924615474900727,0.004735901925282615,0.999984003829327,234.8668638210229,25.803609514693104,1004.7716478940029,-49.21908955642393,-89.13543701171875,4381.2578125,True
1599566928.9576292,0.0,10,0.5,0.5,-0.04537767486572266,-0.05075,-0.00825,-0.37525,0.05316053362320579,10,1,100,0.032842709201250514,-10,-1,-100,6359.942988997791,-0.0030924615474900727,0.004735901925282615,0.999984003829327,234.8668638210229,25.803609514693104,1004.7716478940029,-49.21908955642393,-89.13543701171875,4381.2578125,True
1599566929.0204613,0.0,10,0.5,0.5,-0.08091479511260986,-0.05075,-0.00825,-0.37525,-0.011844328832668324,10,1,100,0.10110527089332041,-10,-1,-100,6355.994745539501,-0.0037113106114222702,0.004146465270491629,0.9999845163797818,236.4550923503809,26.011483473165057,1029.0914453868452,-49.969075046841866,-89.05477905273438,4381.2578125,True
1599566929.1029022,0.0,10,0.5,0.5,-0.05354453582763672,-0.05075,-0.00825,-0.37525,0.028661393665526665,10,1,100,0.0584770960012633,-10,-1,-100,6354.961053711828,-0.0038841946323715723,0.003980827086211949,0.9999845329042681,236.88252002464895,26.066830717026857,1035.3535616796423,-50.15649691885024,-89.05047607421875,4381.2578125,True
1599566929.1627457,0.0,10,0.5,0.5,-0.050791816902160655,-0.05075,-0.00825,-0.37525,0.009434542294060974,10,1,100,0.0785146112113195,-10,-1,-100,6352.956659946707,-0.004221248727806301,0.0036575406853212003,0.9999844016060018,237.77042792910157,26.181270252618862,1048.0865315074775,-50.53124885576554,-89.05545043945312,4381.2578125,True
1599566929.2481544,0.0,10,0.5,0.5,-0.0419946647644043,-0.05075,-0.00825,-0.37525,0.0046709656873471644,10,1,100,0.08346628753221175,-10,-1,-100,6350.889278031769,-0.004570165000968343,0.0033226629206111738,0.9999840366240752,238.69622222874904,26.30007529015988,1061.0748679114165,-50.9058769240343,-89.08258056640625,4381.2578125,True
1599566929.3110235,0.0,10,0.5,0.5,-0.03359676666259766,-0.05075,-0.00825,-0.37525,-0.00044331814618020493,10,1,100,0.08871577736877312,-10,-1,-100,6348.883908870979,-0.004932405631957155,0.0029742393449932636,0.9999834124999277,239.65818881415836,26.423123698544522,1074.315520055526,-51.28037882192057,-89.12786865234375,4381.2578125,True
1599566929.3748536,0.0,10,0.5,0.5,-0.024898986053466795,-0.05075,-0.00825,-0.37525,-0.00456895010062193,10,1,100,0.09314594304550985,-10,-1,-100,6346.816528549651,-0.005299353229389185,0.0026224808430243356,0.9999825195720065,240.6535180499023,26.55016297006117,1087.8003485940292,-51.65475247656447,-89.1890869140625,4381.2578125,True
1599566929.904462,0.0,10,0.5,0.5,-0.03285188293457031,-0.05075,-0.00825,-0.37525,0.010578616046054663,10,1,100,0.07736365500914474,-10,-1,-100,6345.78186244634,-0.00548660127524732,0.002443126529587322,0.9999819640069549,241.16179817603813,26.61498621377888,1094.6270457429966,-51.84189065235995,-89.2249755859375,4381.2578125,True
1599566929.9593132,0.0,10,0.5,0.5,-0.02990699996948243,-0.05075,-0.00825,-0.37525,0.008393682738705992,10,1,100,0.07964165988293194,-10,-1,-100,6344.748172589345,-0.005674610993943923,0.0022629974519873756,0.9999813386421766,241.6756862038356,26.680524413916885,1101.5038478918898,-52.02899610960749,-89.263916015625,4381.2578125,True
1599566930.0171592,0.0,10,0.5,0.5,-0.026732588195800783,-0.05075,-0.00825,-0.37525,0.0061474981151916595,10,1,100,0.08203622347918862,-10,-1,-100,6343.713995339116,-0.0058645531050342935,0.002081445717414999,0.9999806371128411,242.1957520921984,26.746845143170937,1108.4337357772463,-52.21606844347654,-89.3056640625,4381.2578125,True
1599566930.0984616,0.0,10,0.5,0.5,-0.0035556518554687513,-0.05075,-0.00825,-0.37525,-0.016524186378965775,10,1,100,0.10581986136350484,-10,-1,-100,6341.584116904996,-0.006250922558103374,0.0017127056053185593,0.9999789960827588,243.24959065278122,26.881319729907606,1122.432143828861,-52.59011334833633,-89.39651489257812,4381.2578125,True
1599566930.1572678,0.0,10,0.5,0.5,0.028532440948486323,-0.05075,-0.00825,-0.37525,-0.042031604252285415,10,1,100,0.13290487863837858,-10,-1,-100,6338.4185977528105,-0.006845523617019015,0.0011483500648552213,0.9999759097590988,244.86757207928025,27.08800596490698,1143.7949731130782,-53.150928386919986,-89.55136108398438,4381.2578125,True
1599566930.2201014,0.0,10,0.5,0.5,0.019223905181884764,-0.05075,-0.00825,-0.37525,-0.027551767159679358,10,1,100,0.11782689909354227,-10,-1,-100,6336.288721458754,-0.0072461482083478156,0.0007696600154628203,0.9999734501273537,245.97118606894296,27.2291780137306,1158.2850747249547,-53.52463428752931,-89.66494750976562,4381.2578125,True
1599566930.2839286,0.0,10,0.5,0.5,0.026262384033203124,-0.05075,-0.00825,-0.37525,-0.03108456125997034,10,1,100,0.12186550424327783,-10,-1,-100,6334.096834591473,-0.0076440106531207065,0.000396199266985946,0.999970705634558,247.08481138817044,27.371982515533308,1172.92977586941,-53.89820205566275,-89.78033447265625,4381.2578125,True
1599566930.3602428,0.0,10,0.5,0.5,0.05321807174682616,-0.05075,-0.00825,-0.37525,-0.05540041025456335,10,1,100,0.14812861254079396,-10,-1,-100,6330.868332047015,-0.008241347712959559,-0.00016139882119993503,0.9999660264920477,248.73823358106068,27.585280647565053,1195.0183655030048,-54.458292984077225,-89.94384765625,4381.2578125,True
1599566930.438038,0.0,10,0.5,0.5,-0.0074297050476074215,-0.05075,-0.00825,-0.37525,1.0992389843640692e-05,10,1,100,0.08876202482810783,-10,-1,-100,6330.868332047015,-0.008241347712959559,-0.00016139882119993503,0.9999660264920477,248.73823358106068,27.585280647565053,1195.0183655030048,-54.458292984077225,-89.94384765625,4381.2578125,True
1599566930.5018675,0.0,10,0.5,0.5,0.05655910568237304,-0.05075,-0.00825,-0.37525,-0.059221927136027565,10,1,100,0.15289130127367664,-10,-1,-100,6327.580260040937,-0.008821333006027455,-0.0006970293276476794,0.9999608483506308,250.3636840863716,27.796604812305088,1217.2144165015839,-55.01806983889574,-90.09247589111328,4381.2578125,True
1599566930.5696824,0.0,10,0.5,0.5,0.02010610408782959,-0.05075,-0.00825,-0.37525,-0.024847917421763545,10,1,100,0.11584056810610377,-10,-1,-100,6326.482120799716,-0.009008565716587027,-0.0008684574177698905,0.9999590449240626,250.89574897498798,27.866201952152455,1224.6191848267829,-55.20459215357546,-90.13607788085938,4381.2578125,True
1599566930.642488,0.0,10,0.5,0.5,0.03831363697052002,-0.05075,-0.00825,-0.37525,-0.04781760649735657,10,1,100,0.14108274031818277,-10,-1,-100,6324.227736767498,-0.009405049778622502,-0.0012301059604342397,0.9999550149271654,251.9391760423497,28.00342460851218,1239.4066277056213,-55.57753222932217,-90.21546173095703,4381.2578125,True
1599566930.7152934,0.0,10,0.5,0.5,0.051766217041015625,-0.05075,-0.00825,-0.37525,-0.06650743494466943,10,1,100,0.16227590659221547,-10,-1,-100,6320.875213711755,-0.009954763674978068,-0.0017256093456388363,0.9999489611737999,253.47797520743728,28.207102659537984,1261.654136382618,-56.13668051953526,-90.31512451171875,4381.2578125,True
1599566930.7821515,0.0,10,0.5,0.5,0.02759977912902832,-0.05075,-0.00825,-0.37525,-0.03579631489432282,10,1,100,0.12833715280184477,-10,-1,-100,6319.778540171799,-0.010142251082143446,-0.0018934140089461786,0.9999467734466557,253.9794132117319,28.273905714170052,1269.0647579122108,-56.32299352064514,-90.34423065185547,4381.2578125,True
1599566930.8539233,0.0,10,0.5,0.5,0.048270722770690916,-0.05075,-0.00825,-0.37525,-0.07081778330446914,10,1,100,0.16816105536036755,-10,-1,-100,6316.363030464156,-0.010671192085985779,-0.0023610623978503067,0.9999402737382955,255.46031917977288,28.47223490977532,1291.3332037176567,-56.8817230201672,-90.41655731201172,4381.2578125,True
1599566930.9177527,0.0,10,0.5,0.5,0.03596896095275879,-0.05075,-0.00825,-0.37525,-0.05756823035699358,10,1,100,0.15371545457718766,-10,-1,-100,6314.04517184326,-0.011017246020114476,-0.0026625564405472766,0.9999357634785011,256.4128034540555,28.600972706287703,1306.1298148584208,-57.25403513123474,-90.44971466064453,4381.2578125,True
