Timestamp,Input Throttle,horizon,dT,dt,Input Roll,Roll P,Roll I,Roll D,Input Pitch,Pitch P,Pitch I,Pitch D,Input Yaw,Yaw P,Yaw I,Yaw D,Altitude,Direction X,Direction Y,Direction Z,Drag X,Drag Y,Drag Z,Vertical Velocity,Roll,Mass,Has Fuel
1599573885.2638996,0.0,10,0.5,0.5,-10.816165954589843,-0.2,-0.03,-0.001,-0.06265041278338757,10,1,100,0.711113361922451,-10,-1,-100,6485.909247667179,-0.06874757007078319,-0.006731596111713764,0.9976113758489081,201.7840853555285,21.193950769383232,-111.71293888159745,6.9308217289632665,-35.919189453125,4381.2578125,True
1599573885.4329617,0.0,10,0.5,0.5,-10.978797119140626,-0.2,-0.03,-0.001,-0.06534699200313318,10,1,100,0.7076434283655666,-10,-1,-100,6486.005948710605,-0.06886841525851643,-0.006707576759666711,0.9976032025779558,201.53913779083493,21.170743722314867,-108.533049038716,6.740806897092268,-35.917236328125,4381.2578125,True
1599573885.5523312,0.0,10,0.5,0.5,-11.112888244628907,-0.2,-0.03,-0.001,-0.02551167170544158,10,1,100,0.7387578393655689,-10,-1,-100,6486.517252941267,-0.0691985251516753,-0.006317503912590679,0.9975829054575601,200.56778353365112,21.078254300675503,-95.87944984483943,5.980668805019473,-36.05731201171875,4381.2578125,True
1599573885.8452644,0.0,10,0.5,0.5,-11.240205230712892,-0.2,-0.03,-0.001,-0.045166878246260436,10,1,100,0.7166473658414474,-10,-1,-100,6486.675950092846,-0.06923471299964436,-0.006135832743881193,0.9975815285340822,200.36267637877316,21.058903389107126,-92.7489035982534,5.790609357314434,-36.229705810546875,4381.2578125,True
1599573885.9712174,0.0,10,0.5,0.5,-11.009441619873048,-0.2,-0.03,-0.001,0.11961222016536723,10,1,100,0.6855999888642713,-10,-1,-100,6487.157317852252,-0.06892242151346041,-0.004467107302454244,0.9976120211610668,199.55615967883108,20.98299893319942,-77.25677210045673,4.8401093016900685,-38.181182861328125,4381.2578125,True
1599573886.1031723,0.0,10,0.5,0.5,-10.906735870361329,-0.2,-0.03,-0.001,0.06840948343796663,10,1,100,0.6815772187894373,-10,-1,-100,6487.350595254567,-0.06853929277850973,-0.003411502592040246,0.9976425847945176,199.24018812804198,20.952028591797532,-71.08857599965344,4.459794424235424,-39.47528076171875,4381.2578125,True
1599573886.2024581,0.0,10,0.5,0.5,-10.740346099853516,-0.2,-0.03,-0.001,0.09921244375295234,10,1,100,0.664435117331073,-10,-1,-100,6487.542868529796,-0.06797284819458897,-0.00216873366826216,0.9976848142086715,198.8351940506365,20.91084676787043,-64.90603193117292,4.079399176450545,-41.063629150390625,4381.2578125,True
1599573886.3086865,0.0,10,0.5,0.5,-10.706949218750001,-0.2,-0.03,-0.001,0.05102475408827992,10,1,100,0.6896709935996559,-10,-1,-100,6487.576005464303,-0.06762552213147123,-0.001475042067535229,0.9977096837293626,198.57625871515492,20.884003169399307,-61.80474464852078,3.8891675963307955,-41.96807861328125,4381.2578125,True
1599573886.4109302,0.0,10,0.5,0.5,-10.655378204345704,-0.2,-0.03,-0.001,0.06316639268693842,10,1,100,0.6881993733722873,-10,-1,-100,6487.67310141481,-0.06723491505190496,-0.000732693859552455,0.9977369038768044,198.26007230089314,20.850934864147508,-58.69325465575387,3.698910961223363,-42.946044921875,4381.2578125,True
1599573886.5136232,0.0,10,0.5,0.5,-10.119044891357422,-0.2,-0.03,-0.001,0.2599088552342297,10,1,100,0.5721924273099617,-10,-1,-100,6487.899405994918,-0.06576408645623093,0.0017314020743704893,0.9978336971557106,196.86043881347115,20.70315804533482,-49.29673018544416,3.12797233357415,-46.321533203125,4381.2578125,True
1599573886.6094034,0.0,10,0.5,0.5,-9.727186401367188,-0.2,-0.03,-0.001,0.21628789253315175,10,1,100,0.5900711544215791,-10,-1,-100,6487.966587218922,-0.06452971790076358,0.0035733610787684845,0.9979093879697939,195.44278016746713,20.552821717283805,-42.9910538513075,2.7471858474760817,-48.939788818359375,4381.2578125,True
1599573886.6981275,0.0,10,0.5,0.5,-9.105169647216798,-0.2,-0.03,-0.001,0.24521876660463368,10,1,100,0.5528250949776662,-10,-1,-100,6488.096735270694,-0.06307279853918497,0.005501509067788787,0.9979937652522747,193.47881572583185,20.344523626052005,-36.663514643336164,2.366248203141874,-51.85308837890625,4381.2578125,True
1599573886.781905,0.0,10,0.5,0.5,-8.745237579345703,-0.2,-0.03,-0.001,0.16230513217614362,10,1,100,0.608580251600399,-10,-1,-100,6488.129819372669,-0.06226046019497412,0.006489511394068738,0.998038837590089,192.3055886994182,20.22014724952566,-33.509518634669895,2.1757162453663454,-53.420440673828125,4381.2578125,True
1599573886.8676765,0.0,10,0.5,0.5,-8.02022952270508,-0.2,-0.03,-0.001,0.29181784501526936,10,1,100,0.4921201142254873,-10,-1,-100,6488.197438250994,-0.06046954960133478,0.008553440884400146,0.9981333940010467,189.3573490965065,19.90805923395102,-27.218739149173693,1.7945147773795003,-56.776092529296875,4381.2578125,True
1599573886.9524822,0.0,10,0.5,0.5,-6.838859741210938,-0.2,-0.03,-0.001,0.4336931390330332,10,1,100,0.32669411346663724,-10,-1,-100,6488.297128942097,-0.05734554465785339,0.011706161936109932,0.9982857578271963,183.18581106948184,19.256438929356502,-17.939734085334447,1.2223457740026307,-62.36358642578125,4381.2578125,True
1599573887.0362587,0.0,10,0.5,0.5,-5.948872253417969,-0.2,-0.03,-0.001,0.3515195602094007,10,1,100,0.37692146216204897,-10,-1,-100,6488.303192005376,-0.054972676858151874,0.013810536476323475,0.9983923446628011,177.66369387758783,18.675671563514715,-11.96713444857945,0.8406280769766594,-66.458251953125,4381.2578125,True
1599573887.1180365,0.0,10,0.5,0.5,-4.989355163574219,-0.2,-0.03,-0.001,0.3653308763274813,10,1,100,0.33014748990398946,-10,-1,-100,6488.369796670857,-0.05240263967055028,0.01583350526025619,0.9985005074944789,170.9138766149878,17.967555916099666,-6.282755957828779,0.45870142867456476,-70.849609375,4381.2578125,True
1599573887.196618,0.0,10,0.5,0.5,-3.962133605957031,-0.2,-0.03,-0.001,0.3799462579080992,10,1,100,0.2810465129954213,-10,-1,-100,6488.374388808035,-0.04963402444494734,0.017789069224629257,0.9986090389304114,162.91191408290717,17.128138375933297,-1.0005064614935824,0.07662518856035039,-75.53744506835938,4381.2578125,True
1599573887.2759871,0.0,10,0.5,0.5,-2.864155822753906,-0.2,-0.03,-0.001,0.38943423783872183,10,1,100,0.23136381913287912,-10,-1,-100,6488.316971534165,-0.04668179656627294,0.01963559618134483,0.9987168033191133,153.5256761999428,16.14220941207994,3.759832158024594,-0.30552171703329956,-80.52230834960938,4381.2578125,True
1599573887.353147,0.0,10,0.5,0.5,-1.6946352844238282,-0.2,-0.03,-0.001,0.3932347334780685,10,1,100,0.18377042562325657,-10,-1,-100,6488.320596256293,-0.04358397047965022,0.02133029038413405,0.9988220343130989,142.5282543028504,14.985828956774462,7.857353922093764,-0.6876753102442912,-85.80477905273438,4381.2578125,True
1599573887.4269507,0.0,10,0.5,0.5,-0.4598493118286132,-0.2,-0.03,-0.001,0.3945785855141488,10,1,100,0.13707162266256068,-10,-1,-100,6488.2636836163,-0.04036339411578377,0.02286532114307974,0.9989234072262385,149.16264826021373,15.682794860857502,12.793814776660072,-1.0697955871240574,-91.38497161865234,4381.2578125,True
1599573887.5029068,0.0,10,0.5,0.5,0.24517745971679686,-0.2,-0.03,-0.001,0.320407544800703,10,1,100,0.2751857764817489,-10,-1,-100,6488.2347445283085,-0.03871315002315687,0.023568983317395122,0.9989723695081205,153.46705015305804,16.134574010506405,15.514607743194507,-1.2608452599357527,-94.28681945800781,4381.2578125,True
1599573887.579747,0.0,10,0.5,0.5,2.2044639587402344,-0.2,-0.03,-0.001,0.4538808164758907,10,1,100,-0.11630509211872841,-10,-1,-100,6488.147949395352,-0.03367606535941537,0.02540564460541117,0.9991098417311741,166.86618513316623,17.53964721365797,24.54278168030635,-1.8340545707416185,-103.41561126708984,4381.2578125,True
1599573887.6665454,0.0,10,0.5,0.5,3.6097120742797855,-0.2,-0.03,-0.001,0.38172460622814064,10,1,100,0.005596090228820405,-10,-1,-100,6488.088642993709,-0.030231075863569507,0.026402174652981357,0.9991941789390711,175.18812964278254,18.41362180278006,31.14188473330563,-2.2163499403984344,-109.70611572265625,4381.2578125,True
1599573887.7423422,0.0,10,0.5,0.5,5.014839492797853,-0.2,-0.03,-0.001,0.37332722716996547,10,1,100,-0.026789625620975477,-10,-1,-100,6487.968320801039,-0.026832341153927637,0.02721554512863577,0.9992694028997137,182.77338439523805,19.211648366271106,38.10248662960152,-2.598810647975771,-115.93809509277344,4381.2578125,True
1599573887.8181396,0.0,10,0.5,0.5,6.372943367004395,-0.2,-0.03,-0.001,0.3656868260870991,10,1,100,-0.05912563985895197,-10,-1,-100,6487.848512259428,-0.023476357837093356,0.02787141520284779,0.9993358018390491,188.22383900823445,19.78566734862989,45.02293538889255,-2.981431815587403,-121.92621612548828,4381.2578125,True
1599573887.9116793,0.0,10,0.5,0.5,7.679320755004883,-0.2,-0.03,-0.001,0.355917516495629,10,1,100,-0.09119166652511204,-10,-1,-100,6487.726774396026,-0.0201625875966617,0.028366066202457605,0.9993942346990023,191.62441230380958,20.144057021792626,51.729544638161435,-3.364191833930124,-127.62751770019531,4381.2578125,True
1599573887.9974499,0.0,10,0.5,0.5,8.930811851501465,-0.2,-0.03,-0.001,0.3476883724941241,10,1,100,-0.1156828533906415,-10,-1,-100,6487.543537229649,-0.016956731181195277,0.028729545292141754,0.9994433863380935,193.26438500432255,20.316645751615194,58.11996524680902,-3.747055692876068,-133.03477478027344,4381.2578125,True
1599573888.0789719,0.0,10,0.5,0.5,9.619077781677246,-0.2,-0.03,-0.001,0.3274726809518757,10,1,100,0.02958448126086982,-10,-1,-100,6487.5136953386245,-0.015392635021479317,0.02886625592686371,0.9994647597868873,193.48596284039527,20.339632778683992,61.165236376664154,-3.9385155313129,-135.62771606445312,4381.2578125,True
1599573888.1637452,0.0,10,0.5,0.5,10.779575172424318,-0.2,-0.03,-0.001,0.3370693240708783,10,1,100,-0.15122613543505373,-10,-1,-100,6487.3309808388585,-0.012355441234997133,0.02906938902337868,0.9995010323624964,192.8875092238255,20.275005447275333,66.91735255768441,-4.321471923548328,-140.59176635742188,4381.2578125,True
1599573888.2525084,0.0,10,0.5,0.5,12.32420240020752,-0.2,-0.03,-0.001,0.3318216433127268,10,1,100,-0.32804131144313,-10,-1,-100,6487.0535308439285,-0.008015334855616866,0.029199313741827958,0.99954147211817,190.00272920583672,19.965981844106004,74.70037160983985,-4.8959416951483625,-147.48345947265625,4381.2578125,True
1599573888.3412707,0.0,10,0.5,0.5,12.917653732299804,-0.2,-0.03,-0.001,0.31857777355522277,10,1,100,-0.050461247416981325,-10,-1,-100,6486.962195708416,-0.0066226460557454,0.029191270131169313,0.9995519047590022,188.56922108033189,19.81252864970087,77.0438201463336,-5.087430326646755,-149.63294982910156,4381.2578125,True
1599573888.428038,0.0,10,0.5,0.5,13.900804107666016,-0.2,-0.03,-0.001,0.3206777622092666,10,1,100,-0.20549728182213217,-10,-1,-100,6486.717038657167,-0.00397632001942216,0.02919793739395842,0.9995657403748097,185.1337587611202,19.444866117716504,81.35005026470722,-5.470402555852643,-153.70887756347656,4381.2578125,True
1599573888.506827,0.0,10,0.5,0.5,14.807133171081544,-0.2,-0.03,-0.001,0.32297432853939945,10,1,100,-0.21848583721683454,-10,-1,-100,6486.470437159296,-0.0014794910694855513,0.02922142887877832,0.9995718679517035,181.11876505579943,19.015434209211033,85.1742570642888,-5.853377834022421,-157.48760986328125,4381.2578125,True
1599573888.587614,0.0,10,0.5,0.5,15.97452059173584,-0.2,-0.03,-0.001,0.3100380403478922,10,1,100,-0.3601543770714671,-10,-1,-100,6486.131079665152,0.002052111442958858,0.02912261919575926,0.9995737400961495,174.46576828560538,18.30463792372492,90.12556191368944,-6.4278915574021855,-162.6011505126953,4381.2578125,True
1599573888.664406,0.0,10,0.5,0.5,16.71984906768799,-0.2,-0.03,-0.001,0.31924880485427487,10,1,100,-0.2474899731470101,-10,-1,-100,6485.822013671743,0.004212178734416088,0.029114792730284385,0.9995671995391715,169.85322552355845,17.81279696973782,92.99121360730204,-6.810969811871433,-165.6382293701172,4381.2578125,True
1599573888.739206,0.0,10,0.5,0.5,17.130788299560546,-0.2,-0.03,-0.001,0.32026479895182053,10,1,100,-0.14742299450164992,-10,-1,-100,6485.729741974967,0.005241005069354378,0.029115783728441792,0.9995623057137266,167.5556672999654,17.568229632190963,94.32347878975845,-7.002538018822167,-167.04539489746094,4381.2578125,True
1599573888.8160005,0.0,10,0.5,0.5,17.768273101806642,-0.2,-0.03,-0.001,0.33075402736483134,10,1,100,-0.26119767912810005,-10,-1,-100,6485.420208532247,0.007187522877115083,0.02921135969640682,0.9995474155734576,163.06529326350497,17.091320883538714,96.84018244749946,-7.385742111315818,-169.63563537597656,4381.2578125,True
1599573888.8937953,0.0,10,0.5,0.5,18.544515243530277,-0.2,-0.03,-0.001,0.33987080915848267,10,1,100,-0.362247578071377,-10,-1,-100,6484.955440951046,0.009853770643601595,0.029380688761404344,0.9995197238334064,156.8602663928527,16.43542725767454,100.4420601334602,-7.96073191192578,-172.96414184570312,4381.2578125,True
1599573888.968594,0.0,10,0.5,0.5,19.02432955932617,-0.2,-0.03,-0.001,0.3462633388281767,10,1,100,-0.2743686816039539,-10,-1,-100,6484.644467561855,0.011455781912826323,0.029592270514913366,0.9994964044890498,153.24125681071024,16.055266115671937,102.87614213686938,-8.344180068871681,-174.81057739257812,4381.2578125,True
1599573889.04099,0.0,10,0.5,0.5,19.436291458129883,-0.2,-0.03,-0.001,0.35978719673845744,10,1,100,-0.2774223958618317,-10,-1,-100,6484.2724672842305,0.01291827026614967,0.02990708637956818,0.9994692013652126,153.85857443891777,16.12119835572457,108.06580316071619,-8.72770319583626,-176.3585968017578,4381.2578125,True
1599573889.111801,0.0,10,0.5,0.5,19.65445590209961,-0.2,-0.03,-0.001,0.3497158557442845,10,1,100,-0.20808057566865545,-10,-1,-100,6484.117232640507,0.013598394399122233,0.030101081545091217,0.9994543554157846,155.28327651650528,16.271858529010494,111.4779836477243,-8.919480456891371,-177.02072143554688,4381.2578125,True
1599573889.1841218,0.0,10,0.5,0.5,20.045443603515626,-0.2,-0.03,-0.001,0.4050387531625527,10,1,100,-0.34322230889621885,-10,-1,-100,6483.527027735487,0.015426867512570714,0.03077954911626558,0.9994071398158755,158.7364543973775,16.640377899744013,121.35982091637946,-9.494864180496476,-178.56045532226562,4381.2578125,True
1599573889.2569337,0.0,10,0.5,0.5,20.19161308288574,-0.2,-0.03,-0.001,0.368410151094539,10,1,100,-0.22152905990965668,-10,-1,-100,6483.37131211895,0.015965174272616955,0.031061912696967325,0.9993899493141057,159.63352221517337,16.73730910974824,124.52970432773509,-9.686673263051437,-178.92440795898438,4381.2578125,True
1599573889.3297787,0.0,10,0.5,0.5,20.385147109985354,-0.2,-0.03,-0.001,0.4480064587766565,10,1,100,-0.32326872733206763,-10,-1,-100,6482.719111831975,0.017363591335279,0.03204053649124435,0.9993357342341435,161.61258007948354,16.954956144141043,133.62577659804313,-10.262134435457096,-179.56912231445312,4381.2578125,True
1599573889.4005888,0.0,10,0.5,0.5,20.44685241699219,-0.2,-0.03,-0.001,0.4359839983468298,10,1,100,-0.267055663639735,-10,-1,-100,6482.344702848233,0.01810993219513936,0.03281824673913824,0.9992972495893585,162.35828957593515,17.040689771415813,139.30694777667458,-10.645799243694508,-179.62606811523438,4381.2578125,True
1599573889.4714003,0.0,10,0.5,0.5,20.44023878479004,-0.2,-0.03,-0.001,0.455552969544914,10,1,100,-0.25804861655302136,-10,-1,-100,6481.909262730274,0.018693907318350727,0.033699789017198126,0.9992571551154232,162.6539585934,17.079383012503428,144.63984317698342,-11.029481549602586,-179.38467407226562,4381.2578125,True
1599573889.5432458,0.0,10,0.5,0.5,20.430726013183595,-0.2,-0.03,-0.001,0.4217165468785459,10,1,100,-0.2257788260953144,-10,-1,-100,6481.630021231482,0.018919202151428272,0.0341894199682049,0.9992362820435371,162.6332351746066,17.08097256086807,147.16275292057156,-11.221329273764631,-179.1519775390625,4381.2578125,True
1599573889.6180463,0.0,10,0.5,0.5,20.22942628479004,-0.2,-0.03,-0.001,0.5466502065387435,10,1,100,-0.2521657097632046,-10,-1,-100,6480.975894103758,0.019353231233684758,0.035765774047602124,0.9991727887845984,161.86221305227613,17.010340189203887,154.06134843862026,-11.796901186152965,-178.00729370117188,4381.2578125,True
1599573889.6883674,0.0,10,0.5,0.5,20.139044921875,-0.2,-0.03,-0.001,0.4529829890032315,10,1,100,-0.21559015779138196,-10,-1,-100,6480.695679138298,0.019406662235455827,0.036341498428289314,0.9991509780573031,161.36320713377137,16.960837728056188,156.1135204432736,-11.9887688362636,-177.47666931152344,4381.2578125,True
1599573890.324527,0.0,10,0.5,0.5,19.88940769958496,-0.2,-0.03,-0.001,0.5286303366354518,10,1,100,-0.20969199523376952,-10,-1,-100,6480.257809346775,0.019394388140794295,0.03754645172746751,0.9991066618090989,159.97720851135136,16.819830834521145,159.7877362211954,-12.372520278136788,-176.1922607421875,4381.2578125,True
1599573890.3853686,0.0,10,0.5,0.5,19.738654876708985,-0.2,-0.03,-0.001,0.47908013644192515,10,1,100,-0.20001609776634047,-10,-1,-100,6479.978571737767,0.01928937978878478,0.03818446257464481,0.9990845142655598,159.08203597515373,16.727306593147084,161.38927062369805,-12.564403571097543,-175.43833923339844,4381.2578125,True
1599573890.4511952,0.0,10,0.5,0.5,19.56817478942871,-0.2,-0.03,-0.001,0.48821599125652626,10,1,100,-0.19462046219682982,-10,-1,-100,6479.69835882599,0.019139692795062703,0.038840177133093685,0.9990621165873426,158.69617306219,16.68772415987491,163.48879704424036,-12.756288554188203,-174.61004638671875,4381.2578125,True
1599573890.5205138,0.0,10,0.5,0.5,18.96814971923828,-0.2,-0.03,-0.001,0.6478555225813682,10,1,100,-0.13232527145053802,-10,-1,-100,6478.917290281039,0.01843391849827408,0.040880221900075925,0.9989939930280859,164.96032654447185,17.345261958598943,177.71852731353994,-13.331868128845972,-171.6796875,4381.2578125,True
1599573890.58885,0.0,10,0.5,0.5,18.482067535400393,-0.2,-0.03,-0.001,0.6014458234570577,10,1,100,-0.12252322722283385,-10,-1,-100,6478.356378215249,0.017700951695281967,0.04230397596056322,0.9989479715816081,169.7156410505911,17.840583704705658,188.18224281437185,-13.71549592850399,-169.35491943359375,4381.2578125,True
1599573890.663648,0.0,10,0.5,0.5,18.197758087158203,-0.2,-0.03,-0.001,0.539850421382157,10,1,100,-0.14683438154053868,-10,-1,-100,6478.137690285919,0.01725532204057736,0.04302900923353501,0.9989248010864763,172.20962661018442,18.099180166635495,193.65909763120982,-13.907273007606358,-168.08132934570312,4381.2578125,True
1599573890.732976,0.0,10,0.5,0.5,17.307344207763673,-0.2,-0.03,-0.001,0.7038531042299254,10,1,100,-0.00010429386751878433,-10,-1,-100,6477.232597712893,0.015517071203049867,0.04516978135985781,0.9988588045130214,179.99544757380403,18.901632129696285,210.92424278432406,-14.482416307672942,-163.8173828125,4381.2578125,True
1599573890.8037865,0.0,10,0.5,0.5,16.61923794555664,-0.2,-0.03,-0.001,0.6476873243113173,10,1,100,-0.01676652251181182,-10,-1,-100,6476.671191410744,0.014091206007623265,0.04659491257330695,0.9988144732809677,185.2859711644203,19.443000458567077,222.96901433216894,-14.865653931860422,-160.6051025390625,4381.2578125,True
1599573890.8775897,0.0,10,0.5,0.5,15.861999984741212,-0.2,-0.03,-0.001,0.654744344621436,10,1,100,0.026440894072683907,-10,-1,-100,6476.044841637835,0.01240655931205258,0.04794336341325716,0.9987730028343081,190.63464596445885,19.98787716068749,235.42294903084527,-15.248707787420976,-157.0985870361328,4381.2578125,True
1599573890.9484,0.0,10,0.5,0.5,15.038900024414064,-0.2,-0.03,-0.001,0.6594451658979167,10,1,100,0.0700264853183612,-10,-1,-100,6475.420436999295,0.010485144824683646,0.04920089201630203,0.9987338654330321,195.97659663319774,20.530499474802863,248.20898459542983,-15.631554311699574,-153.29818725585938,4381.2578125,True
1599573891.019211,0.0,10,0.5,0.5,14.147302825927735,-0.2,-0.03,-0.001,0.6615012443679558,10,1,100,0.1148047539370588,-10,-1,-100,6474.795048937551,0.008339439682733521,0.05035110110189953,0.998696760965812,200.9117645497831,21.030437870687244,260.8067927895442,-16.01417826349961,-149.204345703125,4381.2578125,True
1599573891.0920162,0.0,10,0.5,0.5,13.188785263061524,-0.2,-0.03,-0.001,0.6568517367834814,10,1,100,0.1614728464137067,-10,-1,-100,6474.169652460958,0.005974593211589391,0.051342836884061646,0.9986632151714876,205.24618336667342,21.469263721438807,272.9197105868982,-16.396574155038355,-144.8180389404297,4381.2578125,True
1599573891.1648219,0.0,10,0.5,0.5,12.160978713989259,-0.2,-0.03,-0.001,0.6481188016536874,10,1,100,0.20808036162693438,-10,-1,-100,6473.481257679523,0.0034131324509537445,0.052153062390020516,0.9986332703301122,208.75520084838436,21.825592531710686,284.1851835384809,-16.778749867009218,-140.1397705078125,4381.2578125,True
1599573891.235632,0.0,10,0.5,0.5,11.570103469848632,-0.2,-0.03,-0.001,0.6047627141990803,10,1,100,0.10180158355949624,-10,-1,-100,6473.137057148735,0.002064999342210875,0.05248338215925313,0.998619662521644,210.12552887229845,21.96573913817313,289.3731677398577,-16.96976347788319,-137.69129943847656,4381.2578125,True
1599573891.3044474,0.0,10,0.5,0.5,9.906448181152344,-0.2,-0.03,-0.001,0.6429205631671737,10,1,100,0.43645895660461337,-10,-1,-100,6472.104435518151,-0.002188035130550922,0.05312001406712073,0.9985857382357193,213.00804393284332,22.26933678763638,303.4543648347694,-17.542572638900694,-129.90951538085938,4381.2578125,True
1599573891.3772554,0.0,10,0.5,0.5,8.680019569396972,-0.2,-0.03,-0.001,0.5954176961332631,10,1,100,0.34282587352065047,-10,-1,-100,6471.35399468604,-0.005185139362456682,0.0532570933393225,0.9985673719578656,213.3800313858414,22.320954680540456,310.74646494079605,-17.924325992383952,-124.35790252685547,4381.2578125,True
1599573891.4520535,0.0,10,0.5,0.5,7.380227333068849,-0.2,-0.03,-0.001,0.5656858743756549,10,1,100,0.3795550407492052,-10,-1,-100,6470.665554953739,-0.008223280674082385,0.053102123312522405,0.9985552273933861,212.02628489434832,22.200956689557856,315.50563537013807,-18.306077293329146,-118.51624298095703,4381.2578125,True
1599573891.5258565,0.0,10,0.5,0.5,6.64122169494629,-0.2,-0.03,-0.001,0.5608443652337392,10,1,100,0.2443871874653388,-10,-1,-100,6470.258341076667,-0.009734846516727754,0.052910016530547936,0.9985518328629882,210.62925404870876,22.06835303001475,316.77535948005584,-18.496980590076074,-115.4866714477539,4381.2578125,True
1599573891.5991774,0.0,10,0.5,0.5,4.594290924072265,-0.2,-0.03,-0.001,0.47830390074586293,10,1,100,0.5984388733086421,-10,-1,-100,6469.162650970393,-0.014305988924504165,0.05197926513890205,0.9985456898292195,203.5642064431036,21.37553319146711,315.8842996032193,-19.069921842883844,-105.96127319335938,4381.2578125,True
1599573891.673975,0.0,10,0.5,0.5,3.783009300231934,-0.2,-0.03,-0.001,0.5218921480610526,10,1,100,0.3077869474996162,-10,-1,-100,6468.756398227997,-0.015794998562185615,0.05152571530233875,0.9985467533786303,200.60446384970356,21.081287442853498,314.49853407555946,-19.261005450640333,-102.64089965820312,4381.2578125,True
1599573891.7488134,0.0,10,0.5,0.5,2.255689376831055,-0.2,-0.03,-0.001,0.44678416846398594,10,1,100,0.4886363512979935,-10,-1,-100,6468.004430369474,-0.018768838136984118,0.05042848397886602,0.998551299993436,192.75592814845456,20.285965041302163,308.37150000079185,-19.64336488973296,-95.78185272216797,4381.2578125,True
1599573891.8261154,0.0,10,0.5,0.5,0.6650355606079102,-0.2,-0.03,-0.001,0.410728564546362,10,1,100,0.4910726317375876,-10,-1,-100,6467.191413528519,-0.021469832774597505,0.04910315239202426,0.9985629307689109,182.66265917334806,19.24362117221214,298.0950871566071,-20.0259909892604,-88.63137817382812,4381.2578125,True
1599573891.8980503,0.0,10,0.5,0.5,-0.9920843353271485,-0.2,-0.03,-0.001,0.37024079203903276,10,1,100,0.5200176387899837,-10,-1,-100,6466.377407212509,-0.024163469394734925,0.04753227091254879,0.9985773930791272,182.0321337521581,19.182852079094857,302.9282397700556,-20.408742396452126,-81.19003295898438,4381.2578125,True
1599573891.9688609,0.0,10,0.5,0.5,-2.7159175567626956,-0.2,-0.03,-0.001,0.33741444322546643,10,1,100,0.5174715137685739,-10,-1,-100,6465.5633893975755,-0.026564013729350956,0.04580997620697273,0.9985969153039196,196.63287844689205,20.71298505773731,333.5621931455744,-20.79117644652853,-73.45657348632812,4381.2578125,True
1599573892.042704,0.0,10,0.5,0.5,-5.30573599243164,-0.2,-0.03,-0.001,0.1977372373781432,10,1,100,0.6348738292894864,-10,-1,-100,6464.280089330277,-0.029787594162763314,0.04298052769961182,0.9986317506832322,214.2814943140919,22.544882085150128,373.85041013976866,-21.363982917038474,-61.492156982421875,4381.2578125,True
1599573892.1168404,0.0,10,0.5,0.5,-6.290056304931642,-0.2,-0.03,-0.001,0.37143986926839145,10,1,100,0.4201401067453864,-10,-1,-100,6463.811303950846,-0.03074090657088981,0.04199663433407461,0.9986447212937191,218.68764387019135,22.99988616626424,385.0551528752058,-21.554688672151453,-57.556671142578125,4381.2578125,True
1599573892.187651,0.0,10,0.5,0.5,-8.776058540344238,-0.2,-0.03,-0.001,0.144397259923985,10,1,100,0.6022743943707419,-10,-1,-100,6462.527499741991,-0.033240087950136735,0.03904839887955096,0.9986842940078765,228.7412150972248,24.044503949158802,413.79011144230975,-22.12624491495077,-46.16595458984375,4381.2578125,True
1599573892.25897,0.0,10,0.5,0.5,-9.715410400390624,-0.2,-0.03,-0.001,0.33302039292957974,10,1,100,0.4335348995213324,-10,-1,-100,6462.058224994456,-0.03395533306238835,0.0380957166977012,0.9986970269936277,230.6927137554016,24.251800944620605,421.0308846061926,-22.316629480590525,-42.5157470703125,4381.2578125,True
1599573892.329781,0.0,10,0.5,0.5,-11.352817893981934,-0.2,-0.03,-0.001,0.2087658057551585,10,1,100,0.5029876681840348,-10,-1,-100,6461.183148749289,-0.03521492607360015,0.036113522376100174,0.9987270510420863,232.3646190856241,24.442960320696475,431.56612216590133,-22.69731466147449,-35.440399169921875,4381.2578125,True
1599573892.401588,0.0,10,0.5,0.5,-12.919956108093261,-0.2,-0.03,-0.001,0.21250498538137913,10,1,100,0.49788659882739267,-10,-1,-100,6460.242647301056,-0.036294629146778584,0.03435994348284925,0.9987502661721563,231.35524325709844,24.36558951620618,437.1623274976461,-23.078014169415027,-28.661041259765625,4381.2578125,True
1599573892.4724014,0.0,10,0.5,0.5,-15.066557762145997,-0.2,-0.03,-0.001,0.1039958571788594,10,1,100,0.5283623342592725,-10,-1,-100,6458.8343407996,-0.03753459350760826,0.03179493947970686,0.9987893852628293,225.57175855881482,23.81607424633135,437.2095169076478,-23.649336278652253,-19.0518798828125,4381.2578125,True
1599573892.5442076,0.0,10,0.5,0.5,-15.901149108886719,-0.2,-0.03,-0.001,0.27413634601275905,10,1,100,0.44439034310485126,-10,-1,-100,6458.364582429407,-0.03788139232025811,0.031026788961248462,0.9988004497809524,222.86015016391707,23.551591291775434,435.58306387949256,-23.839886038708812,-15.997100830078125,4381.2578125,True
1599573892.6130238,0.0,10,0.5,0.5,-17.868570190429686,-0.2,-0.03,-0.001,0.11944561493803829,10,1,100,0.5058130643322922,-10,-1,-100,6456.893794471514,-0.03874013274332957,0.028938623992362255,0.9988301948561917,213.56098140048735,22.62853120004008,427.88408932098497,-24.41189518120081,-7.27783203125,4381.2578125,True
1599573892.6838338,0.0,10,0.5,0.5,-18.63599984741211,-0.2,-0.03,-0.001,0.25942804313461654,10,1,100,0.44877101202498854,-10,-1,-100,6456.4240451065125,-0.038988990231193045,0.028329763046907493,0.998837966422211,209.79437179059158,22.245815181663726,423.7809636503669,-24.602684008558118,-4.519561767578125,4381.2578125,True
1599573892.75265,0.0,10,0.5,0.5,-19.90411721801758,-0.2,-0.03,-0.001,0.1946209161264123,10,1,100,0.4654530189927467,-10,-1,-100,6455.42205097992,-0.03935558348668324,0.027202988499292275,0.9988549121194379,202.39426240556253,21.484868265225646,415.4924699978857,-24.9844073821622,0.7742919921875,4381.2578125,True
1599573892.821466,0.0,10,0.5,0.5,-21.09024240112305,-0.2,-0.03,-0.001,0.20493503022939322,10,1,100,0.4721397008690128,-10,-1,-100,6454.421532441513,-0.03974093992752773,0.026286755892578558,0.9988641870436245,195.30941667831507,20.742931085443814,407.3894013180751,-25.36626643414993,5.77239990234375,4381.2578125,True
1599573892.8912792,0.0,10,0.5,0.5,-22.670429626464845,-0.2,-0.03,-0.001,0.17678972673883145,10,1,100,0.479367146118139,-10,-1,-100,6452.887812732253,-0.04014878616387238,0.025212232471507796,0.9988755769881303,209.97734326048084,22.291638088259432,448.38738008712045,-25.938641893469168,12.71368408203125,4381.2578125,True
1599573892.9610932,0.0,10,0.5,0.5,-23.69587089538574,-0.2,-0.03,-0.001,0.22920266152179392,10,1,100,0.46751617744171664,-10,-1,-100,6451.8233528565615,-0.040405538756023915,0.024724452556204982,0.9988774168453461,217.98250331063346,23.122922892342693,472.6842271429541,-26.319814787923615,16.971115112304688,4381.2578125,True
1599573893.0338976,0.0,10,0.5,0.5,-24.27562565612793,-0.2,-0.03,-0.001,0.2573099290290785,10,1,100,0.45574498275561603,-10,-1,-100,6451.291616113158,-0.04052607551929382,0.024548692577942736,0.998876868735941,221.4934137034911,23.483577363163878,483.95658172859254,-26.51027415045734,18.988784790039062,4381.2578125,True
1599573893.104709,0.0,10,0.5,0.5,-25.56429096984864,-0.2,-0.03,-0.001,0.2455715603396513,10,1,100,0.48518251623498976,-10,-1,-100,6449.695447047125,-0.040898440018037406,0.024292711818526044,0.9988679501098197,230.26321130394004,24.371790451254952,514.5281743938339,-27.081160257967642,24.59771728515625,4381.2578125,True
1599573893.1760268,0.0,10,0.5,0.5,-26.39570465087891,-0.2,-0.03,-0.001,0.27692614509515145,10,1,100,0.47575722422291755,-10,-1,-100,6448.569989746669,-0.04114708344326614,0.024354195745619346,0.9988562412448034,235.18213532737306,24.863277456570486,533.2872582961074,-27.461363750427374,27.96710205078125,4381.2578125,True
1599573893.2458804,0.0,10,0.5,0.5,-26.849705902099615,-0.2,-0.03,-0.001,0.28111747198336096,10,1,100,0.4656140498313738,-10,-1,-100,6448.036808090401,-0.04127762816270036,0.024454957508991605,0.9988483931340608,237.34055610420518,25.077310794376093,542.1010001969652,-27.651357613990907,29.540802001953125,4381.2578125,True
1599573893.3146994,0.0,10,0.5,0.5,-27.57280340576172,-0.2,-0.03,-0.001,0.3088041348098991,10,1,100,0.4848039620447965,-10,-1,-100,6446.914302401594,-0.041567671440633086,0.02480423043907333,0.9988277523393756,241.06968949896586,25.444687469389482,558.5814689294856,-28.031148196168473,32.466461181640625,4381.2578125,True
1599573893.3835146,0.0,10,0.5,0.5,-28.21772933959961,-0.2,-0.03,-0.001,0.3330530630572658,10,1,100,0.48949069348476737,-10,-1,-100,6445.786442411132,-0.04187138330757412,0.025345954626444858,0.998801466680934,244.1232235566178,25.743777656014647,573.7233355454371,-28.41070046372898,35.096405029296875,4381.2578125,True
1599573893.4533284,0.0,10,0.5,0.5,-29.015478256225588,-0.2,-0.03,-0.001,0.4084986528878851,10,1,100,0.5165613415989556,-10,-1,-100,6444.064900825499,-0.042390961448489146,0.02652701271198866,0.9987488793405732,247.69786937596015,26.09401422963218,594.4109360216098,-28.979643157641462,38.48710632324219,4381.2578125,True
1599573893.5231807,0.0,10,0.5,0.5,-29.505373504638673,-0.2,-0.03,-0.001,0.4054224550207361,10,1,100,0.5079300098266468,-10,-1,-100,6442.877518996131,-0.04278207912597109,0.02757335096895195,0.9987038620241749,249.56939582873258,26.279339426633033,607.1644824227152,-29.358716374520142,40.378387451171875,4381.2578125,True
1599573893.5919971,0.0,10,0.5,0.5,-29.77511813354492,-0.2,-0.03,-0.001,0.36701326152776065,10,1,100,0.4922470004386315,-10,-1,-100,6442.277978083119,-0.042992303166337766,0.028174223448003913,0.9986780637430441,250.38880916587996,26.361510664083394,613.3062188001558,-29.548194111188277,41.21330261230469,4381.2578125,True
1599573893.6619775,0.0,10,0.5,0.5,-30.151007568359375,-0.2,-0.03,-0.001,0.46013945934977973,10,1,100,0.5195606038530685,-10,-1,-100,6441.089168529492,-0.043429136400436476,0.02956438023554542,0.9986189751515843,251.8474021737484,26.51032296271987,625.2316709831449,-29.927041930467507,42.66218566894531,4381.2578125,True
1599573893.731337,0.0,10,0.5,0.5,-30.458568893432616,-0.2,-0.03,-0.001,0.49830657227157155,10,1,100,0.5287629353154479,-10,-1,-100,6439.896969705122,-0.043907166355962014,0.031170732952890953,0.9985492206945882,253.12902204442486,26.644868792545495,636.8204322031321,-30.305757165096992,43.81610107421875,4381.2578125,True
1599573893.8121216,0.0,10,0.5,0.5,-30.768762619018556,-0.2,-0.03,-0.001,0.6511181979345213,10,1,100,0.5680010053071759,-10,-1,-100,6438.057463176316,-0.044695375051058514,0.034014230165254664,0.9984214318589671,254.86033376575548,26.833952693633186,653.8972996084226,-30.873600768787572,44.994537353515625,4381.2578125,True
1599573893.8899133,0.0,10,0.5,0.5,-30.912780227661134,-0.2,-0.03,-0.001,0.611633940614229,10,1,100,0.5509157181855444,-10,-1,-100,6436.80041065556,-0.04525315585910139,0.036231442093267445,0.9983183031922405,255.9648630781042,26.959069522386272,665.2661941944025,-31.25201810219111,45.4124755859375,4381.2578125,True
1599573893.9716957,0.0,10,0.5,0.5,-30.989682327270508,-0.2,-0.03,-0.001,0.6661983982958646,10,1,100,0.5580934866519158,-10,-1,-100,6435.555121024139,-0.04582174896845662,0.038732332328250615,0.9981984641111634,257.0721135160938,27.087350480646553,676.7305066015067,-31.630322217849464,45.536773681640625,4381.2578125,True
1599573894.047493,0.0,10,0.5,0.5,-31.00353886413574,-0.2,-0.03,-0.001,0.7240766214008791,10,1,100,0.5649388280887477,-10,-1,-100,6434.2302913523745,-0.046396751152927344,0.04151905513844521,0.9980598727245095,258.2027887454497,27.220473100517115,688.3463023254789,-32.00851437276128,45.367584228515625,4381.2578125,True
1599573894.1262822,0.0,10,0.5,0.5,-30.949486953735352,-0.2,-0.03,-0.001,0.7865298900570703,10,1,100,0.5705846941834642,-10,-1,-100,6432.983155357302,-0.046966416394477885,0.0446050012039517,0.9979000699462126,259.3679544808674,27.35911504657915,700.1463235851805,-32.38659471185122,44.9052734375,4381.2578125,True
1599573894.2020795,0.0,10,0.5,0.5,-30.827632156372072,-0.2,-0.03,-0.001,0.8552660876331437,10,1,100,0.5735625741670725,-10,-1,-100,6431.667235199711,-0.047506733674750355,0.04801777301730599,0.9977160937511307,260.57134370884546,27.503152971588307,712.1448045209255,-32.7645630968123,44.15032958984375,4381.2578125,True
1599573894.9189935,0.0,10,0.5,0.5,-30.634862884521485,-0.2,-0.03,-0.001,0.9282543929504807,10,1,100,0.5745860109189681,-10,-1,-100,6430.351386848954,-0.04800258447071869,0.05176428584114448,0.997504992767198,261.8041553669872,27.651136969041744,724.3218940319247,-33.14242024781623,43.102996826171875,4381.2578125,True
1599573894.983821,0.0,10,0.5,0.5,-30.374885864257813,-0.2,-0.03,-0.001,1.0065275381664929,10,1,100,0.5724230413787884,-10,-1,-100,6428.969701339491,-0.04842894864819304,0.055859788878532136,0.9972634160136812,263.0457731034599,27.80037706599827,736.623615325343,-33.52016735282109,41.763702392578125,4381.2578125,True
1599573895.0516827,0.0,10,0.5,0.5,-30.050070556640623,-0.2,-0.03,-0.001,1.0901983978849648,10,1,100,0.5663216154149309,-10,-1,-100,6427.65451307944,-0.04875614253215115,0.06031844894138836,0.9969877247402245,264.26590544145284,27.94716244381694,748.9660375619688,-33.897807420075914,40.13282775878906,4381.2578125,True
1599573895.1204982,0.0,10,0.5,0.5,-29.65777967834473,-0.2,-0.03,-0.001,1.1791183481470506,10,1,100,0.5556261586694575,-10,-1,-100,6426.279855915462,-0.048951517359761755,0.0651521812111804,0.9966739397774994,265.42281392559505,28.086599275965035,761.2286076524244,-34.27534558604306,38.21076965332031,4381.2578125,True
1599573895.1875062,0.0,10,0.5,0.5,-29.42778973388672,-0.2,-0.03,-0.001,0.9805748885584278,10,1,100,0.5409786614068496,-10,-1,-100,6425.559609761229,-0.04899138599974423,0.0677106505072236,0.9965014359777475,265.9622146176623,28.15180850840373,767.2841909182833,-34.46407881478794,37.14064025878906,4381.2578125,True
1599573895.2543268,0.0,10,0.5,0.5,-28.931266220092777,-0.2,-0.03,-0.001,1.3212529056611357,10,1,100,0.5321851359650631,-10,-1,-100,6424.192450093571,-0.048943783613031436,0.07310297145879478,0.9961227141319163,266.927784634347,28.269267500230928,779.1360654132859,-34.841479640337624,34.78227233886719,4381.2578125,True
1599573895.324141,0.0,10,0.5,0.5,-28.081187423706055,-0.2,-0.03,-0.001,1.7504031312027097,10,1,100,0.4878719558527711,-10,-1,-100,6422.084827168728,-0.04849430650794994,0.0818729275293597,0.9954622674788258,267.981922844267,28.400913723894632,795.9114375085763,-35.40744199405257,30.699951171875,4381.2578125,True
1599573895.393954,0.0,10,0.5,0.5,-27.420786407470704,-0.2,-0.03,-0.001,1.5687525924819345,10,1,100,0.468430241664642,-10,-1,-100,6420.64818811859,-0.04790651850385696,0.08815502760950156,0.9949540977311505,268.3258280851383,28.448796436574913,806.1112449866765,-35.78468180453915,27.615509033203125,4381.2578125,True
1599573895.466759,0.0,10,0.5,0.5,-27.03876649475098,-0.2,-0.03,-0.001,1.304442092427131,10,1,100,0.4843770982144274,-10,-1,-100,6419.9282186136115,-0.047515764680269634,0.0914208086159768,0.9946780825266283,268.36259412721506,28.457961297895675,810.8230978377225,-35.97328859206696,25.964523315429688,4381.2578125,True
1599573895.5360866,0.0,10,0.5,0.5,-26.27612957763672,-0.2,-0.03,-0.001,1.7249534587309772,10,1,100,0.41414591333767514,-10,-1,-100,6418.485957839293,-0.04652156920695996,0.09816997121788743,0.9940816869601818,268.11401123730366,28.44163310066348,819.2917649590509,-36.35049042512922,22.444793701171875,4381.2578125,True
1599573895.606897,0.0,10,0.5,0.5,-25.04407328796387,-0.2,-0.03,-0.001,2.226961953498197,10,1,100,0.28672140342981867,-10,-1,-100,6416.270884422818,-0.044460246108850465,0.10882369426459855,0.9930663069919077,266.7669008216344,28.314595815856052,829.0060480247117,-36.91630983022326,16.621612548828125,4381.2578125,True
1599573895.675714,0.0,10,0.5,0.5,-24.55117887878418,-0.2,-0.03,-0.001,1.5721331093306454,10,1,100,0.39875454121423826,-10,-1,-100,6415.548730037408,-0.04360801939802916,0.11250403535242778,0.9926939018013564,266.01267613249735,28.240838310731583,831.2801138200296,-37.10493354968082,14.535675048828125,4381.2578125,True
1599573895.7465246,0.0,10,0.5,0.5,-23.589292068481445,-0.2,-0.03,-0.001,2.0343912035433944,10,1,100,0.26601195343254536,-10,-1,-100,6414.050357751083,-0.041630899707676375,0.12000065151923035,0.9919005554109191,263.9753105169352,28.04015195329435,834.1116752855288,-37.482225600986794,10.14617919921875,4381.2578125,True
1599573895.8193295,0.0,10,0.5,0.5,-22.563073760986327,-0.2,-0.03,-0.001,2.1302253180336885,10,1,100,0.20402826977905322,-10,-1,-100,6412.553139049793,-0.03927650763125525,0.1276327198002555,0.9910435130632161,261.1458740515783,27.761434037245508,834.3162325329859,-37.85959525600465,5.466339111328125,4381.2578125,True
1599573895.8941321,0.0,10,0.5,0.5,-21.470746353149416,-0.2,-0.03,-0.001,2.2330374615822954,10,1,100,0.13645740228186126,-10,-1,-100,6410.989209335181,-0.036530666047923856,0.135448819052912,0.9901106644488112,257.41672185788997,27.395983028030482,831.4613356818319,-38.23705888486972,0.497314453125,4381.2578125,True
1599573895.9689307,0.0,10,0.5,0.5,-19.75804916381836,-0.2,-0.03,-0.001,2.7512855343900577,10,1,100,-0.12802857988250793,-10,-1,-100,6408.707118389779,-0.03164135633426634,0.14720412979126513,0.9885999032681141,249.94025684814585,26.670488406930616,820.5795886976179,-38.8034434003698,-7.501373291015625,4381.2578125,True
1599573896.0497143,0.0,10,0.5,0.5,-18.494383895874023,-0.2,-0.03,-0.001,2.4442562179741016,10,1,100,-0.056440893484632826,-10,-1,-100,6407.144585458096,-0.02786305595026634,0.15503223562386612,0.9875164079804338,243.55449132813828,26.05633575629331,808.2688915946026,-39.18114759803832,-13.19696044921875,4381.2578125,True
1599573896.1255574,0.0,10,0.5,0.5,-17.164940505981445,-0.2,-0.03,-0.001,2.515139726075764,10,1,100,-0.13966637502481166,-10,-1,-100,6405.522619609721,-0.023690397814953516,0.16272658253797803,0.9863867519319589,235.9439404516343,25.32792735517157,791.407339146453,-39.55891453118361,-19.18426513671875,4381.2578125,True
1599573896.2072935,0.0,10,0.5,0.5,-15.768420486450195,-0.2,-0.03,-0.001,2.581214554526714,10,1,100,-0.22598176082042878,-10,-1,-100,6403.953490371117,-0.019134401567153434,0.1702543313049716,0.9852143611156731,233.60879269776484,25.18464455960113,791.877851156113,-39.9365869611455,-25.463409423828125,4381.2578125,True
1599573896.2850845,0.0,10,0.5,0.5,-14.299513122558594,-0.2,-0.03,-0.001,2.6387369297943035,10,1,100,-0.31457796733046817,-10,-1,-100,6402.335129261948,-0.014212967976437653,0.17754900312040842,0.9840093206023254,241.9296236363732,26.21378429006091,828.6537207422402,-40.31375091349665,-32.035064697265625,4381.2578125,True
1599573896.3698597,0.0,10,0.5,0.5,-12.050651580810548,-0.2,-0.03,-0.001,3.055221766101694,10,1,100,-0.7005716848391902,-10,-1,-100,6399.932339696796,-0.0062592750995535806,0.18789458598096132,0.9821692552886552,254.92851520369652,27.85789647010241,886.6387075267082,-40.878339402241586,-42.4429931640625,4381.2578125,True
1599573896.447275,0.0,10,0.5,0.5,-11.156958221435547,-0.2,-0.03,-0.001,2.387372642015745,10,1,100,-0.21411835835891813,-10,-1,-100,6399.085356920958,-0.0034856763349426214,0.191156423006395,0.9815533974287329,258.7646833287743,28.360172009935354,904.5096961126922,-41.06623731292902,-46.0594482421875,4381.2578125,True
1599573896.5240698,0.0,10,0.5,0.5,-9.480447418212892,-0.2,-0.03,-0.001,2.749300196923651,10,1,100,-0.5611252116625964,-10,-1,-100,6397.401626692619,0.002153909987407065,0.19734047772172114,0.9803326458525846,265.8267143081074,29.303806389049626,938.461997925733,-41.44162858739368,-53.513885498046875,4381.2578125,True
1599573896.6009462,0.0,10,0.5,0.5,-7.739410888671875,-0.2,-0.03,-0.001,2.7746100310048267,10,1,100,-0.6410528530313955,-10,-1,-100,6395.776429314981,0.007967617193173059,0.20312212611257152,0.9791209930135151,272.24815259360474,30.177554241526874,970.582369252088,-41.81654129650185,-61.2626953125,4381.2578125,True
1599573896.676743,0.0,10,0.5,0.5,-6.746008941650391,-0.2,-0.03,-0.001,2.5042255093604644,10,1,100,-0.3918482649743974,-10,-1,-100,6394.9328021142865,0.010944360102601773,0.20585150226538465,0.9785220385852477,274.81819262737935,30.541170787300114,984.5060427511164,-42.00385864464402,-65.24758911132812,4381.2578125,True
1599573896.767411,0.0,10,0.5,0.5,-4.906108581542969,-0.2,-0.03,-0.001,2.7938946851370874,10,1,100,-0.7373402278500211,-10,-1,-100,6393.242057406227,0.016748166931723978,0.21090210701753637,0.9773636990189428,278.44185413012593,31.09110561011974,1007.1364871046122,-42.37831386510804,-73.43988037109375,4381.2578125,True
1599573896.8452017,0.0,10,0.5,0.5,-3.010598449707031,-0.2,-0.03,-0.001,2.8027350766896792,10,1,100,-0.7955759857790867,-10,-1,-100,6391.4955340466695,0.022509780463675678,0.2155160258270376,0.9762408270479149,279.81485229482485,31.375805431176616,1021.8277307199984,-42.75267128752655,-81.9268798828125,4381.2578125,True
1599573896.9209986,0.0,10,0.5,0.5,-0.1430577392578125,-0.2,-0.03,-0.001,3.0184592348824335,10,1,100,-1.1551965902658492,-10,-1,-100,6388.901630080189,0.030971095682226026,0.2216166409190609,0.9746419115244299,276.98153649775753,31.23200609657908,1026.0387106863893,-43.314379618770246,-95.20965576171875,4381.2578125,True
1599573896.9957988,0.0,10,0.5,0.5,1.925394485473633,-0.2,-0.03,-0.001,2.8096646508446956,10,1,100,-0.8948192827073984,-10,-1,-100,6387.221179988701,0.036246441727197536,0.22521098564021072,0.9736355619065492,271.44147064872794,30.719804794766098,1015.1285219481202,-43.689152997737196,-104.43183898925781,4381.2578125,True
1599573897.0735912,0.0,10,0.5,0.5,4.057812980651856,-0.2,-0.03,-0.001,2.8181119714647727,10,1,100,-0.914211570506207,-10,-1,-100,6385.408277747803,0.04116815816325685,0.2285054049793156,0.9726718165181327,262.7476083968734,29.856907544016373,991.9912295498823,-44.06424599630293,-113.90813446044922,4381.2578125,True
1599573897.1498876,0.0,10,0.5,0.5,6.205930976867675,-0.2,-0.03,-0.001,2.8316527034405823,10,1,100,-0.9241446766894106,-10,-1,-100,6383.650939049316,0.04568240031939472,0.23157710521295566,0.971743362540875,250.9842063440033,28.657385898438612,956.5684014012539,-44.43964502285031,-123.42044830322266,4381.2578125,True
1599573897.225685,0.0,10,0.5,0.5,8.305460411071778,-0.2,-0.03,-0.001,2.850578519066746,10,1,100,-0.9251805981394168,-10,-1,-100,6381.845188592561,0.04974845458777561,0.23450190145901903,0.9708418766607838,236.74983240484372,27.186886030898826,910.7727996675338,-44.815265398125,-132.70457458496094,4381.2578125,True
1599573897.2994885,0.0,10,0.5,0.5,10.363526016235353,-0.2,-0.03,-0.001,2.8798011842553453,10,1,100,-0.9184732478683528,-10,-1,-100,6380.091166619444,0.05333549698300064,0.2373870627494706,0.969949847776036,244.0724850974492,28.209965071271604,947.5782827576446,-45.19047550352521,-141.69668579101562,4381.2578125,True
1599573897.3762827,0.0,10,0.5,0.5,12.36559490966797,-0.2,-0.03,-0.001,2.9171452623401883,10,1,100,-0.9081754611336802,-10,-1,-100,6378.219483168097,0.05645629965653038,0.2403130222824454,0.9690522883470061,257.47100579708274,29.960056675848097,1008.6129850761226,-45.56478816259075,-150.38580322265625,4381.2578125,True
1599573897.4511178,0.0,10,0.5,0.5,13.47450732421875,-0.2,-0.03,-0.001,2.7936705154802386,10,1,100,-0.7537378565174956,-10,-1,-100,6377.309540398768,0.05784533415189814,0.24181667788990485,0.9685962066883936,263.1908132159228,30.727872843455025,1035.5997094808872,-45.7516617653422,-154.61581420898438,4381.2578125,True
1599573897.5260031,0.0,10,0.5,0.5,15.392583526611329,-0.2,-0.03,-0.001,2.991695383611791,10,1,100,-0.8892203355232088,-10,-1,-100,6375.493142092717,0.06029711443496686,0.24495116799276892,0.9676586088542771,272.9771142220767,32.07511209768053,1083.5711482522672,-46.124964532641044,-162.84567260742188,4381.2578125,True
1599573897.6027977,0.0,10,0.5,0.5,17.24488018798828,-0.2,-0.03,-0.001,3.0513242889908834,10,1,100,-0.8730458907608505,-10,-1,-100,6373.5894729953725,0.062339375242186766,0.24831183171611415,0.9666721453130849,281.6588191153671,33.29232333020319,1127.7856142035284,-46.49780392638033,-170.76760864257812,4381.2578125,True
1599573897.6766007,0.0,10,0.5,0.5,-52.584304977417,-0.2,-0.03,-0.001,3.3261708732318973,10,1,100,-0.93448422691801,-10,-1,-100,6370.761628845241,0.06471829758219858,0.2538357714978108,0.9650797599505304,290.4963243774635,34.615394263759704,1178.3357854764765,-47.05658472048159,177.92784118652344,4381.2578125,True
1599573897.7504044,0.0,10,0.5,0.5,-51.61819528198243,-0.2,-0.03,-0.001,3.2312479226864976,10,1,100,-0.8315078601650451,-10,-1,-100,6368.794496045681,0.06591412619181874,0.25796530890295977,0.9639031213617734,293.88801409861713,35.19670509032442,1202.4251262195676,-47.42899967984284,170.77944946289062,4381.2578125,True
1599573897.821217,0.0,10,0.5,0.5,-51.75597317504883,-0.2,-0.03,-0.001,3.0638270674685257,10,1,100,-0.7695652040938061,-10,-1,-100,6367.887452110997,0.06641115743222162,0.26016764938451115,0.9632768825121107,294.9198680902732,35.408772392168686,1211.8710580638528,-47.6152141362529,167.32171630859375,4381.2578125,True
1599573897.8930223,0.0,10,0.5,0.5,-50.48062842559814,-0.2,-0.03,-0.001,3.644834157690519,10,1,100,-0.8527819330179094,-10,-1,-100,6364.979331664974,0.06759657155074429,0.267422875874844,0.9612053417316265,295.50789358474975,35.75678240874647,1230.1656343275488,-48.173979389273356,156.76205444335938,4381.2578125,True
1599573897.9668262,0.0,10,0.5,0.5,-49.85383537292481,-0.2,-0.03,-0.001,3.5134118397500607,10,1,100,-0.8005892858619017,-10,-1,-100,6363.041541632032,0.06817982016504542,0.27279120091144976,0.9596543507052688,293.4284439881585,35.709997509152345,1232.1623590395732,-48.546651622652796,149.40931701660156,4381.2578125,True
1599573898.0396318,0.0,10,0.5,0.5,-49.17419630432129,-0.2,-0.03,-0.001,3.6227608283635524,10,1,100,-0.8000521718051452,-10,-1,-100,6361.104171343381,0.0686884075360966,0.27863076965989364,0.9579388273104346,288.9509997062337,35.394642890481734,1223.9379243589453,-48.91947815244783,141.78079223632812,4381.2578125,True
1599573898.1119518,0.0,10,0.5,0.5,-49.244656600952155,-0.2,-0.03,-0.001,3.383593590722948,10,1,100,-0.7782387109568705,-10,-1,-100,6360.134441664093,0.068938498310656,0.2817277266281913,0.9570146140470285,285.7059505622784,35.1235432156192,1215.438904494886,-49.10594457474946,137.8623809814453,4381.2578125,True
1599573898.1887867,0.0,10,0.5,0.5,-48.49616758728028,-0.2,-0.03,-0.001,3.795879955582076,10,1,100,-0.8103443119061638,-10,-1,-100,6358.13529689156,0.06944637520647255,0.2882535501850487,0.9550325082301634,277.0056930412909,34.327253564050196,1188.5879946800296,-49.4789543622598,129.8168487548828,4381.2578125,True
1599573898.2695708,0.0,10,0.5,0.5,-46.82722241210938,-0.2,-0.03,-0.001,4.320108095699279,10,1,100,-0.8681417653758129,-10,-1,-100,6355.168111094041,0.07042296646961661,0.29890961208117084,0.9516793838258257,277.3839016503538,34.852020990403425,1205.2666209626368,-50.038090345311325,117.22834777832031,4381.2578125,True
1599573898.3583689,0.0,10,0.5,0.5,-46.80872116088867,-0.2,-0.03,-0.001,3.674769732312826,10,1,100,-0.8175496853974438,-10,-1,-100,6354.137669699616,0.07084164338900363,0.3026811755522337,0.9504554526795367,286.8505305121129,36.2185734511793,1251.5017621387897,-50.22392188504004,112.89346313476562,4381.2578125,True
1599573898.4660544,0.0,10,0.5,0.5,-44.96650308227539,-0.2,-0.03,-0.001,4.614843408068516,10,1,100,-0.9652725088372853,-10,-1,-100,6351.108286967967,0.07255746419412964,0.31460656726567343,0.9464449916519327,313.34791424005005,40.14798658994608,1383.575006733473,-50.77968173733642,99.47288513183594,4381.2578125,True
1599573898.5553591,0.0,10,0.5,0.5,-43.81749781799316,-0.2,-0.03,-0.001,3.8855667669856007,10,1,100,-0.877600951684793,-10,-1,-100,6350.078945004847,0.07331316061866525,0.3187627986355304,0.944994951672307,321.34934860377814,41.3663809204503,1424.4794648202803,-50.96445011187147,94.86064147949219,4381.2578125,True
1599573898.6431243,0.0,10,0.5,0.5,-41.69842211914063,-0.2,-0.03,-0.001,4.416024408430783,10,1,100,-1.0023582312146802,-10,-1,-100,6348.018278835341,0.0751275880599449,0.32730826253969064,0.9419262958350532,336.27871957577895,43.674496468197304,1502.3265128141354,-51.33344984850946,85.42814636230469,4381.2578125,True
1599573898.7402806,0.0,10,0.5,0.5,-38.51364842224121,-0.2,-0.03,-0.001,5.024083612238445,10,1,100,-1.2336019993191591,-10,-1,-100,6344.93058790022,0.07887135959785102,0.34054364011158306,0.9369147975214924,351.1700454793996,46.17463299364466,1587.401056450381,-51.88629346570306,70.75886535644531,4381.2578125,True
1599573898.835539,0.0,10,0.5,0.5,-36.23476602172852,-0.2,-0.03,-0.001,4.695504044822891,10,1,100,-1.2139355525510824,-10,-1,-100,6342.872318271431,0.08208575258164942,0.3495222411420377,0.9333253088661806,354.7833218032372,47.031827350452765,1616.5741685318421,-52.25490792310016,60.63179016113281,4381.2578125,True
1599573898.9472418,0.0,10,0.5,0.5,-34.9397619934082,-0.2,-0.03,-0.001,4.29932646442092,10,1,100,-1.0970859972874885,-10,-1,-100,6341.782082888181,0.08393301758050929,0.35401323585676897,0.9314665197408062,354.3832751007707,47.18073371104994,1621.283874096949,-52.43932378396673,55.46363830566406,4381.2578125,True
1599573899.0449796,0.0,10,0.5,0.5,-30.390287628173834,-0.2,-0.03,-0.001,5.806748344884601,10,1,100,-1.901038888689532,-10,-1,-100,6337.544154102798,0.0929071533103601,0.3717312640869246,0.9236796675060582,336.1256542314647,45.668381134193815,1563.0067315314816,-53.17793070502852,34.092041015625,4381.2578125,True
1599573899.1596727,0.0,10,0.5,0.5,-30.10034820556641,-0.2,-0.03,-0.001,4.043945875614912,10,1,100,-1.0060221812044212,-10,-1,-100,6337.544154102798,0.0929071533103601,0.3717312640869246,0.9236796675060582,336.1256542314647,45.668381134193815,1563.0067315314816,-53.17793070502852,34.092041015625,4381.2578125,True
1599573900.0650194,0.0,10,0.5,0.5,-26.44296418762207,-0.2,-0.03,-0.001,5.443719579689758,10,1,100,-1.9308105377151528,-10,-1,-100,6334.335838159546,0.10129299220763595,0.3843805907476942,0.9176008343425137,314.1726887844568,43.506724062790994,1478.2288664065218,-53.73229443307032,17.3248291015625,4381.2578125,True
1599573900.1498547,0.0,10,0.5,0.5,-23.84188381958008,-0.2,-0.03,-0.001,5.061290168999429,10,1,100,-1.7894429110900485,-10,-1,-100,6332.215946208686,0.10760325821244211,0.3923256467251486,0.9135108788316428,344.9129425791637,48.396036418690514,1634.8518331334542,-54.09989983155164,5.79180908203125,4381.2578125,True
1599573900.2397523,0.0,10,0.5,0.5,-22.351506774902344,-0.2,-0.03,-0.001,4.693056143684159,10,1,100,-1.5301132236595754,-10,-1,-100,6331.127178221825,0.11094890140851302,0.39611934786435654,0.9114712302227432,358.79465361994835,50.66097271211716,1706.7288254899295,-54.2829882972645,-0.08184814453125,4381.2578125,True
1599573900.3459077,0.0,10,0.5,0.5,-17.192121505737305,-0.2,-0.03,-0.001,5.838676726202171,10,1,100,-2.7822650917644367,-10,-1,-100,6326.703782680095,0.12533869271751769,0.4099087971223469,0.9034738458580716,401.23373305686846,57.93392056859375,1935.8349892668468,-55.01271098139502,-24.29376220703125,4381.2578125,True
1599573900.478557,0.0,10,0.5,0.5,-14.33886215209961,-0.2,-0.03,-0.001,5.1279698540012095,10,1,100,-2.184852102495058,-10,-1,-100,6324.523114470532,0.13294199806680135,0.41590082852006865,0.899640442613785,409.4531579267693,59.751982523974,1990.065539116975,-55.37726194187404,-36.83111572265625,4381.2578125,True
1599573900.6072106,0.0,10,0.5,0.5,-12.702940017700197,-0.2,-0.03,-0.001,4.841613044652195,10,1,100,-1.8538698203062918,-10,-1,-100,6323.4318905562395,0.13679260544624602,0.4186643473730243,0.8977794536153895,409.4175488229303,60.084457143133655,1997.416670027671,-55.55970272200635,-43.2076416015625,4381.2578125,True
1599573900.7010047,0.0,10,0.5,0.5,-11.071289672851563,-0.2,-0.03,-0.001,4.86037782851938,10,1,100,-1.8994713632449334,-10,-1,-100,6322.280005675624,0.14065506141259393,0.42127620735881166,0.8959589894701626,406.4200844876754,60.00609963554657,1990.3930333712708,-55.74229558845629,-49.656036376953125,4381.2578125,True
1599573900.790252,0.0,10,0.5,0.5,-8.111362686157229,-0.2,-0.03,-0.001,5.132604150324433,10,1,100,-2.3662424788182728,-10,-1,-100,6320.035437334445,0.14835651397009425,0.42606017939301266,0.8924477958391936,391.17981265641146,58.5491968013956,1930.5378463839568,-56.10792055014866,-62.768035888671875,4381.2578125,True
1599573900.879124,0.0,10,0.5,0.5,-5.076742797851562,-0.2,-0.03,-0.001,5.128050490828537,10,1,100,-2.4365385389056735,-10,-1,-100,6317.790367242764,0.15593832275371675,0.4303023507527452,0.889113674640886,363.99159139439246,55.32834161692041,1809.744190600381,-56.473907851731525,-76.16622924804688,4381.2578125,True
1599573900.9628694,0.0,10,0.5,0.5,-2.0089454345703124,-0.2,-0.03,-0.001,5.124694260993886,10,1,100,-2.4952143802279947,-10,-1,-100,6315.545302537619,0.16330699186953707,0.4340751125479454,0.8859512532148771,372.8896532308406,57.57312986370924,1866.6151051746722,-56.838819354043224,-89.84991455078125,4381.2578125,True
1599573901.0446882,0.0,10,0.5,0.5,2.5819296188354497,-0.2,-0.03,-0.001,5.3008113366473975,10,1,100,-2.91793941987947,-10,-1,-100,6312.082412188174,0.17378473702751515,0.43904928409637656,0.8814956558660608,421.94693579533157,66.46984368179469,2132.176776813269,-57.3815426276474,-110.90828704833984,4381.2578125,True
1599573901.135416,0.0,10,0.5,0.5,4.384755867004395,-0.2,-0.03,-0.001,4.97693453643159,10,1,100,-2.24156358252829,-10,-1,-100,6310.928424031008,0.17709518706355734,0.4405772248717624,0.8800732944722389,433.1254686972421,68.62610889816388,2195.585914865029,-57.561928459568946,-118.06841278076172,4381.2578125,True
1599573901.2550888,0.0,10,0.5,0.5,9.132361778259279,-0.2,-0.03,-0.001,5.312474317237415,10,1,100,-2.943890638332755,-10,-1,-100,6307.4641495922115,0.18642630403195345,0.4449727585129419,0.875924926775331,442.52331916564816,71.32844844381759,2265.8763894572085,-58.103664338077536,-139.87530517578125,4381.2578125,True
1599573901.3478415,0.0,10,0.5,0.5,13.840933792114258,-0.2,-0.03,-0.001,5.36504340222637,10,1,100,-2.947000354986372,-10,-1,-100,6303.9357640193775,0.19486879197041604,0.4494021867678696,0.8718163960629828,413.6767561527359,68.08669291921954,2140.9070521804824,-58.647540076072076,-161.32305908203125,4381.2578125,True
1599573901.4405665,0.0,10,0.5,0.5,15.636503540039064,-0.2,-0.03,-0.001,5.096260918698343,10,1,100,-2.4001773770823203,-10,-1,-100,6302.781186442589,0.1975094538432971,0.4509495595224168,0.8704220300572939,397.10972674210296,65.87998261668446,2062.2911312563115,-58.82921036283065,-168.31773376464844,4381.2578125,True
1599573901.5263324,0.0,10,0.5,0.5,17.4136492767334,-0.2,-0.03,-0.001,5.1213563379932445,10,1,100,-2.4251960648781683,-10,-1,-100,6301.564180566696,0.2000788004751726,0.4525525397192294,0.8690021129974838,376.9504128650249,63.039854983994346,1964.054211254057,-59.010975653221834,-175.2315673828125,4381.2578125,True
1599573901.6106923,0.0,10,0.5,0.5,-49.16247006225586,-0.2,-0.03,-0.001,5.749054978383307,10,1,100,-3.252386516274119,-10,-1,-100,6296.818374757888,0.20987695043045085,0.4596853382722903,0.8629258690382993,442.78620597552083,76.1574522764134,2334.1378213282924,-59.731382373109355,157.92901611328125,4381.2578125,True
1599573901.6924744,0.0,10,0.5,0.5,-48.1446383972168,-0.2,-0.03,-0.001,5.258689717603043,10,1,100,-2.542766850832283,-10,-1,-100,6295.6620740963845,0.2122703426230345,0.46167691719442194,0.8612756386735634,458.2444516442653,79.28156023628534,2422.5406859421128,-59.91034015940837,151.42440795898438,4381.2578125,True
1599573901.7783372,0.0,10,0.5,0.5,-46.21084150695801,-0.2,-0.03,-0.001,5.530288787980059,10,1,100,-2.8395865780628124,-10,-1,-100,6293.228915672749,0.21708641138324908,0.46592414709269503,0.8577809622209432,477.38746345962016,83.55295389602777,2538.943636007615,-60.26809586021563,138.5742645263672,4381.2578125,True
1599573901.8661027,0.0,10,0.5,0.5,-45.567550231933595,-0.2,-0.03,-0.001,5.356933749910759,10,1,100,-2.633774868178227,-10,-1,-100,6292.011649720604,0.21953805099483015,0.468176926839277,0.8559283903111999,480.9928852740319,84.69900097057487,2566.2563377115725,-60.44711331956015,132.10479736328125,4381.2578125,True
1599573901.9498787,0.0,10,0.5,0.5,-42.268397903442384,-0.2,-0.03,-0.001,5.930387633642399,10,1,100,-3.240753406612947,-10,-1,-100,6288.3625724251615,0.22723368184646922,0.4754071239025561,0.8499134781712766,469.7352801200088,84.5298389787861,2531.500454133395,-60.9852535786324,112.34616088867188,4381.2578125,True
1599573902.033654,0.0,10,0.5,0.5,-41.608794486999514,-0.2,-0.03,-0.001,5.490887662054038,10,1,100,-2.7765735501355153,-10,-1,-100,6287.14762709057,0.22996130306651086,0.47795152345491,0.8477500458974232,458.65739830975275,83.24107318333655,2480.117379365176,-61.16495317082583,105.63409423828125,4381.2578125,True
1599573902.1223462,0.0,10,0.5,0.5,-39.549685134887696,-0.2,-0.03,-0.001,5.815542576811646,10,1,100,-3.1455913552195485,-10,-1,-100,6284.714982218109,0.2357476059345827,0.4831820456379526,0.8431833591036034,423.55697808694737,78.26109392800012,2304.7491274045674,-61.5245563608234,92.01753234863281,4381.2578125,True
1599573902.2131038,0.0,10,0.5,0.5,-37.46997639465332,-0.2,-0.03,-0.001,5.882292487563849,10,1,100,-3.266218698320418,-10,-1,-100,6282.223626078572,0.24205965593201714,0.48850914745926133,0.8383113597099225,447.8041254922461,84.13034687680039,2449.6978794045376,-61.88212835971068,78.14189147949219,4381.2578125,True
1599573902.2945604,0.0,10,0.5,0.5,-35.36047505187989,-0.2,-0.03,-0.001,5.936378613994339,10,1,100,-3.3993163047646835,-10,-1,-100,6279.73010768462,0.24896496065739487,0.493808107572827,0.8331686511506569,492.9056754016497,93.90305825267194,2709.437629797256,-62.236383702175814,64.00372314453125,4381.2578125,True
1599573902.3788872,0.0,10,0.5,0.5,-31.70887528991699,-0.2,-0.03,-0.001,6.245289627191711,10,1,100,-3.9838555547923535,-10,-1,-100,6275.963323097676,0.26050972585634063,0.5013946636614534,0.8250685268425116,532.1530809439657,103.25836371239063,2947.9678611027493,-62.76592180123168,42.298736572265625,4381.2578125,True
