Timestamp,Input Throttle,horizon,dT,dt,Input Roll,Roll P,Roll I,Roll D,Input Pitch,Pitch P,Pitch I,Pitch D,Input Yaw,Yaw P,Yaw I,Yaw D,Altitude,Direction X,Direction Y,Direction Z,Drag X,Drag Y,Drag Z,Vertical Velocity,Roll,Mass,Has Fuel
1599568303.558554,0.0,10,0.5,0.5,-5.4337545471191415,-0.1005,-0.001,-0.37525,-0.06717780220158948,10,1,100,0.6903917431004164,-10,-1,-100,6483.617967225844,-0.06725906362512973,-0.0070023066656800526,0.9977109732089904,205.07311195133434,21.498764697267163,-156.76515589347866,9.59082413601394,-35.94464111328125,4381.2578125,True
1599568303.612412,0.0,10,0.5,0.5,-5.438753115844727,-0.1005,-0.001,-0.37525,-0.06904958249235629,10,1,100,0.6894960485328314,-10,-1,-100,6483.776675429661,-0.06735160458802993,-0.006987091076307214,0.9977048370724224,204.84260127690428,21.477771604983644,-153.51313756159547,9.400810247313807,-35.9429931640625,4381.2578125,True
1599568303.6672633,0.0,10,0.5,0.5,-5.445166522216796,-0.1005,-0.001,-0.37525,-0.06773524022171587,10,1,100,0.7081242922073514,-10,-1,-100,6484.156591924839,-0.06754385167444571,-0.006954958255256714,0.9976920650464491,204.38113929731557,21.435605853141023,-147.02547048036087,9.020797946974078,-35.9395751953125,4381.2578125,True
1599568303.7201211,0.0,10,0.5,0.5,-5.298469323730468,-0.1005,-0.001,-0.37525,-0.018484294719785646,10,1,100,0.7014876967727569,-10,-1,-100,6484.697140884353,-0.06759688556571425,-0.006471688042233933,0.9976917250913228,203.75651241173074,21.378958898684896,-137.38145300021594,8.450805585856479,-36.256591796875,4381.2578125,True
1599568303.773978,0.0,10,0.5,0.5,-5.306552610778809,-0.1005,-0.001,-0.37525,-0.04435473576294606,10,1,100,0.7021346634568207,-10,-1,-100,6484.8568046061555,-0.06758952799529921,-0.0062616539598399235,0.9976935638737275,203.5918329775796,21.364388807621033,-134.205328066389,8.260810970012685,-36.500946044921875,4381.2578125,True
1599568303.8284106,0.0,10,0.5,0.5,-5.067168255615234,-0.1005,-0.001,-0.37525,-0.0014844377565304406,10,1,100,0.6975945774516341,-10,-1,-100,6485.175624518888,-0.06748012076033358,-0.005675291490369009,0.997704477472498,203.31709643535606,21.34038363953509,-127.8983410366199,7.880820234698128,-37.208099365234375,4381.2578125,True
1599568303.8842623,0.0,10,0.5,0.5,-4.57137707977295,-0.1005,-0.001,-0.37525,0.07919647475101002,10,1,100,0.6681884127892789,-10,-1,-100,6485.5900821151445,-0.0670519853036522,-0.004403612503062929,0.9977397654016611,202.97216425807147,21.30947322930518,-118.4982983628861,7.310815544348446,-38.819091796875,4381.2578125,True
1599568303.941115,0.0,10,0.5,0.5,-4.855698722839356,-0.1005,-0.001,-0.37525,0.01041958125307324,10,1,100,0.6944467248375755,-10,-1,-100,6485.7501949262805,-0.0668405268295594,-0.0038687818986722247,0.9977561708652909,202.84927654440355,21.297718558313697,-115.36479562581346,7.120804911131586,-39.502899169921875,4381.2578125,True
1599568303.9959686,0.0,10,0.5,0.5,-4.361762997436523,-0.1005,-0.001,-0.37525,0.08984951661763325,10,1,100,0.6614184110927945,-10,-1,-100,6486.005459157284,-0.06628727034013199,-0.0026569648623677,0.9977970426537525,202.5424081838436,21.266745325950616,-109.07217277974917,6.740763622807114,-41.091094970703125,4381.2578125,True
1599568304.050944,0.0,10,0.5,0.5,-3.566894541931152,-0.1005,-0.001,-0.37525,0.20536940270494466,10,1,100,0.5962439191638889,-10,-1,-100,6486.420287387096,-0.06513155335917144,-0.0005027168059676942,0.9978765595166742,201.7687149895295,21.184517818215703,-99.5039064123398,6.17063286331695,-44.02484130859375,4381.2578125,True
1599568304.108824,0.0,10,0.5,0.5,-3.566981750488281,-0.1005,-0.001,-0.37525,0.17177591475541418,10,1,100,0.6083267024459762,-10,-1,-100,6486.674999871058,-0.06413153453962703,0.0011507521883147318,0.9979407908523399,200.89548648864607,21.090198115578968,-92.99223375089886,5.790480997029393,-46.34832763671875,4381.2578125,True
1599568304.1642401,0.0,10,0.5,0.5,-3.1922090362548827,-0.1005,-0.001,-0.37525,0.20154322857138865,10,1,100,0.5751334671337285,-10,-1,-100,6486.8691427229205,-0.06292351304546213,0.0029171058915767097,0.9980140890785233,199.59730139673718,20.949764373615118,-86.34441887286039,5.410257060732514,-48.966552734375,4381.2578125,True
1599568304.2200902,0.0,10,0.5,0.5,-2.787596644592285,-0.1005,-0.001,-0.37525,0.2327748558461395,10,1,100,0.5396937429673442,-10,-1,-100,6487.061798287788,-0.06150715791429289,0.004797802054341803,0.9980951110093436,197.7398326245787,20.749232413290695,-79.54503652114452,5.029941859603159,-51.879425048828125,4381.2578125,True
1599568304.273946,0.0,10,0.5,0.5,-2.3529499099731446,-0.1005,-0.001,-0.37525,0.2620777607996416,10,1,100,0.5009415147161076,-10,-1,-100,6487.2554110693745,-0.05987275725981884,0.0067632315561513634,0.9981831052652738,195.1761479841137,20.47342821249999,-72.59029770394233,4.6495122836902425,-55.08721923828125,4381.2578125,True
1599568304.3307943,0.0,10,0.5,0.5,-1.8881711868286135,-0.1005,-0.001,-0.37525,0.2876478457779439,10,1,100,0.45925861064062634,-10,-1,-100,6487.448519704398,-0.058015024926252504,0.008770409221600634,0.9982771843555737,191.74977973480273,20.10643423802794,-65.4910112074653,4.268938249510948,-58.590362548828125,4381.2578125,True
1599568304.3856475,0.0,10,0.5,0.5,-2.314496279907227,-0.1005,-0.001,-0.37525,0.20008644618316054,10,1,100,0.5326435351469889,-10,-1,-100,6487.544092541793,-0.05700201712131281,0.009785437954618812,0.9983261066646197,189.6599303151681,19.883373422198137,-61.8943761748847,4.078586547380513,-60.452728271484375,4381.2578125,True
1599568304.4425516,0.0,10,0.5,0.5,-0.14181707305908242,-0.1005,-0.001,-0.37525,0.43254464233569606,10,1,100,0.2633089744323516,-10,-1,-100,6487.770736975945,-0.05364213047727004,0.012807392468344763,0.9984780881601866,181.6620020832427,19.033813286681703,-50.99192239961195,3.5072250899875343,-66.483642578125,4381.2578125,True
1599568304.4984028,0.0,10,0.5,0.5,-1.375342518615723,-0.1005,-0.001,-0.37525,0.24123460262693872,10,1,100,0.4629950234228225,-10,-1,-100,6487.805266666692,-0.05241520656880488,0.013799795297132917,0.9985300254724977,178.3816243513719,18.686862138939667,-47.353993592116844,3.31665276589203,-68.64193725585938,4381.2578125,True
1599568304.5587523,0.0,10,0.5,0.5,1.0913708236694333,-0.1005,-0.001,-0.37525,0.4626551326343532,10,1,100,0.1459400419224247,-10,-1,-100,6487.969396613189,-0.04843061711134271,0.016698831253193366,0.9986869501305161,166.40325804100016,17.42543089477009,-36.56071562288029,2.7444621580340427,-75.5230712890625,4381.2578125,True
1599568304.617594,0.0,10,0.5,0.5,-0.3628698013305667,-0.1005,-0.001,-0.37525,0.27295661423413303,10,1,100,0.3886213129056323,-10,-1,-100,6488.003926052945,-0.04703068975279607,0.017592190322232172,0.998738518863192,161.76413863445794,16.938229784369003,-33.07148774382564,2.5535779865206423,-77.88662719726562,4381.2578125,True
1599568304.6760128,0.0,10,0.5,0.5,1.0833848388671874,-0.1005,-0.001,-0.37525,0.3851058183752555,10,1,100,0.19526258054148188,-10,-1,-100,6488.133533463115,-0.04401667719044901,0.019407423234342927,0.9988422718590333,151.6692100782565,15.879395008808306,-26.37285105126677,2.171638972272773,-82.78372192382812,4381.2578125,True
1599568304.7328615,0.0,10,0.5,0.5,1.5695895126342772,-0.1005,-0.001,-0.37525,0.37666847173292917,10,1,100,0.1609401353693013,-10,-1,-100,6488.200650972431,-0.04098292977524929,0.020964334847653348,0.9989398861450235,147.042481823461,15.394519588172983,-21.072143345540553,1.7895649083568839,-87.66064453125,4381.2578125,True
1599568304.7897453,0.0,10,0.5,0.5,2.0412816032409666,-0.1005,-0.001,-0.37525,0.3891754219455604,10,1,100,0.10066152754545538,-10,-1,-100,6488.26924404921,-0.03769693622055114,0.022477002017181218,0.9990363984259549,153.9296365426825,16.11532236693614,-17.35088452572869,1.4074501314823449,-92.49067687988281,4381.2578125,True
1599568304.846558,0.0,10,0.5,0.5,3.546862103271484,-0.1005,-0.001,-0.37525,0.4465012146520449,10,1,100,-0.11970925781919783,-10,-1,-100,6488.306976173772,-0.03272794423268665,0.024357225559572013,0.9991674570507899,163.66162243433408,17.131590985492036,-10.938134521916664,0.834362464049355,-99.45649719238281,4381.2578125,True
1599568304.9034061,0.0,10,0.5,0.5,1.9769819190979003,-0.1005,-0.001,-0.37525,0.3207505629340134,10,1,100,0.18766140658329877,-10,-1,-100,6488.341047656839,-0.031029634659220838,0.024907337406123886,0.9992080795891579,166.49297803647403,17.426665501512694,-8.580639639454812,0.643363028176553,-101.64169311523438,4381.2578125,True
1599568304.9602542,0.0,10,0.5,0.5,3.136417741775513,-0.1005,-0.001,-0.37525,0.3739737135485633,10,1,100,-0.019346814224773357,-10,-1,-100,6488.345240399241,-0.02762835612169402,0.02587661597386284,0.999283280498455,171.53273741113475,17.951847171447927,-3.5919996962589815,0.2613775822134343,-105.79329681396484,4381.2578125,True
1599568305.0181003,0.0,10,0.5,0.5,4.283398923110962,-0.1005,-0.001,-0.37525,0.404781198822425,10,1,100,-0.23686760267341367,-10,-1,-100,6488.322032908676,-0.02258552633895438,0.02702321801246132,0.9993796274130485,178.31238720059974,18.659742085560126,4.453586192351821,-0.31169076271380325,-111.46925354003906,4381.2578125,True
1599568305.0749476,0.0,10,0.5,0.5,3.783011709594727,-0.1005,-0.001,-0.37525,0.35353546036812467,10,1,100,-0.10413636160924189,-10,-1,-100,6488.32774645742,-0.019236016549900193,0.027586789674744372,0.999434312350108,182.08473975666465,19.053894955345214,10.125331938379713,-0.693862559436349,-114.88494873046875,4381.2578125,True
1599568305.1317954,0.0,10,0.5,0.5,3.990506293869019,-0.1005,-0.001,-0.37525,0.34673523984551435,10,1,100,-0.12693072412207737,-10,-1,-100,6488.2685417273315,-0.016013949073387795,0.02802477373172559,0.9994789469980649,185.24719918137905,19.384371867003225,15.978698828481345,-1.0761373652075217,-118.0055160522461,4381.2578125,True
1599568305.190666,0.0,10,0.5,0.5,3.513394436645508,-0.1005,-0.001,-0.37525,0.323350711132416,10,1,100,0.01904863083762745,-10,-1,-100,6488.24163490627,-0.014441351565317437,0.028200058120245317,0.9994979760294574,186.51547765080517,19.51695507393081,18.947533215725226,-1.2673165218190237,-119.45508575439453,4381.2578125,True
1599568305.2484837,0.0,10,0.5,0.5,4.8319369846344,-0.1005,-0.001,-0.37525,0.34402841642855,10,1,100,-0.3377672145335865,-10,-1,-100,6488.155085809645,-0.0097975637256856,0.028537743187229913,0.9995446988298327,189.31524877757792,19.809904994053543,27.94427262810282,-1.8410233600312425,-123.3612060546875,4381.2578125,True
1599568305.305331,0.0,10,0.5,0.5,3.9193870880126953,-0.1005,-0.001,-0.37525,0.31828141038603774,10,1,100,-0.03972167207419516,-10,-1,-100,6488.124294035602,-0.008316551633346365,0.028602365629599537,0.999556271377115,189.9672356979973,19.87818798773027,30.956385982836935,-2.0323138120457624,-124.51551818847656,4381.2578125,True
1599568305.3641741,0.0,10,0.5,0.5,4.483074835586548,-0.1005,-0.001,-0.37525,0.3154638843184571,10,1,100,-0.21799180271778013,-10,-1,-100,6488.003150803968,-0.005379236160043472,0.028628555766792147,0.9995756447678396,190.96098613093554,19.98226497393846,36.98323995686924,-2.414971486405494,-126.60308074951172,4381.2578125,True
1599568305.4227226,0.0,10,0.5,0.5,4.555069610214233,-0.1005,-0.001,-0.37525,0.31627922597095265,10,1,100,-0.22387854452320133,-10,-1,-100,6487.883002199582,-0.0026848132588647476,0.028654184857672106,0.9995857789444123,191.64394491235262,20.053722268683508,43.00493457994708,-2.797724058286133,-128.39381408691406,4381.2578125,True
1599568305.4815655,0.0,10,0.5,0.5,4.59789518661499,-0.1005,-0.001,-0.37525,0.299424149719358,10,1,100,-0.2545956502967585,-10,-1,-100,6487.7614036450395,1.6596584717501927e-05,0.028520349738641117,0.9995932119494104,192.1218262038509,20.103593458656437,49.0198062410767,-3.1805622890202643,-129.89019775390625,4381.2578125,True
1599568305.537416,0.0,10,0.5,0.5,4.8425601249694825,-0.1005,-0.001,-0.37525,0.28859299239404834,10,1,100,-0.39380817796061396,-10,-1,-100,6487.549977970892,0.003709768301969199,0.028296931825353297,0.9995926776784717,192.54537663130174,20.14734159326833,58.01546410985354,-3.7549607288852527,-131.5788116455078,4381.2578125,True
1599568305.5922704,0.0,10,0.5,0.5,4.571079151916504,-0.1005,-0.001,-0.37525,0.2879816129115775,10,1,100,-0.280708582954598,-10,-1,-100,6487.428409918095,0.006010529795394538,0.02808606634902237,0.9995874381006482,192.73288598780073,20.166272667812862,64.00721596765656,-4.137975359227616,-132.33465576171875,4381.2578125,True
1599568305.6491218,0.0,10,0.5,0.5,4.416487030792236,-0.1005,-0.001,-0.37525,0.29650439772060033,10,1,100,-0.1739423100168324,-10,-1,-100,6487.336623790441,0.007105532257133933,0.027970884097588498,0.999583483784192,192.81476501206603,20.174399973032344,67.00463892589546,-4.329504750176478,-132.60150146484375,4381.2578125,True
1599568305.707967,0.0,10,0.5,0.5,4.465983661651611,-0.1005,-0.001,-0.37525,0.28559286276963014,10,1,100,-0.2909227780999785,-10,-1,-100,6487.15208146954,0.009140500978737408,0.027766628010891754,0.9995726414877323,193.06592864160038,20.19962579200712,73.04282689276631,-4.712602368607483,-132.91229248046875,4381.2578125,True
1599568305.764821,0.0,10,0.5,0.5,4.30873115234375,-0.1005,-0.001,-0.37525,0.2631777749147812,10,1,100,-0.400082633256607,-10,-1,-100,6486.813266834593,0.01195996718157162,0.027377401811324118,0.9995536188994951,193.471543174483,20.240184085479388,82.14824361571023,-5.2873303927224615,-132.82376098632812,4381.2578125,True
1599568305.821669,0.0,10,0.5,0.5,4.258790409088135,-0.1005,-0.001,-0.37525,0.2866382525047443,10,1,100,-0.21602185832504375,-10,-1,-100,6486.721000976278,0.01282583730409134,0.027237584750088587,0.99954670319822,193.61692316023095,20.254743286799357,85.1980499974089,-5.478924153819507,-132.64614868164062,4381.2578125,True
1599568306.3407907,0.0,10,0.5,0.5,3.860897187042236,-0.1005,-0.001,-0.37525,0.25991838059559413,10,1,100,-0.3860120729981145,-10,-1,-100,6486.382680272334,0.015137790820655568,0.026868752366552322,0.9995243455941106,194.05978052045927,20.299333922442912,94.38329875755306,-6.053744463650526,-131.66775512695312,4381.2578125,True
1599568306.3926523,0.0,10,0.5,0.5,4.003060813140869,-0.1005,-0.001,-0.37525,0.2833853476070981,10,1,100,-0.23290133594181459,-10,-1,-100,6486.228404060472,0.01582632882388032,0.026748362275499434,0.9995169095275661,194.1993545047179,20.31351435457991,97.45202863726033,-6.245360770997397,-131.193359375,4381.2578125,True
1599568306.4445133,0.0,10,0.5,0.5,3.2934111373901374,-0.1005,-0.001,-0.37525,0.24903464373673384,10,1,100,-0.3723908606046611,-10,-1,-100,6485.825138361892,0.017701081264670585,0.02632834687889467,0.9994966182397448,194.53541197501283,20.34834241647386,106.64455642333648,-6.820223452297932,-129.32656860351562,4381.2578125,True
1599568306.4983695,0.0,10,0.5,0.5,3.22567152709961,-0.1005,-0.001,-0.37525,0.2605640719445277,10,1,100,-0.30162645293734525,-10,-1,-100,6485.578100288869,0.018743556237028378,0.02605344208203281,0.9994848159203157,194.61415790233468,20.357509085335966,112.71093734708428,-7.20346632637132,-127.7115478515625,4381.2578125,True
1599568306.5542197,0.0,10,0.5,0.5,3.3945633041381837,-0.1005,-0.001,-0.37525,0.2711086926905657,10,1,100,-0.2513546039764272,-10,-1,-100,6485.424794074148,0.019217219439843197,0.025901631462264745,0.9994797666609335,194.5884140221585,20.35573865573253,115.70870572033252,-7.395085353925632,-126.79315185546875,4381.2578125,True
1599568306.6099114,0.0,10,0.5,0.5,2.758814184570313,-0.1005,-0.001,-0.37525,0.2576421733983866,10,1,100,-0.2918058893245237,-10,-1,-100,6485.11280563497,0.02000146362635039,0.025643376451058592,0.9994710394488642,194.35103317762793,20.333875391671842,121.5885115125969,-7.7783140752283195,-124.73345947265625,4381.2578125,True
1599568306.664765,0.0,10,0.5,0.5,1.797503451538086,-0.1005,-0.001,-0.37525,0.23210187985417624,10,1,100,-0.31739667486388284,-10,-1,-100,6484.58548175043,0.020934337360959322,0.025178635308558326,0.9994637511402081,193.35744742702536,20.23785990734728,129.95962361154213,-8.353124272056261,-121.08984375,4381.2578125,True
1599568306.7186382,0.0,10,0.5,0.5,1.8320584568023681,-0.1005,-0.001,-0.37525,0.241730638260227,10,1,100,-0.27294699139119716,-10,-1,-100,6484.274449084653,0.02136574471984864,0.024846215936148573,0.9994629410369452,192.10781733518775,20.11513312020458,135.0812087147508,-8.736307604010605,-118.29097747802734,4381.2578125,True
1599568306.7744896,0.0,10,0.5,0.5,2.162349449539185,-0.1005,-0.001,-0.37525,0.2553535159694249,10,1,100,-0.24854799373692318,-10,-1,-100,6484.058138469001,0.021525010300399067,0.024670515769564,0.9994638760771856,191.26095072945154,20.03139772456774,137.45493595467417,-8.927894076411997,-116.78068542480469,4381.2578125,True
1599568306.8297076,0.0,10,0.5,0.5,0.3610187168121344,-0.1005,-0.001,-0.37525,0.2094973519889203,10,1,100,-0.2632630002444226,-10,-1,-100,6483.528820025269,0.02179487448449597,0.024096374932884128,0.9994720347069742,188.33776915126504,19.743510092903012,144.13238154190122,-9.502646325229064,-111.80651092529297,4381.2578125,True
1599568306.8865545,0.0,10,0.5,0.5,0.47233436737060575,-0.1005,-0.001,-0.37525,0.2176087707526137,10,1,100,-0.23928886923224524,-10,-1,-100,6483.156234372407,0.021814105245218447,0.023651024533588007,0.9994822528943982,185.4834833253754,19.459043476505983,147.71765243809708,-9.885829096050202,-108.12146759033203,4381.2578125,True
1599568306.9416382,0.0,10,0.5,0.5,-0.027315330123901083,-0.1005,-0.001,-0.37525,0.20805235077560397,10,1,100,-0.22624760369044816,-10,-1,-100,6482.720161766163,0.021706961418745667,0.02316220919610323,0.9994960329541688,181.67267647586027,19.07516617974298,150.339292742807,-10.269052506783057,-104.16958618164062,4381.2578125,True
1599568306.996491,0.0,10,0.5,0.5,-0.4974198127746581,-0.1005,-0.001,-0.37525,0.19651902431004442,10,1,100,-0.21316142456627205,-10,-1,-100,6482.28310395719,0.021485246645737116,0.022616243333320525,0.9995133264314487,177.44370193742012,18.647245085872818,152.37046802182303,-10.652340462906798,-100.070068359375,4381.2578125,True
1599568307.0528505,0.0,10,0.5,0.5,0.038256464004516655,-0.1005,-0.001,-0.37525,0.21786961925765586,10,1,100,-0.21921273819271278,-10,-1,-100,6482.066281159758,0.021335259552896016,0.022317381688083237,0.9995232569452294,175.12001751936342,18.410865839238014,153.10665325824795,-10.84401508339311,-97.96866607666016,4381.2578125,True
1599568307.1092088,0.0,10,0.5,0.5,-2.1863256351470945,-0.1005,-0.001,-0.37525,0.1379988685703878,10,1,100,-0.16933071222259882,-10,-1,-100,6481.410426675924,0.02074307859302501,0.0213229879683414,0.9995574295029703,166.91497744274432,17.56781201212337,153.75317616753384,-11.419190611282875,-91.6414794921875,4381.2578125,True
1599568307.1660597,0.0,10,0.5,0.5,-0.7981631729125975,-0.1005,-0.001,-0.37525,0.1965623462825758,10,1,100,-0.20207989177245664,-10,-1,-100,6481.193595956429,0.020501064935274455,0.02095555133277228,0.9995701932355022,164.186045398607,17.28540343905483,153.80667297088104,-11.6109673503137,-89.57611083984375,4381.2578125,True
1599568307.2219079,0.0,10,0.5,0.5,-2.9341862701416015,-0.1005,-0.001,-0.37525,0.09833884533763937,10,1,100,-0.13390847731126454,-10,-1,-100,6480.475709960796,0.01966085820466409,0.019732838769226647,0.9996119575759205,155.22978705471309,16.349013454114775,152.70651481417687,-12.186429425253392,-83.46463012695312,4381.2578125,True
1599568307.278796,0.0,10,0.5,0.5,-2.463726387023926,-0.1005,-0.001,-0.37525,0.1194999500761925,10,1,100,-0.14673567546705818,-10,-1,-100,6479.977094412898,0.019014802504758517,0.018818606296844127,0.9996420846196649,160.67433363072996,16.919590068518833,163.09916969848263,-12.57007177108374,-79.64096069335938,4381.2578125,True
1599568307.3395934,0.0,10,0.5,0.5,-1.8990779991149902,-0.1005,-0.001,-0.37525,0.15584073329710657,10,1,100,-0.17290843426934577,-10,-1,-100,6479.69531494868,0.01866755053233342,0.018323336269085878,0.999657830412533,164.45920042350645,17.31474072466162,169.5204052219075,-12.761852883504552,-77.82000732421875,4381.2578125,True
1599568307.3974788,0.0,10,0.5,0.5,-4.345923049163819,-0.1005,-0.001,-0.37525,-0.025371945827395104,10,1,100,-0.04410646071410365,-10,-1,-100,6478.635087536764,0.017183537579415733,0.01623147296044698,0.999720593626935,177.20164935272567,18.631947390810875,193.78154573781646,-13.528648358265809,-71.248779296875,4381.2578125,True
1599568307.455284,0.0,10,0.5,0.5,-1.884125505065918,-0.1005,-0.001,-0.37525,0.18302789483925103,10,1,100,-0.19204662231536418,-10,-1,-100,6478.635087536764,0.017183537579415733,0.01623147296044698,0.999720593626935,177.20164935272567,18.631947390810875,193.78154573781646,-13.528648358265809,-71.248779296875,4381.2578125,True
1599568307.5121322,0.0,10,0.5,0.5,-3.23928948135376,-0.1005,-0.001,-0.37525,0.052823943521000255,10,1,100,-0.10240474260697525,-10,-1,-100,6478.0734795090975,0.016372821007217472,0.015054545722620282,0.9997526150930295,182.52525374395518,19.175457735231973,205.33947540823692,-13.911829171061612,-68.40805053710938,4381.2578125,True
1599568307.5689802,0.0,10,0.5,0.5,-3.9388326301574708,-0.1005,-0.001,-0.37525,-0.029048541929350385,10,1,100,-0.04425183084506604,-10,-1,-100,6477.229607533547,0.01511199232593945,0.013247687150932354,0.9997980428431993,189.03304282122608,19.831947923892155,221.57921964928838,-14.486325611828017,-64.70452880859375,4381.2578125,True
1599568307.626237,0.0,10,0.5,0.5,-3.549856679534912,-0.1005,-0.001,-0.37525,0.0075393948873667405,10,1,100,-0.07271360223287368,-10,-1,-100,6476.667029518052,0.01423032167768477,0.011946222926079293,0.9998273779521893,192.5400687089025,20.181031701629216,231.75128648231131,-14.869148386427657,-62.6083984375,4381.2578125,True
1599568307.6830847,0.0,10,0.5,0.5,-3.6226848587036136,-0.1005,-0.001,-0.37525,-0.007027911135888951,10,1,100,-0.06081162623445584,-10,-1,-100,6476.04244418256,0.013327062159172363,0.010640071902148733,0.9998545785683649,195.48319433393212,20.470531398913188,241.4521788469262,-15.251840888038902,-60.809417724609375,4381.2578125,True
1599568307.7399333,0.0,10,0.5,0.5,-3.325559843444825,-0.1005,-0.001,-0.37525,0.04934144253290605,10,1,100,-0.09966661871685885,-10,-1,-100,6475.760671746102,0.012865886179850069,0.009974822291988355,0.9998674771653744,196.7752748834129,20.596407951571642,246.1494222953705,-15.443140727049688,-60.021484375,4381.2578125,True
1599568307.7977784,0.0,10,0.5,0.5,-3.945026574707031,-0.1005,-0.001,-0.37525,-0.11162016518994491,10,1,100,0.011386107228222558,-10,-1,-100,6474.79231489799,0.011444006125288538,0.007916745057126442,0.9999031752482361,200.0396406121824,20.909989407760538,259.6987848043126,-16.01686680101715,-58.1041259765625,4381.2578125,True
1599568307.854626,0.0,10,0.5,0.5,-3.461491633605957,-0.1005,-0.001,-0.37525,0.017169314204002667,10,1,100,-0.07664727190732981,-10,-1,-100,6474.448536951793,0.010959161206082509,0.0072273211051170445,0.9999138275948095,200.94773900151367,20.99571228294834,264.0500029049519,-16.20805450753682,-57.613494873046875,4381.2578125,True
1599568307.911474,0.0,10,0.5,0.5,-3.7677921356201174,-0.1005,-0.001,-0.37525,-0.14550287489825242,10,1,100,0.03949254420182814,-10,-1,-100,6473.478246998973,0.009469899897901661,0.00513227150708048,0.9999419887098958,203.2222761237973,21.20588484882246,276.6720281646544,-16.781469599479887,-56.587310791015625,4381.2578125,True
1599568307.9693203,0.0,10,0.5,0.5,-3.4771354446411133,-0.1005,-0.001,-0.37525,-0.012090011410763934,10,1,100,-0.0526501764924334,-10,-1,-100,6473.135452861665,0.008962048579170934,0.004452517053989867,0.9999499271349283,203.84365745070104,21.26159957375802,280.7419178795925,-16.972562275260767,-56.393310546875,4381.2578125,True
1599568308.0261698,0.0,10,0.5,0.5,-3.4704743392944337,-0.1005,-0.001,-0.37525,-0.17662273838243614,10,1,100,0.06894089441172442,-10,-1,-100,6472.10366128711,0.007402466271196333,0.0023495145386254325,0.9999698411824911,205.3511385188642,21.391046632997238,292.5711857060328,-17.545718022703056,-56.257415771484375,4381.2578125,True
1599568308.0850103,0.0,10,0.5,0.5,-3.287943766784668,-0.1005,-0.001,-0.37525,-0.11875848895073529,10,1,100,0.031524380626378204,-10,-1,-100,6471.35265933827,0.006333706181366406,0.0009763526635112467,0.9999794652399042,206.05702485825347,21.445473255544417,300.1100155628877,-17.927731166069258,-56.53704833984375,4381.2578125,True
1599568308.1403706,0.0,10,0.5,0.5,-3.1202395935058598,-0.1005,-0.001,-0.37525,-0.12987115949134515,10,1,100,0.045613339581831225,-10,-1,-100,6470.665141594596,0.005243151122676764,-0.00036020223418073064,0.9999861897149657,206.5193246024512,21.473727404584686,307.33863458510746,-18.309682812070605,-57.11260986328125,4381.2578125,True
1599568308.1982174,0.0,10,0.5,0.5,-2.922526358032227,-0.1005,-0.001,-0.37525,-0.13939092902544664,10,1,100,0.05982177639233416,-10,-1,-100,6469.9151307625,0.004131541499411848,-0.0016494246920424392,0.999990104832555,206.70904441806871,21.47261715203119,314.19037548049414,-18.691583935168843,-57.9837646484375,4381.2578125,True
1599568308.2560687,0.0,10,0.5,0.5,-2.9898590606689455,-0.1005,-0.001,-0.37525,-0.08202008021830318,10,1,100,0.011720202620582439,-10,-1,-100,6469.507414177991,0.003567455039985369,-0.0022875322576534868,0.9999910201900355,206.69442743061143,21.460266131926563,317.4558493735887,-18.88251920803326,-58.53033447265625,4381.2578125,True
1599568308.3174534,0.0,10,0.5,0.5,-2.569821702575684,-0.1005,-0.001,-0.37525,-0.1542854641500416,10,1,100,0.08175422782381991,-10,-1,-100,6468.757414536434,0.002426848581494763,-0.0035128357128976955,0.9999908851540681,206.4064358902493,21.40782479254395,323.5866521806603,-19.264368202991452,-59.844818115234375,4381.2578125,True
1599568308.377293,0.0,10,0.5,0.5,-2.297294012451172,-0.1005,-0.001,-0.37525,-0.16167954547236263,10,1,100,0.09586934728268295,-10,-1,-100,6467.9439452386,0.001271104385603053,-0.0046817053587727255,0.9999882328950549,205.90013803402445,21.33161390887865,329.3597918287617,-19.64619963073309,-61.454498291015625,4381.2578125,True
1599568308.4351406,0.0,10,0.5,0.5,-1.4888409484863285,-0.1005,-0.001,-0.37525,-0.23108662625847134,10,1,100,0.17569272029598984,-10,-1,-100,6466.787229806883,-0.0004959910910197591,-0.006363834452700196,0.9999796275944307,204.47936119032926,21.147146106825403,336.8898898308237,-20.21894578136156,-64.42276000976562,4381.2578125,True
1599568308.491755,0.0,10,0.5,0.5,-2.0612062866210943,-0.1005,-0.001,-0.37525,-0.12172684477805182,10,1,100,0.0652375226887312,-10,-1,-100,6466.379525775323,-0.0010878895894316895,-0.006886507292305158,0.999975695961434,203.74770596129454,21.058738680745066,338.94631369011427,-20.40986994774461,-65.55947875976562,4381.2578125,True
1599568308.5486028,0.0,10,0.5,0.5,-1.3000721160888675,-0.1005,-0.001,-0.37525,-0.1812773742331072,10,1,100,0.13772392000703162,-10,-1,-100,6465.505039638956,-0.0022753483913476908,-0.007892106706265277,0.9999662681517987,201.83661786653454,20.835874251780126,342.2393330317677,-20.79174596090526,-68.05404663085938,4381.2578125,True
1599568308.608443,0.0,10,0.5,0.5,-0.19236593475341834,-0.1005,-0.001,-0.37525,-0.23046303991108674,10,1,100,0.21428749867758098,-10,-1,-100,6464.284382018726,-0.0040406731110303965,-0.00924220802170133,0.9999491259817639,197.65859750662403,20.368844077872044,344.68811741222146,-21.364664787281228,-72.3475341796875,4381.2578125,True
1599568308.668319,0.0,10,0.5,0.5,-1.0509064132690433,-0.1005,-0.001,-0.37525,-0.14376659911381223,10,1,100,0.10422495793101463,-10,-1,-100,6463.815161156934,-0.004634542359062047,-0.009670885462522223,0.9999424958423824,195.86700931715532,20.173437790756665,344.72003721548407,-21.555674167522913,-73.92605590820312,4381.2578125,True
1599568308.724636,0.0,10,0.5,0.5,0.8037089904785153,-0.1005,-0.001,-0.37525,-0.2230219022577243,10,1,100,0.23380247214482175,-10,-1,-100,6462.531037319102,-0.006342429760543222,-0.010771415675371295,0.9999218720425517,189.09324775423673,19.450368379671495,341.96163146221113,-22.12883414312275,-79.06576538085938,4381.2578125,True
1599568308.7814834,0.0,10,0.5,0.5,0.6021124511718747,-0.1005,-0.001,-0.37525,-0.18579324169419192,10,1,100,0.18698169720588276,-10,-1,-100,6461.593577113817,-0.007458878916187373,-0.011423990578800893,0.9999069244507558,183.5325915303182,18.86903284615391,337.8523320135042,-22.511051091372018,-82.69137573242188,4381.2578125,True
1599568308.83768,0.0,10,0.5,0.5,0.15039061584472657,-0.1005,-0.001,-0.37525,-0.15478613660312374,10,1,100,0.13747888591494623,-10,-1,-100,6461.185882693157,-0.008013270391022996,-0.01172647174846649,0.9998991335919701,180.43041916037217,18.548308166096195,335.0696712362984,-22.70218817021732,-84.59640502929688,4381.2578125,True
1599568308.895534,0.0,10,0.5,0.5,1.2219216232299803,-0.1005,-0.001,-0.37525,-0.18088332227889178,10,1,100,0.1952458432126163,-10,-1,-100,6460.247935213149,-0.009031888865915102,-0.012230120918405096,0.9998844178833046,186.12296395535114,19.136330051847796,351.69018874856306,-23.084353586413403,-88.3458251953125,4381.2578125,True
1599568308.9529247,0.0,10,0.5,0.5,2.3494921905517576,-0.1005,-0.001,-0.37525,-0.20333022060213832,10,1,100,0.2575410150794867,-10,-1,-100,6458.838815125986,-0.010513808371472737,-0.012884121707464698,0.9998617200600067,196.23349517202138,20.194441787079423,380.3782255755135,-23.657186824491973,-93.66729736328125,4381.2578125,True
1599568309.011793,0.0,10,0.5,0.5,1.973193021774292,-0.1005,-0.001,-0.37525,-0.17657376308310296,10,1,100,0.21046757127595775,-10,-1,-100,6457.900866079261,-0.011422353966713893,-0.013227970614301568,0.9998472636474465,202.34733300837556,20.843557097315685,398.82545083721004,-24.03877038003322,-97.06690216064453,4381.2578125,True
1599568309.5280006,0.0,10,0.5,0.5,1.4660819610595701,-0.1005,-0.001,-0.37525,-0.15907020374385952,10,1,100,0.1676476209039959,-10,-1,-100,6457.3676820001565,-0.01184909917457375,-0.013375197139104145,0.9998403387292598,205.29257643054382,21.158583694903218,407.97831955316013,-24.22946377046019,-98.67557525634766,4381.2578125,True
1599568309.5808597,0.0,10,0.5,0.5,2.955823817062378,-0.1005,-0.001,-0.37525,-0.18387309065614738,10,1,100,0.2528573460695289,-10,-1,-100,6455.89751901594,-0.01300190031087379,-0.013728621415539287,0.9998212217903434,212.81924083698846,21.974183518327393,433.3531408111091,-24.801160757586107,-103.06881713867188,4381.2578125,True
1599568309.6336777,0.0,10,0.5,0.5,1.937099626159668,-0.1005,-0.001,-0.37525,-0.15919261865741816,10,1,100,0.17721700235877053,-10,-1,-100,6455.427808349137,-0.013352510444758273,-0.013820242362574356,0.9998153386330209,215.23774564714063,22.2379512131918,441.79125733548875,-24.991601524168065,-104.38534545898438,4381.2578125,True
1599568309.689585,0.0,10,0.5,0.5,3.112867547607422,-0.1005,-0.001,-0.37525,-0.17286760477871405,10,1,100,0.2452101678619625,-10,-1,-100,6453.894158575451,-0.014280901309833432,-0.014023690338853588,0.9997996759186605,221.3768963099904,22.915373891070562,465.2383930696207,-25.562573462772754,-107.888427734375,4381.2578125,True
1599568309.7414465,0.0,10,0.5,0.5,2.2864620002746583,-0.1005,-0.001,-0.37525,-0.15804866823118008,10,1,100,0.1815843395716948,-10,-1,-100,6453.362921175314,-0.014537706967307714,-0.01406996834424228,0.9997953245874501,223.09310641483577,23.107097774881023,472.490455229084,-25.752789488154797,-108.90730285644531,4381.2578125,True
1599568309.7972977,0.0,10,0.5,0.5,3.1490388359069827,-0.1005,-0.001,-0.37525,-0.16302748850078613,10,1,100,0.23189313935924039,-10,-1,-100,6451.829259375809,-0.015221069129255872,-0.014154302576438535,0.9997839640508028,227.4123730968033,23.595371298719826,492.7932616434788,-26.32315006964842,-111.51776123046875,4381.2578125,True
1599568309.8521495,0.0,10,0.5,0.5,2.5156098575592045,-0.1005,-0.001,-0.37525,-0.15630725535180728,10,1,100,0.18341482136115828,-10,-1,-100,6451.297040979611,-0.01539453893994157,-0.014167394929810197,0.999781122592205,228.609450291003,23.732480726930827,499.1280139008678,-26.513182716096043,-112.2392807006836,4381.2578125,True
1599568309.9060063,0.0,10,0.5,0.5,2.828093989944458,-0.1005,-0.001,-0.37525,-0.15507997760968428,10,1,100,0.20135480058661878,-10,-1,-100,6450.1696123813745,-0.015708619243933738,-0.014165920977782097,0.9997762579518982,230.69436746604185,23.97375322005527,511.2347569220262,-26.893129847951062,-113.45939636230469,4381.2578125,True
1599568309.96086,0.0,10,0.5,0.5,2.978642021560669,-0.1005,-0.001,-0.37525,-0.15056259838180241,10,1,100,0.2017251929486903,-10,-1,-100,6448.572942488245,-0.015991444241419978,-0.014121754119267282,0.9997723989847233,233.15920558274172,24.264844344305956,528.1646277613407,-27.46278464889953,-114.7329330444336,4381.2578125,True
1599568310.0187051,0.0,10,0.5,0.5,2.6342194847106932,-0.1005,-0.001,-0.37525,-0.15195319880899477,10,1,100,0.18049625874460656,-10,-1,-100,6447.979194258456,-0.016050587895579484,-0.014093119131399379,0.9997718552856718,233.82835356653712,24.34559419860633,533.518290906698,-27.652605785219283,-115.0090560913086,4381.2578125,True
1599568310.0725965,0.0,10,0.5,0.5,2.6893097854614263,-0.1005,-0.001,-0.37525,-0.14721723724598673,10,1,100,0.180137976720022,-10,-1,-100,6446.914741011453,-0.016096890259202024,-0.014023246629567486,0.9997720933682583,234.96343739258745,24.485547287305888,543.8284677913291,-28.032161213184033,-115.33887481689453,4381.2578125,True
1599568310.1264524,0.0,10,0.5,0.5,2.5830915081024175,-0.1005,-0.001,-0.37525,-0.1442978003116982,10,1,100,0.17242310279345657,-10,-1,-100,6445.789736497682,-0.016064986471267712,-0.013932596701689995,0.9997738739129095,235.8464405734803,24.5990471041015,553.632049077273,-28.41161038782934,-115.37225341796875,4381.2578125,True
1599568310.1822689,0.0,10,0.5,0.5,2.446684938430786,-0.1005,-0.001,-0.37525,-0.14061219864413274,10,1,100,0.16450573773810395,-10,-1,-100,6444.601251030108,-0.015961222357951138,-0.01381649677456336,0.9997771470671444,236.48583510634882,24.68738216998558,562.9253915888496,-28.790963956444546,-115.1092758178711,4381.2578125,True
1599568310.2371538,0.0,10,0.5,0.5,1.8736268478393554,-0.1005,-0.001,-0.37525,-0.11992610305419821,10,1,100,0.127817000207323,-10,-1,-100,6442.285792607116,-0.015530985812007887,-0.01352289937689248,0.9997879373507914,237.00480190881729,24.787153233113123,579.8185477031809,-29.549428836972673,-113.69506072998047,4381.2578125,True
1599568310.2959633,0.0,10,0.5,0.5,2.1486904460906984,-0.1005,-0.001,-0.37525,-0.13951362502189357,10,1,100,0.15455347280859866,-10,-1,-100,6441.691056253156,-0.01538178408070546,-0.013434516297772512,0.9997914354955935,236.9598218030578,24.79461845147924,583.6311348789096,-29.73900329744455,-113.15653991699219,4381.2578125,True
1599568310.3538094,0.0,10,0.5,0.5,1.3715362129211428,-0.1005,-0.001,-0.37525,-0.11507502026577933,10,1,100,0.11145385265206825,-10,-1,-100,6439.841903310851,-0.014853564071631707,-0.013132576593559202,0.999803434214138,236.32848996753964,24.767474328817052,593.8366878744137,-30.307654378188403,-111.09735107421875,4381.2578125,True
1599568310.410243,0.0,10,0.5,0.5,1.7473024204254153,-0.1005,-0.001,-0.37525,-0.13240114795177793,10,1,100,0.14100378655605036,-10,-1,-100,6439.246676156763,-0.014642333921653245,-0.013016525046858797,0.9998080676475017,235.93143655401002,24.739721982232048,596.7611980066936,-30.497187662201647,-110.2630844116211,4381.2578125,True
1599568310.4690852,0.0,10,0.5,0.5,1.1609380813598635,-0.1005,-0.001,-0.37525,-0.11625174106746608,10,1,100,0.11282428834896777,-10,-1,-100,6437.989325838047,-0.014194813078897792,-0.012765257096258278,0.9998177611409599,234.82387477084788,24.6525425879596,601.7814649603766,-30.87624229165424,-108.37296295166016,4381.2578125,True
1599568310.524937,0.0,10,0.5,0.5,1.3673818553924564,-0.1005,-0.001,-0.37525,-0.1262119164215339,10,1,100,0.1313054732946027,-10,-1,-100,6437.395562197664,-0.013957362908775911,-0.01262865206609617,0.9998228388907838,234.11255698884915,24.592936338250443,603.8650660689649,-31.065768608356827,-107.31712341308594,4381.2578125,True
1599568310.5807877,0.0,10,0.5,0.5,0.04508137741088891,-0.1005,-0.001,-0.37525,-0.08868319913881273,10,1,100,0.06735226272940209,-10,-1,-100,6435.486826558714,-0.013161955459283873,-0.012164652883426946,0.9998393791748321,231.13577670840095,24.326680818744624,607.78949304904,-31.63437724445448,-103.70648193359375,4381.2578125,True
1599568310.6405861,0.0,10,0.5,0.5,0.7560344787597657,-0.1005,-0.001,-0.37525,-0.11603614812720109,10,1,100,0.11574056545324159,-10,-1,-100,6434.901850752998,-0.012881377468540829,-0.011993251768392974,0.9998451040168838,229.82773351796843,24.204681032931088,608.206934498235,-31.823933672038244,-102.35533142089844,4381.2578125,True
1599568310.6982012,0.0,10,0.5,0.5,-0.12921594963073701,-0.1005,-0.001,-0.37525,-0.09180228219018662,10,1,100,0.07755144626846358,-10,-1,-100,6433.580529793282,-0.012282055950540681,-0.011618970150626663,0.9998570651019408,226.6896548373576,23.904653664362336,607.5290587167111,-32.2030953426924,-99.43158721923828,4381.2578125,True
1599568310.7550502,0.0,10,0.5,0.5,-1.2495973602294919,-0.1005,-0.001,-0.37525,-0.060606637406769685,10,1,100,0.035436062964339154,-10,-1,-100,6431.665442158701,-0.011357790113703713,-0.010997220660581739,0.9998750230611201,221.6262984746506,23.411506518931585,605.18812854618,-32.7719743510744,-94.77384185791016,4381.2578125,True
1599568310.8119342,0.0,10,0.5,0.5,-0.2804882053375244,-0.1005,-0.001,-0.37525,-0.09717230510263289,10,1,100,0.09143145182298759,-10,-1,-100,6430.940816626535,-0.011030782371879861,-0.010766971990606911,0.9998811900193031,219.64976009620898,23.21436043760118,603.5118587622644,-32.96164110866072,-93.14131164550781,4381.2578125,True
1599568310.8677852,0.0,10,0.5,0.5,-1.2359349357604978,-0.1005,-0.001,-0.37525,-0.06732863453514706,10,1,100,0.05259612900223383,-10,-1,-100,6429.631214200868,-0.010384545311342351,-0.010288854310367456,0.9998931446387942,215.6226384270098,22.807556222696245,599.7680895142909,-33.34103418553708,-89.84967041015625,4381.2578125,True
1599568310.9226766,0.0,10,0.5,0.5,-2.209809243774414,-0.1005,-0.001,-0.37525,-0.029496068748124646,10,1,100,0.008897213817496197,-10,-1,-100,6427.59454592946,-0.009404337153510058,-0.009513129150256297,0.9999105254053852,209.2932758220643,22.153085070180897,592.8543877642203,-33.91024520040729,-85.21124267578125,4381.2578125,True
1599568310.9785268,0.0,10,0.5,0.5,-1.846113491821289,-0.1005,-0.001,-0.37525,-0.045140144716521766,10,1,100,0.033946710346353756,-10,-1,-100,6426.284945745952,-0.008745915366577697,-0.008953433738452766,0.9999216694265066,204.96376513398246,21.695375862253776,587.586993806729,-34.289775199227066,-82.32257080078125,4381.2578125,True
1599568311.0328891,0.0,10,0.5,0.5,-2.014720890045166,-0.1005,-0.001,-0.37525,-0.0376129174810833,10,1,100,0.028530272475790097,-10,-1,-100,6424.847418266931,-0.00810347014195686,-0.008379884108589575,0.9999320533486188,207.73000433795403,21.980923112202483,602.6173629188621,-34.66920961009721,-79.69558715820312,4381.2578125,True
1599568311.0887408,0.0,10,0.5,0.5,-2.1426126068115234,-0.1005,-0.001,-0.37525,-0.02891295408318048,10,1,100,0.02227055403713682,-10,-1,-100,6423.471904071979,-0.007468060081892832,-0.007783371480539984,0.9999418219111595,213.00752938984792,22.525285340826226,625.2149639721081,-35.048392153438826,-77.36074829101562,4381.2578125,True
1599568311.1500843,0.0,10,0.5,0.5,-2.2389486755371095,-0.1005,-0.001,-0.37525,-0.020523404248880127,10,1,100,0.01665243986594657,-10,-1,-100,6422.082720173406,-0.006845240173757336,-0.007169223438897222,0.9999508712543066,217.51451020460576,22.982369507813154,645.8918283106801,-35.42733279011622,-75.32293701171875,4381.2578125,True
1599568311.205935,0.0,10,0.5,0.5,-2.3049132202148437,-0.1005,-0.001,-0.37525,-0.012900025646309488,10,1,100,0.011779808649584486,-10,-1,-100,6420.64861664013,-0.006240486078290435,-0.006546144895057278,0.999959101323909,221.3236007427936,23.36112722306726,664.7870850581003,-35.8060454800689,-73.58291625976562,4381.2578125,True
1599568311.2627828,0.0,10,0.5,0.5,-2.340988703918457,-0.1005,-0.001,-0.37525,-0.005243725898448001,10,1,100,0.006982765595048249,-10,-1,-100,6419.2110968307825,-0.0056531373195431505,-0.00591505904556162,0.9999665264972293,224.5028961054953,23.669910081501584,682.0364546567869,-36.184547041536284,-72.14068603515625,4381.2578125,True
1599568311.319631,0.0,10,0.5,0.5,-2.5662500663757326,-0.1005,-0.001,-0.37525,0.037284318555348105,10,1,100,-0.028054238907484152,-10,-1,-100,6416.984021293814,-0.004806691969414413,-0.00495991142471748,0.9999761472110072,228.2233403116016,24.018003850475825,705.0938748057124,-36.75194256709507,-70.53536987304688,4381.2578125,True
1599568311.3784738,0.0,10,0.5,0.5,-2.15008624420166,-0.1005,-0.001,-0.37525,-0.022671514656440045,10,1,100,0.026000445368539127,-10,-1,-100,6416.263798694708,-0.004534557961028763,-0.004642136897908031,0.9999789439528811,229.20930969718702,24.106438007641856,712.0794034751748,-36.94098852459028,-70.14901733398438,4381.2578125,True
1599568311.4333277,0.0,10,0.5,0.5,-2.155831739807129,-0.1005,-0.001,-0.37525,-0.018822906250216286,10,1,100,0.023167986043234615,-10,-1,-100,6415.542600878165,-0.004267319436276178,-0.00432383164719986,0.9999815470621024,230.07784935282484,24.182234715374868,718.7343446556654,-37.12999533415461,-69.8370361328125,4381.2578125,True
1599568311.4891787,0.0,10,0.5,0.5,-2.2313785659790044,-0.1005,-0.001,-0.37525,0.017246964017503204,10,1,100,-0.006954796500884576,-10,-1,-100,6414.035753155476,-0.003756092959622804,-0.0037119780738160434,0.9999860563950171,231.47730906147848,24.297753592618704,731.075322735515,-37.50790076134489,-69.43637084960938,4381.2578125,True
1599568311.5460258,0.0,10,0.5,0.5,-2.1320717453002933,-0.1005,-0.001,-0.37525,0.026878851569641878,10,1,100,-0.011630928084416965,-10,-1,-100,6412.469825126347,-0.0032539660975366125,-0.0030734587121535317,0.9999899827279175,232.44734476242758,24.36778133635417,742.153218737283,-37.8856769596365,-69.3323974609375,4381.2578125,True
1599568311.6037965,0.0,10,0.5,0.5,-2.0024801757812503,-0.1005,-0.001,-0.37525,0.03218478236308493,10,1,100,-0.014565944146031955,-10,-1,-100,6410.969816801022,-0.002775797848960885,-0.002450096262543856,0.9999931459638142,233.0071842532014,24.394799563753644,751.9873191432399,-38.26334222735408,-69.5255126953125,4381.2578125,True
1599568311.6616437,0.0,10,0.5,0.5,-1.6733300384521486,-0.1005,-0.001,-0.37525,0.06992781552738309,10,1,100,-0.04123771178168208,-10,-1,-100,6408.683674512431,-0.0021034721647434007,-0.0015456753594469367,0.9999965931404644,233.08384200429006,24.356304146501863,764.3367145414514,-38.82967124007892,-70.371826171875,4381.2578125,True
1599568311.7180634,0.0,10,0.5,0.5,-1.546855567932129,-0.1005,-0.001,-0.37525,0.04507646084504252,10,1,100,-0.02094467231057024,-10,-1,-100,6407.114822873962,-0.0016816260723895675,-0.0009550665774901905,0.9999981299890441,232.61426149473505,24.277418866704885,770.8696517891829,-39.20713832255398,-71.30667114257812,4381.2578125,True
1599568311.7749133,0.0,10,0.5,0.5,-1.3122266998291017,-0.1005,-0.001,-0.37525,0.048568966730360964,10,1,100,-0.022668966050289934,-10,-1,-100,6405.48640222277,-0.0012871484217989654,-0.0003920486829915327,0.9999990947729753,231.7049886949113,24.154209046857098,775.9163348050765,-39.58455901974821,-72.53805541992188,4381.2578125,True
1599568311.8337197,0.0,10,0.5,0.5,-1.4286153579711915,-0.1005,-0.001,-0.37525,0.022547877530362206,10,1,100,-0.0041906715008613,-10,-1,-100,6404.710523077985,-0.0011010199059445797,-0.00012236422273098326,0.9999993863908936,231.07654289796474,24.075268526227315,777.8383884417606,-39.77325795221641,-73.264892578125,4381.2578125,True
1599568311.8915987,0.0,10,0.5,0.5,-0.4527387619018557,-0.1005,-0.001,-0.37525,0.08265871636034203,10,1,100,-0.04369190388507044,-10,-1,-100,6402.295971673331,-0.000576848340232872,0.0006639995533940323,0.9999996131752179,228.43242394110484,23.763749411028858,780.9111266015401,-40.33933888431887,-75.88919067382812,4381.2578125,True
1599568311.9494638,0.0,10,0.5,0.5,-0.9504047805786133,-0.1005,-0.001,-0.37525,0.03171404288395326,10,1,100,-0.009277852522545467,-10,-1,-100,6401.505933321314,-0.00041702905981716605,0.0009106296719240471,0.9999994984200561,227.2801501547125,23.633554833482542,780.9539927519552,-40.52803539419968,-76.91192626953125,4381.2578125,True
1599568312.0053124,0.0,10,0.5,0.5,-0.2550146224975587,-0.1005,-0.001,-0.37525,0.06119092055340202,10,1,100,-0.02711437374338043,-10,-1,-100,6399.884840590996,-0.00011333182006912611,0.0013977625161555656,0.9999990167074402,224.52914042939554,23.330319004666784,779.3857932632836,-40.905447400042306,-79.17886352539062,4381.2578125,True
1599568312.0641565,0.0,10,0.5,0.5,0.7019921234130857,-0.1005,-0.001,-0.37525,0.08528738191971422,10,1,100,-0.03985002097662586,-10,-1,-100,6397.411210550461,0.0002747588385347714,0.0020544678468203703,0.9999978518324161,219.3246776864218,22.774602881459685,772.9136065932827,-41.471643169055156,-82.97653198242188,4381.2578125,True
1599568312.1190445,0.0,10,0.5,0.5,0.6118606735229493,-0.1005,-0.001,-0.37525,0.06569442616278422,10,1,100,-0.026006560886138615,-10,-1,-100,6395.7207841541385,0.0004980544802628327,0.002468112689706614,0.9999968301757189,215.14719969556606,22.339607084084072,765.7986159065106,-41.849174924775006,-85.7796630859375,4381.2578125,True
1599568312.1748953,0.0,10,0.5,0.5,0.9277565673828123,-0.1005,-0.001,-0.37525,0.06635501396180776,10,1,100,-0.02420422103046467,-10,-1,-100,6394.023521603784,0.0006812546826205803,0.0028451210074108132,0.9999957205800987,219.55050492576635,22.80375465307928,789.2513588728145,-42.22655183432769,-88.65118408203125,4381.2578125,True
1599568312.6617343,0.0,10,0.5,0.5,0.511238020324707,-0.1005,-0.001,-0.37525,0.04869523218926194,10,1,100,-0.014721197855030243,-10,-1,-100,6393.188562606461,0.0007584482445040548,0.0030224985371460735,0.9999951446176394,221.92109496470115,23.056388698138058,801.7103203549356,-42.4151435756985,-90.03659057617188,4381.2578125,True
1599568312.7125971,0.0,10,0.5,0.5,0.6317849449157714,-0.1005,-0.001,-0.37525,0.05069251813663174,10,1,100,-0.015067718100955103,-10,-1,-100,6392.3330951114185,0.0008291726480799417,0.003197755096520951,0.999994543402644,224.16864264489843,23.29811147934987,813.80963618433,-42.603670827506946,-91.37858581542969,4381.2578125,True
1599568312.7654579,0.0,10,0.5,0.5,1.3363779727935792,-0.1005,-0.001,-0.37525,0.06941888424367693,10,1,100,-0.02044841546422512,-10,-1,-100,6390.642669291352,0.0009401004467055031,0.003523543640858513,0.9999933504035721,228.29784684319029,23.748636909542885,836.9138342483956,-42.98053462778157,-93.91388702392578,4381.2578125,True
1599568312.8173614,0.0,10,0.5,0.5,1.4984043384552002,-0.1005,-0.001,-0.37525,0.07072014863571033,10,1,100,-0.017874324951853232,-10,-1,-100,6388.889743190492,0.0010155183054630832,0.0038279850917076457,0.9999921575956029,231.9335088297808,24.153720843099528,858.4929365281265,-43.35715128433488,-96.24969482421875,4381.2578125,True
1599568312.8781998,0.0,10,0.5,0.5,1.1463174198150634,-0.1005,-0.001,-0.37525,0.05635034979063526,10,1,100,-0.013052203577166976,-10,-1,-100,6388.041112095001,0.0010383184025533649,0.0039705242854203215,0.999991578380435,233.59255822784144,24.341617363061083,868.7915381567805,-43.54536989083456,-97.34717559814453,4381.2578125,True
1599568312.9355626,0.0,10,0.5,0.5,2.11161247215271,-0.1005,-0.001,-0.37525,0.08482539158587385,10,1,100,-0.011671006749722445,-10,-1,-100,6385.377053840086,0.0010450210953470468,0.004355963455359445,0.9999899667063094,238.31585845519984,24.884935228535625,899.0933779323555,-44.10967321136929,-100.2373046875,4381.2578125,True
1599568312.9929533,0.0,10,0.5,0.5,1.4186641700744629,-0.1005,-0.001,-0.37525,0.05955776005106448,10,1,100,-0.009251073588578518,-10,-1,-100,6384.473247233662,0.0010277859235534818,0.004473524837911803,0.9999894655603228,239.6754233953437,25.045245785922155,908.4949047530127,-44.29766281910873,-101.05546569824219,4381.2578125,True
1599568313.0488012,0.0,10,0.5,0.5,1.7867441108703614,-0.1005,-0.001,-0.37525,0.07262512997252614,10,1,100,-0.004270013240860784,-10,-1,-100,6382.720320215682,0.0009657978389949681,0.004696396946498365,0.9999885054790655,242.06349800570118,25.333079830745206,926.1821540430985,-44.67348886906952,-102.46987915039062,4381.2578125,True
1599568313.1022253,0.0,10,0.5,0.5,1.7899557956695558,-0.1005,-0.001,-0.37525,0.07120098318044159,10,1,100,0.0010660016910592762,-10,-1,-100,6380.90147486364,0.0008603075909239005,0.0048836594115584005,0.9999877047952144,244.34066586055525,25.611222358203737,943.6199627341506,-45.04911877043179,-103.5881576538086,4381.2578125,True
1599568313.157079,0.0,10,0.5,0.5,2.01339528503418,-0.1005,-0.001,-0.37525,0.08774126935576393,10,1,100,0.026282713564739095,-10,-1,-100,6377.267690040288,0.000534835209179785,0.0052020683025505885,0.9999863261248497,247.72417788345246,26.04862958603726,974.4109948587617,-45.79985797394355,-104.93611907958984,4381.2578125,True
1599568313.2129292,0.0,10,0.5,0.5,1.5092012535095216,-0.1005,-0.001,-0.37525,0.0561360749860591,10,1,100,-0.006249882662328363,-10,-1,-100,6377.267690040288,0.000534835209179785,0.0052020683025505885,0.9999863261248497,247.72417788345246,26.04862958603726,974.4109948587617,-45.79985797394355,-104.93611907958984,4381.2578125,True
1599568313.2677827,0.0,10,0.5,0.5,1.6202895282745362,-0.1005,-0.001,-0.37525,0.06959350259552008,10,1,100,0.018059321398764823,-10,-1,-100,6375.445425784681,0.0003140457295655963,0.00532242712648623,0.9999857864713692,248.88162436122613,26.21247812937011,987.8878054796999,-46.17500445389266,-105.16648864746094,4381.2578125,True
1599568313.323634,0.0,10,0.5,0.5,1.5043843391418457,-0.1005,-0.001,-0.37525,0.06705022991976578,10,1,100,0.02364001055493091,-10,-1,-100,6373.57482160849,6.306278024074608e-05,0.005406792058439078,0.9999853812045068,249.70430372225738,26.341638564389246,1000.1235303506802,-46.55002628285847,-105.10166931152344,4381.2578125,True
1599568313.3784873,0.0,10,0.5,0.5,1.358501837539673,-0.1005,-0.001,-0.37525,0.06697987876610566,10,1,100,0.0314286611151283,-10,-1,-100,6371.690545452875,-0.00023511214454139878,0.005481135851165138,0.9999849508227916,250.1951097931792,26.436169516301398,1011.0963035066447,-46.92494131979889,-104.7415542602539,4381.2578125,True
1599568313.4353356,0.0,10,0.5,0.5,1.1830246036529541,-0.1005,-0.001,-0.37525,0.06366256513668388,10,1,100,0.03724609694635859,-10,-1,-100,6369.7794137479505,-0.0005579291014908927,0.005517060856321852,0.9999846252591214,250.34607636630292,26.494955178526713,1020.7403702763725,-47.29976780620211,-104.08688354492188,4381.2578125,True
1599568313.4921827,0.0,10,0.5,0.5,0.6995503677368164,-0.1005,-0.001,-0.37525,0.06115978572387529,10,1,100,0.06518507721965366,-10,-1,-100,6366.8814655458555,-0.0011039386580167113,0.005525561469465239,0.9999841246189294,249.89118619479717,26.510623721758797,1032.4577914622746,-47.86188300489938,-102.5528564453125,4381.2578125,True
1599568313.5500283,0.0,10,0.5,0.5,0.61405352935791,-0.1005,-0.001,-0.37525,0.05728983994207242,10,1,100,0.05471346090960051,-10,-1,-100,6364.917111136485,-0.0015031608704457323,0.00549704470338456,0.9999837613716166,249.09271693174315,26.467594915698367,1038.212010647451,-48.23657342455574,-101.16268920898438,4381.2578125,True
1599568313.6068761,0.0,10,0.5,0.5,0.34101235656738293,-0.1005,-0.001,-0.37525,0.05397281661810213,10,1,100,0.06111004732658239,-10,-1,-100,6362.972776446375,-0.0019219400793592239,0.005440035140488329,0.9999833559434884,248.1919969234498,26.412196071200658,1043.5080158936562,-48.611236713639734,-99.49224853515625,4381.2578125,True
1599568313.6637242,0.0,10,0.5,0.5,0.5299309211730957,-0.1005,-0.001,-0.37525,0.055427729329697674,10,1,100,0.04325731194911764,-10,-1,-100,6362.001585861784,-0.00213772564046876,0.005400758709602632,0.999983130824939,247.5866646549063,26.367200390790238,1045.4886615209555,-48.79856333128729,-98.57240295410156,4381.2578125,True
1599568313.7205725,0.0,10,0.5,0.5,-0.5674758609771727,-0.1005,-0.001,-0.37525,0.0422023148259313,10,1,100,0.09688355221152328,-10,-1,-100,6359.026490024873,-0.0028186801227434873,0.005244351732128628,0.9999822757515632,245.37008881240143,26.184885676027747,1049.6318333088773,-49.36054512705647,-95.5412368774414,4381.2578125,True
1599568313.7784176,0.0,10,0.5,0.5,-1.0162894069671629,-0.1005,-0.001,-0.37525,0.03380482287738225,10,1,100,0.10843178038883991,-10,-1,-100,6356.0494423912605,-0.0035396648943034604,0.005025784295411289,0.9999811059538335,242.72185303391387,25.9470006051516,1051.7307859016996,-49.92254462380442,-92.208984375,4381.2578125,True
1599568313.8352656,0.0,10,0.5,0.5,-0.3073439350128173,-0.1005,-0.001,-0.37525,0.04646552221743573,10,1,100,0.0627781196369094,-10,-1,-100,6355.078252347652,-0.0037763682251554464,0.0049423441505843215,0.9999806559515666,241.66965887590007,25.846898270475652,1051.6428511808072,-50.10988737093676,-91.07349395751953,4381.2578125,True
1599568313.890119,0.0,10,0.5,0.5,-0.4084746929168701,-0.1005,-0.001,-0.37525,0.04496328481957944,10,1,100,0.06608395153510166,-10,-1,-100,6354.044562768773,-0.004017887530500162,0.0048531782998301135,0.9999801514231083,240.5881741251664,25.74214942042466,1051.3949415416105,-50.29723557695213,-89.96826171875,4381.2578125,True
1599568313.962925,0.0,10,0.5,0.5,-0.9602665809631347,-0.1005,-0.001,-0.37525,0.0325646723113709,10,1,100,0.09581813949855264,-10,-1,-100,6352.039682927658,-0.004504051380198785,0.004659907061577673,0.9999789991731537,238.46449144666292,25.532217742188514,1050.9712239415728,-50.6719446621595,-87.93984985351562,4381.2578125,True
1599568314.0172863,0.0,10,0.5,0.5,-1.4969745529174805,-0.1005,-0.001,-0.37525,0.014672871448374883,10,1,100,0.1312140152238731,-10,-1,-100,6348.937149142963,-0.0052639183508498485,0.0043222997724023885,0.9999768041751135,235.62255759671268,25.242925855759218,1051.6155628973045,-51.23401362688126,-85.21533203125,4381.2578125,True
1599568314.071142,0.0,10,0.5,0.5,-0.8791345504760741,-0.1005,-0.001,-0.37525,0.03488740203251989,10,1,100,0.08365937134611662,-10,-1,-100,6347.966448623687,-0.005518113389599066,0.004200238661266102,0.9999759539207971,234.72558454283447,25.148971420083118,1051.995453967875,-51.42136657221218,-84.36898803710938,4381.2578125,True
1599568314.1289892,0.0,10,0.5,0.5,-1.5960656539916993,-0.1005,-0.001,-0.37525,0.004995514035563441,10,1,100,0.1413352724994844,-10,-1,-100,6344.800929118763,-0.006269513276463897,0.003818734417359146,0.999973054872343,239.65101968434564,25.675263784612397,1087.5239037574129,-51.98309870668331,-82.19830322265625,4381.2578125,True
1599568314.1944702,0.0,10,0.5,0.5,-1.0599219772338868,-0.1005,-0.001,-0.37525,0.028365508890014254,10,1,100,0.09398932449215644,-10,-1,-100,6343.767240891582,-0.00651785332590529,0.003685892612744216,0.9999719654988681,241.20467238521562,25.839011462207203,1099.0970355913644,-52.17022943735526,-81.61709594726562,4381.2578125,True
1599568314.25531,0.0,10,0.5,0.5,-1.4772236984252929,-0.1005,-0.001,-0.37525,-0.005106106486972274,10,1,100,0.1528134865763291,-10,-1,-100,6340.602700280957,-0.007274204014120357,0.0032624345983287154,0.9999682207332654,245.06408612889808,26.239283736235887,1130.4966675146313,-52.731316337790616,-80.2852783203125,4381.2578125,True
1599568314.3181398,0.0,10,0.5,0.5,-1.12232645111084,-0.1005,-0.001,-0.37525,0.02160993945121011,10,1,100,0.10436913556470159,-10,-1,-100,6339.5680364375,-0.007516722832052303,0.0031222898429447126,0.9999668745433534,246.0992154942706,26.344444678204994,1139.9054914028386,-52.91825181386998,-79.984619140625,4381.2578125,True
1599568314.3829665,0.0,10,0.5,0.5,-1.2283181480407717,-0.1005,-0.001,-0.37525,-0.01333022304708846,10,1,100,0.1618085651222548,-10,-1,-100,6336.403985668207,-0.008255100169141548,0.0026791768261467085,0.9999623369571136,248.4409271219201,26.57567032147815,1164.8173594147006,-53.47881587330918,-79.5279541015625,4381.2578125,True
1599568314.4468322,0.0,10,0.5,0.5,-1.0262088783264163,-0.1005,-0.001,-0.37525,-0.0019804845636804368,10,1,100,0.14126290195189306,-10,-1,-100,6334.210635246709,-0.008735286778333174,0.0023816595311515637,0.999959010391315,249.37343792813022,26.661558126533894,1178.6304571819426,-53.85235195345027,-79.59524536132812,4381.2578125,True
1599568314.5136542,0.0,10,0.5,0.5,-0.8792249816894532,-0.1005,-0.001,-0.37525,-0.00506090131945254,10,1,100,0.14533552774750386,-10,-1,-100,6332.080273825326,-0.009204335822510044,0.002085513369393897,0.9999554644263177,249.8046309731868,26.694073574269503,1190.1511418470243,-54.22577637095777,-79.95968627929688,4381.2578125,True
1599568314.5814722,0.0,10,0.5,0.5,-0.49223155364990245,-0.1005,-0.001,-0.37525,-0.024092864656083696,10,1,100,0.1739725916769183,-10,-1,-100,6328.789762131171,-0.009886366036309139,0.0016457877964906774,0.9999497743132528,249.48639726527128,26.642225426312653,1202.8926152526662,-54.78575647172724,-81.06268310546875,4381.2578125,True
1599568314.649291,0.0,10,0.5,0.5,-0.9068188293457032,-0.1005,-0.001,-0.37525,0.019578280707729587,10,1,100,0.10630780176261985,-10,-1,-100,6328.789762131171,-0.009886366036309139,0.0016457877964906774,0.9999497743132528,249.48639726527128,26.642225426312653,1202.8926152526662,-54.78575647172724,-81.06268310546875,4381.2578125,True
1599568314.7181077,0.0,10,0.5,0.5,-0.09247156677246116,-0.1005,-0.001,-0.37525,-0.027717547560458862,10,1,100,0.17821400526819164,-10,-1,-100,6325.499739540624,-0.0105358565702821,0.001218258914030702,0.9999437542039797,247.97675796533804,26.469272949490215,1209.8513778979798,-55.345622480072535,-82.7752685546875,4381.2578125,True
1599568314.7879207,0.0,10,0.5,0.5,0.2996750762939452,-0.1005,-0.001,-0.37525,-0.032866118840094244,10,1,100,0.18392648898939862,-10,-1,-100,6322.147705725394,-0.0111736725957406,0.000785501990840617,0.9999372640457728,245.4661935518859,26.19902275078078,1211.7630708289544,-55.90544544885494,-84.95068359375,4381.2578125,True
1599568314.8597283,0.0,10,0.5,0.5,-0.12873839874267584,-0.1005,-0.001,-0.37525,-0.004499102411697899,10,1,100,0.14194987604522372,-10,-1,-100,6320.98901971092,-0.011367441447283758,0.0006527260576773414,0.9999351755107108,246.11806453643285,26.27054133204234,1219.7284293946325,-56.092015169252875,-85.76547241210938,4381.2578125,True
1599568314.931536,0.0,10,0.5,0.5,-0.039032728576660236,-0.1005,-0.001,-0.37525,-0.00628672506577136,10,1,100,0.14426991290186952,-10,-1,-100,6319.891369689838,-0.011560277476363973,0.0005185269729964838,0.9999330433156249,247.84784566106677,26.458616392439826,1233.0887636497632,-56.27852292018308,-86.5958251953125,4381.2578125,True
1599568315.003345,0.0,10,0.5,0.5,0.8086617950439452,-0.1005,-0.001,-0.37525,-0.037716230921422865,10,1,100,0.1878770656092237,-10,-1,-100,6316.476348472061,-0.012128115187901713,0.00011329948607644704,0.9999264452874599,252.89453836934717,27.016633121772546,1272.8926280395851,-56.83766960225398,-89.03125,4381.2578125,True
1599568315.0751524,0.0,10,0.5,0.5,0.6688940891265869,-0.1005,-0.001,-0.37525,-0.027112844955349557,10,1,100,0.17167765256056447,-10,-1,-100,6314.220501356409,-0.012492871723079257,-0.00015595927474394876,0.9999219488704183,256.09420881096815,27.37824522391259,1298.9489802752976,-57.210120092255224,-90.6565170288086,4381.2578125,True
1599568315.1429725,0.0,10,0.5,0.5,1.169698250579834,-0.1005,-0.001,-0.37525,-0.04328654298361063,10,1,100,0.1906984752129754,-10,-1,-100,6310.743468899862,-0.012993532623213544,-0.0005451961883822359,0.9999154318596577,260.6872158189288,27.90887511538815,1337.4808151361328,-57.76832165530915,-92.98877716064453,4381.2578125,True
1599568315.214779,0.0,10,0.5,0.5,0.9216073287963866,-0.1005,-0.001,-0.37525,-0.033302146119251155,10,1,100,0.1760484284950653,-10,-1,-100,6308.423656485975,-0.013311625520586548,-0.0008056199059051074,0.9999110718471752,263.36482996110027,28.227448800439575,1361.5044965749946,-58.14015026234436,-94.30406951904297,4381.2578125,True
