Timestamp,Input Throttle,horizon,dT,dt,Input Roll,Roll P,Roll I,Roll D,Input Pitch,Pitch P,Pitch I,Pitch D,Input Yaw,Yaw P,Yaw I,Yaw D,Altitude,Direction X,Direction Y,Direction Z,Drag X,Drag Y,Drag Z,Vertical Velocity,Roll,Mass,Has Fuel
1599566832.6457357,0.0,10,0.5,0.5,-2.7441152496337895,-0.05075,-0.00825,-0.2505,-0.06720445723959402,10,1,100,0.6903759840954651,-10,-1,-100,6483.617967075552,-0.06725858836553594,-0.007002455406273345,0.9977110042038019,205.073105270377,21.49876487083077,-156.76515264488833,9.590824206748902,-35.944580078125,4381.2578125,True
1599566832.7135546,0.0,10,0.5,0.5,-2.7889103652954104,-0.05075,-0.00825,-0.2505,-0.06730340126849385,10,1,100,0.6999209583444048,-10,-1,-100,6483.997883002972,-0.06744594487328587,-0.006971351785047282,0.9976985741066481,204.61202822940345,21.456728987045427,-150.26663161760783,9.210801721261118,-35.941253662109375,4381.2578125,True
1599566832.7843647,0.0,10,0.5,0.5,-2.8208160514831544,-0.05075,-0.00825,-0.2505,-0.052037891067920554,10,1,100,0.7005415804665192,-10,-1,-100,6484.31676035095,-0.06756059649519294,-0.006797960807759243,0.9976920133638787,204.14935193241425,21.414343493650428,-143.7892685726677,8.830797845995264,-35.980621337890625,4381.2578125,True
1599566832.843208,0.0,10,0.5,0.5,-2.7185234039306647,-0.05075,-0.00825,-0.2505,-0.010717062243063374,10,1,100,0.6985538679590235,-10,-1,-100,6484.856804265291,-0.06758533640459015,-0.006258508783809815,0.99769386756203,203.5921038277753,21.364418101354385,-134.20550775299301,8.260811012862824,-36.5008544921875,4381.2578125,True
1599566832.9060407,0.0,10,0.5,0.5,-2.797468159484864,-0.05075,-0.00825,-0.2505,-0.03643226825573588,10,1,100,0.6982933513682583,-10,-1,-100,6485.016949231387,-0.0675440176837583,-0.0059961828996220766,0.9976982767679669,203.44689535804383,21.351703511846623,-131.045551423664,8.070816224651878,-36.817901611328125,4381.2578125,True
1599566832.9698696,0.0,10,0.5,0.5,-2.8032166206359865,-0.05075,-0.00825,-0.2505,-0.028348228802436294,10,1,100,0.701158350378904,-10,-1,-100,6485.175623291638,-0.06747109700338634,-0.005678762479967207,0.9977050680065004,203.31789554878824,21.34046846232633,-127.89884487603933,7.8808202766534174,-37.208099365234375,4381.2578125,True
1599566833.044669,0.0,10,0.5,0.5,-2.6430714141845706,-0.05075,-0.00825,-0.2505,0.025993392055986934,10,1,100,0.6866772858035224,-10,-1,-100,6485.493926864234,-0.06721182207326892,-0.004891021215677144,0.9977267405883531,203.08729684794488,21.320090928861074,-121.62957528399816,7.50082104941546,-38.208740234375,4381.2578125,True
1599566833.1131892,0.0,10,0.5,0.5,-2.0681319900512696,-0.05075,-0.00825,-0.2505,0.19142595869828283,10,1,100,0.6153093384869796,-10,-1,-100,6486.00545468065,-0.06626621641385427,-0.0026665139866510544,0.9977984156458414,202.54442426825685,21.26696094296522,-109.07326058581894,6.740763686411345,-41.091156005859375,4381.2578125,True
1599566833.1979618,0.0,10,0.5,0.5,-2.263541120147705,-0.05075,-0.00825,-0.2505,0.12348776912868659,10,1,100,0.6373985843641559,-10,-1,-100,6486.2611813348485,-0.06554714421652996,-0.0012594304890903467,0.9978486787684296,202.0863892845274,21.218603345524112,-102.71718855607403,6.360687711780935,-42.9732666015625,4381.2578125,True
1599566833.278255,0.0,10,0.5,0.5,-2.457093546295166,-0.05075,-0.00825,-0.2505,0.06758205516033446,10,1,100,0.6690323098413788,-10,-1,-100,6486.420285090455,-0.0651214332285585,-0.00048735249966645874,0.9978772276296314,201.7708993834156,21.18475285320093,-99.50498528950405,6.170632938701043,-44.02459716796875,4381.2578125,True
1599566833.3610682,0.0,10,0.5,0.5,-2.0583025962829593,-0.05075,-0.00825,-0.2505,0.1683683732632003,10,1,100,0.6071694456840744,-10,-1,-100,6486.674998118775,-0.06411283226240116,0.001131218884835553,0.9979420148902078,200.8975912079936,21.09042495549908,-92.99321131183518,5.790481163353602,-46.3485107421875,4381.2578125,True
1599566833.4388254,0.0,10,0.5,0.5,-1.843238907623291,-0.05075,-0.00825,-0.2505,0.20509827152080812,10,1,100,0.5762744985229835,-10,-1,-100,6486.869140868192,-0.06291791891543289,0.0029291613328237174,0.9980144064557571,199.5966176311119,20.94969951347616,-86.3441264632416,5.410257225363791,-48.966339111328125,4381.2578125,True
1599566833.519616,0.0,10,0.5,0.5,-2.060682428741455,-0.05075,-0.00825,-0.2505,0.1307409960933257,10,1,100,0.6209294714786386,-10,-1,-100,6486.965227867593,-0.06224170474138391,0.0038786787697286896,0.9980535687235871,198.74625176117215,20.85782506568279,-82.96374334071062,5.220112321985575,-50.38568115234375,4381.2578125,True
1599566833.5864382,0.0,10,0.5,0.5,-1.4824456237792973,-0.05075,-0.00825,-0.2505,0.24926786024403555,10,1,100,0.520706704614474,-10,-1,-100,6487.157875497825,-0.060720683876895894,0.005809687350487401,0.9981378893131007,196.5566298451615,20.62180789472244,-76.08708808729627,4.8397433760403,-53.4459228515625,4381.2578125,True
1599566833.6562517,0.0,10,0.5,0.5,-1.2243134613037108,-0.05075,-0.00825,-0.2505,0.27865112903810924,10,1,100,0.48089088295935767,-10,-1,-100,6487.35197056469,-0.05898221621461273,0.007821299234637539,0.998228393429427,193.5807064402578,20.3023338514326,-69.05735315484515,4.459245786349319,-56.80108642578125,4381.2578125,True
1599566833.7240703,0.0,10,0.5,0.5,0.23990975723266583,-0.05075,-0.00825,-0.2505,0.5393099643932138,10,1,100,0.19701502649953656,-10,-1,-100,6487.6751801405335,-0.054828884918783426,0.012007101739698378,0.9984235688756428,184.62931867158366,19.348352201987,-54.63557127763329,3.6977332034078296,-64.39678955078125,4381.2578125,True
1599566833.7927215,0.0,10,0.5,0.5,-0.3625988967895508,-0.05075,-0.00825,-0.2505,0.3507648290655979,10,1,100,0.3465670646504515,-10,-1,-100,6487.805278689833,-0.05242418609856929,0.014082252001121119,0.9985256105330897,178.37646152139357,18.686305319594386,-47.35261792989222,3.3166525923443904,-68.63839721679688,4381.2578125,True
1599566833.870514,0.0,10,0.5,0.5,-0.7440022499084473,-0.05075,-0.00825,-0.2505,0.2493981853241632,10,1,100,0.4486932658637517,-10,-1,-100,6487.839809309109,-0.05117995957847253,0.015029988865477115,0.9985763421853383,174.75167288981203,18.30381783357502,-43.726884772917884,3.126003550200822,-70.8160400390625,4381.2578125,True
1599566833.9393299,0.0,10,0.5,0.5,-0.6099291564941408,-0.05075,-0.00825,-0.2505,0.2595498202792465,10,1,100,0.4293264498052545,-10,-1,-100,6487.934887266369,-0.04988649737497585,0.01596776769370866,0.9986272416545305,170.85120579167884,17.893022258710687,-40.145245049415855,2.9352738222794996,-72.990478515625,4381.2578125,True
1599566834.0061524,0.0,10,0.5,0.5,0.19560878601074227,-0.05075,-0.00825,-0.2505,0.3756282389162466,10,1,100,0.25296486515547445,-10,-1,-100,6488.003950226936,-0.047121572463018645,0.01785989116318025,0.9987294837423453,162.40181133508514,17.004955347803868,-33.201991621628935,2.553587206728515,-77.390380859375,4381.2578125,True
1599566834.0789554,0.0,10,0.5,0.5,0.49354688110351563,-0.05075,-0.00825,-0.2505,0.3835460506044193,10,1,100,0.20262935856368602,-10,-1,-100,6488.133562536212,-0.04416677235655542,0.019635304201989768,0.9988311924687271,153.0073231171516,16.019378029496416,-26.605798770854868,2.171657965282473,-81.94668579101562,4381.2578125,True
1599566834.1427858,0.0,10,0.5,0.5,1.536719376373291,-0.05075,-0.00825,-0.2505,0.469904883144193,10,1,100,-0.01974376411067369,-10,-1,-100,6488.23473201273,-0.039477149380827255,0.022017574455526222,0.9989778681691898,149.0756209433136,15.607030292798688,-19.083933574543384,1.598522505734084,-89.10073852539062,4381.2578125,True
1599566834.205617,0.0,10,0.5,0.5,1.2179606021881104,-0.05075,-0.00825,-0.2505,0.38822229154584176,10,1,100,0.08758606508448297,-10,-1,-100,6488.3013792105485,-0.0362108912769709,0.023423352568644622,0.9990696261559413,155.69891977080448,16.299837721871363,-15.168883286544993,1.2164020789402565,-93.88155364990234,4381.2578125,True
1599566834.2734368,0.0,10,0.5,0.5,0.7634198980331421,-0.05075,-0.00825,-0.2505,0.3206747261313966,10,1,100,0.22757831365901177,-10,-1,-100,6488.273429923807,-0.034537886909110305,0.024069496009712834,0.9991135039272024,158.91253624400744,16.63547266462828,-13.051197069624443,1.0253602798323804,-96.22900390625,4381.2578125,True
1599566834.3332775,0.0,10,0.5,0.5,1.570864587211609,-0.05075,-0.00825,-0.2505,0.3833079797161857,10,1,100,0.029628684965721463,-10,-1,-100,6488.341082482832,-0.03124123431108693,0.025209692526309994,0.9991939034448962,165.18595979694933,17.289734969987286,-8.512755979281055,0.6433247879708608,-100.744140625,4381.2578125,True
1599566834.3946898,0.0,10,0.5,0.5,2.359288272666931,-0.05075,-0.00825,-0.2505,0.42711761945567706,10,1,100,-0.20474915895888335,-10,-1,-100,6488.318331744522,-0.026138788806208842,0.026628696636037633,0.9993035956280806,172.91651843377548,18.09536633683183,-0.9741874360141036,0.0703168328027659,-106.99546813964844,4381.2578125,True
1599566834.4665005,0.0,10,0.5,0.5,1.418653158378601,-0.05075,-0.00825,-0.2505,0.3287788501196074,10,1,100,0.11414691593276396,-10,-1,-100,6488.3504711199785,-0.024425339115436987,0.027011419201010908,0.9993366730195802,175.3548574862096,18.349910532238727,1.6959738817523928,-0.12070547533552789,-108.9545669555664,4381.2578125,True
1599566834.5253413,0.0,10,0.5,0.5,2.6055891521453862,-0.05075,-0.00825,-0.2505,0.3932089643043177,10,1,100,-0.2621906032506544,-10,-1,-100,6488.3277815935435,-0.019471860901234345,0.027933323327938624,0.9994201199099905,181.5178372484709,18.993849972400525,10.094614409719519,-0.6939213709902763,-114.41325378417969,4381.2578125,True
1599566834.592163,0.0,10,0.5,0.5,1.7784057189941407,-0.05075,-0.00825,-0.2505,0.32866033604118355,10,1,100,0.05256045654637573,-10,-1,-100,6488.298421432497,-0.01785889770345698,0.02817288197324218,0.999443519411747,183.326925223305,19.182897067119956,13.004116687664041,-0.8850440228703391,-116.08711242675781,4381.2578125,True
1599566834.6589844,0.0,10,0.5,0.5,3.18977991142273,-0.05075,-0.00825,-0.2505,0.37389145425368137,10,1,100,-0.48925432680708647,-10,-1,-100,6488.182984453859,-0.011496094583783825,0.02879075898519582,0.9995193504912132,188.43245103062156,19.716736023288302,24.923183525015048,-1.649812255177275,-122.0460205078125,4381.2578125,True
1599566834.7251923,0.0,10,0.5,0.5,2.1272134616851806,-0.05075,-0.00825,-0.2505,0.3201460749863185,10,1,100,-0.029384708215881017,-10,-1,-100,6488.154137729434,-0.009924747805709403,0.028853933850157634,0.9995343665339195,189.26663789275062,19.804067810453617,27.93773376100172,-1.841075207555101,-123.35157775878906,4381.2578125,True
1599566834.8139565,0.0,10,0.5,0.5,2.8801693153381347,-0.05075,-0.00825,-0.2505,0.3331931970039029,10,1,100,-0.349060154664143,-10,-1,-100,6488.003177930252,-0.005621239425703771,0.029021595173329896,0.9995629788467129,191.00518486938452,19.986128734014073,36.99239026488472,-2.41502300070671,-126.8232421875,4381.2578125,True
1599566834.8763092,0.0,10,0.5,0.5,2.3459130767822267,-0.05075,-0.00825,-0.2505,0.3143208253893961,10,1,100,-0.08069766235679524,-10,-1,-100,6487.974839611328,-0.004179396201179197,0.02899608025179298,0.9995707878771893,191.38488763838063,20.025858333053353,40.006206239015334,-2.6063880196829836,-127.83328247070312,4381.2578125,True
1599566834.944962,0.0,10,0.5,0.5,2.402879559516907,-0.05075,-0.00825,-0.2505,0.3133917617883003,10,1,100,-0.09282241239946484,-10,-1,-100,6487.883029428427,-0.0027875241740196706,0.028959372719764776,0.9995767026299968,191.72327297015477,20.06123329506333,43.02329986779958,-2.79777566731653,-128.769287109375,4381.2578125,True
1599566835.007378,0.0,10,0.5,0.5,2.691880105018616,-0.05075,-0.00825,-0.2505,0.3157324285805178,10,1,100,-0.235911809446308,-10,-1,-100,6487.761432868312,-0.00025023723320797333,0.02894283568265925,0.9995810370570131,192.18122219364753,20.10896157920543,49.03549452188142,-3.1806137635763516,-130.41783142089844,4381.2578125,True
1599566835.527461,0.0,10,0.5,0.5,2.711257452964783,-0.05075,-0.00825,-0.2505,0.30097990325109525,10,1,100,-0.2611487773428089,-10,-1,-100,6487.64082557254,0.0022576406056091423,0.02879029437942643,0.9995829240280378,192.47715518125312,20.139501939386225,55.033035976579754,-3.5635278300532165,-131.77171325683594,4381.2578125,True
1599566835.5892963,0.0,10,0.5,0.5,2.7111898099899294,-0.05075,-0.00825,-0.2505,0.29590447526648844,10,1,100,-0.27156943806595074,-10,-1,-100,6487.518762753229,0.004606447893460703,0.02860351512413345,0.9995802216732524,192.66199064408494,20.158119203891417,61.01711326757446,-3.946509310907322,-132.82943725585938,4381.2578125,True
1599566835.6471422,0.0,10,0.5,0.5,2.4659267162322998,-0.05075,-0.00825,-0.2505,0.3147416103880986,10,1,100,-0.03959188798168449,-10,-1,-100,6487.518762753229,0.004606447893460703,0.02860351512413345,0.9995802216732524,192.66199064408494,20.158119203891417,61.01711326757446,-3.946509310907322,-132.82943725585938,4381.2578125,True
1599566835.711968,0.0,10,0.5,0.5,2.7916784057617186,-0.05075,-0.00825,-0.2505,0.28018230131214594,10,1,100,-0.3970085837771588,-10,-1,-100,6487.243400293286,0.007833801210878929,0.028288730321810066,0.9995690968089042,192.9176874352921,20.183167417933927,70.0134042758782,-4.521091934687757,-133.86033630371094,4381.2578125,True
1599566835.7728045,0.0,10,0.5,0.5,2.6438551742553713,-0.05075,-0.00825,-0.2505,0.27923528096240546,10,1,100,-0.2988723877025676,-10,-1,-100,6487.059345210902,0.009852254536113454,0.02799384772711065,0.9995595417832731,193.15071831220482,20.206023378008307,76.05319173628412,-4.904209284429653,-134.17819213867188,4381.2578125,True
1599566835.8306508,0.0,10,0.5,0.5,2.580626159667969,-0.05075,-0.00825,-0.2505,0.2768551471487799,10,1,100,-0.30257434693131047,-10,-1,-100,6486.813282173243,0.011701458689206232,0.027704859525676483,0.9995476560040583,193.41817801020778,20.232241316332143,82.12562237416739,-5.287367601857858,-134.1993865966797,4381.2578125,True
1599566835.898469,0.0,10,0.5,0.5,2.4264291519165044,-0.05075,-0.00825,-0.2505,0.2563919917142957,10,1,100,-0.3933644565578499,-10,-1,-100,6486.474468325614,0.01418825781908192,0.027257158906172366,0.99952775880834,193.8774888455017,20.277432718876742,91.29957361018315,-5.862165810025841,-133.67544555664062,4381.2578125,True
1599566835.95432,0.0,10,0.5,0.5,2.5633294502258304,-0.05075,-0.00825,-0.2505,0.3009856100379917,10,1,100,-0.14666549329475964,-10,-1,-100,6486.474468325614,0.01418825781908192,0.027257158906172366,0.99952775880834,193.8774888455017,20.277432718876742,91.29957361018315,-5.862165810025841,-133.67544555664062,4381.2578125,True
1599566836.0191839,0.0,10,0.5,0.5,2.2093208427429203,-0.05075,-0.00825,-0.2505,0.2524937984346805,10,1,100,-0.38244877174308267,-10,-1,-100,6486.135168003035,0.016315044301320983,0.026817905092820102,0.9995071882162122,194.38977323769066,20.328429865478853,100.55204492089858,-6.43701333008932,-132.48431396484375,4381.2578125,True
1599566836.0789862,0.0,10,0.5,0.5,2.160039811706543,-0.05075,-0.00825,-0.2505,0.2617361904360212,10,1,100,-0.30771696224758616,-10,-1,-100,6485.825144017814,0.017551740500238035,0.026504551978536545,0.9994945948477307,194.7092877100097,20.360665839518155,106.73953127554711,-6.820258701961212,-131.32008361816406,4381.2578125,True
1599566836.1398253,0.0,10,0.5,0.5,2.243668874359131,-0.05075,-0.00825,-0.2505,0.27376466702796665,10,1,100,-0.2488902235838094,-10,-1,-100,6485.732874952024,0.018125037622552433,0.026331251919754745,0.9994889435023879,194.84902859315318,20.374962767542264,109.83087436363482,-7.011882349569344,-130.6271209716797,4381.2578125,True
1599566836.209638,0.0,10,0.5,0.5,1.655648123931885,-0.05075,-0.00825,-0.2505,0.24472539208793823,10,1,100,-0.347477689835446,-10,-1,-100,6485.268559937365,0.01952804161147409,0.025911948496370733,0.9994734746434955,195.07177254511828,20.398878039415298,119.01692045745814,-7.586745001894904,-128.1020965576172,4381.2578125,True
1599566836.2844393,0.0,10,0.5,0.5,1.3231635303497313,-0.05075,-0.00825,-0.2505,0.23256995344150133,10,1,100,-0.32978697188230255,-10,-1,-100,6484.802766590845,0.020629109989357915,0.025422706457079263,0.9994639192174194,194.81835772644354,20.37625230242969,127.92005552394646,-8.161578062239261,-124.91171264648438,4381.2578125,True
1599566836.349267,0.0,10,0.5,0.5,1.7508552787780765,-0.05075,-0.00825,-0.2505,0.2630368097047193,10,1,100,-0.2538306692475446,-10,-1,-100,6484.585486144293,0.020925003343394595,0.025257804031631775,0.9994619490358693,194.57575404187443,20.353111111093625,130.77827795313763,-8.353179080609937,-123.70020294189453,4381.2578125,True
1599566836.4210718,0.0,10,0.5,0.5,1.6586582330703736,-0.05075,-0.00825,-0.2505,0.26172495744087376,10,1,100,-0.25203826588292527,-10,-1,-100,6484.429239296704,0.021165801632720024,0.025098722193635625,0.9994608861708851,194.2315570972738,20.31988631095623,133.56014740343693,-8.544774469929239,-122.41456604003906,4381.2578125,True
1599566836.5123475,0.0,10,0.5,0.5,0.6756109792709353,-0.05075,-0.00825,-0.2505,0.2184895098703718,10,1,100,-0.28768832124949106,-10,-1,-100,6483.902379355975,0.021698515538078642,0.024563684749846812,0.9994627555917001,192.4358063200369,20.143939045908372,141.2877250345898,-9.119529934343506,-118.114501953125,4381.2578125,True
1599566836.5851521,0.0,10,0.5,0.5,1.2632165769577028,-0.05075,-0.00825,-0.2505,0.2499815294990977,10,1,100,-0.24769809080604763,-10,-1,-100,6483.747100163484,0.021810165123601653,0.024366433774641608,0.9994651537709494,191.53174222353232,20.054553054836838,143.59959435238758,-9.311107813906021,-116.53345489501953,4381.2578125,True
1599566836.6669343,0.0,10,0.5,0.5,0.6257855495452881,-0.05075,-0.00825,-0.2505,0.22344562953382238,10,1,100,-0.25004917932267345,-10,-1,-100,6483.311533214408,0.021926109272133242,0.02394850718398122,0.9994727183549561,189.73159206978372,19.87842291499349,148.14883634404188,-9.69425917266455,-113.14974975585938,4381.2578125,True
1599566836.741318,0.0,10,0.5,0.5,0.3628712596893312,-0.05075,-0.00825,-0.2505,0.2162234127400723,10,1,100,-0.23677589809817937,-10,-1,-100,6482.937968768645,0.021903812440163786,0.023505925268639677,0.9994837139632898,187.1440937570469,19.621910646873854,151.95193799254238,-10.077420100228268,-109.51954650878906,4381.2578125,True
1599566836.8131268,0.0,10,0.5,0.5,-1.157595925140381,-0.05075,-0.00825,-0.2505,0.14175947499376845,10,1,100,-0.19661155676352024,-10,-1,-100,6482.066297891783,0.021513331518841158,0.02242964407502113,0.9995169271371187,179.4944084143848,18.85217797687911,156.92858369839715,-10.843870520998347,-101.5166015625,4381.2578125,True
1599566836.8849356,0.0,10,0.5,0.5,0.8225539112091065,-0.05075,-0.00825,-0.2505,0.24898010356527156,10,1,100,-0.23605580799764334,-10,-1,-100,6482.066297891783,0.021513331518841158,0.02242964407502113,0.9995169271371187,179.4944084143848,18.85217797687911,156.92858369839715,-10.843870520998347,-101.5166015625,4381.2578125,True
1599566836.9527533,0.0,10,0.5,0.5,-1.7459734996795655,-0.05075,-0.00825,-0.2505,0.10648631141955042,10,1,100,-0.14817294505441234,-10,-1,-100,6481.19361702702,0.020711316133996977,0.02113779288082797,0.9995620216355385,169.28845210971912,17.80945243266213,158.58218541912595,-11.61064624724181,-93.0700912475586,4381.2578125,True
1599566837.0255578,0.0,10,0.5,0.5,0.3409759298324585,-0.05075,-0.00825,-0.2505,0.23519401527731232,10,1,100,-0.22849281099108268,-10,-1,-100,6481.19361702702,0.020711316133996977,0.02113779288082797,0.9995620216355385,169.28845210971912,17.80945243266213,158.58218541912595,-11.61064624724181,-93.0700912475586,4381.2578125,True
1599566837.092509,0.0,10,0.5,0.5,-1.5749894813537597,-0.05075,-0.00825,-0.2505,0.1060161507021526,10,1,100,-0.1365811026987407,-10,-1,-100,6480.475245317444,0.019875680416662378,0.019967344033395836,0.999603052466441,160.93168793607168,16.94343485877598,158.3112036284525,-12.18599270695533,-86.7972412109375,4381.2578125,True
1599566837.1543841,0.0,10,0.5,0.5,-1.8677131914138794,-0.05075,-0.00825,-0.2505,0.07447786390483677,10,1,100,-0.10998179753988976,-10,-1,-100,6479.695341028739,0.018875153647574763,0.01862139743757124,0.9996484242633769,158.78210494866448,16.717947951363595,163.66531841464592,-12.761479417300908,-80.71051025390625,4381.2578125,True
1599566837.2261922,0.0,10,0.5,0.5,-0.37739293270111085,-0.05075,-0.00825,-0.2505,0.20842479101168987,10,1,100,-0.20980540965013672,-10,-1,-100,6479.695341028739,0.018875153647574763,0.01862139743757124,0.9996484242633769,158.78210494866448,16.717947951363595,163.66531841464592,-12.761479417300908,-80.71051025390625,4381.2578125,True
1599566837.2890227,0.0,10,0.5,0.5,-2.1534933828353884,-0.05075,-0.00825,-0.2505,0.048309875108885986,10,1,100,-0.0889857343485618,-10,-1,-100,6478.915429610177,0.017779359655642722,0.017171209372375092,0.9996944752967905,170.50347314599873,17.93981686172807,183.7774399004859,-13.336749954454515,-74.91717529296875,4381.2578125,True
1599566837.350857,0.0,10,0.5,0.5,-1.2765627601623535,-0.05075,-0.00825,-0.2505,0.13549735199043755,10,1,100,-0.15529537588624584,-10,-1,-100,6478.635114768404,0.017389662591017957,0.016652011125122032,0.9997101130630116,173.90840687547382,18.29180314436902,190.1795681734537,-13.528433487503737,-73.124755859375,4381.2578125,True
1599566837.426654,0.0,10,0.5,0.5,-2.399505728149414,-0.05075,-0.00825,-0.2505,-0.0015098433788651444,10,1,100,-0.057370353693217926,-10,-1,-100,6477.791726179537,0.016149289100223476,0.014941125938860916,0.9997579523150775,183.01268464351932,19.225637443094737,208.76639114615608,-14.103239071080147,-68.01629638671875,4381.2578125,True
1599566837.4904838,0.0,10,0.5,0.5,-2.5195755451202393,-0.05075,-0.00825,-0.2505,-0.033863890174724826,10,1,100,-0.0371099341385798,-10,-1,-100,6476.9483423469355,0.014842722588404456,0.013099434252597339,0.9998040300020927,190.53604829785115,19.988296679800367,226.34186583634855,-14.677662969215508,-63.4835205078125,4381.2578125,True
1599566837.5602987,0.0,10,0.5,0.5,-1.8264659519195559,-0.05075,-0.00825,-0.2505,0.08198611651109478,10,1,100,-0.11831824232491277,-10,-1,-100,6476.6670531837735,0.014399256387472407,0.012486832971158287,0.9998183537112321,192.640122020643,20.199620338646447,231.87406986836723,-14.86905566897283,-62.119293212890625,4381.2578125,True
1599566837.630195,0.0,10,0.5,0.5,-1.9057897075653076,-0.05075,-0.00825,-0.2505,0.07303439735931022,10,1,100,-0.11232554641279868,-10,-1,-100,6476.323753453791,0.013948093582998025,0.01185758236947371,0.9998324101696999,194.5619338077627,20.391741001062872,237.25123749610088,-15.060409461269101,-60.8294677734375,4381.2578125,True
1599566837.710424,0.0,10,0.5,0.5,-2.9391887590408325,-0.05075,-0.00825,-0.2505,-0.15569709640598955,10,1,100,0.04804754655806334,-10,-1,-100,6475.0731272564735,0.012086156754241658,0.00921459570690442,0.9998845013504662,200.74379741836293,21.003076492703297,257.4452600160992,-15.825458993974312,-56.41485595703125,4381.2578125,True
1599566837.7752528,0.0,10,0.5,0.5,-1.863569068145752,-0.05075,-0.00825,-0.2505,0.1074092501335472,10,1,100,-0.13728362037959785,-10,-1,-100,6475.0731272564735,0.012086156754241658,0.00921459570690442,0.9998845013504662,200.74379741836293,21.003076492703297,257.4452600160992,-15.825458993974312,-56.41485595703125,4381.2578125,True
1599566837.8550372,0.0,10,0.5,0.5,-2.4190581199645997,-0.05075,-0.00825,-0.2505,-0.04506363503532136,10,1,100,-0.03106565089695222,-10,-1,-100,6474.448554998264,0.011127620235001625,0.00783825379475697,0.9999073646320216,203.09214491707255,21.232014152300003,266.8657580087999,-16.20778240173951,-54.65411376953125,4381.2578125,True
1599566837.9198637,0.0,10,0.5,0.5,-2.4408372627258306,-0.05075,-0.00825,-0.2505,-0.05064695221086822,10,1,100,-0.01823884773201892,-10,-1,-100,6473.823501613457,0.010146659310022723,0.006546079303611421,0.9999270944176866,205.0653960667576,21.422596337623624,275.9348447070458,-16.589985194615924,-53.189056396484375,4381.2578125,True
1599566837.9866862,0.0,10,0.5,0.5,-2.447577961730957,-0.05075,-0.00825,-0.2505,-0.0834647549116066,10,1,100,-0.005812739232307851,-10,-1,-100,6473.135466081323,0.009149847023078668,0.005084009121775992,0.9999452150746581,206.7467057295234,21.583502010756614,284.73199660359205,-16.972076926177387,-52.0238037109375,4381.2578125,True
1599566838.0545056,0.0,10,0.5,0.5,-2.4366276443481447,-0.05075,-0.00825,-0.2505,-0.0885469621455399,10,1,100,0.007673763133144551,-10,-1,-100,6472.448414799757,0.0081288944794732,0.0037196408909358426,0.9999600418747663,208.1761577837364,21.718782434004186,293.28647580154933,-17.35406621746491,-51.153900146484375,4381.2578125,True
1599566838.1183343,0.0,10,0.5,0.5,-2.4620631706237797,-0.05075,-0.00825,-0.2505,-0.18225788020428632,10,1,100,0.07919142251210168,-10,-1,-100,6471.3536422802135,0.006559014143760932,0.001639145398941818,0.9999771460067591,209.9724451213318,21.886098132378404,305.79294222930423,-17.92687446880614,-50.406280517578125,4381.2578125,True
1599566838.197125,0.0,10,0.5,0.5,-2.327787181091309,-0.05075,-0.00825,-0.2505,-0.12591957006518573,10,1,100,0.04151482831519275,-10,-1,-100,6470.665145263425,0.005483083126682099,0.0002720450261571823,0.9999849307819242,210.97358664957915,21.97715711375131,313.9415424215933,-18.30863899452424,-50.278564453125,4381.2578125,True
1599566838.258958,0.0,10,0.5,0.5,-2.1972958862304686,-0.05075,-0.00825,-0.2505,-0.20535968969069912,10,1,100,0.11744014880788653,-10,-1,-100,6469.5074141816,0.003823242597096601,-0.0016812951373094808,0.9999912779933158,212.20655410363392,22.084827088408122,325.88421491093953,-18.881139717933515,-50.641693115234375,4381.2578125,True
1599566838.32179,0.0,10,0.5,0.5,-2.2166334747314456,-0.05075,-0.00825,-0.2505,-0.08207681375862191,10,1,100,0.014601513328816339,-10,-1,-100,6469.101650264347,0.0032588079052744004,-0.002323425388252593,0.9999919909006781,212.543722894806,22.11259449839455,329.7804253191277,-19.07193749916326,-50.910888671875,4381.2578125,True
1599566838.3866172,0.0,10,0.5,0.5,-2.063416361999512,-0.05075,-0.00825,-0.2505,-0.1525430250625432,10,1,100,0.08528525124045168,-10,-1,-100,6468.351651699282,0.002112823555037282,-0.0035348902575476826,0.9999915202277929,213.08965161657116,22.15383749192982,337.40763342591015,-19.45348482077498,-51.670501708984375,4381.2578125,True
1599566838.4614177,0.0,10,0.5,0.5,-1.9396958488464358,-0.05075,-0.00825,-0.2505,-0.16092724073820477,10,1,100,0.1002339187803345,-10,-1,-100,6467.538182959659,0.0009441892891856982,-0.004700851657627004,0.9999885051840742,213.43516315130827,22.172704082924696,344.75422717617033,-19.834975254492907,-52.725830078125,4381.2578125,True
1599566838.5372195,0.0,10,0.5,0.5,-1.5634676887512207,-0.05075,-0.00825,-0.2505,-0.2248312898950654,10,1,100,0.18110415549217385,-10,-1,-100,6466.380492588505,-0.0008432604067278666,-0.0063291120615210006,0.9999796154184339,213.46825851902864,22.147124139901997,355.02556642158936,-20.407127764474204,-54.86236572265625,4381.2578125,True
1599566838.6115327,0.0,10,0.5,0.5,-1.55831106338501,-0.05075,-0.00825,-0.2505,-0.1734455361149496,10,1,100,0.13650453385908742,-10,-1,-100,6465.505027157022,-0.002051880951219659,-0.007329326152645146,0.9999710349618682,213.07477429743813,22.084389443633704,361.1830424020346,-20.788528066903762,-56.655517578125,4381.2578125,True
1599566839.1537778,0.0,10,0.5,0.5,-2.004635772705078,-0.05075,-0.00825,-0.2505,-0.07481166754816067,10,1,100,0.016862333436032453,-10,-1,-100,6465.505027157022,-0.002051880951219659,-0.007329326152645146,0.9999710349618682,213.07477429743813,22.084389443633704,361.1830424020346,-20.788528066903762,-56.655517578125,4381.2578125,True
1599566839.2081459,0.0,10,0.5,0.5,-1.371984652709961,-0.05075,-0.00825,-0.2505,-0.17377833756873245,10,1,100,0.1505487365047585,-10,-1,-100,6464.6901135734515,-0.0032570284991405335,-0.008217738302582689,0.9999609295080214,212.4992785015132,22.00075518372188,367.0121975090277,-21.169917983656703,-58.742919921875,4381.2578125,True
1599566839.2649956,0.0,10,0.5,0.5,-1.540849291229248,-0.05075,-0.00825,-0.2505,-0.1335892152071207,10,1,100,0.09797279946393196,-10,-1,-100,6464.284367018961,-0.0038643032759896204,-0.008649177890880785,0.9999551284342729,212.0747082440618,21.944070473658442,369.67901378702504,-21.360614304330344,-59.8973388671875,4381.2578125,True
1599566839.3263373,0.0,10,0.5,0.5,-1.0600481750488282,-0.05075,-0.00825,-0.2505,-0.18148816475600074,10,1,100,0.1727985421561959,-10,-1,-100,6463.407447667094,-0.005087129536309598,-0.009467487673150853,0.9999422422271398,210.818270246909,21.787471547215986,374.2586437511155,-21.742022495555307,-62.42730712890625,4381.2578125,True
1599566839.3851805,0.0,10,0.5,0.5,-0.8330601608276368,-0.05075,-0.00825,-0.2505,-0.17973892809029574,10,1,100,0.18478325486081623,-10,-1,-100,6462.531019961229,-0.006298132422403407,-0.010186649384890589,0.9999282802792904,208.92650580602182,21.564416761305488,377.6235808380746,-22.12347085521928,-65.25128173828125,4381.2578125,True
1599566839.4529989,0.0,10,0.5,0.5,-0.5890475791931153,-0.05075,-0.00825,-0.2505,-0.17949142360061804,10,1,100,0.19676260728622375,-10,-1,-100,6461.593560384819,-0.007498746090883756,-0.010830450578159114,0.9999132313092665,206.29771482677387,21.265652909638415,379.52647245183596,-22.504982996700882,-68.3695068359375,4381.2578125,True
1599566839.5287962,0.0,10,0.5,0.5,-0.8528795097351074,-0.05075,-0.00825,-0.2505,-0.14753378704171363,10,1,100,0.14273924288519685,-10,-1,-100,6461.185866851709,-0.008089311973132776,-0.011117466762240546,0.999905478015093,204.66820288997678,21.084393640848514,379.8357497449103,-22.695770019834356,-70.038818359375,4381.2578125,True
1599566839.6205518,0.0,10,0.5,0.5,0.3658771423339843,-0.05075,-0.00825,-0.2505,-0.2016349837983354,10,1,100,0.27501854105513246,-10,-1,-100,6459.778704462922,-0.009819454453514781,-0.01186332637600687,0.999881412869312,198.3960432404705,20.403490128012027,377.8384534241384,-23.268283059573356,-75.42227172851562,4381.2578125,True
1599566839.6943538,0.0,10,0.5,0.5,0.8011373893737792,-0.05075,-0.00825,-0.2505,-0.19096487818298585,10,1,100,0.286243449382947,-10,-1,-100,6458.369590350194,-0.011484570744348827,-0.012437868269547278,0.9998566917652387,190.0001732572687,19.517805735948205,371.12118749066605,-23.84104436555182,-81.281494140625,4381.2578125,True
1599566839.7691548,0.0,10,0.5,0.5,-0.644802043914795,-0.05075,-0.00825,-0.2505,-0.13412156444974768,10,1,100,0.12079595133330452,-10,-1,-100,6458.369590350194,-0.011484570744348827,-0.012437868269547278,0.9998566917652387,190.0001732572687,19.517805735948205,371.12118749066605,-23.84104436555182,-81.281494140625,4381.2578125,True
1599566839.8519354,0.0,10,0.5,0.5,1.8460530601501464,-0.05075,-0.00825,-0.2505,-0.1844559506877801,10,1,100,0.3360322485109012,-10,-1,-100,6456.428754888475,-0.013432689182515042,-0.012890809469786753,0.9998266799263459,192.1242271158845,19.736467553824497,387.82284891633054,-24.60481648266323,-89.48245239257812,4381.2578125,True
1599566839.9257357,0.0,10,0.5,0.5,0.4236326663970947,-0.05075,-0.00825,-0.2505,-0.1485866745897261,10,1,100,0.1951412954488898,-10,-1,-100,6455.896058648941,-0.013912532909164867,-0.012971433975188382,0.9998190752974654,195.84001958368614,20.12400375011126,398.5291063050583,-24.795629530201182,-91.4902114868164,4381.2578125,True
1599566840.0090253,0.0,10,0.5,0.5,1.7541344953536988,-0.05075,-0.00825,-0.2505,-0.15388384571888963,10,1,100,0.2814688121432559,-10,-1,-100,6454.4258973709075,-0.015123863262968013,-0.013088563539752619,0.9997999591240585,206.48780760915838,21.247210883101765,430.3458255496424,-25.36765328378888,-97.48665618896484,4381.2578125,True
1599566840.0758474,0.0,10,0.5,0.5,0.2830362842559815,-0.05075,-0.00825,-0.2505,-0.1426148278273532,10,1,100,0.1614617327616391,-10,-1,-100,6454.4258973709075,-0.015123863262968013,-0.013088563539752619,0.9997999591240585,206.48780760915838,21.247210883101765,430.3458255496424,-25.36765328378888,-97.48665618896484,4381.2578125,True
1599566840.1396759,0.0,10,0.5,0.5,1.996422403526306,-0.05075,-0.00825,-0.2505,-0.14363934664259187,10,1,100,0.27983933330170413,-10,-1,-100,6452.8297497897875,-0.016190898964489824,-0.013094585460012423,0.999783169803509,215.72281707777782,22.238194517274643,460.2023913039595,-25.939006893310378,-103.07823181152344,4381.2578125,True
1599566840.2094898,0.0,10,0.5,0.5,1.1523439203262331,-0.05075,-0.00825,-0.2505,-0.14119269024334521,10,1,100,0.20650752869825767,-10,-1,-100,6452.360035619582,-0.016485285227167332,-0.013075174023823528,0.9997786130915313,218.4745466506707,22.536559079859774,469.6548788256391,-26.129310737175633,-104.82231140136719,4381.2578125,True
1599566840.2873366,0.0,10,0.5,0.5,2.7184887273788454,-0.05075,-0.00825,-0.2505,-0.12495644315293862,10,1,100,0.289146771764456,-10,-1,-100,6450.2316583779175,-0.017496005367352067,-0.012907884359697506,0.9997636102187069,228.30216096208434,23.60991769735801,505.75599601254504,-26.889823710836982,-111.37156677246094,4381.2578125,True
1599566840.3481374,0.0,10,0.5,0.5,1.557859979057312,-0.05075,-0.00825,-0.2505,-0.1351740672495198,10,1,100,0.21151972072127498,-10,-1,-100,6449.636938713957,-0.01770058985495089,-0.012847062686281444,0.9997607924394323,230.2593793208046,23.82589983867757,513.868111141506,-27.07979157880468,-112.85160064697266,4381.2578125,True
1599566840.4129872,0.0,10,0.5,0.5,2.043373675918579,-0.05075,-0.00825,-0.2505,-0.12788003811943185,10,1,100,0.22690153729515816,-10,-1,-100,6448.572496791021,-0.018019245780347453,-0.01272456659443852,0.9997566664876464,233.6102304718029,24.197482541136296,529.0103244463185,-27.45956082247091,-115.59146118164062,4381.2578125,True
1599566840.4788132,0.0,10,0.5,0.5,1.7645867168426512,-0.05075,-0.00825,-0.2505,-0.13354744697695065,10,1,100,0.20860647380880587,-10,-1,-100,6448.040274360683,-0.01813667361261749,-0.01266446777480886,0.9997553062256035,235.0314611982525,24.355714209833433,536.0853011131866,-27.649369849301056,-116.85035705566406,4381.2578125,True
1599566840.5416443,0.0,10,0.5,0.5,2.481961305999756,-0.05075,-0.00825,-0.2505,-0.11624848369264337,10,1,100,0.22538113103445573,-10,-1,-100,6446.322993707727,-0.018389875705034097,-0.012452363182101592,0.9997533451420578,238.45454956134668,24.737679067246013,555.6386816536417,-28.21853438533688,-120.18109130859375,4381.2578125,True
1599566840.6157675,0.0,10,0.5,0.5,1.9626808887481693,-0.05075,-0.00825,-0.2505,-0.1300065365223494,10,1,100,0.20444293553427603,-10,-1,-100,6445.784419411677,-0.018425205660390725,-0.012385012620172026,0.9997535312559644,239.3601193777719,24.83867525773269,561.682007694668,-28.40817830261082,-121.14289093017578,4381.2578125,True
1599566840.6785662,0.0,10,0.5,0.5,2.48126887626648,-0.05075,-0.00825,-0.2505,-0.11434129713117742,10,1,100,0.19989320272070044,-10,-1,-100,6444.067614959087,-0.01841186016445404,-0.012181906679729963,0.9997562725759369,241.54146748982035,25.080738811737927,578.7198626435701,-28.97690997044862,-123.5829086303711,4381.2578125,True
1599566840.749885,0.0,10,0.5,0.5,2.2698991889953612,-0.05075,-0.00825,-0.2505,-0.12058024142810708,10,1,100,0.1892610434860682,-10,-1,-100,6442.880105388118,-0.018300082814286318,-0.012054806824627468,0.999759865468409,242.84880855541243,25.222921491562946,589.8527730325249,-29.3559118516224,-124.83876037597656,4381.2578125,True
1599566840.8157103,0.0,10,0.5,0.5,2.2668827733993533,-0.05075,-0.00825,-0.2505,-0.12008010571815544,10,1,100,0.1800931160623766,-10,-1,-100,6441.685756484047,-0.018112234774326358,-0.011935654592366663,0.9997647158711552,243.95656470975533,25.34180087188198,600.5906797941691,-29.7348004296283,-125.79812622070312,4381.2578125,True
1599566840.8855243,0.0,10,0.5,0.5,2.1563459722518923,-0.05075,-0.00825,-0.2505,-0.12586382955091913,10,1,100,0.1856338677720371,-10,-1,-100,6441.091999356868,-0.017990087630078002,-0.011880967262307097,0.9997675726707554,244.449260583855,25.394096816719532,605.8394180323976,-29.924204019942472,-126.1667251586914,4381.2578125,True
1599566840.964313,0.0,10,0.5,0.5,2.2367577507019045,-0.05075,-0.00825,-0.2505,-0.11976991025186629,10,1,100,0.16501218771084422,-10,-1,-100,6439.903016955592,-0.017690206950747824,-0.011776937883862935,0.9997741546529992,245.33736025763685,25.487388452335875,616.1496890029798,-30.30293234984817,-126.68170166015625,4381.2578125,True
1599566841.054073,0.0,10,0.5,0.5,2.1858648368835447,-0.05075,-0.00825,-0.2505,-0.11456237662456534,10,1,100,0.13130633831781857,-10,-1,-100,6438.0504462929675,-0.017110994791798888,-0.011636052640007175,0.9997858851455116,246.4789079188996,25.60576569434124,631.2585772497313,-30.87083212845927,-126.89905548095703,4381.2578125,True
1599566841.1208944,0.0,10,0.5,0.5,2.0752421531677245,-0.05075,-0.00825,-0.2505,-0.11913156892882565,10,1,100,0.1375242519966787,-10,-1,-100,6436.801399527001,-0.016641500767165085,-0.011550614175673645,0.9997948008288405,247.1328805391257,25.673383082089305,641.131224868196,-31.24930580872337,-126.67411041259766,4381.2578125,True
1599566841.1966918,0.0,10,0.5,0.5,1.8720586652755737,-0.05075,-0.00825,-0.2505,-0.11393841338801153,10,1,100,0.09463488321288958,-10,-1,-100,6434.892668961897,-0.01582603716038462,-0.011426799569016457,0.9998094642477674,247.94677981382972,25.758942899824152,655.6027857114777,-31.816831062745567,-125.78224182128906,4381.2578125,True
1599566841.2704954,0.0,10,0.5,0.5,1.9687591123580934,-0.05075,-0.00825,-0.2505,-0.12154118394780414,10,1,100,0.14290098260046202,-10,-1,-100,6434.237870113342,-0.015525589909064158,-0.011384482084604212,0.9998146576369247,248.16484808961476,25.78268640101843,660.3093473753939,-32.005958028605455,-125.337158203125,4381.2578125,True
1599566841.3393111,0.0,10,0.5,0.5,1.548750546073914,-0.05075,-0.00825,-0.2505,-0.11020573829337083,10,1,100,0.06645576410340881,-10,-1,-100,6432.326694286778,-0.014560103408614137,-0.011243932939277775,0.9998307743617354,248.60835593343236,25.83552583928419,673.9214169942173,-32.57320190907137,-123.5587158203125,4381.2578125,True
1599566841.4061322,0.0,10,0.5,0.5,1.9962434185028077,-0.05075,-0.00825,-0.2505,-0.1241465448579251,10,1,100,0.1626179039232333,-10,-1,-100,6432.326694286778,-0.014560103408614137,-0.011243932939277775,0.9998307743617354,248.60835593343236,25.83552583928419,673.9214169942173,-32.57320190907137,-123.5587158203125,4381.2578125,True
1599566841.474948,0.0,10,0.5,0.5,1.2603545095443724,-0.05075,-0.00825,-0.2505,-0.1063322434751033,10,1,100,0.04391612045773076,-10,-1,-100,6430.348622224177,-0.013484497883251241,-0.011082837448288897,0.9998476579114096,248.61015275787966,25.849448752607554,686.3907913057175,-33.14026157380642,-121.11599731445312,4381.2578125,True
1599566841.5367825,0.0,10,0.5,0.5,1.579425991249085,-0.05075,-0.00825,-0.2505,-0.11512624008712889,10,1,100,0.11033717346199087,-10,-1,-100,6429.631322402274,-0.013114880237442823,-0.011017216034205003,0.9998532996731136,248.47786418124136,25.84216254996671,690.1861124595886,-33.32924678354966,-120.15414428710938,4381.2578125,True
1599566841.620558,0.0,10,0.5,0.5,1.1696416734695436,-0.05075,-0.00825,-0.2505,-0.10748944057995435,10,1,100,0.0575422111935141,-10,-1,-100,6428.315373726189,-0.012303453042937094,-0.010888969697298205,0.9998650185810842,247.95933106110618,25.804321163134574,697.0627887406059,-33.70717757606134,-118.00950622558594,4381.2578125,True
1599566841.693364,0.0,10,0.5,0.5,0.9651689125061036,-0.05075,-0.00825,-0.2505,-0.10157503363531978,10,1,100,0.0507873553989531,-10,-1,-100,6426.9398546469165,-0.011509553844878732,-0.010719516598399901,0.9998763034166719,247.02875283329183,25.727932777856893,702.7518711483838,-34.08507159928573,-115.56975555419922,4381.2578125,True
1599566841.760245,0.0,10,0.5,0.5,0.7434723001480104,-0.05075,-0.00825,-0.2505,-0.09837724712127023,10,1,100,0.03455689547641032,-10,-1,-100,6425.5579883917235,-0.010645896441080622,-0.010537358832260504,0.9998878081854013,245.59940183613682,25.603809853106025,706.9644834558296,-34.46295346191465,-112.83552551269531,4381.2578125,True
1599566841.8251135,0.0,10,0.5,0.5,0.5043360458374024,-0.05075,-0.00825,-0.2505,-0.09229878647645973,10,1,100,0.025533464932993147,-10,-1,-100,6424.185888327775,-0.009784599522097382,-0.010317500942460726,0.9998989002826707,243.5679492051807,25.420575172436255,709.3517103802752,-34.84085142105562,-109.8066177368164,4381.2578125,True
1599566841.8989155,0.0,10,0.5,0.5,-0.2794006690979005,-0.05075,-0.00825,-0.2505,-0.07144251660266507,10,1,100,-0.034718357249054005,-10,-1,-100,6422.082817707444,-0.008460092031589525,-0.009929148692183897,0.9999149158048727,239.1672259693061,25.008714818513415,708.7155580989003,-35.40779921648357,-104.73255157470703,4381.2578125,True
1599566841.9617484,0.0,10,0.5,0.5,-0.7036364259719848,-0.05075,-0.00825,-0.2505,-0.05854407297618546,10,1,100,-0.04905707525611813,-10,-1,-100,6419.925551517867,-0.007132338644817067,-0.009460204114306814,0.9999298146787959,233.1803820556432,24.43044678790331,702.9165375490932,-35.97496265600035,-99.16268157958984,4381.2578125,True
1599566842.025578,0.0,10,0.5,0.5,-0.47220526084899894,-0.05075,-0.00825,-0.2505,-0.06648125774788613,10,1,100,-0.01063450844534794,-10,-1,-100,6418.487050687196,-0.006282216401725695,-0.009107796430497923,0.9999387890272396,228.8331000398497,24.003451805479646,697.6612927113051,-36.35321528852193,-95.37105560302734,4381.2578125,True
1599566842.0983834,0.0,10,0.5,0.5,-0.10411439456939697,-0.05075,-0.00825,-0.2505,-0.08102486321519003,10,1,100,0.027764425557709617,-10,-1,-100,6417.766823868034,-0.005865984568949416,-0.008921582346291495,0.9999429961720194,226.4364594135661,23.764460947721048,694.2484202278775,-36.54238698302092,-93.51725769042969,4381.2578125,True
1599566842.1921337,0.0,10,0.5,0.5,-0.7416463392257691,-0.05075,-0.00825,-0.2505,-0.05582635589121327,10,1,100,-0.021493249517699084,-10,-1,-100,6416.260454948177,-0.005047698691957868,-0.008525330703697667,0.9999509185326587,221.68093309658659,23.285116215346047,687.3103220262482,-36.92081344934817,-89.94174194335938,4381.2578125,True
1599566842.2873933,0.0,10,0.5,0.5,-1.4198704023361204,-0.05075,-0.00825,-0.2505,-0.023281368067181007,10,1,100,-0.07065511376519881,-10,-1,-100,6414.039236117736,-0.003864546218980367,-0.007871563418161705,0.9999615511467804,214.75385835639503,22.57245821365194,676.9736376354177,-37.48860941653123,-84.80258178710938,4381.2578125,True
1599566842.367719,0.0,10,0.5,0.5,-0.6700811643600464,-0.05075,-0.00825,-0.2505,-0.06285109479560201,10,1,100,0.0049420734352956935,-10,-1,-100,6413.260418547201,-0.003484609612658464,-0.0076398139948565145,0.9999647447475192,212.29441282187688,22.314632058056276,672.8985678789929,-37.67790974886811,-83.11492919921875,4381.2578125,True
1599566843.1556962,0.0,10,0.5,0.5,-1.2522787897109984,-0.05075,-0.00825,-0.2505,-0.03507751987866009,10,1,100,-0.036260797758154814,-10,-1,-100,6411.753078685608,-0.002772658271907437,-0.007179599434154544,0.9999703824204356,212.27540479088654,22.306954130216788,680.2000968612427,-38.05647858991193,-79.87454223632812,4381.2578125,True
1599566843.2354794,0.0,10,0.5,0.5,-1.3694027252197265,-0.05075,-0.00825,-0.2505,-0.02720931821836834,10,1,100,-0.042000141208393134,-10,-1,-100,6410.246718608658,-0.002081196563107038,-0.006692911561299414,0.9999754364761658,218.50034735260257,22.946734712868114,707.7302047828089,-38.434761581159115,-76.88900756835938,4381.2578125,True
1599566843.306802,0.0,10,0.5,0.5,-1.8754515773773193,-0.05075,-0.00825,-0.2505,0.007782534731618385,10,1,100,-0.08001108304586271,-10,-1,-100,6407.900999241392,-0.0011148270837460187,-0.005935855238495745,0.999981761225254,226.4179426818992,23.743831548238322,745.1682315763077,-39.00163897000652,-72.82504272460938,4381.2578125,True
1599566843.3945677,0.0,10,0.5,0.5,-0.8879381834030151,-0.05075,-0.00825,-0.2505,-0.06748493297835202,10,1,100,0.015758887646404075,-10,-1,-100,6407.900999241392,-0.0011148270837460187,-0.005935855238495745,0.999981761225254,226.4179426818992,23.743831548238322,745.1682315763077,-39.00163897000652,-72.82504272460938,4381.2578125,True
1599566843.4633846,0.0,10,0.5,0.5,-1.9529804832458497,-0.05075,-0.00825,-0.2505,0.015556768564926056,10,1,100,-0.07989307895010767,-10,-1,-100,6405.548447432462,-0.00025194126463940603,-0.005184560945787479,0.9999865283359566,232.7728244607708,24.365331024136125,778.2095893692707,-39.56789585575492,-69.37701416015625,4381.2578125,True
1599566843.5481584,0.0,10,0.5,0.5,-1.6944973234176635,-0.05075,-0.00825,-0.2505,-0.005221903078547564,10,1,100,-0.05112209697643906,-10,-1,-100,6403.931254123338,0.0002646911008058203,-0.004694350097510197,0.999988946446801,236.19629006291396,24.690381756571547,797.8602833401955,-39.94508687573047,-67.449462890625,4381.2578125,True
1599566843.639918,0.0,10,0.5,0.5,-1.7291583545684817,-0.05075,-0.00825,-0.2505,0.0012253221227337616,10,1,100,-0.05303989212519197,-10,-1,-100,6402.3614249354,0.0007458396548332966,-0.00419410495754919,0.9999909265622436,239.06270296693316,24.95520446478511,815.8505513022318,-40.32205132970205,-65.80804443359375,4381.2578125,True
1599566843.712723,0.0,10,0.5,0.5,-1.746521194458008,-0.05075,-0.00825,-0.2505,0.003479702603216131,10,1,100,-0.05250283209060313,-10,-1,-100,6400.723725637537,0.0011723543179767558,-0.003723139987206382,0.9999923818779765,241.44937753151987,25.168788690656665,832.3903045560123,-40.69880917490425,-64.46139526367188,4381.2578125,True
1599566843.7885187,0.0,10,0.5,0.5,-1.8706084747314455,-0.05075,-0.00825,-0.2505,0.03286367880245564,10,1,100,-0.07209366505008521,-10,-1,-100,6398.246183573268,0.001732538808638888,-0.003032228585734826,0.9999939019309471,244.235990098446,25.405534065775054,854.7459978568226,-41.26360128919754,-62.999481201171875,4381.2578125,True
1599566843.8620312,0.0,10,0.5,0.5,-1.522386560058594,-0.05075,-0.00825,-0.2505,-0.035743527861457264,10,1,100,-0.016634924486633916,-10,-1,-100,6398.246183573268,0.001732538808638888,-0.003032228585734826,0.9999939019309471,244.235990098446,25.405534065775054,854.7459978568226,-41.26360128919754,-62.999481201171875,4381.2578125,True
1599566843.9268575,0.0,10,0.5,0.5,-1.8120171974182129,-0.05075,-0.00825,-0.2505,0.05807168442542656,10,1,100,-0.08233490265039681,-10,-1,-100,6394.8653217392275,0.0023250684751991895,-0.0021835517334987203,0.9999949130662679,246.7063848221866,25.591487470939853,880.5931289409044,-42.01610960634293,-62.0931396484375,4381.2578125,True
1599566843.997669,0.0,10,0.5,0.5,-1.611949092102051,-0.05075,-0.00825,-0.2505,-0.0023380976553712234,10,1,100,-0.03731384890151206,-10,-1,-100,6394.089442377444,0.00244981520458496,-0.0019657490210192,0.9999950671059581,247.1269656299193,25.617579944515988,886.4091705337646,-42.20415308507569,-62.05230712890625,4381.2578125,True
1599566844.078453,0.0,10,0.5,0.5,-1.60385725479126,-0.05075,-0.00825,-0.2505,-0.00034586565090894555,10,1,100,-0.03778148721433098,-10,-1,-100,6393.188563742093,0.0025633534779906575,-0.0017539327755793247,0.9999951764577496,247.47383050125086,25.636053485436843,891.9775200422606,-42.39216711495806,-62.085845947265625,4381.2578125,True
1599566844.1462708,0.0,10,0.5,0.5,-1.3565962806701661,-0.05075,-0.00825,-0.2505,0.060127207082429884,10,1,100,-0.06465912563347388,-10,-1,-100,6389.797450525686,0.0029075684571137394,-0.001015419093479009,0.9999952574736202,248.13214746669286,25.63466230350461,911.7312849089323,-43.143968881327346,-62.96392822265625,4381.2578125,True
1599566844.2185915,0.0,10,0.5,0.5,-1.3183487274169923,-0.05075,-0.00825,-0.2505,0.025535341969565663,10,1,100,-0.04306670093264616,-10,-1,-100,6388.044520978467,0.003020539672180962,-0.0006629876436365939,0.9999952183823045,248.00933637320998,25.587372338706846,919.9927945873975,-43.51974599341669,-63.848052978515625,4381.2578125,True
1599566844.2854125,0.0,10,0.5,0.5,-1.3776423057556153,-0.05075,-0.00825,-0.2505,0.007830313920144473,10,1,100,-0.0366929980541956,-10,-1,-100,6387.1958882912295,0.0030623230406772316,-0.0005076607381401826,0.9999951822174793,247.8267239923093,25.5512856414457,923.676175544247,-43.70761109704745,-64.40155029296875,4381.2578125,True
1599566844.3592165,0.0,10,0.5,0.5,-0.8848388328552246,-0.05075,-0.00825,-0.2505,0.04332730528996228,10,1,100,-0.04018249750973368,-10,-1,-100,6384.524990363978,0.00312948734168794,-4.756062010816507e-05,0.9999951020114877,246.74189142995064,25.388315967232877,932.6918390241007,-44.271139811943854,-66.50601196289062,4381.2578125,True
1599566844.4230452,0.0,10,0.5,0.5,-1.1555318008422852,-0.05075,-0.00825,-0.2505,0.013838302185125023,10,1,100,-0.03400326462136479,-10,-1,-100,6383.627529133228,0.0031322040002699078,9.886078229747489e-05,0.9999950897502679,246.1838082165311,25.314143812539104,934.9377029552026,-44.45896884037367,-67.35546875,4381.2578125,True
1599566844.501842,0.0,10,0.5,0.5,-1.0877586006164552,-0.05075,-0.00825,-0.2505,0.015007781650132989,10,1,100,-0.033146472859808,-10,-1,-100,6382.716884948895,0.0031251029923463685,0.00023912823346676195,0.9999950882624251,245.5180126222274,25.229203258080755,936.7595126981824,-44.64679544190058,-68.27886962890625,4381.2578125,True
1599566844.571654,0.0,10,0.5,0.5,-0.3503344177246094,-0.05075,-0.00825,-0.2505,0.04368813165010761,10,1,100,-0.02538110757366739,-10,-1,-100,6380.045985935372,0.003046787333283957,0.000624400591966609,0.9999951635937279,242.8073969157903,24.90400984722736,939.3666272450643,-45.21028720617508,-71.48013305664062,4381.2578125,True
1599566844.6604183,0.0,10,0.5,0.5,-0.39365547637939446,-0.05075,-0.00825,-0.2505,0.031967215133584075,10,1,100,-0.022142891489817594,-10,-1,-100,6378.233973948751,0.0029449581801698163,0.0008647701957456182,0.9999952896858194,240.33593472076487,24.622801643829995,938.3876733877661,-45.58598626032438,-73.97506713867188,4381.2578125,True
1599566844.7262414,0.0,10,0.5,0.5,0.25523385238647467,-0.05075,-0.00825,-0.2505,0.04314682044630642,10,1,100,-0.008059152533104096,-10,-1,-100,6375.4419810705585,0.0027237886961823197,0.001182149591179244,0.9999955917390249,235.48226692810596,24.09262171014666,932.1090483241347,-46.149649571257726,-78.171142578125,4381.2578125,True
1599566844.7950602,0.0,10,0.5,0.5,-0.3414663078308106,-0.05075,-0.00825,-0.2505,0.02229247113754872,10,1,100,-0.019916029653681583,-10,-1,-100,6374.534265589318,0.002630266254115666,0.0012782295945736534,0.9999957239051256,233.6038218688382,23.89238625565068,928.8794613362548,-46.337576689421944,-79.63543701171875,4381.2578125,True
1599566844.867753,0.0,10,0.5,0.5,0.20560786132812492,-0.05075,-0.00825,-0.2505,0.032887485782052195,10,1,100,-0.006023551284294992,-10,-1,-100,6372.6602412784705,0.0024188897645368982,0.0014591368559093727,0.999996009938011,229.50247494586011,23.462408736396785,920.8566700283212,-46.713497620103034,-82.62100219726562,4381.2578125,True
1599566844.935571,0.0,10,0.5,0.5,-0.07991163253784178,-0.05075,-0.00825,-0.2505,0.02400679310019694,10,1,100,-0.014086541176706487,-10,-1,-100,6371.747643294511,0.002300473480935011,0.0015406148364255348,0.9999961671564992,227.32399372010758,23.23747010394711,916.2289136594662,-46.901492273832375,-84.10198974609375,4381.2578125,True
1599566845.0073798,0.0,10,0.5,0.5,1.3755169052124023,-0.05075,-0.00825,-0.2505,0.04863184797400736,10,1,100,0.03706596325588027,-10,-1,-100,6367.8648295528255,0.0017284541520836392,0.0018365465880384477,0.99999681976638,231.67545340171802,23.695388105419788,950.5889816818697,-47.65320326191754,-90.10931396484375,4381.2578125,True
1599566845.0722136,0.0,10,0.5,0.5,0.3428950168609619,-0.05075,-0.00825,-0.2505,0.02656170183253418,10,1,100,-0.001590364332570926,-10,-1,-100,6366.874594267458,0.0015610703483761245,0.0019028066633766318,0.9999969711884978,234.13925865318345,23.955938941174043,964.9587488073824,-47.84095639330431,-91.6064224243164,4381.2578125,True
1599566845.135203,0.0,10,0.5,0.5,0.44045218639373784,-0.05075,-0.00825,-0.2505,0.027114994599143755,10,1,100,0.0012015376029828016,-10,-1,-100,6365.95027809788,0.001384948161039997,0.0019662999685773545,0.9999971077873299,236.53104367858,24.211143499057243,979.1230041590791,-48.028636235817366,-93.1064224243164,4381.2578125,True
1599566845.204021,0.0,10,0.5,0.5,0.9447523891448975,-0.05075,-0.00825,-0.2505,0.032418278793176415,10,1,100,0.023146980277532696,-10,-1,-100,6364.003988864017,0.0010269214717287276,0.002070535157627145,0.9999973291546592,241.04517043312333,24.69958111943689,1006.5944239827053,-48.403775948110344,-95.95722961425781,4381.2578125,True
1599566845.2848434,0.0,10,0.5,0.5,1.8267344665527343,-0.05075,-0.00825,-0.2505,0.04330397847743579,10,1,100,0.08056480981106202,-10,-1,-100,6360.056723516202,0.0001813698325233229,0.002262590411234621,0.9999974238914893,249.29520011930404,25.614528253760106,1059.235460408954,-49.153189003486034,-101.17971801757812,4381.2578125,True
1599566845.3543897,0.0,10,0.5,0.5,1.247534157180786,-0.05075,-0.00825,-0.2505,0.032447259509959345,10,1,100,0.047120795768356184,-10,-1,-100,6358.112876966246,-0.00028067205954720954,0.002336999387701388,0.9999972298246915,252.9119903632639,26.026313804054986,1083.8347483838234,-49.527473094468775,-103.5184097290039,4381.2578125,True
1599566845.427709,0.0,10,0.5,0.5,1.306919804954529,-0.05075,-0.00825,-0.2505,0.030843775587512542,10,1,100,0.05314386825881002,-10,-1,-100,6356.108971649548,-0.0007525329565793492,0.002388728395019882,0.9999968638304841,256.42294173109974,26.430009684706338,1108.2438533243721,-49.90148820868279,-105.57933807373047,4381.2578125,True
1599566845.5743165,0.0,10,0.5,0.5,0.8132690158843995,-0.05075,-0.00825,-0.2505,0.025791532736047222,10,1,100,0.00630541072087221,-10,-1,-100,6356.108971649548,-0.0007525329565793492,0.002388728395019882,0.9999968638304841,256.42294173109974,26.430009684706338,1108.2438533243721,-49.90148820868279,-105.57933807373047,4381.2578125,True
1599566845.6640768,0.0,10,0.5,0.5,1.599445797920227,-0.05075,-0.00825,-0.2505,0.03264889515122791,10,1,100,0.09130518752857236,-10,-1,-100,6353.0684473242145,-0.0015221829282759916,0.0024500585089756643,0.9999958400775651,260.89117201972505,26.9563913974295,1141.8539387341896,-50.4620420754555,-108.11800384521484,4381.2578125,True
1599566845.7914615,0.0,10,0.5,0.5,1.5567228496551515,-0.05075,-0.00825,-0.2505,0.030453756826889986,10,1,100,0.10700373844738004,-10,-1,-100,6350.029390195385,-0.00236099602663227,0.002484956517211425,0.9999941253271791,264.45348028673084,27.390910224526863,1171.9568390208503,-51.02209787437316,-110.01734924316406,4381.2578125,True
1599566845.892727,0.0,10,0.5,0.5,1.1023169990539552,-0.05075,-0.00825,-0.2505,0.027058390171392496,10,1,100,0.023588575562508936,-10,-1,-100,6350.029390195385,-0.00236099602663227,0.002484956517211425,0.9999941253271791,264.45348028673084,27.390910224526863,1171.9568390208503,-51.02209787437316,-110.01734924316406,4381.2578125,True
1599566845.9625392,0.0,10,0.5,0.5,1.5051359912872315,-0.05075,-0.00825,-0.2505,0.025039327286237797,10,1,100,0.11730956101011376,-10,-1,-100,6346.92783389776,-0.0032092873032662085,0.0024660119365016797,0.9999918095965258,267.3271985642755,27.754746615912065,1199.3875874047826,-51.5817163980832,-111.29998779296875,4381.2578125,True
1599566846.0628061,0.0,10,0.5,0.5,1.3471148969650268,-0.05075,-0.00825,-0.2505,0.023130464061166457,10,1,100,0.09758529870922494,-10,-1,-100,6344.858991663787,-0.0037968130268783975,0.002430924283562058,0.9999898373573437,268.88120817036304,27.95998859018776,1216.2328404160994,-51.95457980558557,-111.7880630493164,4381.2578125,True
1599566846.1371226,0.0,10,0.5,0.5,1.2983254453659057,-0.05075,-0.00825,-0.2505,0.021080698361092644,10,1,100,0.10625846071602478,-10,-1,-100,6342.790150541812,-0.004405063556416824,0.0023799697978753812,0.9999874655008557,270.168479463648,28.137794004605997,1231.9944580981162,-52.32728878069473,-111.98079681396484,4381.2578125,True
1599566846.2194579,0.0,10,0.5,0.5,1.2589740512847902,-0.05075,-0.00825,-0.2505,0.022017475243483617,10,1,100,0.07864707498520529,-10,-1,-100,6341.755974785658,-0.004702067817509629,0.0023418823874180946,0.9999862029773826,270.71707368053427,28.21697391989192,1239.483546209608,-52.51359016847788,-111.966552734375,4381.2578125,True
1599566846.2892718,0.0,10,0.5,0.5,1.0322676048278807,-0.05075,-0.00825,-0.2505,0.003992541656347871,10,1,100,0.18421726781781408,-10,-1,-100,6337.4957370547345,-0.005927361228208593,0.002143322352595524,0.999980136081794,272.26453043546303,28.467988262886248,1266.6942373927943,-53.25848570018765,-111.17261505126953,4381.2578125,True
1599566846.3700564,0.0,10,0.5,0.5,1.23746371383667,-0.05075,-0.00825,-0.2505,0.02382917743509434,10,1,100,0.06225259566478382,-10,-1,-100,6337.4957370547345,-0.005927361228208593,0.002143322352595524,0.999980136081794,272.26453043546303,28.467988262886248,1266.6942373927943,-53.25848570018765,-111.17261505126953,4381.2578125,True
1599566846.433884,0.0,10,0.5,0.5,0.6484521163940431,-0.05075,-0.00825,-0.2505,-0.008077689935989018,10,1,100,0.1966704934466023,-10,-1,-100,6333.1720268512145,-0.0071446377277963715,0.0018534830183515156,0.9999727590051838,272.6971141447303,28.606239200724104,1288.9831005306232,-54.002981706334126,-109.20207214355469,4381.2578125,True
1599566846.5027008,0.0,10,0.5,0.5,0.9413655527114867,-0.05075,-0.00825,-0.2505,0.01180823505835087,10,1,100,0.11125686299322368,-10,-1,-100,6332.136387409759,-0.007468954173507985,0.001771260437511569,0.9999705382460109,272.59971525870225,28.6198809190917,1293.6118217718813,-54.18906020479924,-108.5259017944336,4381.2578125,True
1599566846.570519,0.0,10,0.5,0.5,0.8853130208969117,-0.05075,-0.00825,-0.2505,0.010205915207456987,10,1,100,0.11464187082290657,-10,-1,-100,6331.040202170145,-0.0077891539487472666,0.0016825631818048225,0.9999682485268729,272.412541181472,28.62429600238049,1297.818828642708,-54.3751255485999,-107.77645874023438,4381.2578125,True
1599566847.1734245,0.0,10,0.5,0.5,0.2922826303482057,-0.05075,-0.00825,-0.2505,-0.014190555188143703,10,1,100,0.17992886416054762,-10,-1,-100,6327.750669951667,-0.008668828085741428,0.0013808726669617799,0.9999614715629286,271.2987161284385,28.580095804690572,1307.7977443434495,-54.933269539186796,-105.19084167480469,4381.2578125,True
1599566847.2322738,0.0,10,0.5,0.5,0.6389078592300415,-0.05075,-0.00825,-0.2505,0.0038300956313536035,10,1,100,0.1259745860922164,-10,-1,-100,6326.653020580183,-0.008972304016879373,0.0012714363735092163,0.9999589397621168,270.73466249668206,28.544984548758844,1310.1851302063171,-55.11930884653887,-104.20465087890625,4381.2578125,True
1599566847.2931104,0.0,10,0.5,0.5,-0.1205927225112915,-0.05075,-0.00825,-0.2505,-0.024043026971910724,10,1,100,0.19198345213468837,-10,-1,-100,6323.299525403534,-0.009843032721287602,0.0009196427881253851,0.9999511332880172,268.3955649192234,28.369414300994205,1314.1225641672181,-55.677442086775,-100.88286590576172,4381.2578125,True
1599566847.3519568,0.0,10,0.5,0.5,-0.021291855049133224,-0.05075,-0.00825,-0.2505,-0.0166660271752809,10,1,100,0.1680432760186709,-10,-1,-100,6321.04368084704,-0.010411469742700007,0.000668267964559843,0.9999455758768696,266.6859967582691,28.233323977738277,1315.9193631553749,-56.0495574997752,-98.48017883300781,4381.2578125,True
1599566847.4190822,0.0,10,0.5,0.5,-0.1954585247039795,-0.05075,-0.00825,-0.2505,-0.02043700956925938,10,1,100,0.17218570221869534,-10,-1,-100,6318.788325041067,-0.010960428721996703,0.0004070198321307417,0.9999398498595234,264.5705230582179,28.050142957359128,1315.6156849191668,-56.421709457075565,-95.94108581542969,4381.2578125,True
1599566847.4978704,0.0,10,0.5,0.5,-0.33927146530151364,-0.05075,-0.00825,-0.2505,-0.023870426137048022,10,1,100,0.17580865856338976,-10,-1,-100,6316.531992774922,-0.011486728887305024,0.00014006761799283232,0.9999340155432918,262.36652358418075,27.852033255604425,1314.7527500131077,-56.79390652563105,-93.396240234375,4381.2578125,True
1599566847.5567114,0.0,10,0.5,0.5,-0.4776959466934204,-0.05075,-0.00825,-0.2505,-0.027317406983590555,10,1,100,0.17979771988516832,-10,-1,-100,6314.274684818229,-0.011996393806275034,-0.00013213126188783313,0.999928031948787,260.0955889411061,27.640146579708194,1313.42480504509,-57.166142071301785,-90.86929321289062,4381.2578125,True
