Timestamp,Input Throttle,horizon,dT,dt,Input Roll,Roll P,Roll I,Roll D,Input Pitch,Pitch P,Pitch I,Pitch D,Input Yaw,Yaw P,Yaw I,Yaw D,Altitude,Direction X,Direction Y,Direction Z,Drag X,Drag Y,Drag Z,Vertical Velocity,Roll,Mass,Has Fuel
1599564775.0549543,0.0,10,0.5,0.5,-0.054858047485351565,-0.001,-0.001,-0.2505,-0.0671899643649883,10,1,100,0.690366137782121,-10,-1,-100,6483.617967472877,-0.06725795878731913,-0.007002485902219997,0.9977110464312564,205.0732315188155,21.49877791723351,-156.76524817190818,9.59082412786948,-35.94464111328125,4381.2578125,True
1599564775.1037788,0.0,10,0.5,0.5,-0.06072729797363281,-0.001,-0.001,-0.2505,-0.06552003544256256,10,1,100,0.7105863365423624,-10,-1,-100,6484.156591970939,-0.06754233108541403,-0.006955167064312184,0.9976921665336738,204.38120851411728,21.435613830747727,-147.0255220525631,9.02079800626781,-35.939605712890625,4381.2578125,True
1599564775.1606266,0.0,10,0.5,0.5,-0.0648719696044922,-0.001,-0.001,-0.2505,-0.07094743593977507,10,1,100,0.6889033398414136,-10,-1,-100,6484.156591970939,-0.06754233108541403,-0.006955167064312184,0.9976921665336738,204.38120851411728,21.435613830747727,-147.0255220525631,9.02079800626781,-35.939605712890625,4381.2578125,True
1599564775.2164767,0.0,10,0.5,0.5,-0.06861249694824219,-0.001,-0.001,-0.2505,-0.01560134744974831,10,1,100,0.7125045349284296,-10,-1,-100,6484.85682717571,-0.06769548528521835,-0.006445697926162566,0.9976852079941063,203.4886846220218,21.353876316063747,-134.13738837706453,8.260813034603395,-35.94622802734375,4381.2578125,True
1599564775.273328,0.0,10,0.5,0.5,-0.07567676391601562,-0.001,-0.001,-0.2505,-0.06719283105732636,10,1,100,0.70395866347652,-10,-1,-100,6484.85682717571,-0.06769548528521835,-0.006445697926162566,0.9976852079941063,203.4886846220218,21.353876316063747,-134.13738837706453,8.260813034603395,-35.94622802734375,4381.2578125,True
1599564775.3282137,0.0,10,0.5,0.5,-0.07465034790039063,-0.001,-0.001,-0.2505,-0.015228924587438394,10,1,100,0.7067689928330748,-10,-1,-100,6485.175660152454,-0.06765949238365501,-0.005967439051048891,0.9976906247738114,203.08343005221172,21.31694810170884,-127.75151644241878,7.880826149844063,-35.9718017578125,4381.2578125,True
1599564775.3960006,0.0,10,0.5,0.5,-0.07573717346191407,-0.001,-0.001,-0.2505,0.012726653973860691,10,1,100,0.6968524955044103,-10,-1,-100,6485.493978094542,-0.06747511295889716,-0.005273091687614606,0.9977070229457333,202.6976025220106,21.28176964730256,-121.3965417341208,7.5008334669661725,-36.014434814453125,4381.2578125,True
1599564775.4528453,0.0,10,0.5,0.5,-0.07643426818847658,-0.001,-0.001,-0.2505,0.0449292735396259,10,1,100,0.6900988525421415,-10,-1,-100,6485.750259712804,-0.06718475753404313,-0.0043443220050877395,0.9977310936426749,202.32581682536926,21.247745688778284,-115.06773828179485,7.120827216058843,-36.075592041015625,4381.2578125,True
1599564775.511692,0.0,10,0.5,0.5,-0.05156375427246094,-0.001,-0.001,-0.2505,0.22568951877049642,10,1,100,0.6119286329606792,-10,-1,-100,6486.261286386638,-0.06614908264476795,-0.0018527615897780498,0.9978080307051788,201.6053351983053,21.181075143470217,-102.47425819910143,6.360741846760668,-36.2568359375,4381.2578125,True
1599564775.5670488,0.0,10,0.5,0.5,-0.10233966674804687,-0.001,-0.001,-0.2505,-0.02365179891945038,10,1,100,0.7221110301526742,-10,-1,-100,6486.261286386638,-0.06614908264476795,-0.0018527615897780498,0.9978080307051788,201.6053351983053,21.181075143470217,-102.47425819910143,6.360741846760668,-36.2568359375,4381.2578125,True
1599564775.6199074,0.0,10,0.5,0.5,-0.04271296081542969,-0.001,-0.001,-0.2505,0.33279093099549695,10,1,100,0.5432362783782609,-10,-1,-100,6486.77222482604,-0.06446281300805076,0.0013893111927121785,0.9979191427933922,200.88251138153424,21.1126970945956,-89.94737591251426,5.6005009846659615,-36.515289306640625,4381.2578125,True
1599564775.6783402,0.0,10,0.5,0.5,-0.10739846496582031,-0.001,-0.001,-0.2505,0.00942283245596732,10,1,100,0.7115837274720523,-10,-1,-100,6486.77222482604,-0.06446281300805076,0.0013893111927121785,0.9979191427933922,200.88251138153424,21.1126970945956,-89.94737591251426,5.6005009846659615,-36.515289306640625,4381.2578125,True
1599564775.7401743,0.0,10,0.5,0.5,-0.06762956237792969,-0.001,-0.001,-0.2505,0.22772244341217804,10,1,100,0.5957442315430603,-10,-1,-100,6486.965410718578,-0.06341252624331208,0.0033662672211713447,0.997981723159516,200.5045401227863,21.076222089835117,-83.70270706622175,5.220299346650011,-36.673187255859375,4381.2578125,True
1599564775.7970796,0.0,10,0.5,0.5,-0.06234036865234375,-0.001,-0.001,-0.2505,0.24850500876105916,10,1,100,0.5558265528477714,-10,-1,-100,6487.158091812162,-0.062098586473448916,0.005343049264500885,0.9980557185761507,200.11566272701202,21.038243840236106,-77.47205191791775,4.84003090601291,-36.8511962890625,4381.2578125,True
1599564775.8529758,0.0,10,0.5,0.5,-0.0014303375244140576,-0.001,-0.001,-0.2505,0.5627490052252729,10,1,100,0.3489503443827599,-10,-1,-100,6487.544404115295,-0.05902849105917482,0.009986170410665443,0.9982063482285645,199.2596207386803,20.953066846747525,-65.04218252229472,4.079254720383705,-37.27032470703125,4381.2578125,True
1599564775.907825,0.0,10,0.5,0.5,-0.046077880859374996,-0.001,-0.001,-0.2505,0.3740966508563431,10,1,100,0.4539277659187173,-10,-1,-100,6487.674565652502,-0.05719971450945802,0.012477230168973109,0.9982847847119313,198.78233355167478,20.90485691810683,-58.8448703287341,3.698727265129804,-37.509735107421875,4381.2578125,True
1599564775.962678,0.0,10,0.5,0.5,-0.07462007141113282,-0.001,-0.001,-0.2505,0.2601220620113345,10,1,100,0.52401598207663,-10,-1,-100,6487.771138098207,-0.056183864863763956,0.013688929442279979,0.998326593124562,198.52904100876492,20.879116418870865,-55.75130416794993,3.508424374654838,-37.63409423828125,4381.2578125,True
1599564776.0294993,0.0,10,0.5,0.5,-0.04246643676757812,-0.001,-0.001,-0.2505,0.42117790023328294,10,1,100,0.38682728469841543,-10,-1,-100,6487.838792661438,-0.05402345998069025,0.016237380019004034,0.998407638823859,198.06986939567412,20.832472755450652,-49.59582971598055,3.127734174838562,-37.885162353515625,4381.2578125,True
1599564776.0893395,0.0,10,0.5,0.5,-0.004433749389648439,-0.001,-0.001,-0.2505,0.6077503782862888,10,1,100,0.20419242692117467,-10,-1,-100,6488.0030276465695,-0.05041110346860592,0.020231556069213143,0.9985236125330716,197.29887856578952,20.753572912196727,-40.38995595325394,2.556471223688612,-38.285736083984375,4381.2578125,True
1599564776.1481814,0.0,10,0.5,0.5,-0.10457457885742188,-0.001,-0.001,-0.2505,0.21054120503127688,10,1,100,0.5638542802119915,-10,-1,-100,6488.0030276465695,-0.05041110346860592,0.020231556069213143,0.9985236125330716,197.29887856578952,20.753572912196727,-40.38995595325394,2.556471223688612,-38.285736083984375,4381.2578125,True
1599564776.2015524,0.0,10,0.5,0.5,-0.031925750732421876,-0.001,-0.001,-0.2505,0.5032387516725425,10,1,100,0.26674523135544786,-10,-1,-100,6488.132712880033,-0.04772441936916112,0.02287236620444375,0.9985986354186983,196.72668598111935,20.694731761415998,-34.27628030935426,2.175465542242866,-38.57379150390625,4381.2578125,True
1599564776.254411,0.0,10,0.5,0.5,-0.02949002685546874,-0.001,-0.001,-0.2505,0.5255118401105076,10,1,100,0.2145626751112697,-10,-1,-100,6488.199908580515,-0.04482280912529959,0.02545605526316968,0.99867056882265,196.10398201055386,20.630540850021717,-28.18592676272574,1.7943198033930372,-38.86956787109375,4381.2578125,True
1599564776.3192759,0.0,10,0.5,0.5,0.05745592651367186,-0.001,-0.001,-0.2505,0.8671905830756186,10,1,100,-0.19939997566256717,-10,-1,-100,6488.273331635166,-0.03843953935464763,0.030889155030721118,0.9987833908889809,194.8677757158236,20.503193034418995,-16.107167338638035,1.0315808127507893,-39.508941650390625,4381.2578125,True
1599564776.3671098,0.0,10,0.5,0.5,-0.060033660888671875,-0.001,-0.001,-0.2505,0.4714870071381324,10,1,100,0.24689631235433687,-10,-1,-100,6488.306473179022,-0.036716508533198314,0.032206010594691144,0.9988066233674595,194.5210107223677,20.467424944040303,-13.105872573886385,0.8407986553187481,-39.677490234375,4381.2578125,True
1599564776.4179764,0.0,10,0.5,0.5,0.028190771484375016,-0.001,-0.001,-0.2505,0.752968141573165,10,1,100,-0.19173255954771928,-10,-1,-100,6488.346361831878,-0.031185656294535014,0.03593765054650038,0.9988673285850713,193.39418077885466,20.35115995323885,-4.157350880626767,0.2682085702989081,-40.195037841796875,4381.2578125,True
1599564776.4708323,0.0,10,0.5,0.5,-0.10116243286132813,-0.001,-0.001,-0.2505,0.38239929440582476,10,1,100,0.3585683808421467,-10,-1,-100,6488.346361831878,-0.031185656294535014,0.03593765054650038,0.9988673285850713,193.39418077885466,20.35115995323885,-4.157350880626767,0.2682085702989081,-40.195037841796875,4381.2578125,True
1599564776.5324771,0.0,10,0.5,0.5,0.07723913879394533,-0.001,-0.001,-0.2505,0.897274185624722,10,1,100,-0.5246128831580437,-10,-1,-100,6488.35650631343,-0.02318038485654685,0.04059700372087442,0.9989066788478239,191.75151929129314,20.181810411928506,7.6224788551213924,-0.49583095375054853,-40.9033203125,4381.2578125,True
1599564776.5883284,0.0,10,0.5,0.5,-0.09985869750976563,-0.001,-0.001,-0.2505,0.43402967561517736,10,1,100,0.272613912640051,-10,-1,-100,6488.35650631343,-0.02318038485654685,0.04059700372087442,0.9989066788478239,191.75151929129314,20.181810411928506,7.6224788551213924,-0.49583095375054853,-40.9033203125,4381.2578125,True
1599564776.6391919,0.0,10,0.5,0.5,0.08747168273925782,-0.001,-0.001,-0.2505,0.877526847943113,10,1,100,-0.6887448683322471,-10,-1,-100,6488.24227312475,-0.014468798734184269,0.04460665108412668,0.9988998451007232,191.98175711102974,20.21005959696453,19.40560530468291,-1.2604270754548978,-41.64697265625,4381.2578125,True
1599564776.7010295,0.0,10,0.5,0.5,-0.09847710571289063,-0.001,-0.001,-0.2505,0.4789996211193783,10,1,100,0.17881951343056873,-10,-1,-100,6488.24227312475,-0.014468798734184269,0.04460665108412668,0.9988998451007232,191.98175711102974,20.21005959696453,19.40560530468291,-1.2604270754548978,-41.64697265625,4381.2578125,True
1599564776.7558799,0.0,10,0.5,0.5,-0.00287676086425781,-0.001,-0.001,-0.2505,0.6999069278979443,10,1,100,-0.33620235782568075,-10,-1,-100,6488.185211145086,-0.009819456545249657,0.046592740150281906,0.9988657041056341,192.03310138798273,20.21762276258926,25.304700142842094,-1.6428985257455362,-42.0257568359375,4381.2578125,True
1599564776.8127282,0.0,10,0.5,0.5,-0.0001802612304687562,-0.001,-0.001,-0.2505,0.6440233379141886,10,1,100,-0.3850856093779833,-10,-1,-100,6488.1271995608695,-0.005182847689218997,0.047868679052438114,0.9988401912496339,192.03011216830276,20.219537513767822,31.201659962686435,-2.025477479952915,-42.412384033203125,4381.2578125,True
1599564776.86459,0.0,10,0.5,0.5,0.0009597564697265693,-0.001,-0.001,-0.2505,0.6861047743620035,10,1,100,-0.4664053566931185,-10,-1,-100,6488.008194305119,-0.0002645146276317861,0.04939080690957001,0.9987794942953291,191.99821442232272,20.218454779009377,37.09638831586493,-2.4081575326725697,-42.80059814453125,4381.2578125,True
1599564776.9304667,0.0,10,0.5,0.5,0.05798218994140625,-0.001,-0.001,-0.2505,0.6939929540678011,10,1,100,-0.7957893984517296,-10,-1,-100,6487.85807730665,0.007166393058228491,0.05082945054803458,0.9986816358417332,191.87288156804212,20.208674604136334,45.922925300219305,-2.982353764246885,-43.412689208984375,4381.2578125,True
1599564777.3653407,0.0,10,0.5,0.5,-0.04313499755859375,-0.001,-0.001,-0.2505,0.5946396538784008,10,1,100,-0.3353589668264364,-10,-1,-100,6487.767855120241,0.009696138938242962,0.051217166181322965,0.9986404692270613,191.85202457214697,20.207598816628728,48.869651769248804,-3.1737962429509547,-43.618804931640625,4381.2578125,True
1599564777.412215,0.0,10,0.5,0.5,0.01017261962890624,-0.001,-0.001,-0.2505,0.616114631108245,10,1,100,-0.6486733737550044,-10,-1,-100,6487.647004244849,0.014807055441940576,0.05175097153582479,0.9985502431296273,191.78037038394075,20.202235187787885,54.75533156627253,-3.556741521231194,-44.034698486328125,4381.2578125,True
1599564777.4600873,0.0,10,0.5,0.5,-0.09362474975585938,-0.001,-0.001,-0.2505,0.5643154277569953,10,1,100,-0.1421809945588907,-10,-1,-100,6487.647004244849,0.014807055441940576,0.05175097153582479,0.9985502431296273,191.78037038394075,20.202235187787885,54.75533156627253,-3.556741521231194,-44.034698486328125,4381.2578125,True
1599564777.5139444,0.0,10,0.5,0.5,0.11752533264160156,-0.001,-0.001,-0.2505,0.5797027637344528,10,1,100,-1.273563308377229,-10,-1,-100,6487.345324054128,0.02505781516729048,0.051880716437606264,0.9983388689022195,191.5823239369954,20.185353392075804,66.50536310128278,-4.322848337031141,-44.873016357421875,4381.2578125,True
1599564777.5714939,0.0,10,0.5,0.5,0.01793190002441407,-0.001,-0.001,-0.2505,0.5417054060216405,10,1,100,-0.8349225798810607,-10,-1,-100,6487.161579797161,0.03034519174943992,0.05164297790300319,0.998204474128923,191.5032792693915,20.17872557465003,72.38425875272347,-4.70599257104157,-45.3104248046875,4381.2578125,True
1599564777.6233578,0.0,10,0.5,0.5,-0.03512869567871094,-0.001,-0.001,-0.2505,0.5248425614542687,10,1,100,-0.5859226721403423,-10,-1,-100,6487.070937547134,0.03284752221694777,0.051267156714734405,0.9981446382797405,191.4530096205704,20.17417961588222,75.31902188749015,-4.89758327053419,-45.533660888671875,4381.2578125,True
1599564777.6757314,0.0,10,0.5,0.5,-0.035875296020507805,-0.001,-0.001,-0.2505,0.5156772536371339,10,1,100,-0.6175745599837981,-10,-1,-100,6486.917310995865,0.03536709769421256,0.050836125103761,0.9980805863181202,191.37197196839938,20.166316118608247,78.24056619754894,-5.089184625411754,-45.751495361328125,4381.2578125,True
1599564777.7275896,0.0,10,0.5,0.5,0.017988473510742176,-0.001,-0.001,-0.2505,0.448133954046364,10,1,100,-0.9295337346670015,-10,-1,-100,6486.734093367588,0.04045253466681017,0.049826390565729566,0.9979383363926961,191.19797102143292,20.149069304021047,84.07365050845955,-5.472415230823857,-46.18115234375,4381.2578125,True
1599564777.7839506,0.0,10,0.5,0.5,0.02049889526367188,-0.001,-0.001,-0.2505,0.40588421833033295,10,1,100,-0.9826629400887109,-10,-1,-100,6486.489373128279,0.045517165252681686,0.04852258183236135,0.9977844189601689,190.9934239472425,20.12819709120932,89.88526372677418,-5.855675143552487,-46.617584228515625,4381.2578125,True
1599564777.8348145,0.0,10,0.5,0.5,0.02534649047851563,-0.001,-0.001,-0.2505,0.35399744586164916,10,1,100,-1.0271929534874924,-10,-1,-100,6486.243703097105,0.05048457347084443,0.046866392529654216,0.9976246032916005,190.7563973139667,20.103433960317766,95.67160620992566,-6.238955961843169,-47.070037841796875,4381.2578125,True
1599564777.8963141,0.0,10,0.5,0.5,0.08703645935058593,-0.001,-0.001,-0.2505,0.1712831308370395,10,1,100,-1.3203714043178743,-10,-1,-100,6485.843976549222,0.05762627760362075,0.04370332944334981,0.9973811864704069,190.3077900937592,20.05545294257647,104.27950806995806,-6.813898823781182,-47.7645263671875,4381.2578125,True
1599564777.9611397,0.0,10,0.5,0.5,-0.02804121704101562,-0.001,-0.001,-0.2505,0.3530428171936736,10,1,100,-0.8662610373976394,-10,-1,-100,6485.68990579166,0.059946886989901284,0.04248700909244063,0.997296959184474,190.1339715602632,20.036595024279997,107.12770550061059,-7.005548233945769,-47.997039794921875,4381.2578125,True
1599564778.0120046,0.0,10,0.5,0.5,0.031172109985351554,-0.001,-0.001,-0.2505,0.17838805035247485,10,1,100,-1.1333035876703526,-10,-1,-100,6485.443775944412,0.06444315522395556,0.03980191449527901,0.9971273175213342,189.758548737415,19.995446721976485,112.79419054943321,-7.3888444347857725,-48.462493896484375,4381.2578125,True
1599564778.0678556,0.0,10,0.5,0.5,0.14432971801757813,-0.001,-0.001,-0.2505,-0.24700591104840186,10,1,100,-1.6115284648188681,-10,-1,-100,6484.764024192817,0.07283304695646231,0.03350456435516098,0.9967812154321573,188.92617538616506,19.90236980968786,124.01488108150704,-8.155403271710108,-49.374267578125,4381.2578125,True
1599564778.1237056,0.0,10,0.5,0.5,0.03206838684082031,-0.001,-0.001,-0.2505,-0.015563506967720575,10,1,100,-1.1965908311781854,-10,-1,-100,6484.454916538438,0.07664462892401754,0.029900428039498453,0.9966100367045048,188.47219049964585,19.850664623494634,129.5660532738285,-8.53865401259151,-49.834259033203125,4381.2578125,True
1599564778.1845515,0.0,10,0.5,0.5,-0.026586239624023428,-0.001,-0.001,-0.2505,0.1404377773646469,10,1,100,-1.0147174513512467,-10,-1,-100,6484.301825912087,0.07841421868048232,0.02806189992815723,0.9965258351298031,188.23486111121636,19.8234057103793,132.3251914977474,-8.73026980468103,-50.057403564453125,4381.2578125,True
1599564778.2423985,0.0,10,0.5,0.5,0.07877093505859374,-0.001,-0.001,-0.2505,-0.33827187244678797,10,1,100,-1.3906814305191157,-10,-1,-100,6483.713146170601,0.08339936672746408,0.02205970051663996,0.9962720086615774,187.51517560609457,19.73950696839077,140.55815747063815,-9.305070838900697,-50.69677734375,4381.2578125,True
1599564778.3092196,0.0,10,0.5,0.5,-0.08089766845703125,-0.001,-0.001,-0.2505,0.2590704262462267,10,1,100,-0.8969698527242648,-10,-1,-100,6483.713146170601,0.08339936672746408,0.02205970051663996,0.9962720086615774,187.51517560609457,19.73950696839077,140.55815747063815,-9.305070838900697,-50.69677734375,4381.2578125,True
1599564778.3730478,0.0,10,0.5,0.5,0.027013961791992197,-0.001,-0.001,-0.2505,-0.2212971422844248,10,1,100,-1.2299602986621687,-10,-1,-100,6483.342005371349,0.08638751002502625,0.01771796506640594,0.996104046686681,187.03377117811507,19.682299459347664,146.0129090511475,-9.688227690454795,-51.124053955078125,4381.2578125,True
1599564778.4408667,0.0,10,0.5,0.5,0.1347763153076172,-0.001,-0.001,-0.2505,-0.804404523732993,10,1,100,-1.4861924419531474,-10,-1,-100,6482.534266862436,0.09139623219384407,0.008497960840993439,0.9957783455178737,186.0646111199763,19.5644055751423,156.83844143299464,-10.454420167273469,-51.976318359375,4381.2578125,True
1599564778.5096836,0.0,10,0.5,0.5,-0.0782252899169922,-0.001,-0.001,-0.2505,0.11375905563939093,10,1,100,-0.9894113909436646,-10,-1,-100,6482.534266862436,0.09139623219384407,0.008497960840993439,0.9957783455178737,186.0646111199763,19.5644055751423,156.83844143299464,-10.454420167273469,-51.976318359375,4381.2578125,True
1599564778.5904682,0.0,10,0.5,0.5,0.03248041992187499,-0.001,-0.001,-0.2505,-0.4240806064591789,10,1,100,-1.2083289446245984,-10,-1,-100,6482.0991418779595,0.09335569181404327,0.0036405142479176734,0.9956261655169233,185.5742482271278,19.5033925659696,162.20658373857268,-10.837450813476726,-52.414825439453125,4381.2578125,True
1599564778.6582859,0.0,10,0.5,0.5,0.13435827941894532,-0.001,-0.001,-0.2505,-1.0646452732528846,10,1,100,-1.3383361264505547,-10,-1,-100,6481.166321086697,0.09628853057189292,-0.006563346448598961,0.9953318247517766,184.65052500664498,19.384308610281686,172.91610745841393,-11.603370312086106,-53.254913330078125,4381.2578125,True
1599564778.727102,0.0,10,0.5,0.5,-0.07560449523925783,-0.001,-0.001,-0.2505,-0.0488957296956088,10,1,100,-1.0482367882003834,-10,-1,-100,6481.166321086697,0.09628853057189292,-0.006563346448598961,0.9953318247517766,184.65052500664498,19.384308610281686,172.91610745841393,-11.603370312086106,-53.254913330078125,4381.2578125,True
1599564778.7979136,0.0,10,0.5,0.5,0.13145289611816405,-0.001,-0.001,-0.2505,-1.1962272603995032,10,1,100,-1.1816217663406083,-10,-1,-100,6480.2314567219,0.09747979811533548,-0.016957207717903676,0.9950930318647627,183.82293522822482,19.271240276525724,183.62219651287717,-12.369092827077086,-54.07666015625,4381.2578125,True
1599564778.871715,0.0,10,0.5,0.5,-0.07397044372558594,-0.001,-0.001,-0.2505,-0.16152689704477216,10,1,100,-1.0645785289154837,-10,-1,-100,6480.2314567219,0.09747979811533548,-0.016957207717903676,0.9950930318647627,183.82293522822482,19.271240276525724,183.62219651287717,-12.369092827077086,-54.07666015625,4381.2578125,True
1599564778.9415283,0.0,10,0.5,0.5,0.027736062622070304,-0.001,-0.001,-0.2505,-0.7814104325268774,10,1,100,-1.0867061205955626,-10,-1,-100,6479.733220672701,0.09766362569475906,-0.022551586124426395,0.9949639401402579,183.50233209667707,19.222930696649154,189.0386014191162,-12.751878743519065,-54.479461669921875,4381.2578125,True
1599564779.0123425,0.0,10,0.5,0.5,0.12049638061523438,-0.001,-0.001,-0.2505,-1.4272089919567226,10,1,100,-0.9343594098229774,-10,-1,-100,6478.673172445269,0.09643280406996854,-0.03346772495549922,0.9947766712611962,183.0151333614702,19.13927146044797,199.9923319422523,-13.517299850598036,-55.24798583984375,4381.2578125,True
1599564779.086143,0.0,10,0.5,0.5,-0.023217901611328126,-0.001,-0.001,-0.2505,-0.6388463455198228,10,1,100,-0.9911934214453276,-10,-1,-100,6478.392521110829,0.09581869957368716,-0.03617407490207348,0.9947412794877805,182.9327087826506,19.121802441950006,202.7676377737119,-13.708624095725412,-55.440216064453125,4381.2578125,True
1599564779.168921,0.0,10,0.5,0.5,0.06829531860351562,-0.001,-0.001,-0.2505,-1.2707574066222787,10,1,100,-0.7821237530880547,-10,-1,-100,6477.55002547882,0.09335121560150282,-0.04433004628173742,0.9946458653924927,182.78819804788543,19.078419945096904,211.20370473178093,-14.282523746687083,-55.99383544921875,4381.2578125,True
1599564779.243722,0.0,10,0.5,0.5,-0.027233883666992177,-0.001,-0.001,-0.2505,-0.7665795097135624,10,1,100,-0.9172387668779298,-10,-1,-100,6477.268362530274,0.09233458940359987,-0.047113104830332014,0.9946128286689826,182.7969533828297,19.069326483628654,214.08175242480482,-14.473799715391987,-56.163818359375,4381.2578125,True
1599564779.3225174,0.0,10,0.5,0.5,-0.027412667846679693,-0.001,-0.001,-0.2505,-0.7975721308397417,10,1,100,-0.8934745844157171,-10,-1,-100,6476.986206036643,0.09119349269475002,-0.04987435364322752,0.994583478516913,182.83905278766323,19.063422742915268,217.00087395951203,-14.665063628243104,-56.33074951171875,4381.2578125,True
1599564779.3863502,0.0,10,0.5,0.5,0.049552182006835935,-0.001,-0.001,-0.2505,-1.4049656955659655,10,1,100,-0.5508246251551276,-10,-1,-100,6476.0806096470915,0.08704309805626234,-0.05785768963619716,0.9945229946214059,183.1184016279502,19.059857068292253,225.96262088000117,-15.238784479906377,-56.801483154296875,4381.2578125,True
1599564779.4601502,0.0,10,0.5,0.5,-0.02892996826171875,-0.001,-0.001,-0.2505,-0.9054401081071768,10,1,100,-0.7880678871115453,-10,-1,-100,6475.736906377366,0.08543517388680064,-0.06052749488637366,0.9945035210725561,183.27451440816853,19.064614438127748,229.03707068077904,-15.430001448279242,-56.956878662109375,4381.2578125,True
1599564779.532955,0.0,10,0.5,0.5,0.08729114990234374,-0.001,-0.001,-0.2505,-1.7729546585801563,10,1,100,-0.12495623058452143,-10,-1,-100,6474.485610287404,0.07795500354312168,-0.07079202816498141,0.9944402979419531,184.18483459472375,19.110130980721483,241.7731739300312,-16.19475617538538,-57.572296142578125,4381.2578125,True
1599564779.6047635,0.0,10,0.5,0.5,-0.0288362762451172,-0.001,-0.001,-0.2505,-1.0299621324694526,10,1,100,-0.6332757745680313,-10,-1,-100,6474.141412304947,0.07579368526196564,-0.07332000379866653,0.9944242023992445,184.5628620652108,19.136275375015995,245.17863459645812,-16.385916641189212,-57.722137451171875,4381.2578125,True
1599564779.6646056,0.0,10,0.5,0.5,0.042128506469726545,-0.001,-0.001,-0.2505,-1.5672015611555024,10,1,100,-0.09306398095267787,-10,-1,-100,6473.108343350701,0.0689375488033691,-0.08045091936636185,0.9943717936154918,185.848979309952,19.22828555933767,255.68506225785538,-16.95932995531516,-58.152099609375,4381.2578125,True
1599564779.734417,0.0,10,0.5,0.5,-0.06520975036621095,-0.001,-0.001,-0.2505,-0.8598999377101635,10,1,100,-0.7758050191231938,-10,-1,-100,6473.108343350701,0.0689375488033691,-0.08045091936636185,0.9943717936154918,185.848979309952,19.22828555933767,255.68506225785538,-16.95932995531516,-58.152099609375,4381.2578125,True
1599564779.8082201,0.0,10,0.5,0.5,0.03624708862304686,-0.001,-0.001,-0.2505,-1.605267577021332,10,1,100,0.08084285324351492,-10,-1,-100,6472.075786668225,0.06117483655936865,-0.08718427681972624,0.9943120944891277,187.42144971732984,19.346493065987502,266.7356718402827,-17.532641049367914,-58.554351806640625,4381.2578125,True
1599564779.8660648,0.0,10,0.5,0.5,0.03333807373046875,-0.001,-0.001,-0.2505,-1.6301529892675062,10,1,100,0.24680786684114175,-10,-1,-100,6471.042303420254,0.05264054699849375,-0.09348536897782485,0.9942280717213628,189.24239725832768,19.486720332448893,278.3168841950085,-18.10585040520856,-58.94219970703125,4381.2578125,True
1599564779.9308915,0.0,10,0.5,0.5,-0.03155590209960939,-0.001,-0.001,-0.2505,-1.211303621987895,10,1,100,-0.28567575326526673,-10,-1,-100,6470.634185179719,0.04975987182466847,-0.09536122639837613,0.994198265767845,189.88910766887085,19.5367224254084,282.27855617424854,-18.296897600998896,-59.069305419921875,4381.2578125,True
1599564779.9927251,0.0,10,0.5,0.5,0.027814739990234386,-0.001,-0.001,-0.2505,-1.6127430320745166,10,1,100,0.4315834228502895,-10,-1,-100,6469.538295266102,0.04065924253612128,-0.10067213858005745,0.9940885003409438,192.03711193906375,19.70544306597596,294.61760361014103,-18.869972409175787,-59.430816650390625,4381.2578125,True
1599564780.055559,0.0,10,0.5,0.5,-0.03316838989257813,-0.001,-0.001,-0.2505,-1.272309616302806,10,1,100,-0.11655484759055879,-10,-1,-100,6469.130694278865,0.037414958596139386,-0.1023592115246278,0.9940436170960034,192.81412629153698,19.76704063406138,298.87482506790263,-19.060974253077795,-59.54718017578125,4381.2578125,True
1599564780.1233768,0.0,10,0.5,0.5,0.02268332824707031,-0.001,-0.001,-0.2505,-1.5889857506976672,10,1,100,0.6311443776551292,-10,-1,-100,6467.970924327383,0.027713460366158797,-0.10673133222156465,0.9939015981659067,195.2622040912937,19.96101800966919,311.9950068965149,-19.63390951402567,-59.884063720703125,4381.2578125,True
1599564780.1822226,0.0,10,0.5,0.5,-0.06141328125000001,-0.001,-0.001,-0.2505,-1.1563940647375015,10,1,100,-0.33323327399086555,-10,-1,-100,6467.970924327383,0.027713460366158797,-0.10673133222156465,0.9939015981659067,195.2622040912937,19.96101800966919,311.9950068965149,-19.63390951402567,-59.884063720703125,4381.2578125,True
1599564780.2401009,0.0,10,0.5,0.5,0.046300988769531246,-0.001,-0.001,-0.2505,-1.6716419562802756,10,1,100,1.1613349792563765,-10,-1,-100,6466.404147368274,0.014172150375890199,-0.11138273186826571,0.9936765254323388,198.88472721803714,20.24945314072375,330.48123134678855,-20.39765583535132,-60.311431884765625,4381.2578125,True
1599564780.2994833,0.0,10,0.5,0.5,-0.006969165039062496,-0.001,-0.001,-0.2505,-1.4236586119473604,10,1,100,0.6084028356918326,-10,-1,-100,6465.526565794949,0.006944543994311032,-0.1133222804821769,0.9935340125305374,200.8503355456426,20.406347807422485,340.17453622716846,-20.77945446109367,-60.524261474609375,4381.2578125,True
1599564780.801666,0.0,10,0.5,0.5,-0.06004576110839844,-0.001,-0.001,-0.2505,-1.2329908866678236,10,1,100,-0.10815850198517826,-10,-1,-100,6465.526565794949,0.006944543994311032,-0.1133222804821769,0.9935340125305374,200.8503355456426,20.406347807422485,340.17453622716846,-20.77945446109367,-60.524261474609375,4381.2578125,True
1599564780.854558,0.0,10,0.5,0.5,-0.009167767333984375,-0.001,-0.001,-0.2505,-1.3730040097263814,10,1,100,0.6464649513933554,-10,-1,-100,6464.710519512766,0.00014068805887805218,-0.11456524399987668,0.9934157161400854,202.86071428009816,20.565689991121985,350.081818512911,-21.16120280681251,-60.725616455078125,4381.2578125,True
1599564780.9078913,0.0,10,0.5,0.5,0.03894422607421875,-0.001,-0.001,-0.2505,-1.4364581061816653,10,1,100,1.5634950741454394,-10,-1,-100,6462.955898165936,-0.014325787408806794,-0.11624717446812438,0.9931169952444149,207.21594063996622,20.911798322515214,370.91665411794435,-21.924537740652223,-61.116607666015625,4381.2578125,True
1599564780.963742,0.0,10,0.5,0.5,-0.009038848876953123,-0.001,-0.001,-0.2505,-1.2826014785905284,10,1,100,0.9053438376708818,-10,-1,-100,6462.078861647053,-0.02143305719838131,-0.11635681300162078,0.9929761911180129,209.46630508946984,21.088907863585177,381.69517214232303,-22.30612145266646,-61.31439208984375,4381.2578125,True
1599564781.017157,0.0,10,0.5,0.5,-0.0342593017578125,-0.001,-0.001,-0.2505,-1.2611911947436019,10,1,100,0.5915610847788255,-10,-1,-100,6461.608847374795,-0.024976920227136677,-0.1162427585547334,0.9929067300303455,210.63871574007115,21.1813777279488,387.2305392104796,-22.496891797116863,-61.41021728515625,4381.2578125,True
1599564781.0739598,0.0,10,0.5,0.5,0.010243447875976558,-0.001,-0.001,-0.2505,-1.1671005611504586,10,1,100,1.4170087604290558,-10,-1,-100,6460.260298013105,-0.035643014429404325,-0.1152695481885575,0.9926945687283633,214.27898947372648,21.467749865400158,404.3163014105436,-23.069111265347466,-61.68182373046875,4381.2578125,True
1599564781.129359,0.0,10,0.5,0.5,-0.05758050231933594,-0.001,-0.001,-0.2505,-1.2657126314344411,10,1,100,0.35770513750484534,-10,-1,-100,6460.260298013105,-0.035643014429404325,-0.1152695481885575,0.9926945687283633,214.27898947372648,21.467749865400158,404.3163014105436,-23.069111265347466,-61.68182373046875,4381.2578125,True
1599564781.1861713,0.0,10,0.5,0.5,0.03201501464843749,-0.001,-0.001,-0.2505,-0.9440672900074557,10,1,100,1.9058545002668827,-10,-1,-100,6458.379171768436,-0.049659502750154155,-0.11233773761561491,0.9924284188262711,219.3089366691321,21.85933915767849,428.0414616730527,-23.831842843124882,-62.037353515625,4381.2578125,True
1599564781.2370346,0.0,10,0.5,0.5,-0.03437999267578125,-0.001,-0.001,-0.2505,-1.1310306990056425,10,1,100,0.9036779386068919,-10,-1,-100,6457.909130206215,-0.053220729787457434,-0.11136702589892876,0.9923532332104924,220.6083761532468,21.96002269809937,434.16685600033674,-24.02248288937959,-62.126617431640625,4381.2578125,True
1599564781.2898939,0.0,10,0.5,0.5,0.010905667114257805,-0.001,-0.001,-0.2505,-0.8157264459454132,10,1,100,1.6861978209358837,-10,-1,-100,6456.436513212859,-0.06351075976966639,-0.10761817267954775,0.992161636177591,224.57453305853116,22.265531313614634,452.9577261466869,-24.594294122981957,-62.394866943359375,4381.2578125,True
1599564781.3577466,0.0,10,0.5,0.5,-0.05610377502441406,-0.001,-0.001,-0.2505,-1.1900413571032513,10,1,100,0.6642403530913861,-10,-1,-100,6456.436513212859,-0.06351075976966639,-0.10761817267954775,0.992161636177591,224.57453305853116,22.265531313614634,452.9577261466869,-24.594294122981957,-62.394866943359375,4381.2578125,True
1599564781.4055846,0.0,10,0.5,0.5,0.010227908325195316,-0.001,-0.001,-0.2505,-0.6637295958535656,10,1,100,1.7826750913681921,-10,-1,-100,6454.96143306396,-0.07361429802330646,-0.10283870585709845,0.9919703300523524,228.70546814949276,22.58249122633066,472.51529286112645,-25.16593396105986,-62.657867431640625,4381.2578125,True
1599564781.4574454,0.0,10,0.5,0.5,-0.012448831176757817,-0.001,-0.001,-0.2505,-0.7278114487615126,10,1,100,1.497953525897991,-10,-1,-100,6453.896820594207,-0.08014390494408453,-0.09908695880689204,0.9918461216815414,231.51487052709192,22.796659065288054,485.9175900962355,-25.546925809666064,-62.828887939453125,4381.2578125,True
1599564781.5103045,0.0,10,0.5,0.5,0.00959880065917968,-0.001,-0.001,-0.2505,-0.39496588222600215,10,1,100,1.902592311659891,-10,-1,-100,6452.36022600974,-0.08969861099941344,-0.09266601107970997,0.9916487127886322,235.80773904025477,23.12196130575831,506.57105049627137,-26.118251500246437,-63.086212158203125,4381.2578125,True
1599564781.5691469,0.0,10,0.5,0.5,-0.012017459106445305,-0.001,-0.001,-0.2505,-0.5038048628820365,10,1,100,1.6287350376562832,-10,-1,-100,6451.2951549306745,-0.09583303623713325,-0.08783976824452831,0.9915140968641443,238.71758823790128,23.34120287614106,520.7044537173309,-26.499022213880245,-63.255859375,4381.2578125,True
1599564781.622006,0.0,10,0.5,0.5,-0.03297719726562501,-0.001,-0.001,-0.2505,-0.709128013353618,10,1,100,1.34781154860003,-10,-1,-100,6450.762627152028,-0.0987915219018126,-0.08534466975347774,0.991441638496686,240.1840950607385,23.45130644974894,527.8761693449858,-26.689372167634236,-63.34075927734375,4381.2578125,True
1599564781.6728723,0.0,10,0.5,0.5,0.009118627929687505,-0.001,-0.001,-0.2505,-0.06312371795179927,10,1,100,2.0022637006151416,-10,-1,-100,6449.164106803946,-0.10737321160850175,-0.07723083651108348,0.9912146040695093,244.60451352876774,23.781294917410573,549.7605670979319,-27.260273892604253,-63.592041015625,4381.2578125,True
1599564781.7317128,0.0,10,0.5,0.5,-0.03227642517089844,-0.001,-0.001,-0.2505,-0.5494141085550659,10,1,100,1.4553724430221702,-10,-1,-100,6448.568128236337,-0.11013779972993841,-0.07431002685227973,0.9911345443378822,246.08188210190096,23.890946065755696,557.1725385701371,-27.450523563747645,-63.676971435546875,4381.2578125,True
1599564781.789592,0.0,10,0.5,0.5,-0.031543997192382815,-0.001,-0.001,-0.2505,-0.507378308540274,10,1,100,1.4822317515180816,-10,-1,-100,6448.0356345955515,-0.11284025692031659,-0.07130717235392671,0.9910511407536162,247.560465926612,24.00038781208344,564.6418295487746,-27.640746833018532,-63.763824462890625,4381.2578125,True
1599564781.8414195,0.0,10,0.5,0.5,-0.008927975463867185,-0.001,-0.001,-0.2505,-0.14286594060645819,10,1,100,1.778325186970255,-10,-1,-100,6446.907199479523,-0.11793459511828663,-0.06529997387743018,0.9908720122628819,250.5298145997957,24.219604022176327,579.7729810045064,-28.021113059597276,-63.939605712890625,4381.2578125,True
1599564781.8942773,0.0,10,0.5,0.5,0.038581555175781254,-0.001,-0.001,-0.2505,0.7260426450235549,10,1,100,2.3309355006361483,-10,-1,-100,6444.653379051364,-0.12754006557217787,-0.05197818648288969,0.9904704941611308,256.42307396186817,24.650988834527332,610.5909625933202,-28.781509250878038,-64.302978515625,4381.2578125,True
1599564781.955116,0.0,10,0.5,0.5,-0.0039449951171875025,-0.001,-0.001,-0.2505,0.16431026555550465,10,1,100,1.8528853979917894,-10,-1,-100,6443.466482084594,-0.13186819295549163,-0.04502471047046848,0.9902441896490499,259.363003531994,24.865245083856305,626.3157786723476,-29.161531893250295,-64.49505615234375,4381.2578125,True
1599564782.0144777,0.0,10,0.5,0.5,-0.05187672424316406,-0.001,-0.001,-0.2505,-0.5252559361479534,10,1,100,1.425898049153632,-10,-1,-100,6443.466482084594,-0.13186819295549163,-0.04502471047046848,0.9902441896490499,259.363003531994,24.865245083856305,626.3157786723476,-29.161531893250295,-64.49505615234375,4381.2578125,True
1599564782.0663388,0.0,10,0.5,0.5,-0.003855416870117187,-0.001,-0.001,-0.2505,0.23732775429726216,10,1,100,1.8584069870274278,-10,-1,-100,6442.273276895983,-0.13575307031069758,-0.03814127896490872,0.9900082558949393,262.276263463573,25.076809591582464,642.1976896825851,-29.54143241778106,-64.68533325195312,4381.2578125,True
1599564782.1202657,0.0,10,0.5,0.5,0.01891394653320312,-0.001,-0.001,-0.2505,0.7666814465968848,10,1,100,2.0677772675838355,-10,-1,-100,6440.486701107584,-0.1411462754938419,-0.027120875604507648,0.9896171921610202,266.51210371975566,25.38166911798775,666.1012681695465,-30.11104624233367,-64.96475219726562,4381.2578125,True
1599564782.1740935,0.0,10,0.5,0.5,-0.0010593750000000013,-0.001,-0.001,-0.2505,0.4880107479806738,10,1,100,1.876533995100829,-10,-1,-100,6439.294562611845,-0.14426942023843967,-0.019690896075781335,0.9893425104562106,269.2788780105788,25.580110411174648,682.1633179371049,-30.490625833342307,-65.1629638671875,4381.2578125,True
1599564782.2279484,0.0,10,0.5,0.5,-0.025116687011718746,-0.001,-0.001,-0.2505,0.1607304756334883,10,1,100,1.7240568248170283,-10,-1,-100,6438.6992387793725,-0.14568114309609706,-0.015971329683438826,0.9892026694132792,270.6540255282251,25.678897829023764,690.2535782432794,-30.68036531859625,-65.26400756835938,4381.2578125,True
1599564782.2788126,0.0,10,0.5,0.5,0.025370196533203125,-0.001,-0.001,-0.2505,1.0216572254646574,10,1,100,1.9856543837140226,-10,-1,-100,6436.793159186374,-0.1493078617462241,-0.004818989334505591,0.9887790146248879,274.6456422338026,25.964434457397054,714.4967471688769,-31.24937785907953,-65.56472778320312,4381.2578125,True
1599564782.3366585,0.0,10,0.5,0.5,-0.024696658325195308,-0.001,-0.001,-0.2505,0.3270561294523588,10,1,100,1.7398593992123708,-10,-1,-100,6436.207604366937,-0.15033476969449158,-0.001058227196966979,0.98863458222748,275.92534409727267,26.055562623607344,722.548771006185,-31.4389786952592,-65.6644287109375,4381.2578125,True
1599564782.3921914,0.0,10,0.5,0.5,0.05323513183593749,-0.001,-0.001,-0.2505,1.5937510330531683,10,1,100,1.9740051183471614,-10,-1,-100,6433.629531965707,-0.15336283390071087,0.013812193010660063,0.988073410482328,280.8226677779799,26.40411516437008,754.6669551385118,-32.19702198919017,-66.07284545898438,4381.2578125,True
1599564782.450111,0.0,10,0.5,0.5,0.002717208862304678,-0.001,-0.001,-0.2505,0.9441545142509455,10,1,100,1.780431172634237,-10,-1,-100,6432.317270724918,-0.15432364891008143,0.021353413785857086,0.9877895743055642,283.0910408140436,26.565023319004354,770.5279896826702,-32.575822592571534,-66.27792358398438,4381.2578125,True
1599564782.5035136,0.0,10,0.5,0.5,-0.02261506652832031,-0.001,-0.001,-0.2505,0.5908081498889314,10,1,100,1.7142954406408273,-10,-1,-100,6431.659414413269,-0.15457153446108013,0.02493016426886448,0.9876670125319943,284.1867268656288,26.64290202126799,778.421720295673,-32.76516659706128,-66.38067626953125,4381.2578125,True
1599564782.5593946,0.0,10,0.5,0.5,0.026306130981445325,-0.001,-0.001,-0.2505,1.4155096661399864,10,1,100,1.7064531075645426,-10,-1,-100,6429.685750957928,-0.15470495162356218,0.03561544678775413,0.9873185493513529,287.2763975416261,26.862781207772624,801.8189681008175,-33.33296889336271,-66.67678833007812,4381.2578125,True
1599564782.6157308,0.0,10,0.5,0.5,0.0022905700683593724,-0.001,-0.001,-0.2505,1.1348429247374268,10,1,100,1.6493168229019988,-10,-1,-100,6428.3108151783235,-0.15428605849373359,0.042704514921941245,0.9871029006946287,289.1415510542807,26.99543896949472,817.0781739364113,-33.71130960661676,-66.8753662109375,4381.2578125,True
1599564782.6815884,0.0,10,0.5,0.5,-0.047234185791015626,-0.001,-0.001,-0.2505,0.4340206907074001,10,1,100,1.693059434703162,-10,-1,-100,6428.3108151783235,-0.15428605849373359,0.042704514921941245,0.9871029006946287,289.1415510542807,26.99543896949472,817.0781739364113,-33.71130960661676,-66.8753662109375,4381.2578125,True
1599564782.7344122,0.0,10,0.5,0.5,0.0030296905517578146,-0.001,-0.001,-0.2505,1.1847133064120876,10,1,100,1.5903633529194021,-10,-1,-100,6426.988046798739,-0.15334051249297223,0.049465515618777996,0.9869345722959355,290.86019391958496,27.118207956987582,832.0734755096643,-34.08949305735094,-67.074462890625,4381.2578125,True
1599564782.7932563,0.0,10,0.5,0.5,0.002744522094726566,-0.001,-0.001,-0.2505,1.2460349504772092,10,1,100,1.5335477510518039,-10,-1,-100,6425.61342751584,-0.15195617330052508,0.05610647991495382,0.9867934861496672,292.4071023646032,27.2290566594814,846.7161889698862,-34.4675177174606,-67.2708740234375,4381.2578125,True
1599564782.8471131,0.0,10,0.5,0.5,0.03082596130371093,-0.001,-0.001,-0.2505,1.6715069018255577,10,1,100,1.358551732384635,-10,-1,-100,6423.521583106951,-0.14910110565568574,0.06594612173319102,0.9866204788674332,294.3993413034854,27.37293846847504,867.9605814824997,-35.034254214005216,-67.57736206054688,4381.2578125,True
1599564782.9049563,0.0,10,0.5,0.5,0.0069189941406249955,-0.001,-0.001,-0.2505,1.382362501405525,10,1,100,1.3681253088932435,-10,-1,-100,6422.080848805257,-0.14659281008871963,0.07219833328134481,0.9865586392615943,295.6318716451633,27.46581925533515,881.9833754575616,-35.411875289586376,-67.78677368164062,4381.2578125,True
1599564782.9657948,0.0,10,0.5,0.5,0.032507525634765624,-0.001,-0.001,-0.2505,1.7619192399546755,10,1,100,1.112089350302171,-10,-1,-100,6419.926150441985,-0.1419883435493823,0.0812660808933148,0.986526803686724,297.2264698669601,27.59078082727072,902.448635140254,-35.97799353484286,-68.09625244140625,4381.2578125,True
1599564783.0176563,0.0,10,0.5,0.5,0.0056343353271484375,-0.001,-0.001,-0.2505,1.497165297005858,10,1,100,1.1696703459885291,-10,-1,-100,6418.484673415427,-0.1383362689201801,0.08704131207022313,0.986553032884871,298.0514704748803,27.65843051620144,915.4796224301915,-36.35519609357118,-68.29684448242188,4381.2578125,True
1599564783.070514,0.0,10,0.5,0.5,0.004563186645507811,-0.001,-0.001,-0.2505,1.5372089637753716,10,1,100,1.0803881223909433,-10,-1,-100,6417.040657033911,-0.13421907847909997,0.09259583929414958,0.9866160598316012,298.674456360709,27.71266261844404,927.9597321226513,-36.73223106092353,-68.4915771484375,4381.2578125,True
1599564783.1293569,0.0,10,0.5,0.5,0.0038330841064453114,-0.001,-0.001,-0.2505,1.5749157787651016,10,1,100,0.9861940650138219,-10,-1,-100,6415.546742310631,-0.12963837069830964,0.09792668447487546,0.9867138680035088,299.0922607828314,27.753320805477678,939.8561763799715,-37.109099214949985,-68.68179321289062,4381.2578125,True
1599564783.1852086,0.0,10,0.5,0.5,0.0038323669433593666,-0.001,-0.001,-0.2505,1.6096453988062323,10,1,100,0.8870407452895237,-10,-1,-100,6414.043465099996,-0.12459548488275685,0.10303198460528461,0.9868436427799122,299.2928854767878,27.779384482304273,951.1075148855942,-37.48580209852382,-68.87045288085938,4381.2578125,True
1599564783.242056,0.0,10,0.5,0.5,0.004020980834960941,-0.001,-0.001,-0.2505,1.6414244895203685,10,1,100,0.7836211970239174,-10,-1,-100,6412.532299256767,-0.11909785695130423,0.10790722421243658,0.9870013837033734,299.2685460447297,27.79017836987755,961.6639536788505,-37.86234151456923,-69.05831909179688,4381.2578125,True
1599564783.3098738,0.0,10,0.5,0.5,0.004312014770507813,-0.001,-0.001,-0.2505,1.6696319282101477,10,1,100,0.6795439343436606,-10,-1,-100,6411.0288862054,-0.113185845717929,0.11253641628949046,0.9871800845528821,299.01464969931976,27.78529922067783,971.484885458408,-38.23872009311737,-69.2457275390625,4381.2578125,True
1599564783.366723,0.0,10,0.5,0.5,-0.0424166748046875,-0.001,-0.001,-0.2505,1.2130198105718308,10,1,100,1.2667295910036793,-10,-1,-100,6411.0288862054,-0.113185845717929,0.11253641628949046,0.9871800845528821,299.01464969931976,27.78529922067783,971.484885458408,-38.23872009311737,-69.2457275390625,4381.2578125,True
1599564783.8071053,0.0,10,0.5,0.5,0.004821932983398433,-0.001,-0.001,-0.2505,1.7000553423511018,10,1,100,0.5687596740665808,-10,-1,-100,6409.472207807354,-0.10687591040721228,0.1169127120907797,0.9873747806816862,298.5328461543864,27.76484034026485,980.5493965181726,-38.6149407072718,-69.43276977539062,4381.2578125,True
1599564783.8519888,0.0,10,0.5,0.5,0.005148464965820311,-0.001,-0.001,-0.2505,1.7195781922804905,10,1,100,0.4613730525377737,-10,-1,-100,6407.9101325781085,-0.10020175010652473,0.12102231000916656,0.9875794700962727,297.82840162448974,27.729197727913633,988.8488207939648,-38.99100702455377,-69.61962890625,4381.2578125,True
1599564783.9138207,0.0,10,0.5,0.5,0.00668523559570313,-0.001,-0.001,-0.2505,1.7382318282438605,10,1,100,0.3440237553611122,-10,-1,-100,6406.346574321389,-0.09310969354973202,0.12488350119215996,0.9877928406791896,296.89816437376913,27.677912043424445,996.3470433254495,-39.36692307363211,-69.81112670898438,4381.2578125,True
1599564783.9721828,0.0,10,0.5,0.5,0.007547106933593749,-0.001,-0.001,-0.2505,1.7465128397915983,10,1,100,0.24325600006708403,-10,-1,-100,6404.776674307068,-0.08579073404088353,0.1284293047177708,0.9880009431384347,295.7444524672112,27.61098391812436,1003.025793681361,-39.74269318089395,-70.00460815429688,4381.2578125,True
1599564784.0330524,0.0,10,0.5,0.5,0.007988116455078124,-0.001,-0.001,-0.2505,1.7533648841084588,10,1,100,0.13429793271695734,-10,-1,-100,6403.155036097742,-0.07819437527045583,0.13167742833243617,0.9882037717717026,294.3845652589258,27.529739386007183,1008.918834082365,-40.11832311042729,-70.19839477539062,4381.2578125,True
1599564784.0988426,0.0,10,0.5,0.5,0.008421661376953125,-0.001,-0.001,-0.2505,1.7544282130287083,10,1,100,0.02976274385337896,-10,-1,-100,6401.5300091052195,-0.07038920621967872,0.13460440589137215,0.9883961824908037,292.83334008612394,27.43523283006276,1014.0537189985939,-40.49381757212467,-70.3924560546875,4381.2578125,True
1599564784.1557305,0.0,10,0.5,0.5,0.008894241333007806,-0.001,-0.001,-0.2505,1.7504573940008519,10,1,100,-0.07196312089465273,-10,-1,-100,6399.905507645803,-0.0624226802798798,0.13719585284340935,0.9885750891810119,291.1003954435765,27.32799797081106,1018.441825419208,-40.869181381124285,-70.58694458007812,4381.2578125,True
1599564784.2155707,0.0,10,0.5,0.5,-0.03965348510742188,-0.001,-0.001,-0.2505,1.4947290856209448,10,1,100,0.718472192624951,-10,-1,-100,6399.905507645803,-0.0624226802798798,0.13719585284340935,0.9885750891810119,291.1003954435765,27.32799797081106,1018.441825419208,-40.869181381124285,-70.58694458007812,4381.2578125,True
1599564784.271421,0.0,10,0.5,0.5,0.03425776977539062,-0.001,-0.001,-0.2505,1.8530384304263936,10,1,100,-0.6251394133985002,-10,-1,-100,6397.427329525934,-0.05025955220391336,0.14042658449743073,0.9888146195210952,288.1826228038187,27.14444687526208,1023.6566372627577,-41.431992395350676,-70.88021850585938,4381.2578125,True
1599564784.3332608,0.0,10,0.5,0.5,0.010837036132812491,-0.001,-0.001,-0.2505,1.7266544045832923,10,1,100,-0.33912683232198926,-10,-1,-100,6395.802447000984,-0.04185948313874307,0.1421893128859602,0.9889539842542604,286.04047764215744,27.007690516393108,1026.2474181168807,-41.80705076289823,-71.07855224609375,4381.2578125,True
1599564784.3921037,0.0,10,0.5,0.5,0.040054269409179694,-0.001,-0.001,-0.2505,1.7611068579096059,10,1,100,-0.8781912863907478,-10,-1,-100,6393.273175655748,-0.029387312917580625,0.14407804018159306,0.989129872249805,282.4501421582855,26.77192562959624,1028.461175471217,-42.36943013175735,-71.39154052734375,4381.2578125,True
1599564784.4464695,0.0,10,0.5,0.5,-0.038153417968750006,-0.001,-0.001,-0.2505,1.5749506611554016,10,1,100,0.3612768759765334,-10,-1,-100,6393.273175655748,-0.029387312917580625,0.14407804018159306,0.989129872249805,282.4501421582855,26.77192562959624,1028.461175471217,-42.36943013175735,-71.39154052734375,4381.2578125,True
1599564784.503318,0.0,10,0.5,0.5,0.014368438720703126,-0.001,-0.001,-0.2505,1.668137798561061,10,1,100,-0.5757809424956282,-10,-1,-100,6391.519996009418,-0.02093298223800547,0.14490423622148776,0.9892242276550299,279.8842347843488,26.601007094846416,1029.0789566186854,-42.744219427472146,-71.59967041015625,4381.2578125,True
1599564784.57066,0.0,10,0.5,0.5,0.06764502563476563,-0.001,-0.001,-0.2505,1.6388082727404685,10,1,100,-1.5782352621507683,-10,-1,-100,6388.076241467381,-0.004199621179082895,0.14537049080936,0.9893683760782926,274.4431825154729,26.23333552368027,1028.5772113314333,-43.49351695342141,-72.01809692382812,4381.2578125,True
1599564784.623519,0.0,10,0.5,0.5,-0.03696946716308594,-0.001,-0.001,-0.2505,1.5938769325624051,10,1,100,0.08694173245530898,-10,-1,-100,6388.076241467381,-0.004199621179082895,0.14537049080936,0.9893683760782926,274.4431825154729,26.23333552368027,1028.5772113314333,-43.49351695342141,-72.01809692382812,4381.2578125,True
1599564784.6783729,0.0,10,0.5,0.5,0.07364286193847656,-0.001,-0.001,-0.2505,1.459943339027317,10,1,100,-1.6825246883281781,-10,-1,-100,6384.577431812533,0.011819169233411194,0.14414046444769835,0.9894866516267077,268.4557487179722,25.8141782310392,1025.1688131057495,-44.24248894528263,-72.45718383789062,4381.2578125,True
1599564784.7431989,0.0,10,0.5,0.5,-0.008956481933593753,-0.001,-0.001,-0.2505,1.529470957704699,10,1,100,-0.5478523281866409,-10,-1,-100,6383.673077698564,0.015991767811252673,0.14364565878093094,0.9894999687092787,266.9122981004896,25.704480262663573,1023.9972139015873,-44.42968818891935,-72.56527709960938,4381.2578125,True
1599564784.7990496,0.0,10,0.5,0.5,0.04824548645019531,-0.001,-0.001,-0.2505,1.3323220914387597,10,1,100,-1.429653351456261,-10,-1,-100,6381.01228691556,0.027730126322567716,0.14139770956696338,0.9895644131754896,262.0662511014423,25.35233006325263,1019.2958994259826,-44.99119861647137,-72.89959716796875,4381.2578125,True
1599564784.8549347,0.0,10,0.5,0.5,0.020658544921875,-0.001,-0.001,-0.2505,1.3406684759335254,10,1,100,-1.1206360739099144,-10,-1,-100,6379.197250404395,0.03551015625824874,0.1394261757253784,0.9895955589659398,258.72889372960907,25.104685092723532,1015.4402578497904,-45.36547609418035,-73.12197875976562,4381.2578125,True
1599564784.908794,0.0,10,0.5,0.5,-0.03482386779785156,-0.001,-0.001,-0.2505,1.5377218192148165,10,1,100,-0.3512100511880279,-10,-1,-100,6379.197250404395,0.03551015625824874,0.1394261757253784,0.9895955589659398,258.72889372960907,25.104685092723532,1015.4402578497904,-45.36547609418035,-73.12197875976562,4381.2578125,True
1599564784.964645,0.0,10,0.5,0.5,0.07875042419433594,-0.001,-0.001,-0.2505,0.9538568467519956,10,1,100,-1.9572322298953757,-10,-1,-100,6375.501685250085,0.05004002184704555,0.13412082428222602,0.98970076321452,251.80907722143988,24.576986105262282,1006.0024679334564,-46.11391893698071,-73.57275390625,4381.2578125,True
1599564785.0204585,0.0,10,0.5,0.5,0.025455194091796876,-0.001,-0.001,-0.2505,1.1287434433056405,10,1,100,-1.301665231262593,-10,-1,-100,6373.5947960241465,0.05721708390859496,0.1308967076806655,0.9897435310358736,248.26335523891214,24.299473392235964,1000.5525225594341,-46.48810144442991,-73.8089599609375,4381.2578125,True
1599564785.0733197,0.0,10,0.5,0.5,-0.033472680664062504,-0.001,-0.001,-0.2505,1.4498369702115999,10,1,100,-0.5926194647902694,-10,-1,-100,6373.5947960241465,0.05721708390859496,0.1308967076806655,0.9897435310358736,248.26335523891214,24.299473392235964,1000.5525225594341,-46.48810144442991,-73.8089599609375,4381.2578125,True
1599564785.132159,0.0,10,0.5,0.5,0.0867418701171875,-0.001,-0.001,-0.2505,0.5894720079371946,10,1,100,-2.0456182151453213,-10,-1,-100,6369.785827944288,0.07035511794259852,0.12308794214048074,0.9898987402148287,240.88580847459932,23.703663378132003,987.6940172441381,-47.23643487684035,-74.28607177734375,4381.2578125,True
1599564785.2020085,0.0,10,0.5,0.5,-0.032547842407226565,-0.001,-0.001,-0.2505,1.368120307088782,10,1,100,-0.7392702856571333,-10,-1,-100,6369.785827944288,0.07035511794259852,0.12308794214048074,0.9898987402148287,240.88580847459932,23.703663378132003,987.6940172441381,-47.23643487684035,-74.28607177734375,4381.2578125,True
1599564785.2548304,0.0,10,0.5,0.5,0.09227000427246093,-0.001,-0.001,-0.2505,0.3471995212075023,10,1,100,-2.0990673501136783,-10,-1,-100,6365.956276684534,0.08264913240209286,0.11382710094944082,0.9900568226130393,233.24331002089684,23.062536181418018,972.6488068019052,-47.98478455653769,-74.78146362304688,4381.2578125,True
1599564785.3101907,0.0,10,0.5,0.5,-0.031593225097656254,-0.001,-0.001,-0.2505,1.2702523039616693,10,1,100,-0.876748900481113,-10,-1,-100,6365.956276684534,0.08264913240209286,0.11382710094944082,0.9900568226130393,233.24331002089684,23.062536181418018,972.6488068019052,-47.98478455653769,-74.78146362304688,4381.2578125,True
1599564785.3660421,0.0,10,0.5,0.5,0.09559874572753906,-0.001,-0.001,-0.2505,0.09437495408290708,10,1,100,-2.116048346939329,-10,-1,-100,6362.074466507183,0.09385489340208497,0.1031644146394807,0.9902264198336543,225.41133306284573,22.38177755116595,955.688635868131,-48.733217871272316,-75.28631591796875,4381.2578125,True
1599564785.4189007,0.0,10,0.5,0.5,0.0015692596435546886,-0.001,-0.001,-0.2505,0.831012622860607,10,1,100,-1.2939095559217784,-10,-1,-100,6361.105111444835,0.09650784642275505,0.1002025270692483,0.9902755622289073,223.44839171287268,22.207766686864026,951.2506505458987,-48.920346332731484,-75.41433715820312,4381.2578125,True
1599564785.4727566,0.0,10,0.5,0.5,0.034262011718750006,-0.001,-0.001,-0.2505,0.47303912487801547,10,1,100,-1.5829719177858184,-10,-1,-100,6359.163961735438,0.10149200910379684,0.09429125534070086,0.9903577794183017,219.49094791198843,21.85269175902296,942.0274517629128,-49.29463337562361,-75.67092895507812,4381.2578125,True
1599564785.5325959,0.0,10,0.5,0.5,0.0010180969238281247,-0.001,-0.001,-0.2505,0.7317848984995716,10,1,100,-1.3488300089885437,-10,-1,-100,6358.131628502626,0.1038345197767273,0.09131063800256704,0.9903942446774923,217.50419531972594,21.672385429993636,937.2747931386225,-49.481793875488606,-75.79330444335938,4381.2578125,True
1599564785.5894785,0.0,10,0.5,0.5,0.03435808715820313,-0.001,-0.001,-0.2505,0.30912865400447465,10,1,100,-1.6178003691281286,-10,-1,-100,6356.189998848131,0.10836035593708786,0.0847975747327442,0.990488467666652,213.59075068185632,21.31398457109994,927.8173931184077,-49.856150803745585,-76.046875,4381.2578125,True
1599564785.642303,0.0,10,0.5,0.5,0.034113983154296874,-0.001,-0.001,-0.2505,0.2340655039817281,10,1,100,-1.6253166066663327,-10,-1,-100,6354.185871630674,0.11249658799500978,0.07823612415356021,0.9905673256103845,209.66234781325304,20.949239049895503,918.0157253281293,-50.23056135272846,-76.29757690429688,4381.2578125,True
1599564785.720129,0.0,10,0.5,0.5,0.0366858428955078,-0.001,-0.001,-0.2505,0.11621034007566122,10,1,100,-1.638223617385801,-10,-1,-100,6352.120708450326,0.11632388132321904,0.07124763175836243,0.9906525776490599,205.75955180904973,20.582413478666474,908.0484357584992,-50.60503115299754,-76.5565185546875,4381.2578125,True
1599564785.776944,0.0,10,0.5,0.5,0.03691854858398438,-0.001,-0.001,-0.2505,0.03161381608700753,10,1,100,-1.6388245949197062,-10,-1,-100,6350.116106424597,0.1197669125415533,0.06417252509954226,0.9907258822109234,201.85684633291615,20.21123156383426,897.805886505403,-50.97956601573966,-76.814453125,4381.2578125,True
1599564785.8417695,0.0,10,0.5,0.5,0.06914312744140624,-0.001,-0.001,-0.2505,-0.48037040689093913,10,1,100,-1.7946475505826567,-10,-1,-100,6347.016228529508,0.12426859343279405,0.05313976739812525,0.9908246473554784,196.11233390329784,19.6579835457263,882.420728206976,-51.54149932082953,-77.198486328125,4381.2578125,True
1599564785.8976219,0.0,10,0.5,0.5,0.004844592285156248,-0.001,-0.001,-0.2505,0.2042610455882069,10,1,100,-1.493355468081311,-10,-1,-100,6345.981484977412,0.12558417580115458,0.04938908026805777,0.9908528314228204,194.2357692107361,19.47561962655997,877.3312116260805,-51.72884681326123,-77.32437133789062,4381.2578125,True
1599564785.9555035,0.0,10,0.5,0.5,0.035710546875000006,-0.001,-0.001,-0.2505,-0.2596258248848725,10,1,100,-1.6240072979701714,-10,-1,-100,6343.914949162747,0.12792887182283647,0.041820791346133326,0.9909012186718307,190.55763909398235,19.116089237918906,867.2973769949033,-52.10359784390458,-77.57147216796875,4381.2578125,True
1599564786.0093303,0.0,10,0.5,0.5,0.03206459655761719,-0.001,-0.001,-0.2505,-0.3277133469322767,10,1,100,-1.604099865652226,-10,-1,-100,6341.784967413987,0.12984846065927436,0.034377318146946834,0.9909377262277588,187.0039954697688,18.76632590493415,857.5790873816508,-52.478424337081734,-77.80218505859375,4381.2578125,True
1599564786.0617056,0.0,10,0.5,0.5,0.03264922180175781,-0.001,-0.001,-0.2505,-0.4468122829199644,10,1,100,-1.5904947902328792,-10,-1,-100,6339.7175079882145,0.13143954926655427,0.026587647828636773,0.9909675786177596,183.63637590134218,18.432993627949184,848.4747132918028,-52.85332435011766,-78.03335571289062,4381.2578125,True
1599564786.121548,0.0,10,0.5,0.5,0.030368923950195314,-0.001,-0.001,-0.2505,-0.5067677958614158,10,1,100,-1.5605620835932572,-10,-1,-100,6337.58708121907,0.1325866529035733,0.019022627973898126,0.9909888592193123,180.38071336848952,18.10914939116632,839.6599099659354,-53.228297712608885,-78.25360107421875,4381.2578125,True
1599564786.182383,0.0,10,0.5,0.5,0.029131311035156246,-0.001,-0.001,-0.2505,-0.5944672777625497,10,1,100,-1.5321399808404306,-10,-1,-100,6335.4566725248005,0.1333449533366314,0.011413785552333293,0.9910039600924999,177.33120754603408,17.804677827187643,831.5891271212938,-53.603342465465964,-78.46707153320312,4381.2578125,True
1599564786.2372377,0.0,10,0.5,0.5,0.027123071289062498,-0.001,-0.001,-0.2505,-0.6703540513327421,10,1,100,-1.4970323626396702,-10,-1,-100,6333.26279802341,0.13369244393085955,0.0038734888540729786,0.9910153008505426,176.14853087337733,17.68674019484245,832.1298937145175,-53.978409138127034,-78.67074584960938,4381.2578125,True
1599564786.2961135,0.0,10,0.5,0.5,0.070913427734375,-0.001,-0.001,-0.2505,-1.550266828243446,10,1,100,-1.4036066213479044,-10,-1,-100,6328.939017486991,0.13313975059029104,-0.010912930993261447,0.9910371914059994,182.03199967890671,18.276901842556853,872.5186664588014,-54.72813459007068,-79.04678344726562,4381.2578125,True
1599564786.3519657,0.0,10,0.5,0.5,-0.023034963989257813,-0.001,-0.001,-0.2505,-0.07984089978516595,10,1,100,-1.4605575423314627,-10,-1,-100,6328.939017486991,0.13313975059029104,-0.010912930993261447,0.9910371914059994,182.03199967890671,18.276901842556853,872.5186664588014,-54.72813459007068,-79.04678344726562,4381.2578125,True
1599564786.40582,0.0,10,0.5,0.5,0.020238302612304686,-0.001,-0.001,-0.2505,-0.8768635921982123,10,1,100,-1.3615077387037742,-10,-1,-100,6326.745617090492,0.13222714070454047,-0.018090332327841137,0.9910543492348792,186.5435280590097,18.72797634641504,900.6065168571761,-55.102643966906584,-79.21795654296875,4381.2578125,True
1599564786.8865025,0.0,10,0.5,0.5,0.015223452758789065,-0.001,-0.001,-0.2505,-0.9230317049492631,10,1,100,-1.3033124205545643,-10,-1,-100,6324.489687544177,0.13086121196407283,-0.02497019811180862,0.9910861881842322,191.2277618083615,19.194743005150254,929.8545831362561,-55.476899149925615,-79.36770629882812,4381.2578125,True
1599564786.937366,0.0,10,0.5,0.5,0.04940201416015626,-0.001,-0.001,-0.2505,-1.7449763653949133,10,1,100,-1.0071248770844443,-10,-1,-100,6320.0388037706725,0.1269220472264985,-0.03862924639366691,0.9911602167414165,202.15121270452337,20.27750730637488,997.0244150260019,-56.22455505965837,-79.65194702148438,4381.2578125,True
1599564786.989259,0.0,10,0.5,0.5,-0.005221099853515623,-0.001,-0.001,-0.2505,-0.7452781340810106,10,1,100,-1.262009565027943,-10,-1,-100,6318.87955302163,0.12565903719600485,-0.041885260876375514,0.9911888978859131,204.958453646637,20.554024309460402,1014.4394885140259,-56.41128341343435,-79.717041015625,4381.2578125,True
1599564787.0390954,0.0,10,0.5,0.5,-0.005517132568359378,-0.001,-0.001,-0.2505,-0.7807721667614212,10,1,100,-1.237153629908316,-10,-1,-100,6317.781326795346,0.12428869177943518,-0.045098617449547684,0.9912206796671948,207.78305596111892,20.83141579927215,1032.0419319919679,-56.59793642401607,-79.77993774414062,4381.2578125,True
1599564787.0949523,0.0,10,0.5,0.5,0.00706209716796875,-0.001,-0.001,-0.2505,-1.1502748261507048,10,1,100,-1.0347721749113838,-10,-1,-100,6315.524775231257,0.12120959258938802,-0.05131379645117207,0.9912997170170494,213.47871495924264,21.387989375940993,1067.7858921187128,-56.971014805900936,-79.89190673828125,4381.2578125,True
1599564787.1589844,0.0,10,0.5,0.5,0.02915840759277344,-0.001,-0.001,-0.2505,-1.8420674792217726,10,1,100,-0.5212058180667032,-10,-1,-100,6310.88361116522,0.1137519692274064,-0.0631890410947266,0.9914976725047903,225.05304612625915,22.506350725360203,1141.4512892612072,-57.71625381320582,-80.09063720703125,4381.2578125,True
1599564787.2158678,0.0,10,0.5,0.5,-0.02046121826171875,-0.001,-0.001,-0.2505,-0.6620032975310249,10,1,100,-1.2650088558539427,-10,-1,-100,6310.88361116522,0.1137519692274064,-0.0631890410947266,0.9914976725047903,225.05304612625915,22.506350725360203,1141.4512892612072,-57.71625381320582,-80.09063720703125,4381.2578125,True
1599564787.276675,0.0,10,0.5,0.5,0.021034591674804686,-0.001,-0.001,-0.2505,-1.8497536945503035,10,1,100,-0.2679614430867546,-10,-1,-100,6306.24229531514,0.10470602954288964,-0.07392580604040296,0.9917517948451822,236.90361044204244,23.631737499378794,1218.2581138210624,-58.460249910542686,-80.25506591796875,4381.2578125,True
1599564787.3305311,0.0,10,0.5,0.5,-0.0016672882080078152,-0.001,-0.001,-0.2505,-1.3492324763898536,10,1,100,-0.5947244923419902,-10,-1,-100,6303.921121477033,0.09947887002387419,-0.07907902412133451,0.9918923643030985,242.82904514443234,24.185717339220066,1257.3357856097139,-58.831780714002115,-80.32809448242188,4381.2578125,True
