Timestamp,Input Throttle,horizon,dT,dt,Input Roll,Roll P,Roll I,Roll D,Input Pitch,Pitch P,Pitch I,Pitch D,Input Yaw,Yaw P,Yaw I,Yaw D,Altitude,Direction X,Direction Y,Direction Z,Drag X,Drag Y,Drag Z,Vertical Velocity,Roll,Mass,Has Fuel
1599566313.7880812,0.0,10,0.5,0.5,-2.7433141860961916,-0.05075,-0.001,-0.001,-0.06720193357704142,10,1,100,0.6903604890674038,-10,-1,-100,6483.617967251106,-0.06725831516699125,-0.007002486098453551,0.9977110224054552,205.07312141620994,21.498766577736593,-156.7651536657186,9.590823434798548,-35.944610595703125,4381.2578125,True
1599566313.8469272,0.0,10,0.5,0.5,-2.748890272521973,-0.05075,-0.001,-0.001,-0.06731676801459445,10,1,100,0.6999217837848393,-10,-1,-100,6483.997883081553,-0.06744570426333878,-0.0069715011750009475,0.9976985893283549,204.61192280587517,21.456717952196847,-150.26654390631515,9.210801015450944,-35.941253662109375,4381.2578125,True
1599566313.909756,0.0,10,0.5,0.5,-2.7543812301635744,-0.05075,-0.001,-0.001,-0.06930590773288653,10,1,100,0.6986050802870889,-10,-1,-100,6484.156591932173,-0.0675427736788903,-0.0069550784227785075,0.9976921371885694,204.38122147463127,21.435615509002897,-147.02551938582113,9.0207971966251,-35.939544677734375,4381.2578125,True
1599566313.9738715,0.0,10,0.5,0.5,-2.7523108123779303,-0.05075,-0.001,-0.001,-0.037118901163682425,10,1,100,0.6998051755415184,-10,-1,-100,6484.538935817662,-0.06758052603745116,-0.006641216698835544,0.9976917192907137,203.94226230609144,21.395589394418923,-140.5757125092486,8.640800192445305,-36.083984375,4381.2578125,True
1599566314.0296307,0.0,10,0.5,0.5,-2.6996754821777342,-0.05075,-0.001,-0.001,0.03716628486304556,10,1,100,0.6915049773600228,-10,-1,-100,6485.175624083262,-0.06747795317445883,-0.005674530516190927,0.9977046284040213,203.31777462864406,21.340455352678546,-127.89875843670139,7.880819550175138,-37.20806884765625,4381.2578125,True
1599566314.0914645,0.0,10,0.5,0.5,-2.6820894256591794,-0.05075,-0.001,-0.001,-0.019306406982161767,10,1,100,0.6966664216055058,-10,-1,-100,6485.335756037151,-0.0673702837438116,-0.005303954339182987,0.9977139434410278,203.19922335487894,21.33006460792199,-124.76104302862082,7.6908214705757985,-37.671630859375,4381.2578125,True
1599566314.1503081,0.0,10,0.5,0.5,-2.659998310852051,-0.05075,-0.001,-0.001,-0.010016460641959171,10,1,100,0.6987022692869658,-10,-1,-100,6485.493928830139,-0.06722966443692392,-0.004877791071229215,0.9977256032466862,203.08664351176353,21.320020859627896,-121.6291718222428,7.50082021250768,-38.208587646484375,4381.2578125,True
1599566314.2221172,0.0,10,0.5,0.5,-2.5595327835083013,-0.05075,-0.001,-0.001,0.11990044714122453,10,1,100,0.646488546264876,-10,-1,-100,6485.909322251799,-0.0665660406173371,-0.003304872764995725,0.9977765481572204,202.70990416684336,21.283890397394114,-112.2245841542225,6.930787386725795,-40.260406494140625,4381.2578125,True
1599566314.305892,0.0,10,0.5,0.5,-2.5235625366210934,-0.05075,-0.001,-0.001,0.03172050952727538,10,1,100,0.68705293960108,-10,-1,-100,6486.005455950857,-0.06627099886566246,-0.0026735783987602763,0.9977980791161571,202.54282038941994,21.266790125912312,-109.07238801356402,6.740763052219851,-41.09124755859375,4381.2578125,True
1599566314.3677266,0.0,10,0.5,0.5,-2.431881871032715,-0.05075,-0.001,-0.001,0.12263256368268287,10,1,100,0.6436804983971581,-10,-1,-100,6486.2611811104,-0.06554823780877198,-0.0012707706840436545,0.9978485925540174,202.08578998525266,21.21853920761153,-102.7168746451605,6.360687029768462,-42.973419189453125,4381.2578125,True
1599566314.4375398,0.0,10,0.5,0.5,-2.325816325378418,-0.05075,-0.001,-0.001,0.15100247777670242,10,1,100,0.6210826134636025,-10,-1,-100,6486.517857773579,-0.06462615767783124,0.00026357261262985543,0.9979095100625497,201.3799749611942,21.142585536208692,-96.26498545388282,5.980564294855389,-45.150238037109375,4381.2578125,True
1599566314.504871,0.0,10,0.5,0.5,-2.1992279083251955,-0.05075,-0.001,-0.001,0.19028069366679792,10,1,100,0.5927202483008238,-10,-1,-100,6486.772069840808,-0.06353245620048636,0.0020088993370511116,0.9979777509206239,200.3091642244612,21.02675999552647,-89.68725211140945,5.6003789789666545,-47.62066650390625,4381.2578125,True
1599566315.170525,0.0,10,0.5,0.5,-2.0574219360351567,-0.05075,-0.001,-0.001,0.21892499866075152,10,1,100,0.5572725189391265,-10,-1,-100,6486.965224720188,-0.06221948754330546,0.0038477987678226934,0.9980550735377737,198.74983450976,20.858206058371184,-82.96523267787488,5.220111846376396,-50.38604736328125,4381.2578125,True
1599566315.2667804,0.0,10,0.5,0.5,-1.900389372253418,-0.05075,-0.001,-0.001,0.25118412398074114,10,1,100,0.5205569156531722,-10,-1,-100,6487.157871727599,-0.06069694081248286,0.005802969501259854,0.9981393724931269,196.55860069635702,20.62202028020437,-76.08784263228652,4.8397427695235855,-53.446014404296875,4381.2578125,True
1599566315.362043,0.0,10,0.5,0.5,-1.7280881591796875,-0.05075,-0.001,-0.001,0.2789100919195318,10,1,100,0.4804051694763044,-10,-1,-100,6487.351966112852,-0.05895404935124075,0.007821138798191647,0.9982300585801807,193.5835995007265,20.302642543062653,-69.05837434642247,4.4592450102957715,-56.80108642578125,4381.2578125,True
1599566315.460779,0.0,10,0.5,0.5,-1.6369410064697267,-0.05075,-0.001,-0.001,0.19176346739453298,10,1,100,0.548753001131009,-10,-1,-100,6487.447542643407,-0.05799869549590272,0.008851327327616575,0.9982774190200402,191.7508632227998,20.1065549123674,-65.49137320105433,4.26893768967188,-58.58935546875,4381.2578125,True
1599566315.5445545,0.0,10,0.5,0.5,-1.3360554107666016,-0.05075,-0.001,-0.001,0.4293293904849562,10,1,100,0.2926424165816661,-10,-1,-100,6487.675174935954,-0.054810433575372214,0.01193468412640054,0.9984254502395674,184.62952757664166,19.34838517348361,-54.63561900523914,3.6977321359199067,-64.397705078125,4381.2578125,True
1599566315.6193545,0.0,10,0.5,0.5,-1.2313970779418948,-0.05075,-0.001,-0.001,0.2352538812649223,10,1,100,0.48113806550780597,-10,-1,-100,6487.770741656423,-0.0536369006659108,0.012958128882205992,0.9984764242498805,181.6582609429651,19.03342095974438,-50.99085389941056,3.50722387542455,-66.48171997070312,4381.2578125,True
1599566315.6991458,0.0,10,0.5,0.5,-1.119195639038086,-0.05075,-0.001,-0.001,0.24883746005710736,10,1,100,0.4613396411869487,-10,-1,-100,6487.805272765923,-0.05240182065434847,0.013997235738642446,0.9985279798702621,178.3774549559694,18.686423880794315,-47.352864758419976,3.316651293858968,-68.63946533203125,4381.2578125,True
1599566315.7689538,0.0,10,0.5,0.5,-0.7605099777221679,-0.05075,-0.001,-0.001,0.463029368489703,10,1,100,0.1500289014067625,-10,-1,-100,6487.969409034122,-0.048461531353300405,0.016873922217392454,0.9986825074706648,166.39203025773273,17.424249886574575,-36.558223491510255,2.7444603355914907,-75.55905151367188,4381.2578125,True
1599566315.8447523,0.0,10,0.5,0.5,-0.37157978363037114,-0.05075,-0.001,-0.001,0.47859717446257594,10,1,100,0.05658491117265668,-10,-1,-100,6488.133548704791,-0.044045492719724355,0.019614122077008182,0.9988369640668214,151.16048771168067,15.826154476384168,-26.284314672587442,2.171633409079781,-83.14535522460938,4381.2578125,True
1599566315.9185574,0.0,10,0.5,0.5,-0.37536657562255865,-0.05075,-0.001,-0.001,0.20651224344744099,10,1,100,0.496130708034451,-10,-1,-100,6488.133548704791,-0.044045492719724355,0.019614122077008182,0.9988369640668214,151.16048771168067,15.826154476384168,-26.284314672587442,2.171633409079781,-83.14535522460938,4381.2578125,True
1599566315.9823854,0.0,10,0.5,0.5,-0.09267396240234375,-0.05075,-0.001,-0.001,0.3821885841332797,10,1,100,0.16020834868830325,-10,-1,-100,6488.200667539495,-0.04100936851065098,0.0211951749716613,0.9989339298733816,147.98630192394793,15.493455273735579,-21.2073293592332,1.7895594867357487,-88.53936767578125,4381.2578125,True
1599566316.0472138,0.0,10,0.5,0.5,0.4882230766296387,-0.05075,-0.001,-0.001,0.5331385841369688,10,1,100,-0.2581073555793444,-10,-1,-100,6488.273423147621,-0.03446566748090807,0.023988998170285093,0.9991179338455904,164.12476952641796,17.18111479148983,-13.480282541257901,1.025432767270956,-99.79493713378906,4381.2578125,True
1599566316.1319845,0.0,10,0.5,0.5,0.4816023994445801,-0.05075,-0.001,-0.001,0.25557486714149213,10,1,100,0.393639620061789,-10,-1,-100,6488.273423147621,-0.03446566748090807,0.023988998170285093,0.9991179338455904,164.12476952641796,17.18111479148983,-13.480282541257901,1.025432767270956,-99.79493713378906,4381.2578125,True
1599566316.1938188,0.0,10,0.5,0.5,0.7840423027038574,-0.05075,-0.001,-0.001,0.37784765728073494,10,1,100,0.028260457532639893,-10,-1,-100,6488.341072115931,-0.031166300895979743,0.025085870935758123,0.9991993598716201,171.51141216258986,17.952204133788495,-8.841151269948458,0.6434944966498839,-105.55610656738281,4381.2578125,True
1599566316.2600129,0.0,10,0.5,0.5,1.0784256462097168,-0.05075,-0.001,-0.001,0.3733954833465632,10,1,100,0.004147811368777399,-10,-1,-100,6488.34526968305,-0.02797206393964608,0.02602779501077919,0.9992697921611726,178.32699990786242,18.664502544518516,-3.737291946725691,0.26158525305700175,-111.26524353027344,4381.2578125,True
1599566316.323845,0.0,10,0.5,0.5,1.5073066596984863,-0.05075,-0.001,-0.001,0.3998938337662066,10,1,100,-0.24219267827492919,-10,-1,-100,6488.322057705722,-0.022853151682250626,0.027112171800172936,0.9993711340630498,185.9240445145275,19.45858987537079,4.639917892471019,-0.3114303280185231,-119.57255554199219,4381.2578125,True
1599566316.3871913,0.0,10,0.5,0.5,1.7774062324523927,-0.05075,-0.001,-0.001,0.35097500358847417,10,1,100,-0.09137605927761577,-10,-1,-100,6488.327768172952,-0.019598640483670025,0.027640384931716985,0.9994257863453487,189.31490038342042,19.812844973445838,10.523758145883736,-0.6936047034179942,-124.84980773925781,4381.2578125,True
1599566316.4609923,0.0,10,0.5,0.5,1.9089443504333496,-0.05075,-0.001,-0.001,0.3221595213340349,10,1,100,0.05261137487554282,-10,-1,-100,6488.298405442736,-0.0179787916865079,0.027846216895177515,0.9994505246654882,190.5543624086052,19.94225540654575,13.51257447624108,-0.8847375061553451,-127.38496398925781,4381.2578125,True
1599566316.5138528,0.0,10,0.5,0.5,2.2824638900756837,-0.05075,-0.001,-0.001,0.3570212803880286,10,1,100,-0.29782796138944073,-10,-1,-100,6488.211331085768,-0.013348101304557748,0.028340287130925408,0.9995092077199189,192.09559357502744,20.10246410934269,22.457816596030938,-1.4583132986421412,-134.55157470703125,4381.2578125,True
1599566316.5926423,0.0,10,0.5,0.5,2.5086208465576174,-0.05075,-0.001,-0.001,0.32889431359849935,10,1,100,-0.16425481666712288,-10,-1,-100,6488.153635089402,-0.010380590810637923,0.028525809315287847,0.9995391545794142,191.60882513538624,20.050465443424844,28.280825462606128,-1.8408251074434516,-138.96090698242188,4381.2578125,True
1599566316.6474993,0.0,10,0.5,0.5,2.722655374145508,-0.05075,-0.001,-0.001,0.32507481982587433,10,1,100,-0.18139662553791575,-10,-1,-100,6488.033459034632,-0.007557623828166408,0.02865164164201322,0.9995608864662971,190.17607027539725,19.89913393640451,33.90825394027826,-2.2234101031056785,-143.07418823242188,4381.2578125,True
1599566316.7103264,0.0,10,0.5,0.5,3.0145207824707034,-0.05075,-0.001,-0.001,0.3279496642510093,10,1,100,-0.336377835733574,-10,-1,-100,6487.883019288303,-0.0036127807920340324,0.028785391009564464,0.9995790859553711,186.70533428492482,19.532862000427464,41.89246885200301,-2.7973619049560154,-148.68820190429688,4381.2578125,True
1599566316.7914171,0.0,10,0.5,0.5,3.0137960952758793,-0.05075,-0.001,-0.001,0.31505436677981274,10,1,100,0.05502117921077618,-10,-1,-100,6487.883019288303,-0.0036127807920340324,0.028785391009564464,0.9995790859553711,186.70533428492482,19.532862000427464,41.89246885200301,-2.7973619049560154,-148.68820190429688,4381.2578125,True
1599566316.844276,0.0,10,0.5,0.5,3.2746677253723147,-0.05075,-0.001,-0.001,0.32683579244582994,10,1,100,-0.3449400492354124,-10,-1,-100,6487.732618208509,-4.817703149476615e-06,0.028888134522128912,0.9995826507401081,182.2640954187465,19.06352745224508,49.29879873968106,-3.3713409584280756,-153.6347198486328,4381.2578125,True
1599566316.9071107,0.0,10,0.5,0.5,3.425950093078613,-0.05075,-0.001,-0.001,0.3289817086961172,10,1,100,-0.22917363137546545,-10,-1,-100,6487.549526497372,0.0021943981396616657,0.02899758944165705,0.9995770727779713,179.12832725953976,18.731670349443483,53.958289433129956,-3.753987027799961,-156.56072998046875,4381.2578125,True
1599566316.968943,0.0,10,0.5,0.5,3.4975633209228523,-0.05075,-0.001,-0.001,0.31639633980119947,10,1,100,-0.13095402764320263,-10,-1,-100,6487.518776001059,0.003273355724579126,0.028979981656337122,0.9995746324339663,177.52132104096225,18.56148914307545,56.203976176223804,-3.945307743508383,-157.91357421875,4381.2578125,True
1599566317.0327725,0.0,10,0.5,0.5,3.686802886962891,-0.05075,-0.001,-0.001,0.3443805599083577,10,1,100,-0.34457304705442054,-10,-1,-100,6487.24343714898,0.0061724659715089525,0.02921667857078757,0.9995540437400681,172.71315561424984,18.051559192191906,62.6521403052324,-4.519289539472785,-161.52243041992188,4381.2578125,True
1599566317.0985963,0.0,10,0.5,0.5,3.741439791870117,-0.05075,-0.001,-0.001,0.3291914195033081,10,1,100,-0.1562210776366504,-10,-1,-100,6487.151174534927,0.007072301831778904,0.029292341495115642,0.9995458675201123,171.20034244664723,17.89077343779491,64.73808438371779,-4.710634331928576,-162.57708740234375,4381.2578125,True
1599566317.1604307,0.0,10,0.5,0.5,3.8415452011108404,-0.05075,-0.001,-0.001,0.3385013783544047,10,1,100,-0.2559904362983467,-10,-1,-100,6486.905130412662,0.008774554880295838,0.029444447302605734,0.999527904417729,168.33272441699793,17.58554329811646,68.83700849516103,-5.09337024065297,-164.4638671875,4381.2578125,True
1599566317.2222664,0.0,10,0.5,0.5,3.9248324661254883,-0.05075,-0.001,-0.001,0.3543141288657486,10,1,100,-0.2552779153264839,-10,-1,-100,6486.721106034238,0.010295468682671704,0.029725473804816507,0.9995050772915981,165.7589723382986,17.310982441269946,72.89171544461989,-5.476185723794516,-166.05194091796875,4381.2578125,True
1599566317.2860951,0.0,10,0.5,0.5,3.9928259361267093,-0.05075,-0.001,-0.001,0.3521919305102875,10,1,100,-0.26016071997720364,-10,-1,-100,6486.473121456103,0.011703710309389662,0.029960569126786175,0.9994825598591467,163.58666898926523,17.078529762530493,76.98021116005165,-5.8590935552140175,-167.3441619873047,4381.2578125,True
1599566317.3489285,0.0,10,0.5,0.5,4.045390907287597,-0.05075,-0.001,-0.001,0.366783859819102,10,1,100,-0.2579190157722794,-10,-1,-100,6486.227094596368,0.012946040537145261,0.030305756115488938,0.9994568330751854,161.88415106227964,16.89544506722789,81.1739529697101,-6.242093788602785,-168.33798217773438,4381.2578125,True
1599566317.4227297,0.0,10,0.5,0.5,4.094658959197998,-0.05075,-0.001,-0.001,0.3991262957464381,10,1,100,-0.3096707247796746,-10,-1,-100,6485.823881454649,0.014530848261236509,0.030912202463552755,0.9994164748430261,160.32032659950292,16.72472575545632,87.81693841844923,-6.816761629754923,-169.27125549316406,4381.2578125,True
1599566317.488555,0.0,10,0.5,0.5,4.108731756591797,-0.05075,-0.001,-0.001,0.39201259310228415,10,1,100,-0.24815087125348576,-10,-1,-100,6485.5778624033555,0.015395816951942044,0.03139691383643302,0.9993884142924262,159.98198136341674,16.684590003409923,92.57763480506894,-7.199981969307943,-169.52145385742188,4381.2578125,True
1599566317.5473962,0.0,10,0.5,0.5,4.1107690650939945,-0.05075,-0.001,-0.001,0.37320667691206455,10,1,100,-0.2042964586801477,-10,-1,-100,6485.42213902832,0.0157694750704121,0.03166431695612735,0.9993741515006809,160.03164160776916,16.687332780291968,95.08173384703571,-7.391622732441703,-169.5349578857422,4381.2578125,True
1599566317.6068792,0.0,10,0.5,0.5,4.101880811309814,-0.05075,-0.001,-0.001,0.41347618424117516,10,1,100,-0.23552223303353592,-10,-1,-100,6485.111668780912,0.016380693965933182,0.03227107283382823,0.9993449107907381,160.57353020980526,16.738776591365674,100.37443459520478,-7.774960313347963,-169.33839416503906,4381.2578125,True
1599566317.6697102,0.0,10,0.5,0.5,4.059123860168458,-0.05075,-0.001,-0.001,0.4626161484804959,10,1,100,-0.24452027101909057,-10,-1,-100,6484.584929549019,0.017006232090601613,0.03326640413284331,0.9993018234878543,162.48597790498215,16.929534420913583,109.12324096719601,-8.350087227493113,-168.48629760742188,4381.2578125,True
1599566317.7365324,0.0,10,0.5,0.5,4.0120335342407225,-0.05075,-0.001,-0.001,0.4450415356649622,10,1,100,-0.20515759647470755,-10,-1,-100,6484.273970053415,0.017207211738879347,0.03400779999220485,0.9992734267475863,164.46738469841145,17.12916933194582,115.55666437859621,-8.733566819096971,-167.54641723632812,4381.2578125,True
1599566317.7939618,0.0,10,0.5,0.5,3.949450885009766,-0.05075,-0.001,-0.001,0.4586192320304993,10,1,100,-0.18755608079720093,-10,-1,-100,6483.900997396209,0.0172206931766935,0.034800943050859234,0.9992458867012088,166.97161779445577,17.381982919973943,122.50131806318885,-9.117078170002596,-166.309326171875,4381.2578125,True
1599566317.8587873,0.0,10,0.5,0.5,3.8714913574218754,-0.05075,-0.001,-0.001,0.47076688610847256,10,1,100,-0.16870575773246915,-10,-1,-100,6483.527532995096,0.017053904148393896,0.035627545872391836,0.9992196166651294,169.95199006245397,17.68283404240794,129.97037534785673,-9.500603457943122,-164.775390625,4381.2578125,True
1599566317.9211292,0.0,10,0.5,0.5,3.8274481941223146,-0.05075,-0.001,-0.001,0.43538836580741497,10,1,100,-0.16936708382189275,-10,-1,-100,6483.309793601977,0.01690214578214745,0.03605201455098679,0.9992069704094215,171.60291976296256,17.849353045124364,133.90157887673317,-9.6923651308007,-163.8971405029297,4381.2578125,True
1599566318.0757277,0.0,10,0.5,0.5,3.725576976013184,-0.05075,-0.001,-0.001,0.48831031529538627,10,1,100,-0.13516452976620585,-10,-1,-100,6482.937787455157,0.016448525470987387,0.03691346612194176,0.9991830873412013,175.1805286492031,18.209730405032847,142.14531391882926,-10.075873978421457,-161.91830444335938,4381.2578125,True
1599566318.1585073,0.0,10,0.5,0.5,3.4761297561645508,-0.05075,-0.001,-0.001,0.5935623338661209,10,1,100,-0.01840364830348598,-10,-1,-100,6482.0643658989575,0.0149714967339682,0.038647433437083455,0.9991407459283557,183.12410052315653,19.007205894339265,160.00380728781923,-10.842761380058873,-157.07223510742188,4381.2578125,True
1599566318.2333066,0.0,10,0.5,0.5,3.1677840301513673,-0.05075,-0.001,-0.001,0.6031898598140114,10,1,100,0.08059248822681439,-10,-1,-100,6481.191412858083,0.012728377869609179,0.040304258294944426,0.9991063783001802,191.37130423038752,19.8312339301216,179.15505294199374,-11.609345034142951,-151.04379272460938,4381.2578125,True
1599566318.3033779,0.0,10,0.5,0.5,3.084458911895752,-0.05075,-0.001,-0.001,0.47715081249894953,10,1,100,-0.06780833144338175,-10,-1,-100,6480.9731696735835,0.012040702207268519,0.04065655560426428,0.9991006285538777,193.35364408993092,20.028793153497016,184.03074399511507,-11.800925152951882,-149.3528594970703,4381.2578125,True
1599566318.3963735,0.0,10,0.5,0.5,2.897686814880371,-0.05075,-0.001,-0.001,0.5150972368524057,10,1,100,0.030282542629868625,-10,-1,-100,6480.47466345015,0.010527197088895773,0.04131361861717908,0.9990907681678406,197.0837367313862,20.40020030649293,193.7402455391109,-12.183991546923991,-145.75006103515625,4381.2578125,True
1599566318.4612005,0.0,10,0.5,0.5,2.697283765411377,-0.05075,-0.001,-0.001,0.5109275180110027,10,1,100,0.064155719401213,-10,-1,-100,6479.973703615251,0.008848666735069271,0.04186482159783128,0.9990840994679043,200.35389401795862,20.725901713035807,203.2203232679297,-12.566926922950172,-141.85350036621094,4381.2578125,True
1599566318.5315247,0.0,10,0.5,0.5,2.3675763648986816,-0.05075,-0.001,-0.001,0.5224851020999488,10,1,100,0.20985559999361184,-10,-1,-100,6479.194418158499,0.006005601649255673,0.042463167419719165,0.9990799828649932,203.98462889019956,21.089444933717,216.47921676079162,-13.141088609143736,-135.45851135253906,4381.2578125,True
1599566318.595353,0.0,10,0.5,0.5,2.3707625633239746,-0.05075,-0.001,-0.001,0.4634960566539118,10,1,100,-0.0733307475787856,-10,-1,-100,6479.194418158499,0.006005601649255673,0.042463167419719165,0.9990799828649932,203.98462889019956,21.089444933717,216.47921676079162,-13.141088609143736,-135.45851135253906,4381.2578125,True
1599566318.6721478,0.0,10,0.5,0.5,2.1281221076965333,-0.05075,-0.001,-0.001,0.48537386236725694,10,1,100,0.1543206773243689,-10,-1,-100,6478.631426741136,0.003946238778797393,0.04265509090405061,0.999082063906398,205.2571088638122,21.21983627115584,224.25942541157994,-13.523719661609146,-130.8294219970703,4381.2578125,True
1599566318.736975,0.0,10,0.5,0.5,1.7416489261627197,-0.05075,-0.001,-0.001,0.4626978985783863,10,1,100,0.31067701577624973,-10,-1,-100,6477.788139968994,0.0006645855155178554,0.042617032996242504,0.9990912605086132,205.29085919795733,21.23420085327658,233.95364135191372,-14.09752501871462,-123.33748626708984,4381.2578125,True
1599566318.7988093,0.0,10,0.5,0.5,1.4677060493469238,-0.05075,-0.001,-0.001,0.43961850488145227,10,1,100,0.23740397343341202,-10,-1,-100,6477.22463804041,-0.0016378556477408086,0.04236665402967641,0.9991007877362558,203.98260027379237,21.11474304689204,238.86942655034107,-14.480030725270918,-117.97750854492188,4381.2578125,True
1599566318.8656313,0.0,10,0.5,0.5,1.1761935596466064,-0.05075,-0.001,-0.001,0.4135448497372164,10,1,100,0.26159073308927144,-10,-1,-100,6476.663081753068,-0.003934421446557654,0.04189704611520715,0.9991141865946561,201.01368595570153,20.82899565438698,241.7159070053074,-14.862581990352922,-112.32575225830078,4381.2578125,True
1599566318.930458,0.0,10,0.5,0.5,0.7102893306732178,-0.05075,-0.001,-0.001,0.3442688571916309,10,1,100,0.41451518812692373,-10,-1,-100,6475.755789332907,-0.007395243656569329,0.04083739388556784,0.9991384376711242,193.5344489075766,20.091589674271848,241.87562220793453,-15.436632496800158,-103.3000259399414,4381.2578125,True
1599566318.9922936,0.0,10,0.5,0.5,0.5512833122253418,-0.05075,-0.001,-0.001,0.4004905612316977,10,1,100,0.19457293111505847,-10,-1,-100,6475.411525821197,-0.008523676400539188,0.04038469540845033,0.9991478485776696,190.44015143187823,19.782989877644223,241.01711807123226,-15.628065773911816,-100.14529418945312,4381.2578125,True
1599566319.0531323,0.0,10,0.5,0.5,0.21231513710021974,-0.05075,-0.001,-0.001,0.3312002258569001,10,1,100,0.32243724400167123,-10,-1,-100,6474.785980955465,-0.010693232304382986,0.03934348634420517,0.9991685267587084,182.48251622201704,18.978087186458904,236.72162184502773,-16.011087769260158,-93.62931060791016,4381.2578125,True
1599566319.1129699,0.0,10,0.5,0.5,0.04060248794555664,-0.05075,-0.001,-0.001,0.3711949021312198,10,1,100,0.22160272069962084,-10,-1,-100,6474.442201645579,-0.011729587069319364,0.03876231164490609,0.9991796134745378,177.59704406759172,18.47815586551172,233.19896621783298,-16.202680367509966,-90.28599548339844,4381.2578125,True
1599566319.1718118,0.0,10,0.5,0.5,-0.4930942825317383,-0.05075,-0.001,-0.001,0.20743356622149153,10,1,100,0.4538587728389172,-10,-1,-100,6473.471889081644,-0.014764438917069321,0.03674805205541205,0.999215488277477,172.8449924251966,17.990829672408765,235.19104514234516,-16.777637903969545,-80.008056640625,4381.2578125,True
1599566319.2346437,0.0,10,0.5,0.5,-0.6682829742431641,-0.05075,-0.001,-0.001,0.327690630815335,10,1,100,0.254169432127351,-10,-1,-100,6473.128593910369,-0.01568915564440384,0.03601534857523815,0.9992280745966706,179.70756983905457,18.701423259727054,247.38447894546607,-16.969207608026935,-76.53131103515625,4381.2578125,True
1599566319.304458,0.0,10,0.5,0.5,-1.0316949966430666,-0.05075,-0.001,-0.001,0.22487551017953014,10,1,100,0.3607480373252995,-10,-1,-100,6472.441023257794,-0.017478981118967788,0.034420433240976815,0.999254581673032,192.01488150012563,19.96786955791393,270.4295839216194,-17.352098927440494,-69.5555419921875,4381.2578125,True
1599566319.367289,0.0,10,0.5,0.5,-1.3884772079467773,-0.05075,-0.001,-0.001,0.2085367314285166,10,1,100,0.3561092043694355,-10,-1,-100,6471.75150041969,-0.01904444650542919,0.03282946190996918,0.9992795081897774,202.27797557877355,21.016054105048603,291.3120575706892,-17.734623364784163,-62.644805908203125,4381.2578125,True
1599566319.434111,0.0,10,0.5,0.5,-2.073346929168702,-0.05075,-0.001,-0.001,-0.014698536053583233,10,1,100,0.5013879896200713,-10,-1,-100,6470.25184901047,-0.02177039578447175,0.029362610605657945,0.9993317201839478,216.59128769318625,22.471746474882607,325.68832244471184,-18.49862676752031,-49.39434814453125,4381.2578125,True
1599566319.4989414,0.0,10,0.5,0.5,-2.229638480377197,-0.05075,-0.001,-0.001,0.23563119924541986,10,1,100,0.29409035644486714,-10,-1,-100,6469.90806515119,-0.022345705245520646,0.02849847432575141,0.999344038066063,218.60323678788697,22.67742989135733,332.18736403082613,-18.68945856386398,-46.250701904296875,4381.2578125,True
1599566319.5597792,0.0,10,0.5,0.5,-2.547023069763184,-0.05075,-0.001,-0.001,0.13831775549424927,10,1,100,0.3532033625199665,-10,-1,-100,6469.156537038041,-0.023389367280066943,0.026840408738816154,0.9993660640410855,221.58539974873003,22.988464473650097,343.76598823238356,-19.07099829324173,-40.184600830078125,4381.2578125,True
1599566319.6270916,0.0,10,0.5,0.5,-2.8457880577087407,-0.05075,-0.001,-0.001,0.12330563179347803,10,1,100,0.349294628701896,-10,-1,-100,6468.343982054852,-0.024288076891650665,0.025209327067183228,0.9993871017527317,222.69481547049722,23.116089892454973,352.57967063639904,-19.452452992328276,-34.416107177734375,4381.2578125,True
1599566319.679947,0.0,10,0.5,0.5,-3.1297203208923343,-0.05075,-0.001,-0.001,0.11283005573170155,10,1,100,0.3443829679576306,-10,-1,-100,6467.592465743888,-0.025046102894968808,0.02364508882726557,0.9994066252052392,222.0480645925413,23.071247775875065,358.64224279721253,-19.833913436400085,-28.945037841796875,4381.2578125,True
1599566319.7407823,0.0,10,0.5,0.5,-3.2665251052856448,-0.05075,-0.001,-0.001,0.1867991593265504,10,1,100,0.3074725171015935,-10,-1,-100,6467.18619233137,-0.025386619826029886,0.022909771730490816,0.9994151599275776,221.15580173500203,22.992624863324686,360.73669566641735,-20.02466923646315,-26.32073974609375,4381.2578125,True
1599566319.7986639,0.0,10,0.5,0.5,-3.6546620559692387,-0.05075,-0.001,-0.001,0.029697196137405374,10,1,100,0.3703225945511168,-10,-1,-100,6465.966402011458,-0.026255129528574978,0.0208275133770801,0.9994382836673634,216.60709799244214,22.569147050426285,363.7346587164212,-20.59711030208551,-18.893402099609375,4381.2578125,True
1599566320.3420255,0.0,10,0.5,0.5,-3.8903904953002937,-0.05075,-0.001,-0.001,0.09642980189541864,10,1,100,0.33466343668216403,-10,-1,-100,6465.090390154277,-0.026710063558796848,0.019555684506941687,0.9994519236602378,212.37812034246593,22.163969898813907,363.46762783273135,-20.9789173559966,-14.312835693359375,4381.2578125,True
1599566320.3938875,0.0,10,0.5,0.5,-4.113749130249024,-0.05075,-0.001,-0.001,0.09561432537031256,10,1,100,0.33426257356529454,-10,-1,-100,6464.277370094671,-0.02710997673255938,0.018407026351195163,0.9994629710711982,208.23244029925272,21.765306303804095,363.0934120934639,-21.360871172885382,-10.0284423828125,4381.2578125,True
1599566320.4487395,0.0,10,0.5,0.5,-4.220531475830078,-0.05075,-0.001,-0.001,0.1510785667884332,10,1,100,0.3160435668439705,-10,-1,-100,6463.808607084909,-0.02729915137886456,0.017881569683308313,0.9994673610477008,205.94125381717927,21.54154634923577,362.42877754394203,-21.55190029810629,-7.99725341796875,4381.2578125,True
1599566320.5045907,0.0,10,0.5,0.5,-4.516304847717286,-0.05075,-0.001,-0.001,0.044910748161267805,10,1,100,0.3479956998609347,-10,-1,-100,6462.525372023927,-0.027754097989411274,0.01645230880882482,0.9994793802673736,198.9839521612731,20.852099414247814,359.8640105626793,-22.125167200959115,-2.348175048828125,4381.2578125,True
1599566320.5624363,0.0,10,0.5,0.5,-4.691104763793946,-0.05075,-0.001,-0.001,0.09858404076191543,10,1,100,0.3314028686230833,-10,-1,-100,6461.587369466433,-0.028011402167559693,0.015652656402751923,0.9994850452588796,194.61769815415568,20.411698412713218,358.2969795432829,-22.50745115816358,1.0478515625,4381.2578125,True
1599566320.6232734,0.0,10,0.5,0.5,-4.852870225524903,-0.05075,-0.001,-0.001,0.10303853510513258,10,1,100,0.3332481905618748,-10,-1,-100,6460.710894054966,-0.028256940077209053,0.014977873089372174,0.9994884734979146,190.21186534219473,19.95915645798399,356.3836323025598,-22.88978412620551,4.147979736328125,4381.2578125,True
1599566320.6801636,0.0,10,0.5,0.5,-4.928677682495118,-0.05075,-0.001,-0.001,0.13735262995272451,10,1,100,0.32298384220638165,-10,-1,-100,6460.2411647725385,-0.02838241903475204,0.014687164153686368,0.9994892323076114,188.03751529130844,19.73288641718056,355.3770076604952,-23.08095934197889,5.58709716796875,4381.2578125,True
1599566320.7369761,0.0,10,0.5,0.5,-5.131692750549316,-0.05075,-0.001,-0.001,0.08887736208223382,10,1,100,0.34617027495262,-10,-1,-100,6458.833448708057,-0.028703554437354104,0.013991764652343445,0.999490038211775,196.19023024694107,20.583562489926752,380.3987433615179,-23.654229426015153,9.460601806640625,4381.2578125,True
1599566320.7938178,0.0,10,0.5,0.5,-5.19082613067627,-0.05075,-0.001,-0.001,0.13883932603976146,10,1,100,0.32636524122001426,-10,-1,-100,6458.363236178644,-0.02881212499529376,0.013822558709077332,0.9994892687387843,198.82853035269667,20.855706828530952,388.76575563334103,-23.845222096133256,10.603912353515625,4381.2578125,True
1599566320.8626328,0.0,10,0.5,0.5,-5.34792250366211,-0.05075,-0.001,-0.001,0.11940311544308384,10,1,100,0.35038808642484937,-10,-1,-100,6456.893521865364,-0.029126100908765343,0.013500303403430535,0.999484573194538,205.65200694965216,21.550087721073435,412.2077856533812,-24.417906348802,13.59033203125,4381.2578125,True
1599566320.9274595,0.0,10,0.5,0.5,-5.392052247619629,-0.05075,-0.001,-0.001,0.14606132577145586,10,1,100,0.33161840752199834,-10,-1,-100,6456.424290495808,-0.02923829013882251,0.01345635250125833,0.9994818902647111,207.59494228180628,21.744669796003755,419.5042895894516,-24.608705277952506,14.438018798828125,4381.2578125,True
1599566320.9892983,0.0,10,0.5,0.5,-5.531328959655761,-0.05075,-0.001,-0.001,0.1652110050149406,10,1,100,0.3674565832321125,-10,-1,-100,6454.421888003708,-0.02966378355753004,0.013596029976047716,0.9994674621586949,213.93601171641626,22.36549718429893,446.36115286106195,-25.37145466019541,17.090179443359375,4381.2578125,True
1599566321.0461764,0.0,10,0.5,0.5,-5.531388661193848,-0.05075,-0.001,-0.001,0.15076215789848726,10,1,100,0.3251626220438566,-10,-1,-100,6454.421888003708,-0.02966378355753004,0.013596029976047716,0.9994674621586949,213.93601171641626,22.36549718429893,446.36115286106195,-25.37145466019541,17.090179443359375,4381.2578125,True
1599566321.1030314,0.0,10,0.5,0.5,-5.579598744201661,-0.05075,-0.001,-0.001,0.1788848656485791,10,1,100,0.34903799948085346,-10,-1,-100,6453.357461763895,-0.02987868277770395,0.013855586900782424,0.9994574963584516,216.34984039547237,22.593427240347168,458.51046713262,-25.752584044201782,17.973297119140625,4381.2578125,True
1599566321.164866,0.0,10,0.5,0.5,-5.611188485717774,-0.05075,-0.001,-0.001,0.19758194087285313,10,1,100,0.351918023780289,-10,-1,-100,6452.356517868233,-0.030098296303503927,0.014263881808860143,0.999445163195745,218.32075570595208,22.773677667591365,469.87456379512815,-26.1335692234883,18.5615234375,4381.2578125,True
1599566321.226701,0.0,10,0.5,0.5,-5.629376315307617,-0.05075,-0.001,-0.001,0.2489715662709432,10,1,100,0.36643888507366124,-10,-1,-100,6450.759409207734,-0.030428055616774613,0.015103499933089699,0.9994228423050745,220.51601404221236,22.96305952199293,485.50803236017515,-26.704810368811927,18.8905029296875,4381.2578125,True
1599566321.2965164,0.0,10,0.5,0.5,-5.622809941101075,-0.05075,-0.001,-0.001,0.24630270780844132,10,1,100,0.35682942284770075,-10,-1,-100,6449.63396825979,-0.03063850432174872,0.01584241258105408,0.9994049729796916,221.49733211458502,23.038633880615894,494.9882514430307,-27.085503270577455,18.741485595703125,4381.2578125,True
1599566321.3603437,0.0,10,0.5,0.5,-5.601321863555909,-0.05075,-0.001,-0.001,0.2696211453830272,10,1,100,0.35709227233299123,-10,-1,-100,6448.570546281291,-0.030830159880421457,0.016725086922220328,0.9993846970557393,222.10077465668257,23.075012550075485,503.6896155346843,-27.4661074874327,18.297958374023438,4381.2578125,True
1599566321.417346,0.0,10,0.5,0.5,-5.564462812805176,-0.05075,-0.001,-0.001,0.29462009028756714,10,1,100,0.35657759113617754,-10,-1,-100,6447.442189462716,-0.030997780008841035,0.017752296438531028,0.9993617931488485,222.317389551403,23.071748187211583,511.55533738528237,-27.846639041335013,17.56005859375,4381.2578125,True
1599566321.4964366,0.0,10,0.5,0.5,-5.541093661499024,-0.05075,-0.001,-0.001,0.2547451736751831,10,1,100,0.34824078577063744,-10,-1,-100,6446.912437972147,-0.03107238584497797,0.018320051540765034,0.9993492295236159,222.2750887106973,23.054843489861714,515.1503553782103,-28.036882605501006,17.080780029296875,4381.2578125,True
1599566321.547267,0.0,10,0.5,0.5,-5.404678988647461,-0.05075,-0.001,-0.001,0.48999464180922603,10,1,100,0.3600879873468241,-10,-1,-100,6444.6030206586,-0.03124614181494396,0.02097044248207149,0.9992917087436413,221.0117715308546,22.877985573891802,526.950091760794,-28.79775484243209,14.428741455078125,4381.2578125,True
1599566321.6064322,0.0,10,0.5,0.5,-5.363516004943849,-0.05075,-0.001,-0.001,0.30879238790518515,10,1,100,0.3441462777272907,-10,-1,-100,6444.063513702713,-0.0312573518350299,0.021725764584148974,0.9992752219031027,220.39802626646164,22.80443066974171,529.1696838318004,-28.98795720226716,13.58209228515625,4381.2578125,True
1599566321.671259,0.0,10,0.5,0.5,-5.264990696716309,-0.05075,-0.001,-0.001,0.4131176113642693,10,1,100,0.33665002856927484,-10,-1,-100,6442.876107891789,-0.03119794634432834,0.023353441495112814,0.9992403639336387,218.77114028289688,22.618608966353527,532.5893059231497,-29.368356246309446,11.66864013671875,4381.2578125,True
1599566321.732641,0.0,10,0.5,0.5,-5.211158099365234,-0.05075,-0.001,-0.001,0.34746815326077685,10,1,100,0.3338918878369254,-10,-1,-100,6442.276548775495,-0.0311174726526812,0.02422746414821268,0.9992220638459985,217.74126358990463,22.50488846645673,533.7350211526809,-29.558556389835122,10.601898193359375,4381.2578125,True
1599566321.7984297,0.0,10,0.5,0.5,-5.089679054260255,-0.05075,-0.001,-0.001,0.4630453497332369,10,1,100,0.32560235564753726,-10,-1,-100,6441.093551390339,-0.030967829195030293,0.02606330300328271,0.9991805131163771,215.21470955365947,22.233086963434022,534.7774620172465,-29.938964953166064,8.24810791015625,4381.2578125,True
1599566321.8628056,0.0,10,0.5,0.5,-4.879835350036622,-0.05075,-0.001,-0.001,0.6136309193407221,10,1,100,0.28517123363498986,-10,-1,-100,6439.240217296756,-0.030463443548968558,0.029090480394146766,0.9991124674217495,210.11861841641073,21.70256327091337,532.7459419243686,-30.50961517559593,4.1676025390625,4381.2578125,True
1599566321.9186532,0.0,10,0.5,0.5,-4.637136436462402,-0.05075,-0.001,-0.001,0.6767841966605666,10,1,100,0.25112163985161917,-10,-1,-100,6437.392772158724,-0.029695337210943435,0.03240386510651171,0.9990336212931411,205.35564591125248,21.224999486488986,531.0974852455699,-31.08029635262589,-0.5726318359375,4381.2578125,True
1599566321.979456,0.0,10,0.5,0.5,-4.457430488586426,-0.05075,-0.001,-0.001,0.6041748184374567,10,1,100,0.24253428596298182,-10,-1,-100,6436.147320629214,-0.028919849292942806,0.034740891904337524,0.9989778339615771,210.9921878430236,21.829960903237748,552.8341935429318,-31.46054324200382,-4.0994873046875,4381.2578125,True
1599566322.0432844,0.0,10,0.5,0.5,-4.361758996582032,-0.05075,-0.001,-0.001,0.503324451757852,10,1,100,0.2691820911633922,-10,-1,-100,6435.548767022439,-0.0284588496971164,0.035932262200744476,0.9989489308303272,213.81195933409478,22.136787285796114,563.8534223969986,-31.65056489502262,-5.97308349609375,4381.2578125,True
1599566322.117092,0.0,10,0.5,0.5,-4.047630184936523,-0.05075,-0.001,-0.001,0.7912797550244617,10,1,100,0.1295183945630511,-10,-1,-100,6433.579776614672,-0.026772397304827226,0.03961657434920887,0.9988562287833951,222.18504508205157,23.064736294391096,597.2606644053799,-32.22017454395037,-12.033935546875,4381.2578125,True
1599566322.1839094,0.0,10,0.5,0.5,-4.050779565429687,-0.05075,-0.001,-0.001,0.42497819245886653,10,1,100,0.29773363493795346,-10,-1,-100,6433.579776614672,-0.026772397304827226,0.03961657434920887,0.9988562287833951,222.18504508205157,23.064736294391096,597.2606644053799,-32.22017454395037,-12.033935546875,4381.2578125,True
1599566322.2726731,0.0,10,0.5,0.5,-3.7002690017700193,-0.05075,-0.001,-0.001,0.839445000487592,10,1,100,0.05380197159668809,-10,-1,-100,6431.671353334445,-0.024558903769461283,0.04336750339322716,0.9987572877807104,230.88054790222384,24.047675693067625,632.400712478039,-32.78900796659563,-18.755950927734375,4381.2578125,True
1599566322.347501,0.0,10,0.5,0.5,-3.452835726928711,-0.05075,-0.001,-0.001,0.7426911771720259,10,1,100,0.08127048616708027,-10,-1,-100,6430.296050284174,-0.02280244018619178,0.0458781843678213,0.9986867581582662,236.23689263894462,24.665246361494855,655.0873583219812,-33.167770827080496,-23.60467529296875,4381.2578125,True
1599566322.4362643,0.0,10,0.5,0.5,-3.0491574630737306,-0.05075,-0.001,-0.001,0.8894337040718504,10,1,100,-0.08869456280299415,-10,-1,-100,6428.315385984955,-0.019668150579998954,0.04947416755029373,0.9985817295534541,243.8437476705181,25.550316586586163,688.5677632275223,-33.73522201688686,-31.430755615234375,4381.2578125,True
1599566322.5070465,0.0,10,0.5,0.5,-2.910159817504883,-0.05075,-0.001,-0.001,0.6598649067112433,10,1,100,0.09694329270341637,-10,-1,-100,6427.60503332247,-0.018516821735402554,0.05063330255526125,0.9985456404116773,245.8908787167403,25.792980097797958,698.5058079208579,-33.92420418940955,-34.18670654296875,4381.2578125,True
1599566322.585835,0.0,10,0.5,0.5,-2.4578086242675785,-0.05075,-0.001,-0.001,0.8917745399564538,10,1,100,-0.20988372391755516,-10,-1,-100,6425.565272574197,-0.014692141732360293,0.05377299468059548,0.9984450941410834,250.15017645162072,26.311889690158402,723.28017194353,-34.49074710115502,-42.8990478515625,4381.2578125,True
1599566322.674642,0.0,10,0.5,0.5,-2.142182876586914,-0.05075,-0.001,-0.001,0.7931301268818247,10,1,100,-0.13814935020280378,-10,-1,-100,6424.186541325995,-0.011881628128652894,0.05570805420814229,0.9983764017690698,251.1200054256045,26.447078134858625,734.5646551847486,-34.86820767675139,-49.07550048828125,4381.2578125,True
1599566322.7549481,0.0,10,0.5,0.5,-1.8084148422241213,-0.05075,-0.001,-0.001,0.7673945955526112,10,1,100,-0.1838470143256719,-10,-1,-100,6422.745781271253,-0.008927376732422176,0.05721205423100869,0.9983221337801469,250.32370651617174,26.382722617131414,740.6985247129242,-35.24559587932376,-55.550750732421875,4381.2578125,True
1599566322.8178182,0.0,10,0.5,0.5,-1.8097449661254883,-0.05075,-0.001,-0.001,0.6192417094986381,10,1,100,0.10957887804134785,-10,-1,-100,6422.745781271253,-0.008927376732422176,0.05721205423100869,0.9983221337801469,250.32370651617174,26.382722617131414,740.6985247129242,-35.24559587932376,-55.550750732421875,4381.2578125,True
1599566322.8846385,0.0,10,0.5,0.5,-1.4544228958129883,-0.05075,-0.001,-0.001,0.7647202500086865,10,1,100,-0.23212161947798754,-10,-1,-100,6421.370431667194,-0.005838764457668849,0.05851524115198162,0.9982694402727819,247.5477561568476,26.09700393541693,740.8755964088724,-35.62302196523193,-62.321075439453125,4381.2578125,True
1599566322.9474735,0.0,10,0.5,0.5,-0.7094423919677735,-0.05075,-0.001,-0.001,0.8241101035230425,10,1,100,-0.6338473829278902,-10,-1,-100,6418.436566855991,0.0006020867026995107,0.06022268368772136,0.9981847854285554,235.34572063956003,24.80320555986289,720.415390421615,-36.378405581553245,-76.75048828125,4381.2578125,True
1599566323.0142932,0.0,10,0.5,0.5,-0.7174001495361328,-0.05075,-0.001,-0.001,0.6554264608829197,10,1,100,0.007500284708193038,-10,-1,-100,6418.436566855991,0.0006020867026995107,0.06022268368772136,0.9981847854285554,235.34572063956003,24.80320555986289,720.415390421615,-36.378405581553245,-76.75048828125,4381.2578125,True
1599566323.095616,0.0,10,0.5,0.5,-0.31519708557128906,-0.05075,-0.001,-0.001,0.6932958522054691,10,1,100,-0.34264716818556645,-10,-1,-100,6416.995728419628,0.003762371737668087,0.0605516279903859,0.998157975926968,225.66956472706832,23.78256842063539,698.5547420425875,-36.75651786537358,-84.41046142578125,4381.2578125,True
1599566323.1564543,0.0,10,0.5,0.5,0.30161296234130863,-0.05075,-0.001,-0.001,0.6583895125022666,10,1,100,-0.5284452465491986,-10,-1,-100,6414.77167276165,0.008300281743741757,0.06051999841039495,0.9981324737305065,206.6686459580466,21.802403805114373,650.4478991212073,-37.32427410027909,-96.36001586914062,4381.2578125,True
1599566323.2162924,0.0,10,0.5,0.5,0.5078862915039063,-0.05075,-0.001,-0.001,0.6452905826856086,10,1,100,-0.24468639652642316,-10,-1,-100,6413.992873067735,0.009820602719671008,0.06036212140219711,0.9981282332756893,206.91442645487405,21.845135637052994,654.8001419055139,-37.51355198163673,-100.451416015625,4381.2578125,True
1599566323.280123,0.0,10,0.5,0.5,1.3679176620483398,-0.05075,-0.001,-0.001,0.5304098543582141,10,1,100,-0.6661474441025408,-10,-1,-100,6410.9786887113005,0.015008415471703148,0.05916538221099826,0.9981353640728572,228.66490256670147,24.24887451433032,739.4005533203439,-38.26918580483334,-117.02139282226562,4381.2578125,True
1599566323.3444617,0.0,10,0.5,0.5,1.3587599197387696,-0.05075,-0.001,-0.001,0.6506230122311386,10,1,100,-0.15033622461973317,-10,-1,-100,6410.9786887113005,0.015008415471703148,0.05916538221099826,0.9981353640728572,228.66490256670147,24.24887451433032,739.4005533203439,-38.26918580483334,-117.02139282226562,4381.2578125,True
1599566323.407808,0.0,10,0.5,0.5,1.9967558982849123,-0.05075,-0.001,-0.001,0.5004520024831387,10,1,100,-0.5170102771593695,-10,-1,-100,6408.640235066414,0.018317370455154063,0.05779704818783203,0.9981602953235428,238.83209055564154,25.409867204004563,784.5488389981602,-38.834550159431785,-129.21852111816406,4381.2578125,True
1599566323.4686444,0.0,10,0.5,0.5,2.593333731079102,-0.05075,-0.001,-0.001,0.45531427554864207,10,1,100,-0.48180978184396417,-10,-1,-100,6406.284170042374,0.020980738894344323,0.05614223338195201,0.9982023132743852,243.7954197860135,25.992725792419243,813.3461240551401,-39.39920245809721,-140.83993530273438,4381.2578125,True
1599566323.530988,0.0,10,0.5,0.5,2.5902412353515625,-0.05075,-0.001,-0.001,0.6206887740517384,10,1,100,-0.2184637494876148,-10,-1,-100,6406.284170042374,0.020980738894344323,0.05614223338195201,0.9982023132743852,243.7954197860135,25.992725792419243,813.3461240551401,-39.39920245809721,-140.83993530273438,4381.2578125,True
1599566323.5988076,0.0,10,0.5,0.5,3.16464965133667,-0.05075,-0.001,-0.001,0.4476017533434273,10,1,100,-0.437534189025499,-10,-1,-100,6403.935402635485,0.022947906978005077,0.05457087229166739,0.9982461687693349,242.97252621776923,25.925628952512586,823.0827177291826,-39.9636840813002,-151.7878875732422,4381.2578125,True
1599566323.658648,0.0,10,0.5,0.5,3.342271215820313,-0.05075,-0.001,-0.001,0.5457674537112578,10,1,100,-0.3011610718668467,-10,-1,-100,6403.090141663561,0.02347617160691319,0.05403991567783988,0.9982627694551243,241.6154980294316,25.781940282625374,822.6399235369921,-40.15188424363684,-155.2867431640625,4381.2578125,True
1599566323.7314534,0.0,10,0.5,0.5,3.6971355834960935,-0.05075,-0.001,-0.001,0.4727473857058476,10,1,100,-0.3403695998521487,-10,-1,-100,6401.466016130056,0.02429205871951039,0.05289902974522922,0.9983043566644298,237.5388028961773,25.34467100823497,816.9606854632162,-40.52841139521483,-162.05987548828125,4381.2578125,True
1599566323.7883015,0.0,10,0.5,0.5,4.194417599487306,-0.05075,-0.001,-0.001,0.4286337337401834,10,1,100,-0.3463233279768403,-10,-1,-100,6399.050817457144,0.02506923572574882,0.0514677844233909,0.9983599554202253,228.66237473769206,24.394486753695013,798.3571275039354,-41.093605833541055,-171.6500244140625,4381.2578125,True
1599566323.8541243,0.0,10,0.5,0.5,4.349983274841309,-0.05075,-0.001,-0.001,0.5203103220584904,10,1,100,-0.2835259607161724,-10,-1,-100,6398.202130716643,0.025189630616339498,0.05100830512823795,0.9983805062787218,225.13990679563236,24.02043842030497,789.9926671368817,-41.28211925176449,-174.69595336914062,4381.2578125,True
1599566323.9149628,0.0,10,0.5,0.5,-13.684350862121581,-0.05075,-0.001,-0.001,0.40173392369400795,10,1,100,-0.2719624593062788,-10,-1,-100,6394.88649291941,0.02517998593324411,0.04952113288957994,0.9984556202985359,209.22244811139615,22.354400703677037,748.8274374274397,-42.036693771277825,173.87820434570312,4381.2578125,True
1599566323.974802,0.0,10,0.5,0.5,-13.364866664123536,-0.05075,-0.001,-0.001,0.5494867226276674,10,1,100,-0.2739440846619718,-10,-1,-100,6394.88649291941,0.02517998593324411,0.04952113288957994,0.9984556202985359,209.22244811139615,22.354400703677037,748.8274374274397,-42.036693771277825,173.87820434570312,4381.2578125,True
1599566324.0406263,0.0,10,0.5,0.5,-12.986990757751466,-0.05075,-0.001,-0.001,0.4625801729562308,10,1,100,-0.21263412153433703,-10,-1,-100,6392.354125797981,0.02461337574984603,0.04873984084649544,0.9985081920787907,219.8275696071251,23.54537216553203,798.3850998442025,-42.60228694220399,166.01412963867188,4381.2578125,True
1599566324.103459,0.0,10,0.5,0.5,-12.887045082092285,-0.05075,-0.001,-0.001,0.519411848570344,10,1,100,-0.24097300552068152,-10,-1,-100,6391.4434393311385,0.024350178160001186,0.04855446077412996,0.9985236768161834,223.560769719875,23.96945674351388,815.8745040230363,-42.79061732459599,163.3603515625,4381.2578125,True
1599566324.1642962,0.0,10,0.5,0.5,-12.487589931488039,-0.05075,-0.001,-0.001,0.5051799865597857,10,1,100,-0.14498660429711216,-10,-1,-100,6388.903778935666,0.023235240849686464,0.04826345084698156,0.9985643509033346,233.82918837724046,25.15447542732204,865.6642651679597,-43.35498542773675,155.00230407714844,4381.2578125,True
1599566324.2201467,0.0,10,0.5,0.5,-12.21877431793213,-0.05075,-0.001,-0.001,0.5355612496821929,10,1,100,-0.15482231398138352,-10,-1,-100,6387.150793218752,0.022309027472025237,0.04828225219844578,0.9985845639783834,239.81362477461263,25.85742434749337,896.2181198611158,-43.73072907503696,149.07461547851562,4381.2578125,True
1599566324.2809844,0.0,10,0.5,0.5,-11.933113238525392,-0.05075,-0.001,-0.001,0.5550272992502678,10,1,100,-0.12849845698639373,-10,-1,-100,6385.398314060643,0.021228288319202378,0.0484820253504805,0.9985984443173103,245.53918559035424,26.531419759447726,926.196238225077,-44.10609165520006,142.85867309570312,4381.2578125,True
1599566324.351795,0.0,10,0.5,0.5,-11.458690490722658,-0.05075,-0.001,-0.001,0.6074081779402271,10,1,100,-0.030650951359131068,-10,-1,-100,6382.730816005147,0.0193583189321044,0.04914487974071838,0.9986040437948333,251.71219145426372,27.26853712506871,962.655773133533,-44.66856182066997,132.99484252929688,4381.2578125,True
1599566324.410216,0.0,10,0.5,0.5,-11.320470811462402,-0.05075,-0.001,-0.001,0.5762785843852872,10,1,100,-0.14172205080867104,-10,-1,-100,6381.819688772433,0.01867256924772697,0.04946789119953019,0.998601153062603,253.00301715202187,27.42571610217403,972.0073631537397,-44.85594553240436,129.56317138671875,4381.2578125,True
1599566324.4720516,0.0,10,0.5,0.5,-10.987707933807375,-0.05075,-0.001,-0.001,0.6321878932739246,10,1,100,-0.048255168638233065,-10,-1,-100,6380.008200246957,0.017205276666268983,0.050271622509459324,0.9985873734556748,254.25181817645532,27.585756461245033,985.6933877819366,-45.23063803187802,122.48460388183594,4381.2578125,True
1599566324.544895,0.0,10,0.5,0.5,-10.835787935638429,-0.05075,-0.001,-0.001,0.6051452211904824,10,1,100,-0.1087362055411351,-10,-1,-100,6379.1039332258515,0.016428460431288167,0.05075711457465341,0.9985758964685223,254.1529880299534,27.582526252954253,989.7652409519353,-45.41797772255656,118.83790588378906,4381.2578125,True
1599566324.6030827,0.0,10,0.5,0.5,-10.042099381256104,-0.05075,-0.001,-0.001,0.8363615062327646,10,1,100,0.16956209976997377,-10,-1,-100,6375.401024385123,0.013200235192570032,0.053299313605500526,0.998491330438098,248.30241601257916,26.95667267916803,984.5281775053157,-46.16765091296408,103.53681945800781,4381.2578125,True
1599566324.6669116,0.0,10,0.5,0.5,-9.843179973602297,-0.05075,-0.001,-0.001,0.6689424563697154,10,1,100,-0.06120350631147588,-10,-1,-100,6374.486555576557,0.012374244804240065,0.05408497756141026,0.998459660310674,245.3599229858925,26.638634800706907,977.2379928532957,-46.35521587538379,99.53321838378906,4381.2578125,True
1599566324.7347305,0.0,10,0.5,0.5,-9.196958819580077,-0.05075,-0.001,-0.001,0.9029045868186006,10,1,100,0.14469305949889702,-10,-1,-100,6371.686105144909,0.009762683971978164,0.05692128676475905,0.9983309356694839,232.71967188674049,25.285427501602157,939.4429236847806,-46.91841383643288,87.09695434570312,4381.2578125,True
1599566325.385254,0.0,10,0.5,0.5,-9.201768743896485,-0.05075,-0.001,-0.001,0.6201103490827844,10,1,100,-0.11500427430849072,-10,-1,-100,6371.686105144909,0.009762683971978164,0.05692128676475905,0.9983309356694839,232.71967188674049,25.285427501602157,939.4429236847806,-46.91841383643288,87.09695434570312,4381.2578125,True
1599566325.44663,0.0,10,0.5,0.5,-8.747505270385743,-0.05075,-0.001,-0.001,0.8608729102412085,10,1,100,0.0676274808892004,-10,-1,-100,6369.779177864082,0.008114643067342525,0.05910216656081947,0.9982189571810919,223.1346778286718,24.279263947222066,908.8229838828053,-47.29428803717542,78.45013427734375,4381.2578125,True
1599566325.5104668,0.0,10,0.5,0.5,-8.050459904479982,-0.05075,-0.001,-0.001,1.0765609065491575,10,1,100,0.17309729713339514,-10,-1,-100,6366.87742617086,0.005670511537639885,0.06303574823788996,0.9979951601801439,243.59326660737645,26.604462013598877,1005.3629173910127,-47.85712480960888,64.95004272460938,4381.2578125,True
1599566325.5677378,0.0,10,0.5,0.5,-7.81591650466919,-0.05075,-0.001,-0.001,0.8388758054119615,10,1,100,0.012320943482190837,-10,-1,-100,6365.896703389124,0.004924320431813491,0.06443772727680916,0.9979095802584944,249.50832132378721,27.290338546382927,1034.2704990995453,-48.04438539271747,60.30747985839844,4381.2578125,True
1599566325.6255836,0.0,10,0.5,0.5,-7.070747793579102,-0.05075,-0.001,-0.001,1.2325870832833314,10,1,100,0.15882746261512393,-10,-1,-100,6362.983468151186,0.002927209251217641,0.06927754452235171,0.997593130124177,263.86562275031514,28.983342613776852,1107.9822288151186,-48.6052599096343,45.958831787109375,4381.2578125,True
1599566325.6864207,0.0,10,0.5,0.5,-6.821911319732667,-0.05075,-0.001,-0.001,0.9428834661667743,10,1,100,0.02082473115958418,-10,-1,-100,6362.013087370899,0.0023805378820867837,0.07102570035967368,0.9974716451748441,267.6794559870051,29.437628772796657,1128.7839090010145,-48.791968306211956,41.03468322753906,4381.2578125,True
1599566325.753242,0.0,10,0.5,0.5,-6.032223294067383,-0.05075,-0.001,-0.001,1.375726791791942,10,1,100,0.1048904653445443,-10,-1,-100,6359.03761554393,0.001132806998271987,0.07653100491942225,0.9970665584775813,273.7226904561902,30.180666438703014,1168.9835110826214,-49.3517259283573,25.837249755859375,4381.2578125,True
1599566325.8150768,0.0,10,0.5,0.5,-5.7686852218627935,-0.05075,-0.001,-0.001,1.0438084805159242,10,1,100,0.009073478619055136,-10,-1,-100,6358.066342277336,0.0008834748499748154,0.07849495724364372,0.9969141192497516,273.7649707709169,30.202055074840278,1174.1014279773437,-49.538297311121234,20.630767822265625,4381.2578125,True
1599566325.876911,0.0,10,0.5,0.5,-4.935277970886231,-0.05075,-0.001,-0.001,1.5092776547723323,10,1,100,0.01105098608848231,-10,-1,-100,6355.028114432353,0.0006500289748394989,0.08448900126468682,0.9964241998906026,267.4263639538217,29.54151701729744,1161.5488124843478,-50.098386539959314,4.58587646484375,4381.2578125,True
1599566325.948719,0.0,10,0.5,0.5,-4.369965991210937,-0.05075,-0.001,-0.001,1.3609025930139858,10,1,100,-0.046824624601458475,-10,-1,-100,6353.023211240768,0.0009746057453790371,0.08856162797355624,0.9960702225216426,257.6117409412505,28.494430053214113,1128.4547743447113,-50.47230015489684,-6.464599609375,4381.2578125,True
1599566326.0275085,0.0,10,0.5,0.5,-4.080212802124024,-0.05075,-0.001,-0.001,1.1789514234304157,10,1,100,-0.046806691843884946,-10,-1,-100,6352.052513085073,0.0012775016737339479,0.09058115040248799,0.9958882583810472,251.0238830632982,27.793919810919757,1104.270781205022,-50.65944373854176,-12.096435546875,4381.2578125,True
1599566326.0833614,0.0,10,0.5,0.5,-3.179468046569825,-0.05075,-0.001,-0.001,1.630372949014573,10,1,100,-0.17694884897135563,-10,-1,-100,6348.953437916702,0.002743685930032004,0.0964903120580658,0.9953301421470439,251.62671207732734,28.000345286327406,1120.964972854898,-51.220879335340506,-29.419281005859375,4381.2578125,True
1599566326.1441972,0.0,10,0.5,0.5,-2.8797885498046876,-0.05075,-0.001,-0.001,1.2500013411503148,10,1,100,-0.10232424551903965,-10,-1,-100,6347.920250982861,0.0034030579108612832,0.09837036426846396,0.9951440552153971,259.2211486796246,28.906788221686188,1159.5826394411406,-51.407594478977735,-35.33648681640625,4381.2578125,True
1599566326.2030396,0.0,10,0.5,0.5,-1.934789834594727,-0.05075,-0.001,-0.001,1.642500665295864,10,1,100,-0.2997575610865833,-10,-1,-100,6344.820161011652,0.005799396629162641,0.10361555593739404,0.9946005145617625,275.1285004409455,30.8740727786434,1245.826425977501,-51.96653486703358,-53.51788330078125,4381.2578125,True
1599566326.270858,0.0,10,0.5,0.5,-1.6205343353271486,-0.05075,-0.001,-0.001,1.2965790457550426,10,1,100,-0.15931645582603637,-10,-1,-100,6343.786936343415,0.0067003535287067685,0.10520355379635883,0.9944281359310019,278.72794306126747,31.33388328955968,1267.1850336526786,-52.1525586295608,-59.721832275390625,4381.2578125,True
1599566326.3227193,0.0,10,0.5,0.5,-0.2948901275634766,-0.05075,-0.001,-0.001,1.7413785300056959,10,1,100,-0.4959594068306855,-10,-1,-100,6339.591351182549,0.01057636558808234,0.11065815988017458,0.9938022500190271,278.15930250686,31.426562655362236,1284.902527280794,-52.89645798077052,-85.25381469726562,4381.2578125,True
1599566326.3795693,0.0,10,0.5,0.5,-0.3077932601928711,-0.05075,-0.001,-0.001,1.1998811675761711,10,1,100,-0.10917778366372784,-10,-1,-100,6339.591351182549,0.01057636558808234,0.11065815988017458,0.9938022500190271,278.15930250686,31.426562655362236,1284.902527280794,-52.89645798077052,-85.25381469726562,4381.2578125,True
1599566326.4489572,0.0,10,0.5,0.5,1.0782639778137209,-0.05075,-0.001,-0.001,1.6429573758506009,10,1,100,-0.5056601831160561,-10,-1,-100,6335.332892236649,0.014172165984385497,0.11465510072361416,0.9933042623433007,251.80280808014945,28.585542680833864,1181.9467589617961,-53.642089932831354,-111.82286071777344,4381.2578125,True
1599566326.5097928,0.0,10,0.5,0.5,1.0649402946472168,-0.05075,-0.001,-0.001,1.2468793058546392,10,1,100,-0.14740901259918152,-10,-1,-100,6335.332892236649,0.014172165984385497,0.11465510072361416,0.9933042623433007,251.80280808014945,28.585542680833864,1181.9467589617961,-53.642089932831354,-111.82286071777344,4381.2578125,True
1599566326.5716276,0.0,10,0.5,0.5,1.7736055633544925,-0.05075,-0.001,-0.001,1.4116330481973862,10,1,100,-0.32340763565127506,-10,-1,-100,6333.1410210717,0.015759860614850397,0.1161254382908583,0.9931095152978631,249.22620408330988,28.407784864277094,1179.1722773057875,-54.015473904154724,-125.29193115234375,4381.2578125,True
1599566326.6374505,0.0,10,0.5,0.5,2.8031594543457032,-0.05075,-0.001,-0.001,1.4776411259928077,10,1,100,-0.3444041827801026,-10,-1,-100,6329.915095069213,0.017380655930199218,0.11803712423165924,0.9928570642859705,272.8120594056997,31.310779233952275,1305.8429386894081,-54.573546821893956,-145.21734619140625,4381.2578125,True
1599566326.6988354,0.0,10,0.5,0.5,3.4652421066284185,-0.05075,-0.001,-0.001,1.4083210405064177,10,1,100,-0.25679061963845506,-10,-1,-100,6327.722091156407,0.018042980048086382,0.11911987796993913,0.9927159238893124,281.15444352198233,32.39166563239899,1356.0452270813703,-54.94472801150281,-158.13900756835938,4381.2578125,True
1599566326.7616682,0.0,10,0.5,0.5,3.7935241210937503,-0.05075,-0.001,-0.001,1.3627625405414538,10,1,100,-0.21212547385675534,-10,-1,-100,6326.564057369251,0.018225137653497394,0.11966945903604674,0.9926464954511909,283.4671490335416,32.70897085166404,1372.3903079709405,-55.130210626075424,-164.48358154296875,4381.2578125,True
1599566326.8225052,0.0,10,0.5,0.5,-13.869144757080079,-0.05075,-0.001,-0.001,1.4976252681071522,10,1,100,-0.19407994587874178,-10,-1,-100,6323.274041999946,0.018213210604304884,0.12137574016968039,0.9924395239296678,280.84722700322686,32.529229163031815,1375.3294343469177,-55.68686185567187,176.95098876953125,4381.2578125,True
1599566326.9012964,0.0,10,0.5,0.5,-12.62655810699463,-0.05075,-0.001,-0.001,1.5506057163371634,10,1,100,-0.10374541312602245,-10,-1,-100,6319.921605662443,0.017369859521855026,0.12339239965304537,0.992205928065366,265.49546189350093,30.882483277365253,1315.2416011288976,-56.244507404986486,159.09207153320312,4381.2578125,True
1599566326.9561496,0.0,10,0.5,0.5,-12.36179022064209,-0.05075,-0.001,-0.001,1.4373080658751427,10,1,100,-0.14002725645507214,-10,-1,-100,6318.762655249913,0.016923312108080017,0.12417921250112544,0.9921154795132938,258.0143557097505,30.069793845924092,1283.10351458863,-56.43066948526762,153.20785522460938,4381.2578125,True
1599566327.0159886,0.0,10,0.5,0.5,-11.461427746582032,-0.05075,-0.001,-0.001,1.6680903903322002,10,1,100,0.007405629556849369,-10,-1,-100,6315.347479746095,0.015171290998612542,0.12698022617387972,0.9917892185793642,268.54503118766456,31.53027860525647,1350.7348925281237,-56.98864239056613,135.23504638671875,4381.2578125,True
1599566327.0757244,0.0,10,0.5,0.5,-10.864397592163087,-0.05075,-0.001,-0.001,1.6428892384400846,10,1,100,-0.010878441624989132,-10,-1,-100,6313.090873411624,0.013740586159467433,0.12928266261709737,0.9915125765408264,283.2667845137629,33.43660983433771,1435.36291060982,-57.35926905738435,122.92486572265625,4381.2578125,True
1599566327.1430528,0.0,10,0.5,0.5,-10.576365227508546,-0.05075,-0.001,-0.001,1.5547438508994178,10,1,100,-0.06634483099573513,-10,-1,-100,6311.932595967897,0.012944577645274041,0.13056116716793145,0.9913557482242856,288.6923958548991,34.16134738487628,1468.2142706082614,-57.54428796189756,116.66752624511719,4381.2578125,True
1599566327.2068822,0.0,10,0.5,0.5,-9.612927515411377,-0.05075,-0.001,-0.001,1.9196451873602718,10,1,100,0.1270264907538688,-10,-1,-100,6308.455088035087,0.010464128424046478,0.135026268848839,0.9907867624958896,298.8280118907747,35.57601412928897,1536.4477150103974,-58.09871466412172,97.48793029785156,4381.2578125,True
1599566327.2677197,0.0,10,0.5,0.5,-9.316518463134766,-0.05075,-0.001,-0.001,1.6612440279410503,10,1,100,-0.03035132508152248,-10,-1,-100,6307.295034517767,0.00964469630524389,0.13671916817261842,0.9905628949679908,298.93864305702004,35.64756267341133,1542.6536680310833,-58.283512114516576,90.9591064453125,4381.2578125,True
1599566327.3355744,0.0,10,0.5,0.5,-9.005293865203859,-0.05075,-0.001,-0.001,1.6909909355419535,10,1,100,-0.0228025471640248,-10,-1,-100,6306.13600722875,0.008838165452196064,0.13851161031429796,0.990321372403716,297.24066501461306,35.50091594432102,1539.5541253300953,-58.46839720489571,84.36256408691406,4381.2578125,True
1599566327.3883991,0.0,10,0.5,0.5,-7.991056832122803,-0.05075,-0.001,-0.001,2.1729757534309115,10,1,100,0.15143064323286476,-10,-1,-100,6302.596245222725,0.006529385504540762,0.14450515448541137,0.9894825048741794,280.9337233361039,33.739842395941025,1471.4595039944618,-59.02395051837188,64.16770935058594,4381.2578125,True
1599566327.4711752,0.0,10,0.5,0.5,-6.95752635421753,-0.05075,-0.001,-0.001,2.3213515398371776,10,1,100,0.1156718899855423,-10,-1,-100,6298.9959099004045,0.004766206719965198,0.15128012388516293,0.9884794420678623,278.42549711084405,33.73033095097214,1474.6027961993864,-59.58030679704406,43.36402893066406,4381.2578125,True
