Timestamp,Input Throttle,horizon,dT,dt,Input Roll,Roll P,Roll I,Roll D,Input Pitch,Pitch P,Pitch I,Pitch D,Input Yaw,Yaw P,Yaw I,Yaw D,Altitude,Direction X,Direction Y,Direction Z,Drag X,Drag Y,Drag Z,Vertical Velocity,Roll,Mass,Has Fuel
1599568043.2193053,0.0,10,0.5,0.5,-2.7448963775634767,-0.05075,-0.03,-0.5,-0.06716636700053104,10,1,100,0.6903563817504192,-10,-1,-100,6483.617966896971,-0.06725822918664708,-0.007002202425782802,0.9977110301925426,205.0731544889548,21.49876938901371,-156.76519026225287,9.59082422461751,-35.94464111328125,4381.2578125,True
1599568043.2840714,0.0,10,0.5,0.5,-2.907324371337891,-0.05075,-0.03,-0.5,-0.0673287112894618,10,1,100,0.6999205824437311,-10,-1,-100,6483.997882963275,-0.06744561525627067,-0.006971352123865125,0.9976985963868388,204.6121954506178,21.456745757609607,-150.26675712504763,9.210801918632571,-35.9412841796875,4381.2578125,True
1599568043.3484168,0.0,10,0.5,0.5,-3.0461234970092774,-0.05075,-0.03,-0.5,-0.05200995613377518,10,1,100,0.7005516217769692,-10,-1,-100,6484.316760157119,-0.0675603887541795,-0.006797707391502935,0.9976920291580984,204.14945835237015,21.414353788245908,-143.78934913827754,8.830798237862616,-35.980682373046875,4381.2578125,True
1599568043.4123697,0.0,10,0.5,0.5,-3.075906623840332,-0.05075,-0.03,-0.5,-0.034015099570314566,10,1,100,0.6995170909182499,-10,-1,-100,6484.697140377946,-0.06759390493651354,-0.0064700792047863,0.997691937468935,203.75662287825025,21.37897056449259,-137.3815328736262,8.450805927141172,-36.256622314453125,4381.2578125,True
1599568043.4743838,0.0,10,0.5,0.5,-3.065948539733887,-0.05075,-0.03,-0.5,-0.015273323994929887,10,1,100,0.6974147321784526,-10,-1,-100,6485.016949048149,-0.06754381283651315,-0.005995973730536056,0.9976982918931597,203.447047683367,21.351718457551577,-131.04565444802336,8.070816561281992,-36.817962646484375,4381.2578125,True
1599568043.535728,0.0,10,0.5,0.5,-3.0359398193359377,-0.05075,-0.03,-0.5,0.012309421422731594,10,1,100,0.689219284665631,-10,-1,-100,6485.335754364962,-0.06736236702927212,-0.005308765637665697,0.997714452393879,203.1997481347088,21.330119268162086,-124.76137940967469,7.690822451683568,-37.6717529296875,4381.2578125,True
1599568043.6005213,0.0,10,0.5,0.5,-3.3240907516479496,-0.05075,-0.03,-0.5,-0.010202032957856134,10,1,100,0.6984284101640843,-10,-1,-100,6485.493927101954,-0.0672198971026487,-0.004883854442481927,0.9977262316884797,203.08715380673357,21.3200741148744,-121.62949119003451,7.5008211671219005,-38.208709716796875,4381.2578125,True
1599568043.661392,0.0,10,0.5,0.5,-3.0350841369628907,-0.05075,-0.03,-0.5,0.057348900189352806,10,1,100,0.6755235157268278,-10,-1,-100,6485.750192448497,-0.06682104367710448,-0.003879032277847071,0.9977574360687521,202.85081837292162,21.297880644107085,-115.36567715252073,7.120805164612607,-39.5030517578125,4381.2578125,True
1599568043.7242286,0.0,10,0.5,0.5,-2.958979934692383,-0.05075,-0.03,-0.5,0.08866413573571161,10,1,100,0.6606264052662547,-10,-1,-100,6486.005454781465,-0.06626227497362534,-0.002677347230232261,0.9977986483891068,202.54381599754694,21.266894361139602,-109.07293419554499,6.740763789386602,-41.09136962890625,4381.2578125,True
1599568043.7860594,0.0,10,0.5,0.5,-2.2842048110961914,-0.05075,-0.03,-0.5,0.20672284750489575,10,1,100,0.5964505538793952,-10,-1,-100,6486.420283705345,-0.06511064816242411,-0.0005092113097441845,0.9978779204891304,201.77073173178565,21.184732915828516,-99.50490436786336,6.17063307608519,-44.024932861328125,4381.2578125,True
1599568043.8498886,0.0,10,0.5,0.5,-3.269334686279297,-0.05075,-0.03,-0.5,0.07851642673165253,10,1,100,0.6656259212441744,-10,-1,-100,6486.517858056934,-0.06463339017540969,0.0002967713484970774,0.9979090323276967,201.38008954672813,21.142595868267083,-96.26504824992972,5.980564905213139,-45.14990234375,4381.2578125,True
1599568043.9096966,0.0,10,0.5,0.5,-1.7021162109374997,-0.05075,-0.03,-0.5,0.28605163894006935,10,1,100,0.5225647552089592,-10,-1,-100,6486.869138464332,-0.0629013494405412,0.002909531172634487,0.9980155083298627,199.59869190298667,20.94991587302081,-86.3450224946344,5.410257153277531,-48.9666748046875,4381.2578125,True
1599568043.967541,0.0,10,0.5,0.5,-2.7895387573242187,-0.05075,-0.03,-0.5,0.12719149254915885,10,1,100,0.6201947669905975,-10,-1,-100,6486.965225175838,-0.062218443666689945,0.003831601606208855,0.9980552009266953,198.74914708981223,20.858127930991316,-82.96494974745522,5.220112181953006,-50.3863525390625,4381.2578125,True
1599568044.027417,0.0,10,0.5,0.5,-0.867292739868164,-0.05075,-0.03,-0.5,0.36085599638574667,10,1,100,0.4278011746653295,-10,-1,-100,6487.255408213357,-0.05985344389212954,0.006784407208883886,0.9981841198261349,195.17790175949776,20.473617257709094,-72.59095092369736,4.6495123803242455,-55.08697509765625,4381.2578125,True
1599568044.0872555,0.0,10,0.5,0.5,-1.2319584732055664,-0.05075,-0.03,-0.5,0.29117598635334097,10,1,100,0.45918540349936177,-10,-1,-100,6487.448517946992,-0.05799579205106073,0.00882327176882689,0.9982778360655231,191.75092918084047,20.106558966471496,-65.49140252918033,4.268938198728682,-58.589752197265625,4381.2578125,True
1599568044.1451015,0.0,10,0.5,0.5,-0.829272613525391,-0.05075,-0.03,-0.5,0.31365229923177873,10,1,100,0.4154224909134079,-10,-1,-100,6487.578626158414,-0.05591785300911264,0.010867643080852361,0.9983762257028753,187.29289359165327,19.631328623183663,-58.273572712713,3.888185664642226,-62.38232421875,4381.2578125,True
1599568044.206941,0.0,10,0.5,0.5,-1.5519774322509763,-0.05075,-0.03,-0.5,0.2205721335833164,10,1,100,0.49928076611158434,-10,-1,-100,6487.675171404728,-0.054801569576434304,0.011865273305236297,0.9984267640950693,184.6407226465749,19.34955804037837,-54.63894020157544,3.697732745362016,-64.37860107421875,4381.2578125,True
1599568044.2667735,0.0,10,0.5,0.5,1.0594764785766602,-0.05075,-0.03,-0.5,0.45292235424251254,10,1,100,0.20567533328730803,-10,-1,-100,6487.839796656859,-0.05112891554607532,0.014869258126352824,0.9985813633139036,174.8475521295212,18.31387574255493,-43.750902859618805,3.126005036780107,-70.79000854492188,4381.2578125,True
1599568044.3255851,0.0,10,0.5,0.5,0.48493590545654297,-0.05075,-0.03,-0.5,0.3665467495266783,10,1,100,0.2732208117170256,-10,-1,-100,6487.969400428468,-0.04841845452977461,0.016797876747765537,0.9986858788416482,166.6185611791105,17.447963215080136,-36.60809433938577,2.7444669733249527,-75.39700317382812,4381.2578125,True
1599568044.384427,0.0,10,0.5,0.5,0.9317136611938477,-0.05075,-0.03,-0.5,0.37299180714080993,10,1,100,0.2274137166479243,-10,-1,-100,6488.100471076206,-0.04555419257836746,0.01859205308738011,0.9987888420985335,157.02749984844,16.441161875606518,-29.704422076639222,2.36263922355771,-80.20382690429688,4381.2578125,True
1599568044.4419005,0.0,10,0.5,0.5,-0.07143360137939458,-0.05075,-0.03,-0.5,0.2873938029421754,10,1,100,0.349789219715661,-10,-1,-100,6488.134027337539,-0.044080601246416794,0.019427594026681115,0.9988390607020174,151.86516725927493,15.899882918093242,-26.407028627051904,2.1716463856800026,-82.54922485351562,4381.2578125,True
1599568044.5007095,0.0,10,0.5,0.5,2.601006805419922,-0.05075,-0.03,-0.5,0.4664877587324934,10,1,100,-0.01894299431077534,-10,-1,-100,6488.23470908741,-0.039407546079793125,0.021797911912613842,0.9989854335015196,149.72388252171035,15.675115479071744,-19.166785930557317,1.5985123872886637,-89.3271484375,4381.2578125,True
1599568044.5611668,0.0,10,0.5,0.5,1.683835439682007,-0.05075,-0.03,-0.5,0.38393313815993196,10,1,100,0.08670266086345368,-10,-1,-100,6488.301358182216,-0.036141087160228916,0.023185078548493054,0.9990777116679048,155.59935497025313,16.289604634185483,-15.15907979288507,1.2163945400442358,-93.59534454345703,4381.2578125,True
1599568044.6200018,0.0,10,0.5,0.5,0.8456112709045409,-0.05075,-0.03,-0.5,0.3173279218611504,10,1,100,0.2255726951832234,-10,-1,-100,6488.273408732028,-0.03445774059671978,0.023823043090264975,0.9991221780797824,158.27829165566445,16.56928041349115,-12.998969627297239,1.0253502784979958,-95.71290588378906,4381.2578125,True
1599568044.6798515,0.0,10,0.5,0.5,2.1559668903350833,-0.05075,-0.03,-0.5,0.37603066633699983,10,1,100,0.03339415185042888,-10,-1,-100,6488.341060115257,-0.031203434875318257,0.024921182499945915,0.999202322012307,163.9041367195068,17.155788039491046,-8.44636237232397,0.6433003629140432,-99.79326629638672,4381.2578125,True
1599568044.7372992,0.0,10,0.5,0.5,2.3358289165496826,-0.05075,-0.03,-0.5,0.3747525744888055,10,1,100,-0.015200194140195411,-10,-1,-100,6488.345255573397,-0.02782756503519824,0.02589323757309853,0.9992773223045718,168.5759943184929,17.64201940252656,-3.528736576149248,0.26127947027722254,-103.59976959228516,4381.2578125,True
1599568044.798104,0.0,10,0.5,0.5,2.505162384033203,-0.05075,-0.03,-0.5,0.3671556338386359,10,1,100,-0.05790812639971099,-10,-1,-100,6488.350446047378,-0.02439587514906982,0.02669420127506096,0.9993459165344086,173.04642054209162,18.107824049658014,1.6744675518064265,-0.12076523580554088,-107.13845825195312,4381.2578125,True
1599568044.8579428,0.0,10,0.5,0.5,2.6614514598846437,-0.05075,-0.03,-0.5,0.35856082401972744,10,1,100,-0.0853815636033679,-10,-1,-100,6488.354681128985,-0.021054040091126526,0.027330734616700526,0.9994047019807105,176.92782141398072,18.512996691226064,7.130111320364957,-0.5028890195541207,-110.40192413330078,4381.2578125,True
1599568044.9168284,0.0,10,0.5,0.5,3.542769630432129,-0.05075,-0.03,-0.5,0.37173475553935076,10,1,100,-0.3015875157937178,-10,-1,-100,6488.268545682542,-0.016077840359861213,0.028017835689741845,0.9994781157847458,182.30952811933273,19.075419558003734,15.726671121421694,-1.0762469921824063,-114.74911499023438,4381.2578125,True
1599568044.9796188,0.0,10,0.5,0.5,2.8805349235534665,-0.05075,-0.03,-0.5,0.33611255380052363,10,1,100,-0.16326360751424712,-10,-1,-100,6488.2103369239485,-0.012840913055951492,0.02830843486857009,0.9995167549707115,184.92411303639304,19.348801339658856,21.622715671670154,-1.458613834860571,-117.27894592285156,4381.2578125,True
1599568045.0454488,0.0,10,0.5,0.5,2.9574940757751467,-0.05075,-0.03,-0.5,0.3288161737596071,10,1,100,-0.18471269234837998,-10,-1,-100,6488.155080209253,-0.009732999535289099,0.0284974521382409,0.9995464791302477,186.91170214545483,19.55688481442431,27.589955530948266,-1.8410899742422149,-119.51344299316406,4381.2578125,True
1599568045.1083102,0.0,10,0.5,0.5,3.492147384643555,-0.05075,-0.03,-0.5,0.3215344393973409,10,1,100,-0.3682238264856466,-10,-1,-100,6488.003143727779,-0.005270565662267342,0.028594843109092345,0.9995771886578675,189.03055105477392,19.77928347816109,36.6090816752182,-2.4150051871184317,-122.31146240234375,4381.2578125,True
1599568045.170621,0.0,10,0.5,0.5,2.1920906219482426,-0.05075,-0.03,-0.5,0.31247503543184435,10,1,100,0.07460586277477649,-10,-1,-100,6488.003143727779,-0.005270565662267342,0.028594843109092345,0.9995771886578675,189.03055105477392,19.77928347816109,36.6090816752182,-2.4150051871184317,-122.31146240234375,4381.2578125,True
1599568045.2315032,0.0,10,0.5,0.5,3.452713182449341,-0.05075,-0.03,-0.5,0.307270651335309,10,1,100,-0.3824177618671894,-10,-1,-100,6487.853689109208,-0.0011438695487021634,0.028542612558614205,0.9995919221516271,190.41538628487802,19.92520777095987,45.655407045764306,-2.9891394636459543,-124.44396209716797,4381.2578125,True
1599568045.2903018,0.0,10,0.5,0.5,3.281226011276245,-0.05075,-0.03,-0.5,0.2839038475145984,10,1,100,-0.4042466132507769,-10,-1,-100,6487.64079197112,0.002775831138891506,0.02827841423302003,0.9995962315104804,191.30453192165322,20.01933024827764,54.695692134460245,-3.5634626092596124,-125.9120864868164,4381.2578125,True
1599568045.3491783,0.0,10,0.5,0.5,2.8131346225738527,-0.05075,-0.03,-0.5,0.3035057143155777,10,1,100,-0.14430689535913527,-10,-1,-100,6487.5499745243,0.003945216814039728,0.028213380697276885,0.999594137844916,191.52095364960968,20.042351409693698,57.705043442409874,-3.754940683215699,-126.25273895263672,4381.2578125,True
1599568045.406025,0.0,10,0.5,0.5,2.8577367706298826,-0.05075,-0.03,-0.5,0.30068453464310074,10,1,100,-0.1569385437302735,-10,-1,-100,6487.518731147051,0.0050942435204127876,0.028126502992193166,0.9995913907754431,191.6963962265398,20.061096744408847,60.708975667412034,-3.9464357547279914,-126.51959228515625,4381.2578125,True
1599568045.9016683,0.0,10,0.5,0.5,2.9541637020111082,-0.05075,-0.03,-0.5,0.28631163992100833,10,1,100,-0.2884603137352124,-10,-1,-100,6487.336622636416,0.007307656509279121,0.027915558488537006,0.9995835731696552,191.9899076928764,20.09264657039814,66.7158168145443,-4.329472568938477,-126.83136749267578,4381.2578125,True
1599568045.9485407,0.0,10,0.5,0.5,2.8725866775512694,-0.05075,-0.03,-0.5,0.29060657066746876,10,1,100,-0.1896219546368172,-10,-1,-100,6487.244838306215,0.00839553623771728,0.027762303924843013,0.9995792962302019,192.10362996393772,20.10500943477372,69.7153864473548,-4.521011927567454,-126.87680053710938,4381.2578125,True
1599568046.004408,0.0,10,0.5,0.5,2.8137832317352296,-0.05075,-0.03,-0.5,0.2722560872638051,10,1,100,-0.307271773423074,-10,-1,-100,6487.060298294178,0.01043181309199287,0.027456391319419623,0.9995685688592497,192.36032153081842,20.132939372688654,75.73927548341985,-4.904126369752834,-126.7452163696289,4381.2578125,True
1599568046.0592465,0.0,10,0.5,0.5,2.6722439498901367,-0.05075,-0.03,-0.5,0.26835582245221223,10,1,100,-0.3112853716524633,-10,-1,-100,6486.813261441188,0.012298304101466996,0.027143606583064923,0.9995558895519008,192.54211384778768,20.15331456186035,81.75082629195046,-5.28728009689123,-126.31719970703125,4381.2578125,True
1599568046.1131008,0.0,10,0.5,0.5,2.508005126953125,-0.05075,-0.03,-0.5,0.2605681722844839,10,1,100,-0.31776135002527084,-10,-1,-100,6486.62872661429,0.014033958182890128,0.02678969077172237,0.9995425756245085,192.63573723956995,20.16489361054472,87.73708133442088,-5.670463532155481,-125.59335327148438,4381.2578125,True
1599568046.1699486,0.0,10,0.5,0.5,2.619256896972656,-0.05075,-0.03,-0.5,0.27573917727830644,10,1,100,-0.23494897109227714,-10,-1,-100,6486.474448405206,0.014841436154024707,0.02660750839984332,0.9995357783839648,192.6373063511493,20.166163966837455,90.71244227745066,-5.862063505031985,-125.12033081054688,4381.2578125,True
1599568046.2288346,0.0,10,0.5,0.5,2.220935943603515,-0.05075,-0.03,-0.5,0.25113697907791765,10,1,100,-0.3223714408616748,-10,-1,-100,6486.228390278295,0.016351973124035857,0.026220038382412693,0.9995224472527745,192.53262421844897,20.157978247612736,96.61195116455134,-6.245274178303989,-123.95236206054688,4381.2578125,True
1599568046.2856812,0.0,10,0.5,0.5,1.9970778007507324,-0.05075,-0.03,-0.5,0.24530980127817092,10,1,100,-0.32224773864471357,-10,-1,-100,6485.9798890003,0.01770815867418931,0.025816929999456426,0.9995098334892824,192.2402157238449,20.13109350480638,102.40865349109592,-6.628492124940994,-122.48823547363281,4381.2578125,True
1599568046.3415291,0.0,10,0.5,0.5,1.7497038345336913,-0.05075,-0.03,-0.5,0.23609410127223945,10,1,100,-0.323400541988355,-10,-1,-100,6485.733825622359,0.0189379598160571,0.025368926455109138,0.9994987600034931,191.69709792439713,20.079180576827028,108.0496353530306,-7.011709499398536,-120.728515625,4381.2578125,True
1599568046.3993735,0.0,10,0.5,0.5,1.4805735893249512,-0.05075,-0.03,-0.5,0.23190157246163468,10,1,100,-0.31762064427840353,-10,-1,-100,6485.424768637749,0.019989786563117336,0.024926122474917167,0.9994894180788141,190.82317877697804,19.994105154180954,113.46401120674702,-7.394920495270841,-118.67237854003906,4381.2578125,True
1599568046.45818,0.0,10,0.5,0.5,1.1898513870239258,-0.05075,-0.03,-0.5,0.2233720628575938,10,1,100,-0.31440153643011876,-10,-1,-100,6485.112287653959,0.020903186677239775,0.02444894184244889,0.9994825191215307,189.52586811134472,19.866358585270603,118.56317508227369,-7.778122829574594,-116.32058715820312,4381.2578125,True
1599568046.5190167,0.0,10,0.5,0.5,0.8760499916076663,-0.05075,-0.03,-0.5,0.21557322786079672,10,1,100,-0.3084808309147087,-10,-1,-100,6484.804193369229,0.021667366248876482,0.02394739423718511,0.9994783877348653,187.78156761377682,19.69353748693805,123.29238082462793,-8.16131931524255,-113.67298889160156,4381.2578125,True
1599568046.5788562,0.0,10,0.5,0.5,0.5392329368591309,-0.05075,-0.03,-0.5,0.20684793105682783,10,1,100,-0.3013938314369792,-10,-1,-100,6484.430661568651,0.022285582382374894,0.02341558908844346,0.9994773949447378,185.84718751467452,19.502518571744883,127.7868619317016,-8.54451588499016,-110.72972106933594,4381.2578125,True
1599568046.6416886,0.0,10,0.5,0.5,0.17904703330993677,-0.05075,-0.03,-0.5,0.19748792434679266,10,1,100,-0.29308441030685617,-10,-1,-100,6484.058096536668,0.022761280703199258,0.022850712348797077,0.9994797491924999,183.20727922509943,19.23892546529956,131.65873431550867,-8.927725468710367,-107.49091339111328,4381.2578125,True
1599568046.7055933,0.0,10,0.5,0.5,-0.19417861938476566,-0.05075,-0.03,-0.5,0.18700442130453426,10,1,100,-0.2838435065570546,-10,-1,-100,6483.747533975635,0.023100213709312544,0.022245786098038258,0.9994856202704792,179.75195431009834,18.890519455291514,134.76017085965685,-9.310967848331956,-103.97543334960938,4381.2578125,True
1599568046.768421,0.0,10,0.5,0.5,-1.6054504909515381,-0.05075,-0.03,-0.5,0.13761267914481076,10,1,100,-0.2801699262009455,-10,-1,-100,6483.156672022538,0.023366696388426884,0.021250968127417922,0.9995010724624254,173.74898694729424,18.281416887827806,138.36644699441229,-9.885936327245311,-98.33919525146484,4381.2578125,True
1599568046.8332145,0.0,10,0.5,0.5,0.07041955184936532,-0.05075,-0.03,-0.5,0.19713228996170734,10,1,100,-0.2573376178396768,-10,-1,-100,6482.937904031132,0.023393636693215293,0.020892545107255245,0.9995079986279286,171.4367109420003,18.045035469612312,139.1940848511493,-10.077629927559247,-96.41108703613281,4381.2578125,True
1599568046.8985744,0.0,10,0.5,0.5,-2.193873384475708,-0.05075,-0.03,-0.5,0.10548360091170998,10,1,100,-0.24562081624987586,-10,-1,-100,6482.2835378373275,0.023305209988961857,0.019738379273266615,0.9995335229851148,163.92581736048754,17.2713659043576,140.7605676512055,-10.65284921561164,-90.69937896728516,4381.2578125,True
1599568046.9670668,0.0,10,0.5,0.5,-2.385755012512207,-0.05075,-0.03,-0.5,0.0760986274268288,10,1,100,-0.21964448048483926,-10,-1,-100,6481.6306194673525,0.022983585340581335,0.01842752743862002,0.9995659963391067,156.3471565148295,16.481672392537302,141.57539759209558,-11.228267114628428,-85.3387451171875,4381.2578125,True
1599568047.0359087,0.0,10,0.5,0.5,0.18839260101318356,-0.05075,-0.03,-0.5,0.2064896709898392,10,1,100,-0.2522115078753439,-10,-1,-100,6481.6306194673525,0.022983585340581335,0.01842752743862002,0.9995659963391067,156.3471565148295,16.481672392537302,141.57539759209558,-11.228267114628428,-85.3387451171875,4381.2578125,True
1599568047.1002824,0.0,10,0.5,0.5,-2.6582823181152344,-0.05075,-0.03,-0.5,0.05038079270996096,10,1,100,-0.1944019078603527,-10,-1,-100,6480.9747567038285,0.022455321887010993,0.017014263631563217,0.9996030578944957,157.94892625070136,16.648841482852642,150.43442653900763,-11.803774659302086,-80.35159301757812,4381.2578125,True
1599568047.1632614,0.0,10,0.5,0.5,-2.762921615600586,-0.05075,-0.03,-0.5,0.013405058748450077,10,1,100,-0.16914679610830946,-10,-1,-100,6480.195838085609,0.02174407942673777,0.015400094114780464,0.9996449530263931,167.21734591443087,17.61420376462687,167.11542970770736,-12.379120330681992,-75.82992553710938,4381.2578125,True
1599568047.2270858,0.0,10,0.5,0.5,-1.4173879165649415,-0.05075,-0.03,-0.5,0.11458151604872516,10,1,100,-0.21056764788539414,-10,-1,-100,6479.977049435023,0.021473978830664826,0.014860223529637194,0.999658962841743,170.05022635462447,17.907031173786354,172.61089282806233,-12.57085234734851,-74.3741455078125,4381.2578125,True
1599568047.2885017,0.0,10,0.5,0.5,-1.5657623367309572,-0.05075,-0.03,-0.5,0.10576160487624806,10,1,100,-0.20567931925884353,-10,-1,-100,6479.696737080114,0.021184731304495063,0.014297028682992435,0.9996733477143391,172.72197860669826,18.1820499734154,178.03006012035337,-12.7625561597143,-72.98114013671875,4381.2578125,True
1599568047.3473458,0.0,10,0.5,0.5,-3.038387199401855,-0.05075,-0.03,-0.5,-0.03614967297283514,10,1,100,-0.12879833499858226,-10,-1,-100,6478.915369959199,0.020224294195973543,0.012502706918019902,0.9997172901595714,180.00965540047943,18.926414202083848,194.0120935467111,-13.337486093516866,-69.23062133789062,4381.2578125,True
1599568047.4076972,0.0,10,0.5,0.5,-1.8745352020263673,-0.05075,-0.03,-0.5,0.07222959801903822,10,1,100,-0.18601107172749098,-10,-1,-100,6478.636034210096,0.01987389981259255,0.011865628758134647,0.9997320815900694,182.0851764803334,19.13625847599471,199.10715594738087,-13.529068244643016,-68.128173828125,4381.2578125,True
1599568047.4695337,0.0,10,0.5,0.5,-2.505494438171387,-0.05075,-0.03,-0.5,-0.008868329570282357,10,1,100,-0.1390423909734852,-10,-1,-100,6478.073456718237,0.01913154672682417,0.010557745034126303,0.9997612304643713,185.74381179718728,19.503053297548227,208.94207354518002,-13.912142236297834,-66.146240234375,4381.2578125,True
1599568047.5323303,0.0,10,0.5,0.5,-2.935690673828125,-0.05075,-0.03,-0.5,-0.09988895877670428,10,1,100,-0.07954803618466688,-10,-1,-100,6477.230571333901,0.017919697141651286,0.008550694837763181,0.9998028656050866,190.1718972805767,19.939957933270982,222.8917526046333,-14.48653708762907,-63.730682373046875,4381.2578125,True
1599568047.5932105,0.0,10,0.5,0.5,-2.4907171936035155,-0.05075,-0.03,-0.5,-0.05511373621397156,10,1,100,-0.10419786177233421,-10,-1,-100,6476.66848921089,0.01704700094487956,0.007143321850217462,0.9998291717647217,192.52829890398073,20.16787666662022,231.71277083980357,-14.869332552330725,-62.4925537109375,4381.2578125,True
1599568047.651052,0.0,10,0.5,0.5,-2.4586709289550783,-0.05075,-0.03,-0.5,-0.0698520167856683,10,1,100,-0.08956333570715146,-10,-1,-100,6476.042935955455,0.01612599651485424,0.005740165861422658,0.9998534906336459,194.47401575589925,20.352267238474706,240.18011659673564,-15.252029308290865,-61.5511474609375,4381.2578125,True
1599568047.7108982,0.0,10,0.5,0.5,-2.4141717224121093,-0.05075,-0.03,-0.5,-0.08744728788831,10,1,100,-0.07435441396117155,-10,-1,-100,6475.417387923459,0.015156691006982064,0.004316146463019001,0.9998758150877681,196.06356957841908,20.498945621945108,248.32446067855685,-15.63463467922076,-60.9068603515625,4381.2578125,True
1599568047.7687342,0.0,10,0.5,0.5,-2.341766815185547,-0.05075,-0.03,-0.5,-0.10369778075954182,10,1,100,-0.05876793307226638,-10,-1,-100,6474.792334739352,0.014140444019817339,0.00288539536306679,0.9998958557452476,197.32968044192398,20.61136707204475,256.15503753020215,-16.017156814605883,-60.559326171875,4381.2578125,True
1599568047.8275695,0.0,10,0.5,0.5,-2.2419809875488284,-0.05075,-0.03,-0.5,-0.11789148088534149,10,1,100,-0.042862486623756774,-10,-1,-100,6474.10527661466,0.01307890055050561,0.0014670559062863414,0.9999133913031456,198.28892158822077,20.691238429704136,263.66373388914775,-16.399604452469205,-60.5081787109375,4381.2578125,True
1599568047.8864233,0.0,10,0.5,0.5,-2.2108767700195315,-0.05075,-0.03,-0.5,-0.055008423898485,10,1,100,-0.08791789596836326,-10,-1,-100,6473.824005921255,0.012531087552700607,0.0007614961614785843,0.9999211928788899,198.65667257974494,20.71928779918878,267.2927633488072,-16.590803460987033,-60.59375,4381.2578125,True
1599568047.9462252,0.0,10,0.5,0.5,-1.9048894805908203,-0.05075,-0.03,-0.5,-0.21486088254278096,10,1,100,0.04591577956684666,-10,-1,-100,6472.792215829948,0.01082427290778669,-0.0013208209282752365,0.9999405435065093,199.3045707027191,20.754999431969935,277.6259482866569,-17.164316198079504,-61.29449462890625,4381.2578125,True
1599568048.0061,0.0,10,0.5,0.5,-1.817870834350586,-0.05075,-0.03,-0.5,-0.15939089350425723,10,1,100,0.007526838856136156,-10,-1,-100,6472.103714630823,0.009630159074587941,-0.0026969969932954985,0.9999499918713017,199.3317986381869,20.735803867611885,283.9818885380081,-17.546602472691426,-62.13189697265625,4381.2578125,True
1599568048.0640712,0.0,10,0.5,0.5,-1.6307483901977542,-0.05075,-0.03,-0.5,-0.16827866058685917,10,1,100,0.02426652369181055,-10,-1,-100,6471.354184944066,0.008401734582935678,-0.004015625275199909,0.9999566418648597,198.9958541400923,20.678181045300462,289.8189842194141,-17.928859793182212,-63.264556884765625,4381.2578125,True
1599568048.1219113,0.0,10,0.5,0.5,-1.832914993286133,-0.05075,-0.03,-0.5,-0.10720929415098399,10,1,100,-0.02881773378753677,-10,-1,-100,6471.010429118876,0.0077773235786494045,-0.004645953681778393,0.999958963334166,198.79567852177607,20.64580933221743,292.6854746720933,-18.119981383970554,-63.94146728515625,4381.2578125,True
1599568048.181756,0.0,10,0.5,0.5,-0.8079979934692383,-0.05075,-0.03,-0.5,-0.2509239809345677,10,1,100,0.12234180544184359,-10,-1,-100,6469.91520669451,0.005844719921361154,-0.006513479705319102,0.9999617061823765,197.58935874158703,20.48531191816136,300.34050026782126,-18.69333848210878,-66.41580200195312,4381.2578125,True
1599568048.2396073,0.0,10,0.5,0.5,-0.9217942657470704,-0.05075,-0.03,-0.5,-0.1951603913436807,10,1,100,0.07620015930075723,-10,-1,-100,6469.1017339956015,0.004517460907857637,-0.00769187363811574,0.9999602130219388,196.17204440301455,20.314886567256973,304.4414930473455,-19.075590321262574,-68.43414306640625,4381.2578125,True
1599568048.2979798,0.0,10,0.5,0.5,-0.6413117065429688,-0.05075,-0.03,-0.5,-0.19865846908896276,10,1,100,0.09196593720211359,-10,-1,-100,6468.351744701969,0.0031780897652121066,-0.008782730611524759,0.999956380742905,194.1757103723759,20.08540398719248,307.5464150323382,-19.457872510066082,-70.73828125,4381.2578125,True
1599568048.3558598,0.0,10,0.5,0.5,-1.0776004028320312,-0.05075,-0.03,-0.5,-0.14662845157810073,10,1,100,0.032769387358616765,-10,-1,-100,6467.945502286195,0.002509519726149568,-0.009289510539911899,0.999953702580611,192.9448949712515,19.947216201186702,308.683355813166,-19.649030083407848,-71.984375,4381.2578125,True
1599568048.4166973,0.0,10,0.5,0.5,0.6047152786254884,-0.05075,-0.03,-0.5,-0.2573675449696928,10,1,100,0.19144455925572365,-10,-1,-100,6466.787329918472,0.0004698007863859866,-0.01074587050027561,0.9999421511039588,188.25882066796498,19.434163343462902,310.2391545109974,-20.22258629037259,-76.10800170898438,4381.2578125,True
1599568048.4745114,0.0,10,0.5,0.5,0.2591623306274413,-0.05075,-0.03,-0.5,-0.20899126843114513,10,1,100,0.13893282812176933,-10,-1,-100,6465.911379833822,-0.0008956469669412124,-0.01161894710806804,0.999932096636872,184.2377075162252,19.004646579523993,309.5345753512955,-20.605037207516908,-79.13925170898438,4381.2578125,True
1599568048.5323896,0.0,10,0.5,0.5,-0.30994165039062493,-0.05075,-0.03,-0.5,-0.16825156253713294,10,1,100,0.07929373275321801,-10,-1,-100,6465.505633531604,-0.001582583389779434,-0.012031037204052368,0.999926372076269,181.92826237106945,18.761115772861437,308.58303985080437,-20.796287543251946,-80.7568359375,4381.2578125,True
1599568048.5928464,0.0,10,0.5,0.5,1.5706240615844727,-0.05075,-0.03,-0.5,-0.24361116148077788,10,1,100,0.22808231784933583,-10,-1,-100,6464.284491367522,-0.003548415587508374,-0.01308101526691146,0.9999081436744104,177.24804914597522,18.2723263077427,309.22134047547894,-21.37010062307121,-85.53390502929688,4381.2578125,True
1599568049.126969,0.0,10,0.5,0.5,0.10452267456054698,-0.05075,-0.03,-0.5,-0.17455589814602163,10,1,100,0.1045656709068796,-10,-1,-100,6463.815271676285,-0.004200676636274084,-0.013398325640764108,0.9999014147333833,180.52737166782387,18.611669115419573,317.8594228929052,-21.56132520316902,-87.081298828125,4381.2578125,True
1599568049.177829,0.0,10,0.5,0.5,1.963113073348999,-0.05075,-0.03,-0.5,-0.2345104021480879,10,1,100,0.24944483794773456,-10,-1,-100,6462.531148713664,-0.00609926782532413,-0.01422330083486206,0.9998802411515871,189.7143066737385,19.572075781189547,343.245233827994,-22.13472245242159,-91.73102569580078,4381.2578125,True
1599568049.2306561,0.0,10,0.5,0.5,1.323794403076172,-0.05075,-0.03,-0.5,-0.20234995159059832,10,1,100,0.19376501044794722,-10,-1,-100,6461.59368759091,-0.007306464482277037,-0.014672203872471125,0.9998656619817955,195.1708449797562,20.150687994305112,359.44384227280915,-22.516733084934465,-94.64010620117188,4381.2578125,True
1599568049.28551,0.0,10,0.5,0.5,1.49356223487854,-0.05075,-0.03,-0.5,-0.1989527345656319,10,1,100,0.20011244922678348,-10,-1,-100,6460.7172622308135,-0.008449664355311248,-0.015041996729918624,0.9998511596766089,200.36978444845641,20.70749788349588,375.51966270444586,-22.89852737289305,-97.43563079833984,4381.2578125,True
1599568049.3412366,0.0,10,0.5,0.5,1.5831805648803712,-0.05075,-0.03,-0.5,-0.195260131419069,10,1,100,0.20446818816206647,-10,-1,-100,6459.778823490953,-0.009516746298151132,-0.01533792100527323,0.9998370765875472,205.14746145923564,21.224592002937502,391.13507338185195,-23.280097553937182,-99.97830200195312,4381.2578125,True
1599568049.3971,0.0,10,0.5,0.5,1.639777786254883,-0.05075,-0.03,-0.5,-0.1916540662984812,10,1,100,0.20948077952304925,-10,-1,-100,6458.838918660185,-0.010520849043956903,-0.01556820139959594,0.999823455836367,209.31310339148283,21.681101290349172,405.87900613456407,-23.661451547397437,-102.23016357421875,4381.2578125,True
1599568049.4534318,0.0,10,0.5,0.5,1.1634356079101562,-0.05075,-0.03,-0.5,-0.1791325027723408,10,1,100,0.16204931932121436,-10,-1,-100,6458.369698030525,-0.01099062883942719,-0.01565800691614287,0.9998169997040098,211.37008686951015,21.907414529049813,413.303865269727,-23.85204935019329,-103.244873046875,4381.2578125,True
1599568049.509274,0.0,10,0.5,0.5,2.1682262992858887,-0.05075,-0.03,-0.5,-0.1910347533034612,10,1,100,0.25776033663631753,-10,-1,-100,6456.89855420636,-0.01227738296578674,-0.015843384993817655,0.9997991063305912,216.61985997892555,22.492623961709043,434.14168822681876,-24.423546313709537,-105.84266662597656,4381.2578125,True
1599568049.5694716,0.0,10,0.5,0.5,1.344417324066162,-0.05075,-0.03,-0.5,-0.17673249125905105,10,1,100,0.17283387675427464,-10,-1,-100,6456.428842657362,-0.01266475368536881,-0.015878049556858505,0.9997937245033891,218.0938359478933,22.659388152465752,440.64689510428224,-24.61395347560776,-106.55982971191406,4381.2578125,True
1599568049.6253207,0.0,10,0.5,0.5,1.7303114547729492,-0.05075,-0.03,-0.5,-0.1769869000781384,10,1,100,0.21592228143901285,-10,-1,-100,6455.427892315551,-0.013398546954581411,-0.015908378319475704,0.9997836778217328,220.6793503209332,22.95544167966534,453.0621232611651,-24.994642784405443,-107.77102661132812,4381.2578125,True
1599568049.683168,0.0,10,0.5,0.5,1.6948148784637451,-0.05075,-0.03,-0.5,-0.17316777707687508,10,1,100,0.2104361503500022,-10,-1,-100,6454.363462083507,-0.014006803160904522,-0.015898660291795704,0.9997754958320081,222.82864409491108,23.206193286735417,464.74330000224364,-25.37517867358529,-108.6850357055664,4381.2578125,True
1599568049.7390141,0.0,10,0.5,0.5,1.818521074295044,-0.05075,-0.03,-0.5,-0.15749147982626166,10,1,100,0.26319790392712394,-10,-1,-100,6452.298553843866,-0.015030500993240612,-0.01574504089648919,0.9997630607934362,225.99022960283926,23.589298145492133,486.10623463833815,-26.135852734730616,-109.62175750732422,4381.2578125,True
1599568049.7958589,0.0,10,0.5,0.5,1.403832368850708,-0.05075,-0.03,-0.5,-0.17300559336307575,10,1,100,0.1617212440103067,-10,-1,-100,6452.298553843866,-0.015030500993240612,-0.01574504089648919,0.9997630607934362,225.99022960283926,23.589298145492133,486.10623463833815,-26.135852734730616,-109.62175750732422,4381.2578125,True
1599568049.8527186,0.0,10,0.5,0.5,1.4066954040527344,-0.05075,-0.03,-0.5,-0.15041062785829373,10,1,100,0.22039432754505306,-10,-1,-100,6450.70237500302,-0.015556870810364703,-0.01553865681278752,0.9997582377330252,227.46683721994134,23.783731461286205,500.4577869206688,-26.706068620357676,-109.54534912109375,4381.2578125,True
1599568049.9105933,0.0,10,0.5,0.5,1.3855643444061279,-0.05075,-0.03,-0.5,-0.16204423106866925,10,1,100,0.18229632815266128,-10,-1,-100,6450.169662599335,-0.015682582280132994,-0.01545634343853226,0.9997575496391797,227.79402696023354,23.831500265261795,504.91381999276433,-26.89609476326965,-109.37165069580078,4381.2578125,True
1599568049.9686632,0.0,10,0.5,0.5,1.1866578674316406,-0.05075,-0.03,-0.5,-0.14709473176014015,10,1,100,0.1951629482918673,-10,-1,-100,6449.1052098034415,-0.01590822940302242,-0.015245500902374252,0.9997572219991695,228.19606374031235,23.9010715349478,513.2998577017172,-27.276089237147943,-108.8016357421875,4381.2578125,True
1599568050.027478,0.0,10,0.5,0.5,1.014435941696167,-0.05075,-0.03,-0.5,-0.1435177792774659,10,1,100,0.18567291881365539,-10,-1,-100,6447.979229440913,-0.016022192537339004,-0.015021601483749225,0.9997587913267679,228.24323590608736,23.93417111017554,520.9159278261989,-27.656019112277097,-107.9356460571289,4381.2578125,True
1599568050.0883455,0.0,10,0.5,0.5,0.8213074913024903,-0.05075,-0.03,-0.5,-0.1358482674360438,10,1,100,0.18082554517401017,-10,-1,-100,6446.91476764821,-0.01607715420481375,-0.01474891227319754,0.9997619690203424,227.9070632259716,23.927817075614747,527.6623460873503,-28.035900692766656,-106.77323913574219,4381.2578125,True
1599568050.147195,0.0,10,0.5,0.5,0.1394163665771484,-0.05075,-0.03,-0.5,-0.11195152413448059,10,1,100,0.16874086034301833,-10,-1,-100,6445.201367433183,-0.016013804248382658,-0.014284764845155088,0.999769725270181,226.58105541310817,23.833122262084597,535.8276887582784,-28.605671403407385,-104.47476196289062,4381.2578125,True
1599568050.2089925,0.0,10,0.5,0.5,0.2391421337127686,-0.05075,-0.03,-0.5,-0.11905903088880623,10,1,100,0.1616360887293556,-10,-1,-100,6444.007013175753,-0.015888579954627446,-0.013928874776257368,0.9997767448158078,225.0644274442459,23.70368852510252,539.7034306159609,-28.985512409123203,-102.58051300048828,4381.2578125,True
1599568050.3186996,0.0,10,0.5,0.5,0.0047338943481445295,-0.05075,-0.03,-0.5,-0.11168966700041502,10,1,100,0.15391913341605296,-10,-1,-100,6442.880037093419,-0.015702321882001734,-0.013540143681495174,0.9997850276917526,222.99708728256172,23.51566859891936,542.1588178362557,-29.365371898195797,-100.46347045898438,4381.2578125,True
1599568050.4074616,0.0,10,0.5,0.5,-0.1748562583923341,-0.05075,-0.03,-0.5,-0.10359731795744886,10,1,100,0.14600793265014222,-10,-1,-100,6441.691047277767,-0.015459534973814536,-0.01311532907369376,0.9997944743404427,220.65696146644873,23.297441731525844,543.8240880447516,-29.74526288550308,-98.26020812988281,4381.2578125,True
1599568050.4783115,0.0,10,0.5,0.5,-0.35406484413146977,-0.05075,-0.03,-0.5,-0.09506175573755868,10,1,100,0.13796434306486244,-10,-1,-100,6440.4322302748915,-0.015165306030159474,-0.012653928602623286,0.9998049267651823,218.27040487925203,23.07202399184627,545.2368780371152,-30.125185252658472,-95.99646759033203,4381.2578125,True
1599568050.5470912,0.0,10,0.5,0.5,0.10996569252014166,-0.05075,-0.03,-0.5,-0.1140675866141434,10,1,100,0.14929435400487137,-10,-1,-100,6439.848719269154,-0.015000702721712299,-0.012410064011704414,0.9998104666530954,216.952400271826,22.94500854735934,545.5769950265735,-30.315159361041225,-94.85808563232422,4381.2578125,True
1599568050.6129127,0.0,10,0.5,0.5,-1.211904272079468,-0.05075,-0.03,-0.5,-0.05201268392192944,10,1,100,0.10477206333964925,-10,-1,-100,6437.994179764297,-0.01444682086079344,-0.011627077625304478,0.9998280354305491,213.09149241789063,22.568171332729314,546.5985570134076,-30.885126098902962,-91.50447845458984,4381.2578125,True
1599568050.67877,0.0,10,0.5,0.5,-0.18186186599731446,-0.05075,-0.03,-0.5,-0.09929794698978113,10,1,100,0.13761633235233572,-10,-1,-100,6437.395530879265,-0.014242999579545574,-0.011348618998115213,0.9998341591533131,211.80010787992805,22.439978857751523,546.8498575230425,-31.075125502827177,-90.42747497558594,4381.2578125,True
1599568050.7415686,0.0,10,0.5,0.5,-0.8811547012329102,-0.05075,-0.03,-0.5,-0.06142253712123825,10,1,100,0.10955416042394031,-10,-1,-100,6436.149891501991,-0.013804110697083443,-0.010754695503596636,0.9998468798033465,209.23608166964493,22.18210021597593,547.282931307217,-31.45513363488216,-88.28009033203125,4381.2578125,True
1599568050.8073916,0.0,10,0.5,0.5,-1.4843075942993165,-0.05075,-0.03,-0.5,-0.01808175572508927,10,1,100,0.07636393972682032,-10,-1,-100,6434.232848218642,-0.01310540796290792,-0.009824636955869442,0.9998658533977501,205.3256295636107,21.779139310572837,547.4632090733431,-32.02515438438296,-85.34249877929688,4381.2578125,True
1599568050.8712215,0.0,10,0.5,0.5,-1.0614997787475586,-0.05075,-0.03,-0.5,-0.037354759811283236,10,1,100,0.09083191842318085,-10,-1,-100,6432.919337444939,-0.012604452325662454,-0.009158814927189509,0.9998786145781395,202.8336882059712,21.516585282517624,547.6891508015447,-32.40515661626678,-83.56002807617188,4381.2578125,True
1599568050.9330428,0.0,10,0.5,0.5,-1.0864122924804689,-0.05075,-0.03,-0.5,-0.028765810126869393,10,1,100,0.08411336885269544,-10,-1,-100,6431.606316266465,-0.012091059797455546,-0.008480100767547594,0.9998909411350554,201.43805749099567,21.365650833620382,550.7544743904663,-32.78512525302355,-82.010498046875,4381.2578125,True
1599568050.9938898,0.0,10,0.5,0.5,-1.069896064758301,-0.05075,-0.03,-0.5,-0.018922402420977813,10,1,100,0.07670978417464988,-10,-1,-100,6430.292807950755,-0.011560486293064462,-0.007778555801463848,0.9999029199008829,204.98145279645988,21.734464634484677,567.4067721247675,-33.16494107693042,-80.74578857421875,4381.2578125,True
1599568051.061288,0.0,10,0.5,0.5,-1.030687240600586,-0.05075,-0.03,-0.5,-0.009436066674955612,10,1,100,0.06961693978645031,-10,-1,-100,6428.9763710657135,-0.011017431645169787,-0.00705978604176936,0.9999143841454571,207.87669298027754,22.031219219679322,582.4939115300599,-33.544588005403874,-79.77621459960938,4381.2578125,True
1599568051.1251185,0.0,10,0.5,0.5,-0.8070767211914063,-0.05075,-0.03,-0.5,-0.040748590093174594,10,1,100,0.09327558437351313,-10,-1,-100,6428.318642381346,-0.010742862464537603,-0.0066965233304235655,0.9999198705303105,209.0923832029847,22.15403816752554,589.4614386135846,-33.734352422527984,-79.40267944335938,4381.2578125,True
1599568051.186463,0.0,10,0.5,0.5,-1.0418904571533205,-0.05075,-0.03,-0.5,0.04438732780359182,10,1,100,0.02852752710247143,-10,-1,-100,6426.218991660979,-0.009908655819285805,-0.005597737434931512,0.9999352398407932,211.85769493394994,22.426445309628267,608.0981861859202,-34.303432657836645,-78.72760009765625,4381.2578125,True
1599568051.2453058,0.0,10,0.5,0.5,-0.8010807723999024,-0.05075,-0.03,-0.5,0.017681869855728657,10,1,100,0.04893632218159465,-10,-1,-100,6424.847385007422,-0.009340449776051132,-0.004847811080898195,0.999944625829703,212.99902374729908,22.532511709811967,618.6551046593083,-34.68266264682522,-78.63983154296875,4381.2578125,True
1599568051.3041499,0.0,10,0.5,0.5,-0.7676882019042969,-0.05075,-0.03,-0.5,-0.014737016924522922,10,1,100,0.07354210115161547,-10,-1,-100,6424.182334474055,-0.00905222988291502,-0.004466939972092381,0.9999490504927903,213.38110799170192,22.565515457847585,623.4165792675514,-34.87223677082444,-78.69085693359375,4381.2578125,True
1599568051.3639898,0.0,10,0.5,0.5,-0.6557299194335937,-0.05075,-0.03,-0.5,0.027424297338451177,10,1,100,0.040192117268180234,-10,-1,-100,6422.741395343561,-0.008491749008120627,-0.003743664906265534,0.9999569366587007,213.79541168715284,22.594790284472072,631.9544945133243,-35.25131250707739,-79.00439453125,4381.2578125,True
1599568051.4228325,0.0,10,0.5,0.5,-0.5231336059570313,-0.05075,-0.03,-0.5,0.03741212631756414,10,1,100,0.032728690998077944,-10,-1,-100,6421.369306138251,-0.00791920103011476,-0.003001717338064947,0.9999641373309681,213.70211910441955,22.571381180229178,639.0168698450573,-35.63030544987402,-79.580322265625,4381.2578125,True
1599568051.4796805,0.0,10,0.5,0.5,-0.11271826171874999,-0.05075,-0.03,-0.5,0.08532503322871879,10,1,100,-0.005157428361161051,-10,-1,-100,6419.145160655491,-0.007058998334964339,-0.001897850321979193,0.9999732839964587,212.72212992061654,22.450849060830528,647.0705461465823,-36.198672124032484,-80.8797607421875,4381.2578125,True
1599568051.538159,0.0,10,0.5,0.5,-0.4746316986083985,-0.05075,-0.03,-0.5,0.015111337321659458,10,1,100,0.049151946960757364,-10,-1,-100,6418.421521214186,-0.0067757588004729394,-0.0015392420561519658,0.9999758596219063,212.18726802761248,22.38990339361239,649.103227577012,-36.38810148704241,-81.41693115234375,4381.2578125,True
1599568051.5999937,0.0,10,0.5,0.5,-0.08340177154541006,-0.05075,-0.03,-0.5,0.058001171998775185,10,1,100,0.014840106106859527,-10,-1,-100,6416.980591100757,-0.00621117458044258,-0.0008296368253456122,0.9999803663137938,210.83133423466555,22.240088344463803,652.2392016357677,-36.76692923310084,-82.61819458007812,4381.2578125,True
1599568051.6578727,0.0,10,0.5,0.5,0.03639228820800777,-0.05075,-0.03,-0.5,0.06170651916072194,10,1,100,0.010903937145547125,-10,-1,-100,6415.483511610888,-0.005666995855050888,-0.0001571733858458823,0.9999839300981319,209.16936143985174,22.06145079772169,654.3391526928559,-37.14572260387088,-83.91607666015625,4381.2578125,True
1599568051.716682,0.0,10,0.5,0.5,0.1683459167480469,-0.05075,-0.03,-0.5,0.07048717196668734,10,1,100,0.003776020873835023,-10,-1,-100,6413.977156832349,-0.005112352716579348,0.0005277060277027181,0.9999867926008071,208.93654481024933,22.037322271371348,660.8589762899027,-37.52446180616564,-85.3114013671875,4381.2578125,True
1599568051.7735658,0.0,10,0.5,0.5,0.7070752029418945,-0.05075,-0.03,-0.5,0.10697198183174134,10,1,100,-0.0275906906994431,-10,-1,-100,6411.756445856299,-0.004328098403437199,0.0014754362848309127,0.9999895452713392,213.0151380680552,22.475800405883987,684.8706518652892,-38.09227488087743,-87.52413940429688,4381.2578125,True
1599568051.8328285,0.0,10,0.5,0.5,0.4399596405029297,-0.05075,-0.03,-0.5,0.07940770969672978,10,1,100,-0.005221516871515702,-10,-1,-100,6410.18417801999,-0.003823569296667176,0.0020799947957930187,0.9999905269248719,215.6838169161052,22.767995981809555,700.967931282352,-38.47060175371602,-89.00006103515625,4381.2578125,True
1599568051.8916705,0.0,10,0.5,0.5,0.510328140258789,-0.05075,-0.03,-0.5,0.08205080634639587,10,1,100,-0.00779634820864103,-10,-1,-100,6408.621189256897,-0.0033465142606109097,0.0026473235881403602,0.9999908962186222,218.23633265346584,23.051934271896563,716.8822802355821,-38.84875325160643,-90.41131591796875,4381.2578125,True
1599568052.380313,0.0,10,0.5,0.5,0.19349305725097654,-0.05075,-0.03,-0.5,0.05563641075439203,10,1,100,0.0143835098992669,-10,-1,-100,6407.838475091616,-0.003119649952106471,0.0029164786543831515,0.9999908809266388,219.4278650559566,23.186351313049517,724.6310208042081,-39.03776369704948,-91.05340576171875,4381.2578125,True
1599568052.4280932,0.0,10,0.5,0.5,0.554942346572876,-0.05075,-0.03,-0.5,0.08711851308530807,10,1,100,-0.01217421886524677,-10,-1,-100,6406.275976032717,-0.002676859500203233,0.0034413113325570633,0.9999904958545999,221.5892019689803,23.43420295472153,739.5223605892331,-39.41565827806194,-92.22698211669922,4381.2578125,True
1599568052.4799552,0.0,10,0.5,0.5,0.2996255111694336,-0.05075,-0.03,-0.5,0.062439616100048057,10,1,100,0.008658490085051422,-10,-1,-100,6405.489843972027,-0.0024684767539574657,0.0036882210413304176,0.9999901517755388,222.57819324535706,23.54954463789775,746.7215960828569,-39.60454402123916,-92.75994873046875,4381.2578125,True
1599568052.5358047,0.0,10,0.5,0.5,0.611578592300415,-0.05075,-0.03,-0.5,0.09035959727867539,10,1,100,-0.014787210651235363,-10,-1,-100,6403.92099916446,-0.0020700683612050763,0.004161424176963434,0.9999891986245648,224.40018108942547,23.765681633127986,760.7040014426783,-39.982196204546675,-93.7455062866211,4381.2578125,True
1599568052.5926542,0.0,10,0.5,0.5,0.6221069831848145,-0.05075,-0.03,-0.5,0.09216457656540727,10,1,100,-0.015987770871035194,-10,-1,-100,6402.29600281443,-0.001701242629831331,0.004602835324479088,0.9999879597677614,226.0254446951961,23.96329863990314,774.1522210207138,-40.35969373202889,-94.59220886230469,4381.2578125,True
1599568052.6475065,0.0,10,0.5,0.5,0.6377229347229004,-0.05075,-0.03,-0.5,0.09358709910026893,10,1,100,-0.016684208179308983,-10,-1,-100,6400.661241328693,-0.0013637152002805382,0.005012111597855857,0.9999865094180937,227.4793146097893,24.144709072718644,787.1335769157165,-40.73704309159239,-95.32402038574219,4381.2578125,True
1599568052.7098806,0.0,10,0.5,0.5,0.6181489181518555,-0.05075,-0.03,-0.5,0.0944024881527896,10,1,100,-0.016677565568472014,-10,-1,-100,6399.046499465709,-0.001060844543200854,0.005386894215054288,0.9999849278762009,228.74917181089705,24.30823107587246,799.5863477544937,-41.11425036428447,-95.89071655273438,4381.2578125,True
1599568052.7667294,0.0,10,0.5,0.5,0.5788014068603515,-0.05075,-0.03,-0.5,0.09507688880092513,10,1,100,-0.016388316342054985,-10,-1,-100,6397.349238370778,-0.0007918203098898216,0.005729319156411047,0.999983273821418,229.8066692324106,24.450451549216105,811.391746323729,-41.49132437991931,-96.276123046875,4381.2578125,True
1599568052.824085,0.0,10,0.5,0.5,0.4799751110076904,-0.05075,-0.03,-0.5,0.07868086966983362,10,1,100,-0.0031417863187109714,-10,-1,-100,6396.500608442235,-0.00067089062354069,0.0058876926720240145,0.9999824423362498,230.25577352862868,24.513446768011924,817.0448995123544,-41.67981436858657,-96.3989028930664,4381.2578125,True
1599568052.879936,0.0,10,0.5,0.5,0.49302379989624023,-0.05075,-0.03,-0.5,0.10952414981439038,10,1,100,-0.024947170665147872,-10,-1,-100,6394.026981653296,-0.00036558984977671355,0.0063086005076442905,0.9999800337525228,231.29295315606868,24.67028654945753,833.0042630684196,-42.24511117355331,-96.49375915527344,4381.2578125,True
1599568052.9367833,0.0,10,0.5,0.5,0.43301373863220216,-0.05075,-0.03,-0.5,0.0813078280883543,10,1,100,-0.0038022091322253964,-10,-1,-100,6393.185187558993,-0.0002829805461186067,0.0064314035453173915,0.9999792782705289,231.5410667953139,24.712310260521406,838.0028114203441,-42.43348964278918,-96.43778228759766,4381.2578125,True
1599568052.9962425,0.0,10,0.5,0.5,0.35307772064208987,-0.05075,-0.03,-0.5,0.09412040343882036,10,1,100,-0.011554618498063222,-10,-1,-100,6391.428843837581,-0.00013998352074542743,0.00665632524194178,0.999977836623836,231.90257433212935,24.78195519490575,847.5459428964906,-42.81017245301585,-96.21249389648438,4381.2578125,True
1599568053.0540872,0.0,10,0.5,0.5,0.27367673873901366,-0.05075,-0.03,-0.5,0.09147072823641211,10,1,100,-0.007855405019875177,-10,-1,-100,6389.7349994246615,-4.592168928011738e-05,0.0068337888152971635,0.999976648338163,232.10367197421294,24.83418025586069,856.5394474238185,-43.186763171695226,-95.84208679199219,4381.2578125,True
1599568053.110936,0.0,10,0.5,0.5,0.18931876182556157,-0.05075,-0.03,-0.5,0.0911396361860369,10,1,100,-0.006176149527722164,-10,-1,-100,6387.978654670878,2.2120784791794032e-05,0.006989249801731404,0.9999755746506411,232.15106019013334,24.86937290017699,864.9919438843378,-43.56326928314212,-95.33585357666016,4381.2578125,True
1599568053.1677835,0.0,10,0.5,0.5,0.10456757164001462,-0.05075,-0.03,-0.5,0.08820780450380979,10,1,100,-0.0022410147728561982,-10,-1,-100,6386.225727447309,4.6301636952934836e-05,0.007101354205356132,0.9999747839943807,232.05348820386942,24.888141114039982,872.9205617700773,-43.93969778786956,-94.7137222290039,4381.2578125,True
1599568053.2276235,0.0,10,0.5,0.5,0.02214212036132812,-0.05075,-0.03,-0.5,0.08589443501899549,10,1,100,0.0010777167754173634,-10,-1,-100,6384.47328752093,3.6525266418044764e-05,0.007179965287079503,0.999974223049965,231.834536162032,24.89270266544875,880.3997959577939,-44.316054596541456,-93.99859619140625,4381.2578125,True
1599568053.2854698,0.0,10,0.5,0.5,-0.05594379997253418,-0.05075,-0.03,-0.5,0.08294885849258363,10,1,100,0.005034081602590573,-10,-1,-100,6382.651022761245,-9.602242012246823e-06,0.007222681162324984,0.999973916052126,231.51730815718648,24.885255510711954,887.5054822483507,-44.69234420723347,-93.21480560302734,4381.2578125,True
1599568053.3458989,0.0,10,0.5,0.5,-0.12777950859069825,-0.05075,-0.03,-0.5,0.07969089962546289,10,1,100,0.009084064816325406,-10,-1,-100,6380.89809329377,-8.931004462027275e-05,0.007230227071076805,0.9999738575783952,231.12879172016244,24.868456804205966,894.3316000223094,-45.06856984489563,-92.38738250732422,4381.2578125,True
1599568053.4033265,0.0,10,0.5,0.5,-0.4244915218353271,-0.05075,-0.03,-0.5,0.07308077789075944,10,1,100,0.021041020450513898,-10,-1,-100,6378.182271553553,-0.0002711099257249822,0.007175630510613278,0.9999742180807378,230.4765027820814,24.832220734433808,904.2813699284795,-45.63279181076348,-91.11864471435547,4381.2578125,True
1599568053.4611716,0.0,10,0.5,0.5,-0.26328859901428225,-0.05075,-0.03,-0.5,0.06995668861366203,10,1,100,0.020421511064077656,-10,-1,-100,6376.294086752343,-0.00043111407839603925,0.007096425609637741,0.9999747271227499,230.04204730579687,24.80557075840396,910.9006265582299,-46.00886211838639,-90.28827667236328,4381.2578125,True
1599568053.5174744,0.0,10,0.5,0.5,-0.29758692932128905,-0.05075,-0.03,-0.5,0.06570795678098637,10,1,100,0.02501518806642236,-10,-1,-100,6374.479143748758,-0.0006182735315468436,0.006985080114724753,0.9999754128945526,229.64533677132513,24.78091578203592,917.6580492372916,-46.38486837281765,-89.50595092773438,4381.2578125,True
1599568053.5753198,0.0,10,0.5,0.5,-0.3015910568237305,-0.05075,-0.03,-0.5,0.061148056481623,10,1,100,0.02991483043660308,-10,-1,-100,6372.594863855047,-0.0008326558805170102,0.006841899956110182,0.9999762472624912,229.3677844057018,24.76714979105387,924.885761358036,-46.760806193249145,-88.82620239257812,4381.2578125,True
1599568053.6346729,0.0,10,0.5,0.5,-0.30984140777587893,-0.05075,-0.03,-0.5,0.056449240007395124,10,1,100,0.034888158818076595,-10,-1,-100,6370.714002187713,-0.0010721312990853104,0.006668850957863801,0.9999771882205011,229.2343610559024,24.767197072816245,932.698149227395,-47.13666925673731,-88.23434448242188,4381.2578125,True
1599568053.69502,0.0,10,0.5,0.5,-0.18136470031738283,-0.05075,-0.03,-0.5,0.06302048914407395,10,1,100,0.025202823297786656,-10,-1,-100,6369.7306028903695,-0.0012008548024994882,0.006571422258752747,0.9999776869296838,229.2189434751742,24.77216998154937,936.817232076743,-47.32457083188421,-87.97174072265625,4381.2578125,True
1599568053.7528656,0.0,10,0.5,0.5,-0.4310469055175781,-0.05075,-0.03,-0.5,0.03619504733629623,10,1,100,0.05842313698260014,-10,-1,-100,6366.83020815975,-0.0016187672249313259,0.006239362904529245,0.9999792247558031,229.38741144633406,24.80827033246711,950.0880950196329,-47.888147206483104,-87.32009887695312,4381.2578125,True
1599568053.8112168,0.0,10,0.5,0.5,-0.22159639739990236,-0.05075,-0.03,-0.5,0.05573391183283516,10,1,100,0.03328004948951731,-10,-1,-100,6365.843879100983,-0.0017686003873305304,0.006115900433658985,0.9999797337019164,229.51813182093593,24.82779252805968,954.8352933635623,-48.07596060372619,-87.14907836914062,4381.2578125,True
1599568053.8700595,0.0,10,0.5,0.5,-0.31716366577148436,-0.05075,-0.03,-0.5,0.038218812155976126,10,1,100,0.05373246616290435,-10,-1,-100,6363.8853801491205,-0.0020891023904935544,0.005845400976581322,0.9999807332837093,229.8869903480492,24.877782051254197,964.8089248423854,-48.45151464576768,-86.85760498046875,4381.2578125,True
1599568053.9318955,0.0,10,0.5,0.5,-0.29830223846435544,-0.05075,-0.03,-0.5,0.03400262913581615,10,1,100,0.057869280397906314,-10,-1,-100,6361.942506800755,-0.0024161847953704293,0.005562415515587213,0.9999816106232488,230.38330696548647,24.940832365684024,975.3682172842837,-48.82696768971033,-86.661865234375,4381.2578125,True
1599568053.9907398,0.0,10,0.5,0.5,-0.28594844055175783,-0.05075,-0.03,-0.5,0.009479799030634006,10,1,100,0.08474721487103672,-10,-1,-100,6359.028441320988,-0.002955761954331728,0.0050837373787777215,0.9999827093932838,231.44115797315857,25.068617275581136,992.6559751436761,-49.389942633605216,-86.53778076171875,4381.2578125,True
1599568054.0495794,0.0,10,0.5,0.5,-0.23633780670166016,-0.05075,-0.03,-0.5,0.038779817643042336,10,1,100,0.05148129341329981,-10,-1,-100,6357.995725953253,-0.003141428583745658,0.004916840962819928,0.9999829779058239,231.86559987265093,25.118932109588833,998.7638232736807,-49.57754341702769,-86.5401611328125,4381.2578125,True
1599568054.1078699,0.0,10,0.5,0.5,-0.20885439300537112,-0.05075,-0.03,-0.5,0.016925483500082897,10,1,100,0.07540152060332031,-10,-1,-100,6355.990842361469,-0.0035252091172081903,0.004568422623964865,0.9999833510691111,232.82802793163742,25.231985889098354,1011.5349831765171,-49.95265359448348,-86.61264038085938,4381.2578125,True
1599568054.1667125,0.0,10,0.5,0.5,-0.16563512420654297,-0.05075,-0.03,-0.5,0.012586565649655282,10,1,100,0.07995166671357568,-10,-1,-100,6353.985471072141,-0.003912822807189485,0.004214430933175247,0.9999834640580759,233.93717493543613,25.36134267716947,1025.0407822744905,-50.32763660543618,-86.77267456054688,4381.2578125,True
1599568054.2445047,0.0,10,0.5,0.5,-0.12034409332275392,-0.05075,-0.03,-0.5,0.0056569083186674834,10,1,100,0.08703781275592583,-10,-1,-100,6351.98058865522,-0.0043268182467150525,0.0038320120285601916,0.9999832970243416,235.17992418358293,25.505864950225988,1039.2401424854663,-50.702485745671595,-87.01138305664062,4381.2578125,True
1599568054.3013535,0.0,10,0.5,0.5,-0.07461936187744139,-0.05075,-0.03,-0.5,0.0015768828789664707,10,1,100,0.09138017242242301,-10,-1,-100,6349.912718937267,-0.00473969492784497,0.003449846283030408,0.9999828167786756,236.5424491165114,25.66430714669143,1054.0869537029632,-51.07719526636561,-87.31777954101562,4381.2578125,True
1599568054.3572028,0.0,10,0.5,0.5,-0.029702339172363285,-0.05075,-0.03,-0.5,-0.003917227383923326,10,1,100,0.09719188023473423,-10,-1,-100,6347.907350459369,-0.005164653945233774,0.003055314217409536,0.999981995540249,238.00268125771973,25.834495388602388,1069.4960235358265,-51.45175959634444,-87.68106079101562,4381.2578125,True
1599568054.4150481,0.0,10,0.5,0.5,0.014019950866699216,-0.05075,-0.03,-0.5,-0.008918454339163863,10,1,100,0.10250509772597935,-10,-1,-100,6345.839482565527,-0.005596058768489186,0.002654077593331211,0.9999808198152543,239.53974389324057,26.01434572631871,1085.3842447871982,-51.82617390456441,-88.08828735351562,4381.2578125,True
1599568054.4710822,0.0,10,0.5,0.5,0.05429507446289061,-0.05075,-0.03,-0.5,-0.01389007253019366,10,1,100,0.10782823254710226,-10,-1,-100,6343.709115765407,-0.0060331575985668965,0.0022472676086509424,0.999979275184084,241.12976760443144,26.201402931247124,1101.6517191799246,-52.20043437485678,-88.5260009765625,4381.2578125,True
1599568054.5289361,0.0,10,0.5,0.5,0.09090965270996093,-0.05075,-0.03,-0.5,-0.01862999146104037,10,1,100,0.11296489876471003,-10,-1,-100,6341.6407620762475,-0.0064736316322448195,0.001837621208086574,0.9999773573645483,242.75091296104523,26.393384345416994,1118.2043102488844,-52.57453818036706,-88.98077392578125,4381.2578125,True
1599568054.5867445,0.0,10,0.5,0.5,0.12306385803222657,-0.05075,-0.03,-0.5,-0.023252328940363078,10,1,100,0.11797740741657874,-10,-1,-100,6339.510396762169,-0.006915942244390034,0.0014265803162228515,0.9999750669949096,244.38149660403312,26.58797739533945,1134.9453010761517,-52.94848293771028,-89.43939208984375,4381.2578125,True
1599568054.6456223,0.0,10,0.5,0.5,0.1503038330078125,-0.05075,-0.03,-0.5,-0.027691570059715384,10,1,100,0.12281900544997466,-10,-1,-100,6337.380033153808,-0.007358457164561957,0.0010158747289549508,0.9999724101727467,246.0015769086825,26.783011391138697,1151.7828649011674,-53.322267291517655,-89.889404296875,4381.2578125,True
1599568054.7054641,0.0,10,0.5,0.5,0.17210930061340332,-0.05075,-0.03,-0.5,-0.03200511001406919,10,1,100,0.12754913633581505,-10,-1,-100,6335.249670590041,-0.007799910983152421,0.000606838346611702,0.9999693960996385,247.59339087096342,26.97651175631757,1168.6324580536714,-53.69589090871343,-90.31929779052734,4381.2578125,True
1599568054.764302,0.0,10,0.5,0.5,0.18834385871887208,-0.05075,-0.03,-0.5,-0.03611843602815613,10,1,100,0.1320621029306176,-10,-1,-100,6333.056808212888,-0.008238373512854735,0.00020119465733282464,0.999966043784774,249.14163227255665,27.16673408141473,1185.4185537921494,-54.06935422894978,-90.71886444091797,4381.2578125,True
1599568054.8231514,0.0,10,0.5,0.5,0.2886444892883301,-0.05075,-0.03,-0.5,-0.06186870665022809,10,1,100,0.15999744800639082,-10,-1,-100,6329.828307609307,-0.008887001176267808,-0.0003980173055978613,0.9999604306132905,251.35424541015155,27.442620028006043,1210.3339068756552,-54.62925134736852,-91.24223327636719,4381.2578125,True
1599568054.8819542,0.0,10,0.5,0.5,0.19842099952697756,-0.05075,-0.03,-0.5,-0.04544969645014095,10,1,100,0.14228928363033744,-10,-1,-100,6327.63642452599,-0.009311533755106887,-0.0007896462434120945,0.9999563349456503,252.7418571944988,27.618484348154286,1226.6899917189746,-55.00232027317809,-91.53050994873047,4381.2578125,True
1599568054.940831,0.0,10,0.5,0.5,0.2406563606262207,-0.05075,-0.03,-0.5,-0.06861127024641361,10,1,100,0.16741313529780574,-10,-1,-100,6324.28390335408,-0.00992171489754916,-0.001352378228185292,0.9999498640665038,254.66883246922447,27.867246602718275,1250.7102871634906,-55.56163690617862,-91.84596252441406,4381.2578125,True
1599568054.9996405,0.0,10,0.5,0.5,0.13348548889160156,-0.05075,-0.03,-0.5,-0.033161289820513376,10,1,100,0.12896457837935732,-10,-1,-100,6323.1877176881535,-0.010122568090554136,-0.0015376732173385651,0.9999475832144047,255.25564155701053,27.944486519124087,1258.5049814713707,-55.74800113939352,-91.91506958007812,4381.2578125,True
1599568055.565107,0.0,10,0.5,0.5,0.16030974006652832,-0.05075,-0.03,-0.5,-0.054040058888354475,10,1,100,0.15158701695131033,-10,-1,-100,6320.931382267503,-0.010506705426374536,-0.0018921195164485782,0.999943012888644,256.35849388786534,28.091654891580347,1273.8293367215813,-56.12062095750265,-92.00566864013672,4381.2578125,True
1599568055.6199627,0.0,10,0.5,0.5,0.14014321899414064,-0.05075,-0.03,-0.5,-0.05688280352298444,10,1,100,0.15473466770122107,-10,-1,-100,6318.6755359827075,-0.010880469331366991,-0.002236423478567863,0.9999383049954399,257.3616015433746,28.228317757555246,1288.7648430698384,-56.49309931694722,-92.0323486328125,4381.2578125,True
1599568055.681866,0.0,10,0.5,0.5,0.12544482040405275,-0.05075,-0.03,-0.5,-0.05940400599483556,10,1,100,0.15744531857579588,-10,-1,-100,6316.4196893507615,-0.011240890764129792,-0.0025686434259779914,0.9999335200130952,258.2860646611893,28.356609603972306,1303.407045633471,-56.86543950468804,-92.01325988769531,4381.2578125,True
1599568055.7425897,0.0,10,0.5,0.5,0.12798737716674805,-0.05075,-0.03,-0.5,-0.04411351002709618,10,1,100,0.14089816572338273,-10,-1,-100,6315.260516064824,-0.011414186178419728,-0.0027280250296057495,0.9999311347454495,258.7239931145226,28.4181416869747,1310.6418097221554,-57.051558734213515,-91.98652648925781,4381.2578125,True
1599568055.801441,0.0,10,0.5,0.5,0.06923819351196289,-0.05075,-0.03,-0.5,-0.07922697360039616,10,1,100,0.17912336464551887,-10,-1,-100,6311.845496567781,-0.011915542246144674,-0.003188727156516838,0.9999239230421991,259.9331897720885,28.591260609808742,1331.9525028885798,-57.60971638327075,-91.84416198730469,4381.2578125,True
1599568055.8605292,0.0,10,0.5,0.5,0.06672644996643068,-0.05075,-0.03,-0.5,-0.06572977691006898,10,1,100,0.16460315863757707,-10,-1,-100,6309.526661728974,-0.01223557713376516,-0.003481394969702918,0.9999190819967726,260.6599888086743,28.697805565867686,1345.8625775239427,-57.98165845898485,-91.7020492553711,4381.2578125,True
1599568055.9173687,0.0,10,0.5,0.5,0.09402837371826173,-0.05075,-0.03,-0.5,-0.05252928365986406,10,1,100,0.15019692648863384,-10,-1,-100,6308.367000552593,-0.012391918372410745,-0.003624104325209277,0.9999166496398045,261.0015777305164,28.74859022095653,1352.7362126101907,-58.16758130324836,-91.61724853515625,4381.2578125,True
