Timestamp,Input Throttle,horizon,dT,dt,Input Roll,Roll P,Roll I,Roll D,Input Pitch,Pitch P,Pitch I,Pitch D,Input Yaw,Yaw P,Yaw I,Yaw D,Altitude,Direction X,Direction Y,Direction Z,Drag X,Drag Y,Drag Z,Vertical Velocity,Roll,Mass,Has Fuel
1599570750.4642797,0.0,10,0.5,0.5,-8.12222061920166,-0.15025,-0.0155,-0.12575,-0.06717671789134307,10,1,100,0.6903789190894329,-10,-1,-100,6483.61796722631,-0.06725843396009644,-0.007002486163866934,0.9977110143968343,205.07316674585294,21.498771038552707,-156.76519557712834,9.59082392108282,-35.94464111328125,4381.2578125,True
1599570750.5390806,0.0,10,0.5,0.5,-8.206521569824218,-0.15025,-0.0155,-0.12575,-0.06732331936983152,10,1,100,0.6999131793075707,-10,-1,-100,6483.997883186676,-0.06744573392655641,-0.006971560792183075,0.997698586906501,204.6120288831364,21.456728703306123,-150.2666304041109,9.210801602770692,-35.941314697265625,4381.2578125,True
1599570750.61388,0.0,10,0.5,0.5,-8.279028756713867,-0.15025,-0.0155,-0.12575,-0.05199743469964974,10,1,100,0.7005195370074213,-10,-1,-100,6484.316760076908,-0.06756020466249452,-0.006797782811112293,0.9976920411102892,204.14940670879687,21.41434881900285,-143.78930841089513,8.830797911077267,-35.980682373046875,4381.2578125,True
1599570751.3143718,0.0,10,0.5,0.5,-8.291549760437011,-0.15025,-0.0155,-0.12575,-0.03402402012240414,10,1,100,0.6995649060572362,-10,-1,-100,6484.697140782489,-0.0675941721368343,-0.006470228347790157,0.9976919183987928,203.7565248124901,21.37896059123157,-137.38146034632297,8.450805462092672,-36.256622314453125,4381.2578125,True
1599570751.3871772,0.0,10,0.5,0.5,-8.25462151184082,-0.15025,-0.0155,-0.12575,-0.015297865840545113,10,1,100,0.6973811762972097,-10,-1,-100,6485.01694886398,-0.06754375032283674,-0.005996331770982414,0.9976982939734931,203.44698930219718,21.351712609516134,-131.0456118356413,8.07081619303477,-36.817962646484375,4381.2578125,True
1599570751.4530017,0.0,10,0.5,0.5,-8.171996098327636,-0.15025,-0.0155,-0.12575,0.012336916565678986,10,1,100,0.6892386337789924,-10,-1,-100,6485.3357546684565,-0.06736248578692532,-0.005308840195854263,0.997714443979028,203.19969313615152,21.330113701876886,-124.76134175239174,7.690822161564017,-37.6717529296875,4381.2578125,True
1599570751.5268044,0.0,10,0.5,0.5,-8.04378663635254,-0.15025,-0.0155,-0.12575,0.042089591844390914,10,1,100,0.6785054009585243,-10,-1,-100,6485.590080491616,-0.06703888637792256,-0.004408542770298695,0.9977406238416127,202.97326228188285,21.30958967378383,-118.49894098012672,7.310815570181592,-38.81915283203125,4381.2578125,True
1599570751.5986135,0.0,10,0.5,0.5,-7.869599630737304,-0.15025,-0.0155,-0.12575,0.07312273593223031,10,1,100,0.6650485532867882,-10,-1,-100,6485.909321108484,-0.06656142567601525,-0.003303963307385731,0.9977768590413588,202.71056109792195,21.283961049003324,-112.22495643930925,6.93078797211173,-40.260467529296875,4381.2578125,True
1599570751.688375,0.0,10,0.5,0.5,-7.648992620849609,-0.15025,-0.0155,-0.12575,0.10481768006898651,10,1,100,0.6487006900082293,-10,-1,-100,6486.165058391518,-0.06591824316658897,-0.0020086607004876295,0.9978230055976968,202.3395104507398,21.2455089536868,-105.90501143590774,6.550730463333261,-41.99578857421875,4381.2578125,True
1599570751.76018,0.0,10,0.5,0.5,-7.381479295349121,-0.15025,-0.0155,-0.12575,0.13686260213422274,10,1,100,0.6293359348382426,-10,-1,-100,6486.420281994506,-0.0650975628899592,-0.000537969347532219,0.9978787591159404,201.77082263440903,21.184747255082375,-99.5049446565071,6.1706327110169426,-44.0252685546875,4381.2578125,True
1599570751.8379722,0.0,10,0.5,0.5,-7.397421968078612,-0.15025,-0.0155,-0.12575,0.07741765281568043,10,1,100,0.6650958853740421,-10,-1,-100,6486.517855785438,-0.064617400767994,0.0002591032243927987,0.9979100783054091,201.38002269002484,21.142594729788847,-96.26501256061135,5.98056459463907,-45.150360107421875,4381.2578125,True
1599570751.9187572,0.0,10,0.5,0.5,-6.8426603439331055,-0.15025,-0.0155,-0.12575,0.1859175334123423,10,1,100,0.5909623672855074,-10,-1,-100,6486.772066341597,-0.06350934961375904,0.0019634757593958684,0.9979793120473889,200.310642960252,21.026921879236962,-89.6879151370841,5.600379014159049,-47.62127685546875,4381.2578125,True
1599570752.0105104,0.0,10,0.5,0.5,-5.959890516662597,-0.15025,-0.0155,-0.12575,0.32372301560123884,10,1,100,0.4758838563168241,-10,-1,-100,6487.0617888413835,-0.06145944063229632,0.004757559686978102,0.99809824305175,197.74360487470938,20.7496534479331,-79.5465528221798,5.029941632489059,-51.879913330078125,4381.2578125,True
1599570752.085352,0.0,10,0.5,0.5,-5.58550327758789,-0.15025,-0.0155,-0.12575,0.26423669430501817,10,1,100,0.5000931910440153,-10,-1,-100,6487.254425793886,-0.0598215180230594,0.006746346388907134,0.9981862916268776,195.18135573319117,20.474003301257277,-72.59223240188452,4.649512026408173,-55.08740234375,4381.2578125,True
1599570752.1714501,0.0,10,0.5,0.5,-4.992815026855467,-0.15025,-0.0155,-0.12575,0.2881084713219752,10,1,100,0.4589117853314228,-10,-1,-100,6487.448511742521,-0.05796518710283297,0.008759335386508867,0.9982801766677128,191.75458770668345,20.106967841758028,-65.49264748207698,4.268937788390103,-58.5904541015625,4381.2578125,True
1599570752.2442548,0.0,10,0.5,0.5,-4.885546638488769,-0.15025,-0.0155,-0.12575,0.19945632304915467,10,1,100,0.5325268820048823,-10,-1,-100,6487.544085579459,-0.05695554947531313,0.009769982520796172,0.9983289101420977,189.66378624973868,19.88380578466425,-61.895625629123316,4.07858587508025,-60.452880859375,4381.2578125,True
1599570752.3370173,0.0,10,0.5,0.5,-3.4200468948364255,-0.15025,-0.0155,-0.12575,0.43691560868255275,10,1,100,0.2630713634223691,-10,-1,-100,6487.770731490571,-0.05359756231437371,0.012833765400709476,0.9984801429070066,181.66236483230892,19.033879436557584,-50.99200691327662,3.507223910347185,-66.4832763671875,4381.2578125,True
1599570752.4178007,0.0,10,0.5,0.5,-2.923786735534668,-0.15025,-0.0155,-0.12575,0.353045899508522,10,1,100,0.32101145578067103,-10,-1,-100,6487.83978992654,-0.05108379421138021,0.014840895837074921,0.9985840944956625,174.75845943213935,18.30457550448313,-43.72856830261612,3.1260023360674327,-70.87350463867188,4381.2578125,True
1599570752.50058,0.0,10,0.5,0.5,-2.1347503845214844,-0.15025,-0.0155,-0.12575,0.3630498199889651,10,1,100,0.2747489218828956,-10,-1,-100,6487.969393134466,-0.048392052565465096,0.016740009275279844,0.998688130167754,166.40278008287333,17.425406398843887,-36.560582951431016,2.744460098076348,-75.5606689453125,4381.2578125,True
1599570752.5808747,0.0,10,0.5,0.5,-1.9945173233032227,-0.15025,-0.0155,-0.12575,0.27342482514304844,10,1,100,0.38827141657303393,-10,-1,-100,6488.003923243727,-0.04699297028509,0.01763465911143438,0.9987395453980021,161.68880386795593,16.93036878936928,-33.056046677340795,2.5535750595284936,-78.01580810546875,4381.2578125,True
1599570752.6671548,0.0,10,0.5,0.5,-0.09496429595947253,-0.15025,-0.0155,-0.12575,0.46880889649857704,10,1,100,0.03420547573995869,-10,-1,-100,6488.167091314914,-0.04251875474318002,0.02020767540348061,0.9988912880538486,145.35367914882104,15.217884942858376,-23.05256020377411,1.9806065336770695,-85.82595825195312,4381.2578125,True
1599570752.7439506,0.0,10,0.5,0.5,-0.2544286315917969,-0.15025,-0.0155,-0.12575,0.29893838021959185,10,1,100,0.3084387203546034,-10,-1,-100,6488.200652477448,-0.04096440524341755,0.02098436863718724,0.9989402253267968,148.00749275449218,15.49570603472169,-21.210359049183378,1.7895588239288855,-88.57818603515625,4381.2578125,True
1599570752.8229964,0.0,10,0.5,0.5,1.8539273269653322,-0.15025,-0.0155,-0.12575,0.45454890598825287,10,1,100,-0.07058955582994852,-10,-1,-100,6488.301349533605,-0.03612614404592878,0.02308780281765583,0.9990805048030044,160.30698815393856,16.78243666234188,-15.618316183324433,1.2164372135044084,-97.24110412597656,4381.2578125,True
1599570752.9132657,0.0,10,0.5,0.5,2.4703971649169922,-0.15025,-0.0155,-0.12575,0.3768507852129571,10,1,100,0.04546246813332161,-10,-1,-100,6488.306978753302,-0.032805773444774505,0.024277005299096696,0.9991668570576177,168.57648544151323,17.646046403096808,-11.268091329175425,0.8344666997693144,-103.16690826416016,4381.2578125,True
1599570752.9900596,0.0,10,0.5,0.5,3.440953684234619,-0.15025,-0.0155,-0.12575,0.3705314212650099,10,1,100,0.008187559101314856,-10,-1,-100,6488.311648561736,-0.029472951674868998,0.025284712738234155,0.9992457297488521,175.77846772505626,18.398355860516787,-6.373044430300133,0.4525661846642719,-109.11329650878906,4381.2578125,True
1599570753.0728374,0.0,10,0.5,0.5,4.351428467178344,-0.15025,-0.0155,-0.12575,0.3636557457616726,10,1,100,-0.024873691211873328,-10,-1,-100,6488.318294586148,-0.026168458913405884,0.02612328119891812,0.9993161591495954,182.18311083377523,19.06803659808948,-1.0311296825591805,0.070639711711598,-114.83765411376953,4381.2578125,True
1599570753.1506312,0.0,10,0.5,0.5,5.217653956222534,-0.15025,-0.0155,-0.12575,0.35541237254550384,10,1,100,-0.0597445438349834,-10,-1,-100,6488.322032764088,-0.02287535509783106,0.026795809771503715,0.9993791586319165,186.51413764272561,19.520634799291383,4.654187155579858,-0.31139891043293,-120.27883911132812,4381.2578125,True
1599570753.2364004,0.0,10,0.5,0.5,6.037671529388427,-0.15025,-0.0155,-0.12575,0.34701051814323103,10,1,100,-0.0870605555836243,-10,-1,-100,6488.3277467601,-0.019661226256154067,0.027318126120769236,0.9994334175758554,189.63800537186665,19.846950948164444,10.54128169803482,-0.6935738676943974,-125.42689514160156,4381.2578125,True
1599570753.3141918,0.0,10,0.5,0.5,6.814322054290771,-0.15025,-0.0155,-0.12575,0.33909749148815427,10,1,100,-0.11316569266524473,-10,-1,-100,6488.268541488214,-0.016530537488392276,0.02770967962297929,0.9994793219399472,191.52150121334373,20.043404680162002,16.516370695177056,-1.0758701359241925,-130.28001403808594,4381.2578125,True
1599570753.397969,0.0,10,0.5,0.5,7.5467891616821285,-0.15025,-0.0155,-0.12575,0.33171885915099864,10,1,100,-0.1367227056252968,-10,-1,-100,6488.21131118224,-0.01349926714086024,0.027988586448880016,0.9995170878055329,192.08843526379354,20.10195025648819,22.456566377228015,-1.458281999300315,-134.83773803710938,4381.2578125,True
1599570753.4697766,0.0,10,0.5,0.5,8.795607045745848,-0.15025,-0.0155,-0.12575,0.3322200003046004,10,1,100,-0.3134471799803303,-10,-1,-100,6488.12428489048,-0.009167429515461931,0.028237281276243014,0.9995592099431656,190.9394439971562,19.97996599653154,31.112422278357403,-2.0320763168611746,-141.11990356445312,4381.2578125,True
1599570753.5485883,0.0,10,0.5,0.5,9.145155419158936,-0.15025,-0.0155,-0.12575,0.31673112782854973,10,1,100,-0.1840554706611114,-10,-1,-100,6488.003139681765,-0.006436002963663384,0.028315259909633676,0.9995783230553279,189.17305663870627,19.79348497104239,36.63400493439516,-2.4146852976134388,-144.9381103515625,4381.2578125,True
1599570753.6393473,0.0,10,0.5,0.5,9.724177143096925,-0.15025,-0.0155,-0.12575,0.3202569037152357,10,1,100,-0.19536396112557222,-10,-1,-100,6487.882992048166,-0.0038814729144239276,0.028411537637801926,0.9995887747954507,186.82505018661357,19.545569347363532,41.91892829769959,-2.79732676594423,-148.45913696289062,4381.2578125,True
1599570753.718134,0.0,10,0.5,0.5,9.816122718811034,-0.15025,-0.0155,-0.12575,0.3123991824999718,10,1,100,-0.08008280061345097,-10,-1,-100,6487.853197859833,-0.002636496757163256,0.028422789257070532,0.9995925139454065,185.492163666243,19.404731409714657,44.46998009665012,-2.9886537399533553,-150.10887145996094,4381.2578125,True
1599570753.7965078,0.0,10,0.5,0.5,10.11626678352356,-0.15025,-0.0155,-0.12575,0.31313019435994505,10,1,100,-0.0909837563930321,-10,-1,-100,6487.76139613206,-0.0014330272677370091,0.028435894669716317,0.9995945909853569,184.08308085495943,19.255739372071037,46.961123563965245,-3.1799828589149364,-151.6843719482422,4381.2578125,True
1599570753.8802829,0.0,10,0.5,0.5,11.165795666885375,-0.15025,-0.0155,-0.12575,0.31604296423071104,10,1,100,-0.345949412234603,-10,-1,-100,6487.549488639226,0.0019534146626582856,0.028471423696463556,0.9995926981545293,179.73080251966664,18.794780949077666,54.139769129232846,-3.7539713007307878,-155.96575927734375,4381.2578125,True
1599570753.953088,0.0,10,0.5,0.5,11.3766661819458,-0.15025,-0.0155,-0.12575,0.31253960382561785,10,1,100,-0.24028223407886828,-10,-1,-100,6487.426947755739,0.004045822185623634,0.028469739405735158,0.9995864671257869,176.7683785121755,18.480489001166564,58.684583189232015,-4.136631928852763,-158.44947814941406,4381.2578125,True
1599570754.0365968,0.0,10,0.5,0.5,11.72691189880371,-0.15025,-0.0155,-0.12575,0.31783644819975154,10,1,100,-0.2470706409846098,-10,-1,-100,6487.243380744476,0.005985249835386642,0.02851483960880671,0.9995754502319935,173.86511014593225,18.171850625872672,63.070758949686486,-4.519312891530307,-160.6357421875,4381.2578125,True
1599570754.1153848,0.0,10,0.5,0.5,11.777462872314453,-0.15025,-0.0155,-0.12575,0.31831747240156194,10,1,100,-0.15617816340087592,-10,-1,-100,6487.151113559492,0.006898755651599486,0.028559124819353635,0.9995682985969554,172.49545856688607,18.025922433106693,65.22877996429489,-4.710668355674526,-161.6172637939453,4381.2578125,True
1599570754.1930194,0.0,10,0.5,0.5,12.183128737640379,-0.15025,-0.0155,-0.12575,0.32052047654780336,10,1,100,-0.25858354602534983,-10,-1,-100,6486.90506135975,0.008638874150979114,0.028618639189183604,0.9995530717997733,169.94156698356977,17.753180981089752,69.49629142758322,-5.0934237393944946,-163.3582763671875,4381.2578125,True
1599570754.2746058,0.0,10,0.5,0.5,12.406774639892578,-0.15025,-0.0155,-0.12575,0.32830200020108125,10,1,100,-0.2613679869630003,-10,-1,-100,6486.721028800122,0.010225987575946654,0.028742911510658553,0.9995345287762635,167.6950973342389,17.512365446666813,73.74486204210895,-5.476254318331035,-164.80165100097656,4381.2578125,True
1599570754.3494058,0.0,10,0.5,0.5,12.578436155700684,-0.15025,-0.0155,-0.12575,0.33090288274431034,10,1,100,-0.26452898321842916,-10,-1,-100,6486.473036266165,0.011679923912701581,0.02887907107127021,0.9995146715438719,165.8482527317924,17.313267860062755,78.04650104635888,-5.859170325835083,-165.9482421875,4381.2578125,True
1599570754.4249482,0.0,10,0.5,0.5,12.787353845977783,-0.15025,-0.0155,-0.12575,0.3564636132976423,10,1,100,-0.3296893578782348,-10,-1,-100,6486.134258541628,0.013577582236771234,0.02923471021216416,0.9994803554744909,163.96324843937018,17.10721235496246,84.74979387949953,-6.43370425723027,-167.10960388183594,4381.2578125,True
1599570754.5020685,0.0,10,0.5,0.5,12.781330883026124,-0.15025,-0.0155,-0.12575,0.3537432448796384,10,1,100,-0.26118913028614543,-10,-1,-100,6485.823775612633,0.014664124957678111,0.029532539561381927,0.9994562484402612,163.3533234075919,17.037391392054502,89.48080914051877,-6.816833143665701,-167.51217651367188,4381.2578125,True
1599570754.5718482,0.0,10,0.5,0.5,12.782437258148194,-0.15025,-0.0155,-0.12575,0.34312698591184576,10,1,100,-0.20798567754285413,-10,-1,-100,6485.732988518896,0.015152495477459131,0.0297057732061415,0.999443829796868,163.25249147251816,17.023745367092747,91.94869276055186,-7.008428793023646,-167.60186767578125,4381.2578125,True
1599570754.6466742,0.0,10,0.5,0.5,12.746788659667969,-0.15025,-0.0155,-0.12575,0.3968489423851253,10,1,100,-0.29499980063302067,-10,-1,-100,6485.267270630691,0.01637242841194776,0.03035048532519236,0.999405218931951,163.78872561337695,17.069851570665236,99.85133680069443,-7.583331519040457,-167.42417907714844,4381.2578125,True
1599570754.7224863,0.0,10,0.5,0.5,12.651622555541993,-0.15025,-0.0155,-0.12575,0.3869110187732346,10,1,100,-0.24355904063366576,-10,-1,-100,6484.957281389041,0.01700070688535302,0.030844534253649834,0.9993796028897498,164.84885329581772,17.173180700765894,105.60303272930041,-7.9666852487321105,-166.93406677246094,4381.2578125,True
1599570754.7953053,0.0,10,0.5,0.5,12.627988481140138,-0.15025,-0.0155,-0.12575,0.36728256307050366,10,1,100,-0.21030108128792402,-10,-1,-100,6484.802530506859,0.017257746881033126,0.03111307023236097,0.9993668730918123,165.5851995679969,17.246044295909563,108.64054483116414,-8.158383573738755,-166.57748413085938,4381.2578125,True
1599570754.8760595,0.0,10,0.5,0.5,12.263553279876708,-0.15025,-0.0155,-0.12575,0.44230888839143645,10,1,100,-0.23973091935042778,-10,-1,-100,6484.273822080111,0.017748715862178122,0.03203688932444907,0.9993290853405882,168.57272996850773,17.544139186837022,118.44394787481053,-8.733543686031206,-165.0612335205078,4381.2578125,True
1599570754.9498632,0.0,10,0.5,0.5,12.27907929534912,-0.15025,-0.0155,-0.12575,0.38624624135262353,10,1,100,-0.20107861900710494,-10,-1,-100,6484.11907003657,0.017833803150815567,0.03236390283098987,0.999317033407679,169.81506961540336,17.66854133139907,121.9528905332276,-8.925278644689774,-164.40731811523438,4381.2578125,True
1599570755.029683,0.0,10,0.5,0.5,11.940512320709228,-0.15025,-0.0155,-0.12575,0.4289607419682411,10,1,100,-0.1991102514039881,-10,-1,-100,6483.746085726074,0.01788490195409415,0.03304609669376729,0.9992937935239059,172.6288004886212,17.950504883976294,129.33654868381873,-9.308757537346281,-162.87680053710938,4381.2578125,True
1599570755.1084383,0.0,10,0.5,0.5,11.34274956665039,-0.15025,-0.0155,-0.12575,0.4811341442303041,10,1,100,-0.1635630417418877,-10,-1,-100,6483.154373435536,0.017601236310711813,0.034136664603053604,0.9992621701085821,177.54962417725665,18.443365991303523,141.30599871930767,-9.883962023813412,-160.02447509765625,4381.2578125,True
1599570755.181278,0.0,10,0.5,0.5,11.065166352844237,-0.15025,-0.0155,-0.12575,0.45479455748830544,10,1,100,-0.14819662136563344,-10,-1,-100,6482.718389227637,0.01719828071112737,0.03488385955608501,0.9992433815057534,181.1813113929112,18.806509400501277,149.8369202830641,-10.267392719721135,-157.75244140625,4381.2578125,True
1599570755.2530527,0.0,10,0.5,0.5,10.992179581451415,-0.15025,-0.0155,-0.12575,0.421985174022901,10,1,100,-0.1587062695607595,-10,-1,-100,6482.500639356207,0.016924208151029605,0.03525972498247904,0.9992348687734133,183.06550388579024,18.994663931337957,154.24647448694677,-10.459088945841238,-156.50537109375,4381.2578125,True
1599570755.3298838,0.0,10,0.5,0.5,9.977034621429445,-0.15025,-0.0155,-0.12575,0.5042973362013892,10,1,100,-0.0645874696672423,-10,-1,-100,6481.8468876503175,0.015817371203551162,0.03634450667589524,0.9992141350094558,188.81589369785485,19.56775154158266,167.92106639029808,-11.034073653565715,-152.32093811035156,4381.2578125,True
1599570755.4006605,0.0,10,0.5,0.5,9.607662783050536,-0.15025,-0.0155,-0.12575,0.473096616884967,10,1,100,-0.06970910790730027,-10,-1,-100,6481.40990472422,0.014857111711911203,0.037040993736606354,0.9992032981403657,192.5729753494883,19.94132359086026,177.27125470300032,-11.41728649774438,-149.16195678710938,4381.2578125,True
1599570755.483436,0.0,10,0.5,0.5,9.510119663238527,-0.15025,-0.0155,-0.12575,0.4408535049154918,10,1,100,-0.1052668889601413,-10,-1,-100,6481.191167164128,0.014308778653355282,0.03737496231170176,0.9991988646138705,194.37385500643816,20.12019204225932,181.96310473268403,-11.608852745217192,-147.47181701660156,4381.2578125,True
1599570755.5562427,0.0,10,0.5,0.5,8.171409700012207,-0.15025,-0.0155,-0.12575,0.5002973857965458,10,1,100,0.05088651297261612,-10,-1,-100,6480.4743898295565,0.012393164880944831,0.03821303227156348,0.9991927609970191,199.21891643391868,20.60134720798683,195.83394226657654,-12.183373941860491,-141.96066284179688,4381.2578125,True
1599570755.6320693,0.0,10,0.5,0.5,8.278640090179444,-0.15025,-0.0155,-0.12575,0.44401160349188273,10,1,100,-0.06096002780400166,-10,-1,-100,6480.193141975324,0.011672906896722844,0.038456770612268834,0.9991920836549176,200.57104780472386,20.73584340625414,200.29796796637186,-12.374820437532016,-139.97645568847656,4381.2578125,True
1599570756.31306,0.0,10,0.5,0.5,7.333110014343261,-0.15025,-0.0155,-0.12575,0.4672007764622963,10,1,100,0.03963825911758423,-10,-1,-100,6479.694604768767,0.010109120492657034,0.03888332532965217,0.9991926204161904,202.7460646778749,20.95314010025085,208.81096417342818,-12.757624843949895,-135.78746032714844,4381.2578125,True
1599570756.3738577,0.0,10,0.5,0.5,6.5786659751892085,-0.15025,-0.0155,-0.12575,0.4520074604006443,10,1,100,0.06929874054876432,-10,-1,-100,6479.194592231652,0.008424878187457532,0.03912705454262322,0.999198726495558,204.04570264148504,21.085142986161635,216.53570305069638,-13.140321159841001,-131.30612182617188,4381.2578125,True
1599570756.450197,0.0,10,0.5,0.5,6.444350621032714,-0.15025,-0.0155,-0.12575,0.43980571181466266,10,1,100,0.0012986277251916256,-10,-1,-100,6478.913332236116,0.007520531684551043,0.03923217342377083,0.9992018205405897,204.300288383164,21.112595736360376,220.0049290817264,-13.331635909142737,-128.9550018310547,4381.2578125,True
1599570756.5209723,0.0,10,0.5,0.5,5.3336277709960935,-0.15025,-0.0155,-0.12575,0.43539852038231447,10,1,100,0.1163691370489458,-10,-1,-100,6478.351294113207,0.005661467237716615,0.03928303838559212,0.9992120849368828,204.09035977693702,21.098164693236523,226.17499856353052,-13.714220071944153,-124.03392028808594,4381.2578125,True
1599570756.5958047,0.0,10,0.5,0.5,5.190792240142822,-0.15025,-0.0155,-0.12575,0.42715074924230856,10,1,100,0.03772743469484087,-10,-1,-100,6478.070027836133,0.004696821228789372,0.03925030026885732,0.9992183714279624,203.73952728116254,21.068054582409406,228.98141984407442,-13.905499237696196,-121.46363830566406,4381.2578125,True
1599570756.666618,0.0,10,0.5,0.5,3.2103301010131835,-0.15025,-0.0155,-0.12575,0.3939086370561843,10,1,100,0.2747837256271264,-10,-1,-100,6477.225240198546,0.0016759289275822286,0.03891470952896421,0.9992411303807036,200.38398119574148,20.74843355132648,234.6508560143753,-14.479366179703565,-113.31378173828125,4381.2578125,True
1599570756.7413828,0.0,10,0.5,0.5,2.574245332336426,-0.15025,-0.0155,-0.12575,0.37895501689612954,10,1,100,0.20188091341288356,-10,-1,-100,6476.663178868825,-0.00039472810586208625,0.038471348488649006,0.9992596256905346,195.9867849941894,20.31660325908828,235.6702566096835,-14.862047814643173,-107.51498413085938,4381.2578125,True
1599570756.8211696,0.0,10,0.5,0.5,2.4083792083740234,-0.15025,-0.0155,-0.12575,0.3919312407020141,10,1,100,0.11238274996286123,-10,-1,-100,6476.319890337065,-0.0014496586141587392,0.038184958345914094,0.9992696370079616,193.27493403325198,20.047911114632818,235.45529336370475,-15.053440436379148,-104.5058822631836,4381.2578125,True
1599570756.9019866,0.0,10,0.5,0.5,0.10753225173950187,-0.15025,-0.0155,-0.12575,0.2961481360792665,10,1,100,0.34086739447725006,-10,-1,-100,6475.412085555261,-0.0044714936288614915,0.037053111814099,0.999303293624923,183.15124152707835,19.031723275326076,231.7996829235772,-15.627885218691068,-95.03977966308594,4381.2578125,True
1599570756.965783,0.0,10,0.5,0.5,-1.5691600467681883,-0.15025,-0.0155,-0.12575,0.24216734006706192,10,1,100,0.3678958438587645,-10,-1,-100,6474.443723121425,-0.007448998037959755,0.03553448038548112,0.9993406892206302,168.6680720699446,17.545081259350717,221.48487307680566,-16.202778911962177,-84.9154052734375,4381.2578125,True
1599570757.032604,0.0,10,0.5,0.5,-0.38136459541320794,-0.15025,-0.0155,-0.12575,0.3937382539061715,10,1,100,0.07205759344240638,-10,-1,-100,6474.443723121425,-0.007448998037959755,0.03553448038548112,0.9993406892206302,168.6680720699446,17.545081259350717,221.48487307680566,-16.202778911962177,-84.9154052734375,4381.2578125,True
1599570757.1103966,0.0,10,0.5,0.5,-2.4131639125823976,-0.15025,-0.0155,-0.12575,0.26247634866962133,10,1,100,0.2764721323385763,-10,-1,-100,6473.817675881321,-0.009291350101988012,0.03434423474237082,0.9993668717509318,175.06724090113528,18.2086567593764,235.44339195999126,-16.586077446017736,-77.83950805664062,4381.2578125,True
1599570757.1812403,0.0,10,0.5,0.5,-3.5352950908660885,-0.15025,-0.0155,-0.12575,0.2411115824005653,10,1,100,0.28247954931075214,-10,-1,-100,6473.129617001163,-0.011004722834224894,0.0330723161187339,0.9993923743864992,187.9047148104077,19.53121177323153,258.6734630174614,-16.96907806429553,-70.85018920898438,4381.2578125,True
1599570757.2560072,0.0,10,0.5,0.5,-4.6275008762359615,-0.15025,-0.0155,-0.12575,0.20403196659402878,10,1,100,0.29746726046927635,-10,-1,-100,6472.442045100499,-0.012681745188137028,0.03158453891473641,0.9994206272838911,198.3392873520134,20.597421836053872,279.33397889905564,-17.35172398735019,-64.0347900390625,4381.2578125,True
1599570757.3277194,0.0,10,0.5,0.5,-5.684593087387085,-0.15025,-0.0155,-0.12575,0.19036103595488202,10,1,100,0.2925973464951213,-10,-1,-100,6471.753497072961,-0.014145363371541328,0.030114731632083582,0.99944635255416,207.09889665176203,21.48833938416361,298.2435311595751,-17.734009247841666,-57.436492919921875,4381.2578125,True
1599570757.4025216,0.0,10,0.5,0.5,-7.536503474807739,-0.15025,-0.0155,-0.12575,0.08055781393531114,10,1,100,0.3649591513554189,-10,-1,-100,6470.6586682574125,-0.016116630687365824,0.027788637146436528,0.9994838897455179,215.64371386771467,22.355926518549285,320.8153829685466,-18.306864595682192,-48.0799560546875,4381.2578125,True
1599570757.4813092,0.0,10,0.5,0.5,-8.0800803440094,-0.15025,-0.0155,-0.12575,0.1401685299478283,10,1,100,0.2949488701069908,-10,-1,-100,6469.908605874283,-0.017256059727116066,0.02622603600721893,0.9995070902390049,218.90926153809588,22.692452705297388,332.6262410599163,-18.688501246256838,-42.213836669921875,4381.2578125,True
1599570757.5524385,0.0,10,0.5,0.5,-8.222299968338012,-0.15025,-0.0155,-0.12575,0.20980625284903437,10,1,100,0.2397040736340624,-10,-1,-100,6469.502326563816,-0.01777435040293398,0.025449691827469745,0.9995180767017875,220.0135177760304,22.809674101778022,337.8009095462231,-18.87927091803465,-39.392578125,4381.2578125,True
1599570757.6262445,0.0,10,0.5,0.5,-10.181421810150146,-0.15025,-0.0155,-0.12575,0.043006992806527256,10,1,100,0.3423628740653476,-10,-1,-100,6468.345022330992,-0.019163944937790334,0.023239144996873552,0.9995462397279256,220.76913274929385,22.910960459739755,349.5050311399558,-19.45151320577417,-31.37457275390625,4381.2578125,True
1599570757.7040343,0.0,10,0.5,0.5,-10.644392904663086,-0.15025,-0.0155,-0.12575,0.10511981612025512,10,1,100,0.2900073000523072,-10,-1,-100,6467.593513265834,-0.019937896159078535,0.021806777150835652,0.9995633770637274,219.4744701134875,22.80211321465143,354.4623735105364,-19.83304339288385,-26.40155029296875,4381.2578125,True
1599570757.7758782,0.0,10,0.5,0.5,-10.765240228271486,-0.15025,-0.0155,-0.12575,0.1707440800431193,10,1,100,0.2517737053854341,-10,-1,-100,6467.1877312794095,-0.020282556501349764,0.02111368851122237,0.9995713231476884,218.38519763067768,22.703954291507902,356.1958166670299,-20.023839373330077,-24.026519775390625,4381.2578125,True
1599570757.8488228,0.0,10,0.5,0.5,-11.810765896606446,-0.15025,-0.0155,-0.12575,0.09987649088369549,10,1,100,0.292387991233184,-10,-1,-100,6466.373730301624,-0.020953437994336434,0.01985246693001031,0.9995833296894313,215.48122962865327,22.434872645003306,358.36566028965893,-20.40551317777137,-19.49822998046875,4381.2578125,True
1599570757.9236221,0.0,10,0.5,0.5,-13.052652084350585,-0.15025,-0.0155,-0.12575,0.026294277306243674,10,1,100,0.31642584253635586,-10,-1,-100,6465.091460825293,-0.021771254283541926,0.01805014697621557,0.9996000223494688,209.8851242276039,21.903564427259035,359.18437518705156,-20.978261409759998,-13.26312255859375,4381.2578125,True
1599570757.9964287,0.0,10,0.5,0.5,-12.890567372131347,-0.15025,-0.0155,-0.12575,0.14389987702224868,10,1,100,0.2616357790814685,-10,-1,-100,6464.684710492496,-0.022006844395548564,0.017494472623949958,0.9996047429996319,208.07452551539583,21.73130962178365,359.44119540660614,-21.169240301476375,-11.332977294921875,4381.2578125,True
1599570758.0772111,0.0,10,0.5,0.5,-14.656148789978028,-0.15025,-0.0155,-0.12575,-0.014653688288418426,10,1,100,0.3364154206010699,-10,-1,-100,6462.932721749297,-0.022892354784635145,0.015560727224784961,0.9996168285201337,200.1581651529919,20.96123158351464,358.7189694545129,-21.93342782827185,-4.352508544921875,4381.2578125,True
1599570758.152012,0.0,10,0.5,0.5,-13.860635020446777,-0.15025,-0.0155,-0.12575,0.17726545118735137,10,1,100,0.2487390808337211,-10,-1,-100,6462.932721749297,-0.022892354784635145,0.015560727224784961,0.9996168285201337,200.1581651529919,20.96123158351464,358.7189694545129,-21.93342782827185,-4.352508544921875,4381.2578125,True
1599570758.2233813,0.0,10,0.5,0.5,-15.158755337524415,-0.15025,-0.0155,-0.12575,0.04407158589341488,10,1,100,0.3100339471831791,-10,-1,-100,6461.587981104618,-0.023443421093178155,0.01436099018567795,0.9996220125469101,194.9124727466672,20.44103955688008,358.8165376243829,-22.506766488624265,0.105255126953125,4381.2578125,True
1599570758.3011734,0.0,10,0.5,0.5,-15.381910049438476,-0.15025,-0.0155,-0.12575,0.08951388569978747,10,1,100,0.2932956151750395,-10,-1,-100,6460.712002163171,-0.023786598935992293,0.013694218371839999,0.9996232620813917,191.4923976506516,20.09435116069248,358.7572363593853,-22.88903723382151,2.7071533203125,4381.2578125,True
1599570758.3749437,0.0,10,0.5,0.5,-15.756423445129395,-0.15025,-0.0155,-0.12575,0.09353437086112457,10,1,100,0.2957880339953993,-10,-1,-100,6459.77401500463,-0.02411577146552382,0.0131352988365955,0.9996228756341543,188.26246666794404,19.761341218797657,358.84805278667653,-23.271316503962094,5.01312255859375,4381.2578125,True
1599570758.4487457,0.0,10,0.5,0.5,-16.07767039642334,-0.15025,-0.0155,-0.12575,0.09912971202871192,10,1,100,0.2999574946937171,-10,-1,-100,6458.8345669879345,-0.024448421747330154,0.012687242220769729,0.9996205823005527,190.85723250207724,20.034007806389194,370.03005260951835,-23.65351863227374,7.023345947265625,4381.2578125,True
1599570758.5315254,0.0,10,0.5,0.5,-16.123491368103025,-0.15025,-0.0155,-0.12575,0.12254858264763144,10,1,100,0.2844332847760913,-10,-1,-100,6458.365333637921,-0.024605601435549997,0.012501107334672901,0.9996190707931706,193.12885736505598,20.270748936397116,377.59273467877847,-23.844559060197238,7.91754150390625,4381.2578125,True
1599570758.6023357,0.0,10,0.5,0.5,-16.67856103668213,-0.15025,-0.0155,-0.12575,0.09741401444319561,10,1,100,0.32128283216751186,-10,-1,-100,6456.895625485224,-0.025079557905731676,0.012111227346523232,0.9996120917372968,198.9504333403047,20.870473048462856,398.7490275316699,-24.41743980902907,10.15667724609375,4381.2578125,True
1599570758.6781335,0.0,10,0.5,0.5,-16.752991566467283,-0.15025,-0.0155,-0.12575,0.12195581512554927,10,1,100,0.30827957958216295,-10,-1,-100,6455.893201082596,-0.025388465018837854,0.011986935763120828,0.9996057919074889,202.07197680548438,21.186371736293896,411.63500930300114,-24.79916713655031,11.279998779296875,4381.2578125,True
1599570758.7479463,0.0,10,0.5,0.5,-16.87829610748291,-0.15025,-0.0155,-0.12575,0.1328062660746408,10,1,100,0.3119967333100867,-10,-1,-100,6454.892245222116,-0.025699793600337962,0.011978095887940469,0.9995979420886177,204.64125934859848,21.441850268510986,423.591984766018,-25.180750596435594,12.10797119140625,4381.2578125,True
1599570758.833717,0.0,10,0.5,0.5,-17.000523155212402,-0.15025,-0.0155,-0.12575,0.1552514967214824,10,1,100,0.3319412508840441,-10,-1,-100,6453.358104274026,-0.026160776153096955,0.012179122077053257,0.9995835546748956,207.54052751735563,21.721845280861576,439.8396037478357,-25.75288185693482,12.796417236328125,4381.2578125,True
1599570758.905983,0.0,10,0.5,0.5,-16.940531900024414,-0.15025,-0.0155,-0.12575,0.13481071729543045,10,1,100,0.28616983774499094,-10,-1,-100,6453.358104274026,-0.026160776153096955,0.012179122077053257,0.9995835546748956,207.54052751735563,21.721845280861576,439.8396037478357,-25.75288185693482,12.796417236328125,4381.2578125,True
1599570758.9807827,0.0,10,0.5,0.5,-16.973926821899415,-0.15025,-0.0155,-0.12575,0.1864271441730234,10,1,100,0.3355452492301825,-10,-1,-100,6451.824460008182,-0.026606672238081913,0.012651436507892948,0.999565918860133,209.3657462382524,21.887518468971216,454.0690421861169,-26.324761583495338,12.82110595703125,4381.2578125,True
1599570759.0555828,0.0,10,0.5,0.5,-16.893332077026365,-0.15025,-0.0155,-0.12575,0.1895097845665759,10,1,100,0.32292166299737435,-10,-1,-100,6450.7615081159165,-0.02689439675763825,0.013110391406486586,0.9995523043143921,210.00267575842355,21.937330360998256,462.3941733030909,-26.705899559946676,12.46893310546875,4381.2578125,True
1599570759.1403575,0.0,10,0.5,0.5,-16.774251501464846,-0.15025,-0.0155,-0.12575,0.20797371698522907,10,1,100,0.32407257788138527,-10,-1,-100,6449.634106955375,-0.027163602094524435,0.013696007815346153,0.9995371719406798,210.1702433892431,21.938873011935158,469.72571433783696,-27.0869630008295,11.82220458984375,4381.2578125,True
1599570759.2111664,0.0,10,0.5,0.5,-16.60636252441406,-0.15025,-0.0155,-0.12575,0.22793921537525452,10,1,100,0.3243940312781396,-10,-1,-100,6448.570186969591,-0.027408485767456005,0.014409381164238035,0.9995204573406186,209.8527789482044,21.89126004635601,475.9824206161056,-27.46796707013634,10.881011962890625,4381.2578125,True
1599570759.2889593,0.0,10,0.5,0.5,-16.389680888366698,-0.15025,-0.0155,-0.12575,0.24861361591582495,10,1,100,0.3238334551262871,-10,-1,-100,6447.443770842627,-0.02762332017417684,0.015244285905469052,0.9995021580415858,209.02629017083018,21.79281800146528,481.06151809230846,-27.848925976375753,9.64544677734375,4381.2578125,True
1599570759.3647573,0.0,10,0.5,0.5,-16.34677907104492,-0.15025,-0.0155,-0.12575,0.2166360894709243,10,1,100,0.3128925308928206,-10,-1,-100,6446.917918424937,-0.027716417852038242,0.01571009163111561,0.999492367755949,208.41046034095362,21.723597859930184,483.1166285069804,-28.03939265021523,8.9173583984375,4381.2578125,True
1599570759.4421318,0.0,10,0.5,0.5,-15.973630084228514,-0.15025,-0.0155,-0.12575,0.28339907378895957,10,1,100,0.32014667673166614,-10,-1,-100,6445.790532442625,-0.027864601739586926,0.016737215907972263,0.9994715751703719,206.74829499457132,21.543136186655442,486.1647726358544,-28.420308541639155,7.2406005859375,4381.2578125,True
1599570759.5152209,0.0,10,0.5,0.5,-15.634307249450684,-0.15025,-0.0155,-0.12575,0.3080417163016995,10,1,100,0.3155710557222574,-10,-1,-100,6444.597233350272,-0.027955466776617695,0.01789067083691699,0.9994490561175725,204.47097868545532,21.303237133534985,487.6505523908875,-28.801209280048067,5.2698974609375,4381.2578125,True
1599570759.5920162,0.0,10,0.5,0.5,-14.90357847442627,-0.15025,-0.0155,-0.12575,0.40841018367554105,10,1,100,0.30955228169735083,-10,-1,-100,6442.875653965166,-0.02798130461625899,0.01984633177122078,0.999411411635468,201.07952417275655,20.95709444188863,489.6812260323028,-29.372534076369337,1.762847900390625,4381.2578125,True
1599570759.6693544,0.0,10,0.5,0.5,-14.58086109313965,-0.15025,-0.0155,-0.12575,0.3734332877918535,10,1,100,0.29681409966500893,-10,-1,-100,6441.6867627511965,-0.027887336880672367,0.02129926337646873,0.9993841292622792,205.81056759869674,21.46418820881681,508.1246613722252,-29.75324830491163,-0.94232177734375,4381.2578125,True
1599570759.743158,0.0,10,0.5,0.5,-14.496033859252929,-0.15025,-0.0155,-0.12575,0.31357732304359304,10,1,100,0.29745040512941595,-10,-1,-100,6441.093051732285,-0.02780612666097225,0.022067674118710485,0.9993697199130582,208.25066217835533,21.728646369625327,517.6555671321777,-29.943524443790423,-2.405029296875,4381.2578125,True
1599570759.8279316,0.0,10,0.5,0.5,-13.788149703979492,-0.15025,-0.0155,-0.12575,0.4151107042957462,10,1,100,0.2744162638494157,-10,-1,-100,6439.899283768842,-0.02752180749104224,0.023680699861576365,0.9993406699251722,213.19948813421973,22.27128659408622,537.1442111931889,-30.323897331699385,-5.550750732421875,4381.2578125,True
1599570759.9037285,0.0,10,0.5,0.5,-13.206513024902344,-0.15025,-0.0155,-0.12575,0.442797868260332,10,1,100,0.2599543667373715,-10,-1,-100,6438.649367522448,-0.027131293353056918,0.025389179019809683,0.9993094027925937,218.13870668596226,22.821717625827077,556.9491606150326,-30.704008567871483,-8.99017333984375,4381.2578125,True
1599570759.976533,0.0,10,0.5,0.5,-12.576461183166503,-0.15025,-0.0155,-0.12575,0.471450087421391,10,1,100,0.24255419933235992,-10,-1,-100,6437.397014609422,-0.02661812653188058,0.02719218645493645,0.9992757679118076,223.54686369927694,23.429623972196133,578.3039484797703,-31.083823909942517,-12.72314453125,4381.2578125,True
1599570760.0503366,0.0,10,0.5,0.5,-11.311703826904296,-0.15025,-0.0155,-0.12575,0.6010498639737446,10,1,100,0.17160497512297496,-10,-1,-100,6435.492858489393,-0.025507336800940025,0.029997843177990636,0.9992244518495291,231.37319964970698,24.324523284270484,610.2641926972938,-31.652937513147112,-18.87384033203125,4381.2578125,True
1599570760.1281288,0.0,10,0.5,0.5,-11.434528884887696,-0.15025,-0.0155,-0.12575,0.42755700465345137,10,1,100,0.2330502464990716,-10,-1,-100,6434.889392098761,-0.025058044952025158,0.03095782006215312,0.999206539089983,233.99475800155247,24.626606732949586,621.125080919709,-31.842472555378276,-21.071014404296875,4381.2578125,True
1599570760.2019322,0.0,10,0.5,0.5,-10.390621087646485,-0.15025,-0.0155,-0.12575,0.5452912309373359,10,1,100,0.16338117053298107,-10,-1,-100,6433.575525295455,-0.024018659283229014,0.03288697589721702,0.9991704313191879,239.1494891028225,25.223004293049556,642.8686038404211,-32.221281993294326,-25.685943603515625,4381.2578125,True
1599570760.277728,0.0,10,0.5,0.5,-8.856962217712402,-0.15025,-0.0155,-0.12575,0.6665980281808745,10,1,100,0.05408780875104083,-10,-1,-100,6431.670395664172,-0.02208368351581157,0.035728861394953425,0.9991174902811949,245.67875508841385,25.987775278683696,672.8248992005704,-32.78888288091817,-33.160400390625,4381.2578125,True
1599570760.3515315,0.0,10,0.5,0.5,-9.009118988037109,-0.15025,-0.0155,-0.12575,0.4885809549388975,10,1,100,0.16668662125852463,-10,-1,-100,6430.953647165792,-0.02135357818937357,0.03667784009927942,0.9990989744485588,247.37490015957647,26.189225396208524,681.629842218339,-32.977939711664774,-35.79876708984375,4381.2578125,True
1599570760.4313192,0.0,10,0.5,0.5,-6.975713014221192,-0.15025,-0.0155,-0.12575,0.6833078817437619,10,1,100,-0.03769878740872748,-10,-1,-100,6428.97527000017,-0.018837822110570265,0.03929549143023086,0.9990500492024347,250.61996172291705,26.583942856669264,703.2109268591751,-33.54478575708239,-44.157318115234375,4381.2578125,True
1599570761.138113,0.0,10,0.5,0.5,-6.320233699035645,-0.15025,-0.0155,-0.12575,0.6021813831448332,10,1,100,0.005422620116110194,-10,-1,-100,6427.600353176356,-0.016951010757129514,0.040921300627420304,0.9990185735957425,250.95727003855745,26.63828298478632,712.6008354908154,-33.922512542513694,-50.09783935546875,4381.2578125,True
1599570761.2049346,0.0,10,0.5,0.5,-5.272188055419922,-0.15025,-0.0155,-0.12575,0.5998195622645991,10,1,100,-0.031637168854727726,-10,-1,-100,6426.284022892709,-0.014908688823270162,0.042360698229127934,0.9989911422245503,249.56949602750151,26.496486793337628,717.0726703895308,-34.300212950208284,-56.3338623046875,4381.2578125,True
1599570761.2772515,0.0,10,0.5,0.5,-4.1749533126831055,-0.15025,-0.0155,-0.12575,0.5931368374683335,10,1,100,-0.06636196335667441,-10,-1,-100,6424.850004181499,-0.012747819041260119,0.04359150764310741,0.9989681043812622,246.2494704122101,26.13842496295329,715.8603871213185,-34.677989420708954,-62.865386962890625,4381.2578125,True
1599570761.3420777,0.0,10,0.5,0.5,-3.028619331359863,-0.15025,-0.0155,-0.12575,0.5848983373668708,10,1,100,-0.10008062264413045,-10,-1,-100,6423.471148214536,-0.010489934586193931,0.04461898226523609,0.998949001548123,240.81072912452387,25.54873529386277,708.2285503563638,-35.05594045664915,-69.69207763671875,4381.2578125,True
1599570761.4127202,0.0,10,0.5,0.5,-1.8330318939208983,-0.15025,-0.0155,-0.12575,0.5697021416724766,10,1,100,-0.12962073477306899,-10,-1,-100,6422.026848466718,-0.008183427873094035,0.045399060328303764,0.9989354117406957,233.1078697949853,24.71868567697595,693.5329704158154,-35.43414790651984,-76.8143310546875,4381.2578125,True
1599570761.485527,0.0,10,0.5,0.5,-1.625401577758789,-0.15025,-0.0155,-0.12575,0.5261139025298902,10,1,100,-0.02847070532364955,-10,-1,-100,6421.368658214342,-0.007021898318841438,0.04569796437784149,0.9989306227139709,228.37329468230928,24.21234843509623,683.3611108141057,-35.623365537689146,-80.48623657226562,4381.2578125,True
1599570761.632135,0.0,10,0.5,0.5,1.1674821853637694,-0.15025,-0.0155,-0.12575,0.5562563010644235,10,1,100,-0.29216588914410935,-10,-1,-100,6419.210470186314,-0.003585129913546883,0.04623031700563,0.998924373830703,210.56460918386605,22.33129649822098,640.947208729075,-36.19149259160452,-91.94468688964844,4381.2578125,True
1599570761.722893,0.0,10,0.5,0.5,0.9241843246459962,-0.15025,-0.0155,-0.12575,0.5107817037298038,10,1,100,-0.07338371645554859,-10,-1,-100,6418.434588912292,-0.0024682997780566414,0.04628873819956992,0.9989250523498233,205.70379359354743,21.827256148766427,629.7015718484497,-36.38098115962201,-95.9117202758789,4381.2578125,True
1599570761.804708,0.0,10,0.5,0.5,3.9047441413879396,-0.15025,-0.0155,-0.12575,0.49043780287836003,10,1,100,-0.3177711205251341,-10,-1,-100,6416.27294084779,0.0007508718514418514,0.04614730393467979,0.9989343634749098,224.0999782293266,23.84403670592121,697.6088475378434,-36.94859557346975,-108.16588592529297,4381.2578125,True
1599570761.8884492,0.0,10,0.5,0.5,4.693537050247192,-0.15025,-0.0155,-0.12575,0.4685558696450506,10,1,100,-0.21563242409481725,-10,-1,-100,6414.76607163297,0.0027287629561277686,0.04581119206099014,0.9989463892195017,233.6483673526695,24.915252696743643,735.3595626851793,-37.32627211447341,-116.20061492919922,4381.2578125,True
1599570761.9642467,0.0,10,0.5,0.5,5.939166547393798,-0.15025,-0.0155,-0.12575,0.4488793323010283,10,1,100,-0.2178966020930127,-10,-1,-100,6413.262608977384,0.004527823228492472,0.04532083483575319,0.9989622218815895,240.79956193140976,25.730781304440356,766.1100127606193,-37.7034564738763,-123.96992492675781,4381.2578125,True
1599570762.0420387,0.0,10,0.5,0.5,6.118674831771851,-0.15025,-0.0155,-0.12575,0.46746709228780503,10,1,100,-0.12931642937205573,-10,-1,-100,6412.48279898148,0.005338532056828391,0.04504003559977364,0.9989709181295766,243.70688198911608,26.064186885262906,779.5228024542525,-37.891895767875916,-127.74527740478516,4381.2578125,True
1599570762.1208284,0.0,10,0.5,0.5,7.777126019668579,-0.15025,-0.0155,-0.12575,0.4218358925773282,10,1,100,-0.2173172765888633,-10,-1,-100,6410.976394865313,0.0068571412201228425,0.04436749871754185,0.9989917440458836,247.4566119248145,26.500124690456065,799.9637760361408,-38.268567490488444,-135.07322692871094,4381.2578125,True
1599570762.2065997,0.0,10,0.5,0.5,8.907400193786621,-0.15025,-0.0155,-0.12575,0.40761917012764093,10,1,100,-0.20979525040009306,-10,-1,-100,6409.410414485144,0.00815149025752772,0.04362615317408449,0.9990146705458397,248.68246249248955,26.650234967726018,812.4212910001837,-38.64509300197596,-142.1016387939453,4381.2578125,True
1599570762.2913415,0.0,10,0.5,0.5,10.890421596527098,-0.15025,-0.0155,-0.12575,0.3448706807709543,10,1,100,-0.2528504353421541,-10,-1,-100,6407.061674157972,0.00970263522296569,0.04238266443959988,0.9990543371732743,246.4738720232141,26.41541495091269,817.8828701486125,-39.20990037654346,-152.0821075439453,4381.2578125,True
1599570762.376115,0.0,10,0.5,0.5,10.628739421081542,-0.15025,-0.0155,-0.12575,0.42284977391686984,10,1,100,-0.14460659017731,-10,-1,-100,6406.281851284672,0.01011247199632339,0.04196386316038465,0.9990679516923662,244.8204318629389,26.233978695218784,816.612780098548,-39.398226073566796,-155.258544921875,4381.2578125,True
1599570762.466873,0.0,10,0.5,0.5,12.036398595428466,-0.15025,-0.0155,-0.12575,0.37046523949414933,10,1,100,-0.1789336464042901,-10,-1,-100,6404.716832126724,0.010781538328425513,0.0411103063219983,0.9990964423644918,240.38624573695233,25.747373741970986,810.1368715074666,-39.7750133137899,-161.38607788085938,4381.2578125,True
1599570762.557968,0.0,10,0.5,0.5,13.754500852966308,-0.15025,-0.0155,-0.12575,0.31942703549021745,10,1,100,-0.18336926585273222,-10,-1,-100,6402.305093839415,0.011417043654193305,0.03987501644223282,0.9991394468130711,231.503104503055,24.781896932802788,792.2945108796431,-40.34059104222847,-170.01290893554688,4381.2578125,True
1599570762.659816,0.0,10,0.5,0.5,14.268050535964964,-0.15025,-0.0155,-0.12575,0.3558591022849785,10,1,100,-0.14040778480169813,-10,-1,-100,6400.6770859099925,0.011591593810398034,0.03908905690581415,0.9991684945909518,224.52284923008455,24.034117175123235,776.2742398463967,-40.71791193758982,-175.38796997070312,4381.2578125,True
1599570762.7509813,0.0,10,0.5,0.5,14.40690786743164,-0.15025,-0.0155,-0.12575,0.39319423201485654,10,1,100,-0.12643285549968325,-10,-1,-100,6399.831344635226,0.011613375756966783,0.03872037509482231,0.9991825969541522,220.8148660924459,23.64082783369007,767.3350228515669,-40.906646666398025,-177.9625244140625,4381.2578125,True
1599570762.847236,0.0,10,0.5,0.5,-83.82226117439271,-0.15025,-0.0155,-0.12575,0.3530536362773131,10,1,100,-0.11711774416764795,-10,-1,-100,6398.196504025604,0.011540417775555471,0.03802674150263949,0.999210080858003,213.11591029945845,22.83268790451172,748.088031188534,-41.28424514841373,177.11410522460938,4381.2578125,True
1599570762.9464836,0.0,10,0.5,0.5,-38.36219959220886,-0.15025,-0.0155,-0.12575,0.3514090086741143,10,1,100,-0.09644036506992695,-10,-1,-100,6396.5680144994985,0.011279741078341303,0.03738784534365613,0.9992371672739981,218.96610458583777,23.488813230684173,776.3492021524364,-41.66166622350287,172.49143981933594,4381.2578125,True
1599570763.0452201,0.0,10,0.5,0.5,-37.626208048248294,-0.15025,-0.0155,-0.12575,0.3258450528192126,10,1,100,-0.04612561238745437,-10,-1,-100,6394.03226967575,0.010579954321013661,0.0365815875915868,0.9992746629510049,228.55643824382037,24.582062899178656,822.4533405401187,-42.22712303242663,166.03253173828125,4381.2578125,True
1599570763.132985,0.0,10,0.5,0.5,-37.68067446517944,-0.15025,-0.0155,-0.12575,0.35780043522083677,10,1,100,-0.044313607563933044,-10,-1,-100,6392.338361664093,0.00992392739495571,0.0361462075761985,0.9992972367333546,234.69496579058406,25.294598033453696,852.8221482574146,-42.6036358744589,161.59609985351562,4381.2578125,True
1599570763.2556574,0.0,10,0.5,0.5,-37.40942649078369,-0.15025,-0.0155,-0.12575,0.3628782281187378,10,1,100,-0.021323395522168845,-10,-1,-100,6390.588796244585,0.0091169260462166,0.03580336926636995,0.9993172671422443,240.43755674737383,25.970469133129658,882.1613781040517,-42.979776541527286,156.88645935058594,4381.2578125,True
1599570763.33744,0.0,10,0.5,0.5,-36.3811693107605,-0.15025,-0.0155,-0.12575,0.35754782024738574,10,1,100,0.060987973432808915,-10,-1,-100,6387.987167414976,0.0076355357470237455,0.035449220999671,0.9993423093837128,248.915822548689,26.973696646193602,926.3975003401068,-43.54328795090039,149.2799530029297,4381.2578125,True
1599570763.445185,0.0,10,0.5,0.5,-37.80972215576171,-0.15025,-0.0155,-0.12575,0.392311182701209,10,1,100,-0.08690336286154647,-10,-1,-100,6387.987167414976,0.0076355357470237455,0.035449220999671,0.9993423093837128,248.915822548689,26.973696646193602,926.3975003401068,-43.54328795090039,149.2799530029297,4381.2578125,True
1599570763.525968,0.0,10,0.5,0.5,-36.011361254119876,-0.15025,-0.0155,-0.12575,0.3766327211256035,10,1,100,0.11121558401233587,-10,-1,-100,6385.3855592584005,0.005837314414153362,0.03531183597200398,0.9993592947487488,255.8527328989298,27.802282814204688,965.6793857753566,-44.10602963333263,141.01947021484375,4381.2578125,True
1599570763.617984,0.0,10,0.5,0.5,-35.072171742248536,-0.15025,-0.0155,-0.12575,0.4023031728589894,10,1,100,0.1619258174489583,-10,-1,-100,6382.718548391131,0.0037466381068837554,0.03542445658121949,0.9993653338888744,260.24411868087765,28.332352456003026,995.9422776554638,-44.66820718091778,132.10626220703125,4381.2578125,True
1599570763.7097404,0.0,10,0.5,0.5,-36.669623709106446,-0.15025,-0.0155,-0.12575,0.39067465190497874,10,1,100,-0.04635731770765097,-10,-1,-100,6382.718548391131,0.0037466381068837554,0.03542445658121949,0.9993653338888744,260.24411868087765,28.332352456003026,995.9422776554638,-44.66820718091778,132.10626220703125,4381.2578125,True
1599570763.7855017,0.0,10,0.5,0.5,-34.5102475402832,-0.15025,-0.0155,-0.12575,0.42622803162642486,10,1,100,0.22263138438704458,-10,-1,-100,6380.002742129262,0.0013084378493411445,0.03575066541369955,0.999359884082242,261.2826917221302,28.46689390462124,1013.7005521053171,-45.230126344094174,122.54110717773438,4381.2578125,True
1599570763.8672862,0.0,10,0.5,0.5,-34.70864749908447,-0.15025,-0.0155,-0.12575,0.412646042936047,10,1,100,0.07659551317756669,-10,-1,-100,6379.091623151326,0.00042879278977603726,0.0359258154333952,0.9993543675404581,260.7490131937886,28.409256460818828,1016.2351534633062,-45.417438572017176,119.20838928222656,4381.2578125,True
1599570763.9550493,0.0,10,0.5,0.5,-33.14587082443237,-0.15025,-0.0155,-0.12575,0.44597206346167256,10,1,100,0.1888321398292209,-10,-1,-100,6377.269401402911,-0.0013813530082176758,0.036389335665088084,0.9993367340960304,258.19214273246354,28.124455110322454,1015.4340282852081,-45.792157430283105,112.32695007324219,4381.2578125,True
1599570764.0418286,0.0,10,0.5,0.5,-31.94916657867432,-0.15025,-0.0155,-0.12575,0.4641422938638414,10,1,100,0.23031522220458717,-10,-1,-100,6375.392028265167,-0.0033931851122341707,0.03697607638112542,0.9993103902543249,253.4643496484789,27.59905637649313,1005.9066528410444,-46.16709182010296,105.15737915039062,4381.2578125,True
1599570764.1126394,0.0,10,0.5,0.5,-28.5681535987854,-0.15025,-0.0155,-0.12575,0.5923385888926648,10,1,100,0.4955389019901447,-10,-1,-100,6371.68913001765,-0.007621141284384062,0.03867414346978055,0.9992228124059229,236.8368947267512,25.790003054316763,957.0740378612988,-46.91793520165345,89.95771789550781,4381.2578125,True
1599570764.1874397,0.0,10,0.5,0.5,-29.277608488464356,-0.15025,-0.0155,-0.12575,0.48266045360028864,10,1,100,0.19715621286869148,-10,-1,-100,6370.701415763935,-0.008736951478570206,0.0392181570711696,0.9991924748689824,231.10015320501756,25.176770834766806,938.1111155156769,-47.105880745459274,85.97886657714844,4381.2578125,True
1599570764.2712164,0.0,10,0.5,0.5,-27.4245043548584,-0.15025,-0.0155,-0.12575,0.5696082145525334,10,1,100,0.34568976989866895,-10,-1,-100,6368.790474515059,-0.011086745366988683,0.040499722775569603,0.9991180393388307,238.13020060067447,25.98576419041246,975.3597077576006,-47.48155344665458,77.80738830566406,4381.2578125,True
1599570764.3450186,0.0,10,0.5,0.5,-27.184166558837887,-0.15025,-0.0155,-0.12575,0.5241394997286155,10,1,100,0.24621958623760068,-10,-1,-100,6367.80328585126,-0.012301626976710302,0.04124683918864681,0.9990732546868983,245.1882098362558,26.786315210239223,1008.7518244684653,-47.6691254860277,73.61492919921875,4381.2578125,True
1599570764.421813,0.0,10,0.5,0.5,-24.01721089401245,-0.15025,-0.0155,-0.12575,0.727114773381668,10,1,100,0.5217007688399702,-10,-1,-100,6364.91991948022,-0.015893949244305258,0.04376587023082052,0.9989153772869644,263.36994915378943,28.886915092562923,1097.953019040517,-48.230783373487505,60.60884094238281,4381.2578125,True
1599570764.4986093,0.0,10,0.5,0.5,-23.050813448333738,-0.15025,-0.0155,-0.12575,0.6991760106474372,10,1,100,0.4317346152539495,-10,-1,-100,6362.975448704325,-0.01832396755738122,0.04579432659553125,0.9987828151628451,273.23798440786373,30.045004412858912,1148.9979810176083,-48.604429271202505,51.58314514160156,4381.2578125,True
1599570764.5804176,0.0,10,0.5,0.5,-20.178078773498534,-0.15025,-0.0155,-0.12575,0.8983584100784558,10,1,100,0.5818026473362023,-10,-1,-100,6360.061544054421,-0.02187726576486688,0.04943969976735544,0.9985374811841401,283.08050028054583,31.208928811135518,1205.7558958942209,-49.164059645675906,37.5146484375,4381.2578125,True
1599570764.6582096,0.0,10,0.5,0.5,-21.815401222991945,-0.15025,-0.0155,-0.12575,0.5351899963314026,10,1,100,0.22879139694905706,-10,-1,-100,6360.061544054421,-0.02187726576486688,0.04943969976735544,0.9985374811841401,283.08050028054583,31.208928811135518,1205.7558958942209,-49.164059645675906,37.5146484375,4381.2578125,True
1599570764.7370324,0.0,10,0.5,0.5,-16.23909831237793,-0.15025,-0.0155,-0.12575,1.1876891112913057,10,1,100,0.6950155164243609,-10,-1,-100,6356.051903183805,-0.02609538861595633,0.05535922455396005,0.9981254364806893,282.57356207006563,31.18105776084879,1224.2691903326083,-49.90998949589853,17.769439697265625,4381.2578125,True
1599570764.809838,0.0,10,0.5,0.5,-15.73350613327026,-0.15025,-0.0155,-0.12575,0.9528472810826051,10,1,100,0.4844870735744634,-10,-1,-100,6354.045711103594,-0.027993683513213366,0.05858843964089526,0.9978896474178932,275.6543144258886,30.41994236972265,1204.5703376844824,-50.283415613647065,7.472381591796875,4381.2578125,True
1599570764.8895907,0.0,10,0.5,0.5,-15.427334575653074,-0.15025,-0.0155,-0.12575,0.8341666916829262,10,1,100,0.38018133906016743,-10,-1,-100,6353.0118748637615,-0.028748808107497997,0.06042552766787585,0.9977586189246661,270.4333258441568,29.850739959701738,1186.8513666375966,-50.47032406245434,2.22015380859375,4381.2578125,True
1599570764.9813466,0.0,10,0.5,0.5,-12.99372879486084,-0.15025,-0.0155,-0.12575,1.058937815149916,10,1,100,0.44987694987322885,-10,-1,-100,6351.0067424800945,-0.030049674503490845,0.06411920755646894,0.9974897213929398,256.4596247448056,28.346026369074007,1135.26648288463,-50.84457626348916,-8.497528076171875,4381.2578125,True
1599570765.0601354,0.0,10,0.5,0.5,-12.686699890899659,-0.15025,-0.0155,-0.12575,0.8990434534714495,10,1,100,0.3809837074137679,-10,-1,-100,6349.972941456013,-0.03058660291110295,0.06600087593948996,0.9973506625543389,250.43329260383345,27.714898059250483,1113.3621784520021,-51.031860642806734,-13.9625244140625,4381.2578125,True
1599570765.133938,0.0,10,0.5,0.5,-8.589559942626954,-0.15025,-0.0155,-0.12575,1.3492221859525306,10,1,100,0.4462934352455469,-10,-1,-100,6346.934563412215,-0.03165071730054457,0.0717808346255517,0.9969181229543479,276.5800442849708,30.781864453122466,1245.3363939766998,-51.59216669877671,-30.78179931640625,4381.2578125,True
1599570765.216742,0.0,10,0.5,0.5,-8.956248934936523,-0.15025,-0.0155,-0.12575,0.9862056963724665,10,1,100,0.3566182745973656,-10,-1,-100,6345.839742916287,-0.03178527520294091,0.07370743443902823,0.996773249234092,283.2337981088978,31.589041982923465,1280.6152038018238,-51.77844950948524,-36.530059814453125,4381.2578125,True
1599570765.295543,0.0,10,0.5,0.5,-6.296729788970948,-0.15025,-0.0155,-0.12575,1.2144480835259308,10,1,100,0.34984115845604447,-10,-1,-100,6343.771676932811,-0.03183154376205408,0.07750660000339457,0.9964835572038498,293.52771412735274,32.864639535030214,1338.1067892908814,-52.15044713731059,-48.239471435546875,4381.2578125,True
1599570765.3703866,0.0,10,0.5,0.5,-0.9153398315429686,-0.15025,-0.0155,-0.12575,1.6103835543000153,10,1,100,0.23395721845388256,-10,-1,-100,6339.575383453281,-0.030807836110133067,0.08453097091130304,0.9959444724436215,298.2190643080352,33.54882687930857,1381.7163828450057,-52.89342393339686,-72.51165771484375,4381.2578125,True
1599570765.452145,0.0,10,0.5,0.5,-3.797026481628418,-0.15025,-0.0155,-0.12575,0.9114555906235626,10,1,100,0.3372210406805108,-10,-1,-100,6339.575383453281,-0.030807836110133067,0.08453097091130304,0.9959444724436215,298.2190643080352,33.54882687930857,1381.7163828450057,-52.89342393339686,-72.51165771484375,4381.2578125,True
1599570765.5249512,0.0,10,0.5,0.5,1.6030438339233397,-0.15025,-0.0155,-0.12575,1.4101418524231126,10,1,100,0.1835526201663934,-10,-1,-100,6336.411279020482,-0.02940273176878176,0.08903258122662264,0.9955946358054859,283.68869833780275,31.975611191374366,1330.5880320167219,-53.45148128403572,-91.459228515625,4381.2578125,True
1599570765.595762,0.0,10,0.5,0.5,2.9693505126953124,-0.15025,-0.0155,-0.12575,1.246315901833265,10,1,100,0.20333691048678257,-10,-1,-100,6334.220891479985,-0.028302214694872447,0.09160501527457578,0.9953931413365827,265.25625270679984,29.964748167518703,1254.4034879204664,-53.82446024325327,-104.42900848388672,4381.2578125,True
1599570765.6705618,0.0,10,0.5,0.5,5.144478421020509,-0.15025,-0.0155,-0.12575,1.2341067632043992,10,1,100,0.19230406729236177,-10,-1,-100,6332.090487746173,-0.027201165570295012,0.09380258444369469,0.9952191576448378,265.315576826772,30.090331477682913,1264.9513556281347,-54.197680448915634,-117.59071350097656,4381.2578125,True
1599570765.7453866,0.0,10,0.5,0.5,7.254749602127076,-0.15025,-0.0155,-0.12575,1.2217223674379538,10,1,100,0.19261923521218077,-10,-1,-100,6329.898491801112,-0.0262044839313477,0.09565744640249345,0.9950693332475108,284.27563542048244,32.39822491892208,1366.2128988732281,-54.5696116927315,-130.56045532226562,4381.2578125,True
1599570766.4625218,0.0,10,0.5,0.5,7.573352813339234,-0.15025,-0.0155,-0.12575,1.1280233696357294,10,1,100,0.24325001345420894,-10,-1,-100,6328.801982368808,-0.025762185144115986,0.09646320434970299,0.9950030954842239,291.05516474292267,33.248890247770454,1404.3019070021353,-54.75519021757546,-136.93853759765625,4381.2578125,True
1599570766.531337,0.0,10,0.5,0.5,12.11703122367859,-0.15025,-0.0155,-0.12575,1.271752506176672,10,1,100,0.18255716959621202,-10,-1,-100,6325.513355487026,-0.024812728045893535,0.09847464706262003,0.9948301726489869,303.14639244304345,34.82016015381866,1479.7681800926468,-55.311030874426244,-155.61647033691406,4381.2578125,True
1599570766.606139,0.0,10,0.5,0.5,11.637648640060426,-0.15025,-0.0155,-0.12575,1.1347182927227717,10,1,100,0.2585440644474546,-10,-1,-100,6324.355279976036,-0.024646591536388648,0.09903319866802092,0.9947788553679751,303.8333892918112,34.94201915564446,1488.8768045724692,-55.49622043420505,-161.6884765625,4381.2578125,True
1599570766.6759539,0.0,10,0.5,0.5,14.355814744949342,-0.15025,-0.0155,-0.12575,1.1892409994485411,10,1,100,0.26653723365807414,-10,-1,-100,6322.161183861666,-0.024574713232995794,0.1000136104029569,0.9946825429269791,300.06664157204085,34.57487391960651,1481.9236714985507,-55.86681815169738,-173.60052490234375,4381.2578125,True
1599570766.7477586,0.0,10,0.5,0.5,-81.53703255882263,-0.15025,-0.0155,-0.12575,1.2411424650702005,10,1,100,0.340759994329216,-10,-1,-100,6318.746514654951,-0.025190718809220906,0.10135626438545965,0.9945312138669653,282.9239504140026,32.70416731013577,1413.9012551698522,-56.4237958918703,169.11402893066406,4381.2578125,True
1599570766.8175714,0.0,10,0.5,0.5,-35.742022973251345,-0.15025,-0.0155,-0.12575,1.2065148759126567,10,1,100,0.3796242805506239,-10,-1,-100,6316.491918294691,-0.02610914204171191,0.10224676692859888,0.9944163671996227,265.14524487342175,30.760535814044328,1335.5750927935808,-56.79598197641918,157.97933959960938,4381.2578125,True
1599570766.899396,0.0,10,0.5,0.5,-34.48782166633605,-0.15025,-0.0155,-0.12575,1.2270409001019307,10,1,100,0.43332518548223653,-10,-1,-100,6314.235430524219,-0.02743653383796241,0.10322680964588495,0.9942793683775656,279.8813171019804,32.636310695911064,1420.84982969197,-57.167634771785934,147.06756591796875,4381.2578125,True
1599570766.9717739,0.0,10,0.5,0.5,-33.17289350624084,-0.15025,-0.0155,-0.12575,1.2556052128510704,10,1,100,0.49036264619316083,-10,-1,-100,6311.917013960425,-0.029163563475499286,0.10436452929711967,0.9941114281558184,295.85633163871125,34.69448568632093,1513.4877673593107,-57.53812910903474,135.99220275878906,4381.2578125,True
1599570767.050562,0.0,10,0.5,0.5,-33.383414902496334,-0.15025,-0.0155,-0.12575,1.214873456819218,10,1,100,0.42802046370809477,-10,-1,-100,6310.758577009314,-0.030166060260868002,0.10501693163975027,0.9940128031757487,302.0933595342478,35.52222057427065,1551.2340063330314,-57.723019464845294,130.35865783691406,4381.2578125,True
1599570767.1233678,0.0,10,0.5,0.5,-29.69861643295288,-0.15025,-0.0155,-0.12575,1.4106285177526767,10,1,100,0.7175759791061096,-10,-1,-100,6307.280036139418,-0.03370704848328463,0.10737942128044949,0.9936465643114866,315.50894710500984,37.347655859248526,1638.351919948284,-58.27672890567604,113.04873657226562,4381.2578125,True
