Timestamp,Input Throttle,horizon,dT,dt,Input Roll,Roll P,Roll I,Roll D,Input Pitch,Pitch P,Pitch I,Pitch D,Input Yaw,Yaw P,Yaw I,Yaw D,Altitude,Direction X,Direction Y,Direction Z,Drag X,Drag Y,Drag Z,Vertical Velocity,Roll,Mass,Has Fuel
1599568764.2581484,0.0,10,0.5,0.5,-5.43256983947754,-0.1005,-0.0155,-0.001,-0.0672110222963736,10,1,100,0.6903500612450731,-10,-1,-100,6483.617967169965,-0.06725727268316685,-0.007002649947668521,0.9977110915314777,205.0732897397305,21.49878457000437,-156.76529287220848,9.590824107084607,-35.944610595703125,4381.2578125,True
1599568764.3220065,0.0,10,0.5,0.5,-5.516519755554199,-0.1005,-0.0155,-0.001,-0.06905942747087496,10,1,100,0.689465862184099,-10,-1,-100,6483.776675151661,-0.0673497036657497,-0.006987492338572365,0.9977049625851092,204.84280273139953,21.477794013287795,-153.51328895246186,9.400810172838796,-35.942962646484375,4381.2578125,True
1599568764.3854256,0.0,10,0.5,0.5,-5.5964810607910165,-0.1005,-0.0155,-0.001,-0.05042883549965214,10,1,100,0.7100079710620617,-10,-1,-100,6484.316759839072,-0.06755925127274673,-0.0067979914102569506,0.9976921042487266,204.1495736975971,21.414367107368754,-143.78942770818497,8.830797994130348,-35.98065185546875,4381.2578125,True
1599568764.4472625,0.0,10,0.5,0.5,-5.652240835571289,-0.1005,-0.0155,-0.001,-0.03425546810995797,10,1,100,0.6996738032559057,-10,-1,-100,6484.697140300996,-0.06759438461607647,-0.006472507234236393,0.9976918892215555,203.75676914248626,21.378987203667357,-137.38162868103487,8.450805672024792,-36.256591796875,4381.2578125,True
1599568764.5091357,0.0,10,0.5,0.5,-5.678839916992189,-0.1005,-0.0155,-0.001,-0.015317736902959636,10,1,100,0.6974382102745312,-10,-1,-100,6485.0169492934365,-0.0675445510059855,-0.005998567238486596,0.9976982263292268,203.44650606795537,21.351662976270728,-131.04530346808284,8.070816354407215,-36.817962646484375,4381.2578125,True
1599568765.0378692,0.0,10,0.5,0.5,-5.722228373718262,-0.1005,-0.0155,-0.001,-0.02828548622286641,10,1,100,0.7010633419400223,-10,-1,-100,6485.175623544841,-0.06747079932922,-0.005680148084132763,0.9977050802494787,203.31759129143745,21.34043696682254,-127.89865585583472,7.8808203889965975,-37.208160400390625,4381.2578125,True
1599568765.0888572,0.0,10,0.5,0.5,-5.7028870697021485,-0.1005,-0.0155,-0.001,0.02653456178624531,10,1,100,0.6877821923805318,-10,-1,-100,6485.4939278023085,-0.06722167753677488,-0.004887148281833596,0.9977260956048073,203.08679893682037,21.32003890567165,-121.62927767611728,7.500821051875762,-38.208740234375,4381.2578125,True
1599568765.1467083,0.0,10,0.5,0.5,-5.722207223510742,-0.1005,-0.0155,-0.001,-0.0009420363639464149,10,1,100,0.6995377262680992,-10,-1,-100,6485.59008088056,-0.06704096105395105,-0.004411583764488976,0.9977404709991728,202.9730919624582,21.309573504394205,-118.49884366982167,7.3108156774680335,-38.81915283203125,4381.2578125,True
1599568765.2035527,0.0,10,0.5,0.5,-5.732735305786132,-0.1005,-0.0155,-0.001,0.00950491392443465,10,1,100,0.7005481782770591,-10,-1,-100,6485.750193065964,-0.06682491294141633,-0.0038802695790408665,0.9977571721207352,202.8503493501184,21.297834407201695,-115.36541016355575,7.120805093414184,-39.503021240234375,4381.2578125,True
1599568765.2614012,0.0,10,0.5,0.5,-5.650469032287598,-0.1005,-0.0155,-0.001,0.08764640595106911,10,1,100,0.6669160404438783,-10,-1,-100,6486.005455151782,-0.06626200893795457,-0.0026833519651376894,0.9977986499257941,202.54387298633358,21.2669041122834,-109.07296546391818,6.74076374640989,-41.091400146484375,4381.2578125,True
1599568765.3242304,0.0,10,0.5,0.5,-5.5368315155029295,-0.1005,-0.0155,-0.001,0.12239828293341849,10,1,100,0.6503901324728787,-10,-1,-100,6486.261180200614,-0.06553980430876392,-0.0012768794781451362,0.9978491387128454,202.0861242529694,21.218578553419775,-102.71705268244904,6.360687576614616,-42.9735107421875,4381.2578125,True
1599568765.3880496,0.0,10,0.5,0.5,-5.306933668518067,-0.1005,-0.0155,-0.001,0.15692173036346097,10,1,100,0.6229507572546786,-10,-1,-100,6486.517857691855,-0.06463536711512916,0.00031037614987618607,0.997908900142963,201.3802623697547,21.14261841221903,-96.2651312347573,5.980564862105959,-45.14971923828125,4381.2578125,True
1599568765.4478965,0.0,10,0.5,0.5,-4.907480364990235,-0.1005,-0.0155,-0.001,0.28996425764810324,10,1,100,0.5224921410313568,-10,-1,-100,6486.869138799142,-0.06290235891574973,0.0029561789065846375,0.9980153076226369,199.6000909586243,20.950067376066634,-86.34562775809097,5.41025710116439,-48.966064453125,4381.2578125,True
1599568765.5057414,0.0,10,0.5,0.5,-4.595568536376953,-0.1005,-0.0155,-0.001,0.2382262390464137,10,1,100,0.5397508853829422,-10,-1,-100,6487.06179583841,-0.061488028130743756,0.004882241088743469,0.9980958802232099,197.74257929317898,20.74952703292351,-79.54614082396111,5.0299417841867555,-51.878387451171875,4381.2578125,True
1599568765.565547,0.0,10,0.5,0.5,-4.415248963928223,-0.1005,-0.0155,-0.001,0.15689750098360186,10,1,100,0.5937685660186325,-10,-1,-100,6487.157873325981,-0.06069889392877672,0.0058835320462050445,0.9981387820972013,196.55889804712064,20.622042914038506,-76.0879604652885,4.839743024887028,-53.445068359375,4381.2578125,True
1599568765.6274152,0.0,10,0.5,0.5,-3.868963537597656,-0.1005,-0.0155,-0.001,0.39050821268534575,10,1,100,0.3749760410976518,-10,-1,-100,6487.448520422098,-0.057998699570504325,0.008906728387290792,0.998276926026824,191.74967331449747,20.106414809691575,-65.49096764120202,4.26893786240331,-58.588714599609375,4381.2578125,True
1599568765.687257,0.0,10,0.5,0.5,-3.6519650817871097,-0.1005,-0.0155,-0.001,0.2035160846845341,10,1,100,0.5326130537789237,-10,-1,-100,6487.544094171375,-0.05698565217804891,0.009941899464205527,0.998325495057041,189.65789779359662,19.88314875436559,-61.893702885608064,4.078585999579614,-60.4508056640625,4381.2578125,True
1599568765.7470946,0.0,10,0.5,0.5,-3.0073039978027345,-0.1005,-0.0155,-0.001,0.4418080717107731,10,1,100,0.2621535046960164,-10,-1,-100,6487.7707410571165,-0.0536152823072073,0.013035773918233786,0.9984765746383192,181.65951898799972,19.03353210992083,-50.9912033692851,3.507223789441949,-66.4808349609375,4381.2578125,True
1599568765.8079698,0.0,10,0.5,0.5,-2.524868835449219,-0.1005,-0.0155,-0.001,0.35648656054034833,10,1,100,0.3212325355237919,-10,-1,-100,6487.839800582151,-0.05110059695828266,0.01505687572245314,0.9985800015441857,174.75310367364983,18.30396363859005,-43.72721992430607,3.1260019480450225,-70.87088012695312,4381.2578125,True
1599568765.8678186,0.0,10,0.5,0.5,-2.004925595092774,-0.1005,-0.0155,-0.001,0.3683775296617314,10,1,100,0.27405504673989123,-10,-1,-100,6487.9694055218715,-0.04839992793939128,0.016985125131663767,0.9986836098082934,166.39623773114528,17.424669424496017,-36.559135289288854,2.7444595169561943,-75.55770874023438,4381.2578125,True
1599568765.926655,0.0,10,0.5,0.5,-1.7070054107666015,-0.1005,-0.0155,-0.001,0.2767704934816416,10,1,100,0.38818096203293756,-10,-1,-100,6488.003936159657,-0.04699852086215278,0.017887407468311883,0.9987347894665692,161.68218011211067,16.92962342553216,-33.05468187194078,2.5535744070763013,-78.01272583007812,4381.2578125,True
1599568765.9844644,0.0,10,0.5,0.5,-1.1342373214721682,-0.1005,-0.0155,-0.001,0.38335995327179506,10,1,100,0.2010415545185152,-10,-1,-100,6488.133547659498,-0.04404010279948359,0.01965923714795115,0.99883631478845,151.15628474883374,15.825697281745024,-26.283564184576647,2.171631897175429,-83.14486694335938,4381.2578125,True
1599568766.0453749,0.0,10,0.5,0.5,-0.5293420196533203,-0.1005,-0.0155,-0.001,0.3844327053080905,10,1,100,0.15607061952045953,-10,-1,-100,6488.201644309913,-0.040960528119179856,0.021262153819773102,0.9989345103414649,148.0128334616632,15.496217036187831,-21.21111125046078,1.7895578709461395,-88.57476806640625,4381.2578125,True
1599568766.1086485,0.0,10,0.5,0.5,0.10792729110717773,-0.1005,-0.0155,-0.001,0.38883961178366977,10,1,100,0.10328941674894843,-10,-1,-100,6488.26926140883,-0.03770103277625052,0.022742771784922698,0.9990302290016769,155.96726581309636,16.32869173673137,-17.580708776889264,1.407460075099388,-94.30191802978516,4381.2578125,True
1599568766.1694882,0.0,10,0.5,0.5,0.7795608654022218,-0.1005,-0.0155,-0.001,0.38234950599092365,10,1,100,0.06563304983204754,-10,-1,-100,6488.273416073178,-0.034417149124665196,0.024013550309037204,0.9991190165579303,164.77774864941165,17.249436055400526,-13.53399877033206,1.025438680286757,-100.32757568359375,4381.2578125,True
1599568766.2303283,0.0,10,0.5,0.5,1.8018032299041749,-0.1005,-0.0155,-0.001,0.4333397478704162,10,1,100,-0.16453393098802144,-10,-1,-100,6488.311663866276,-0.029363265747408922,0.025615869331443202,0.9992405245300259,176.42475962522937,18.46603991146736,-6.396590640042292,0.4525740216491525,-109.74235534667969,4381.2578125,True
1599568766.2891681,0.0,10,0.5,0.5,2.1927514987945558,-0.1005,-0.0155,-0.001,0.3234977938197706,10,1,100,0.15163895004456568,-10,-1,-100,6488.345256430563,-0.0276691574445841,0.02605876964140265,0.9992774180632139,180.0910951802246,18.849479821525986,-3.774836850286812,0.2616243042139157,-112.90565490722656,4381.2578125,True
1599568766.349018,0.0,10,0.5,0.5,2.9012491649627687,-0.1005,-0.0155,-0.001,0.36412654281722834,10,1,100,-0.052567473380397856,-10,-1,-100,6488.3504457535455,-0.024299288315183194,0.02681610685027249,0.9993450059918099,185.77148148437607,19.443270491318188,1.7914195864940197,-0.12034613024101759,-119.11605834960938,4381.2578125,True
1599568766.4078505,0.0,10,0.5,0.5,3.5821146259307866,-0.1005,-0.0155,-0.001,0.3580711882778787,10,1,100,-0.0743505043176835,-10,-1,-100,6488.355172793148,-0.021064394274472525,0.027437018968949133,0.9994015715836888,189.2656503730968,19.808304983933137,7.621053407123603,-0.5024549965936034,-125.08148956298828,4381.2578125,True
1599568766.4676666,0.0,10,0.5,0.5,4.236607390594482,-0.1005,-0.0155,-0.001,0.3436386619941654,10,1,100,-0.11737081574707137,-10,-1,-100,6488.298397857929,-0.0177597934087264,0.027859025071306418,0.9994540832175112,191.54613060647216,20.046232052145122,13.58231410515016,-0.8846937321589272,-130.7606201171875,4381.2578125,True
1599568766.529541,0.0,10,0.5,0.5,4.863024800872803,-0.1005,-0.0155,-0.001,0.339170785673121,10,1,100,-0.13193361315606106,-10,-1,-100,6488.241644581547,-0.014651076403903347,0.02819216456149478,0.999495146470229,192.03567259604665,20.09658789711619,19.505025910795826,-1.267052072958423,-136.14517211914062,4381.2578125,True
1599568766.5918567,0.0,10,0.5,0.5,5.7113434715271,-0.1005,-0.0155,-0.001,0.33919111866575646,10,1,100,-0.3194875393109758,-10,-1,-100,6488.154113364057,-0.010149341111254302,0.028485835527877992,0.9995426694490266,190.00904401962248,19.882718842838603,28.043927527785687,-1.8407653317469732,-143.66830444335938,4381.2578125,True
1599568766.6516836,0.0,10,0.5,0.5,6.269156905364991,-0.1005,-0.0155,-0.001,0.32189629807328496,10,1,100,-0.18576281968354025,-10,-1,-100,6488.033449259237,-0.0073033435342666105,0.028587559311585783,0.9995646115313542,187.19858052000947,19.587030844123507,33.375887222981376,-2.22330662471581,-148.31387329101562,4381.2578125,True
1599568766.709731,0.0,10,0.5,0.5,6.798511765289307,-0.1005,-0.0155,-0.001,0.32185089166062775,10,1,100,-0.20064984370357108,-10,-1,-100,6487.974817004288,-0.004611333868263804,0.028672963233485244,0.9995782094360435,183.5184004518223,19.19989616580211,38.35536650798535,-2.605857676692489,-152.66268920898438,4381.2578125,True
1599568766.7706032,0.0,10,0.5,0.5,7.094015455245972,-0.1005,-0.0155,-0.001,0.31918027939668603,10,1,100,-0.07628056666176991,-10,-1,-100,6487.883009337005,-0.003324763689466706,0.028720933786041136,0.9995819395671709,181.43662329526737,18.981019560659995,40.70658780115311,-2.797122668050034,-154.72567749023438,4381.2578125,True
1599568766.8324027,0.0,10,0.5,0.5,7.572543267440797,-0.1005,-0.0155,-0.001,0.319312409185958,10,1,100,-0.22499700984027377,-10,-1,-100,6487.761419232935,-0.0008314525756967622,0.028761465119651688,0.9995859576898755,176.97106267909112,18.51173413245401,45.140761869110804,-3.1796107183005247,-158.62985229492188,4381.2578125,True
1599568766.8942623,0.0,10,0.5,0.5,8.18228603553772,-0.1005,-0.0155,-0.001,0.32544509565012925,10,1,100,-0.3585544124702635,-10,-1,-100,6487.549521579873,0.0026234140851197183,0.028851203849164467,0.9995802747828669,169.72284686833729,17.74977348865238,51.113513150584375,-3.7532487486050234,-163.9290771484375,4381.2578125,True
1599568766.956107,0.0,10,0.5,0.5,8.576968363571169,-0.1005,-0.0155,-0.001,0.32580614270649405,10,1,100,-0.250151699556383,-10,-1,-100,6487.426989473053,0.004751184048890602,0.028933528181772344,0.9995700461683954,164.64433774820512,17.21562866473784,54.644082241889386,-4.135663171639008,-167.09060668945312,4381.2578125,True
1599568767.0159438,0.0,10,0.5,0.5,8.938827601242068,-0.1005,-0.0155,-0.001,0.3347569317631763,10,1,100,-0.2585153048621533,-10,-1,-100,6487.243434865843,0.006735143634767432,0.02908781436526616,0.9995541690652242,159.52361236406503,16.677228896528838,57.849305994135904,-4.5181274814631145,-169.95425415039062,4381.2578125,True
1599568767.0797813,0.0,10,0.5,0.5,9.265994583129883,-0.1005,-0.0155,-0.001,0.341046820650448,10,1,100,-0.2664465857756211,-10,-1,-100,6487.058917934075,0.008585573504860403,0.02928375461705727,0.9995342663676522,154.5276139617725,16.15267566979763,60.791514428011716,-4.900690022406534,-172.52053833007812,4381.2578125,True
1599568767.139617,0.0,10,0.5,0.5,9.447073606872559,-0.1005,-0.0155,-0.001,0.3344522317111842,10,1,100,-0.18017522390833882,-10,-1,-100,6486.905139998184,0.009459547036230004,0.02940063610146883,0.9995229459930864,152.1557369734392,15.904082792257759,62.20014233921188,-5.0920198729894866,-173.692138671875,4381.2578125,True
1599568767.2014177,0.0,10,0.5,0.5,9.719223553466797,-0.1005,-0.0155,-0.001,0.35672751653043916,10,1,100,-0.2756047504443132,-10,-1,-100,6486.721126793185,0.011099690830129287,0.0297082959751635,0.9994969804925514,149.55423087283106,15.632109903147569,65.74278612077913,-5.474786504981664,-175.81158447265625,4381.2578125,True
1599568767.2612932,0.0,10,0.5,0.5,10.03292384185791,-0.1005,-0.0155,-0.001,0.39230704450627224,10,1,100,-0.3563752165606153,-10,-1,-100,6486.381403072504,0.01330569030569376,0.030310325696077788,0.9994519712130676,154.00345513048785,16.100411158210974,74.82085498796006,-6.049165683806375,-178.4322509765625,4381.2578125,True
1599568767.3218715,0.0,10,0.5,0.5,10.216499600219727,-0.1005,-0.0155,-0.001,0.3880584775743196,10,1,100,-0.28088796033053115,-10,-1,-100,6486.135398270446,0.014606161105169825,0.03081743595535985,0.9994183036641401,156.58959124358555,16.37491771469882,80.910223120244,-6.432209763387958,-179.8067626953125,4381.2578125,True
1599568767.380714,0.0,10,0.5,0.5,-26.22440378570557,-0.1005,-0.0155,-0.001,0.36980181375168003,10,1,100,-0.21861767730423454,-10,-1,-100,6485.980172266834,0.015204843354478612,0.031110526090208753,0.9994002941289122,157.72730751242358,16.496467396882256,83.93361114749312,-6.623763088155611,179.61788940429688,4381.2578125,True
1599568767.4405553,0.0,10,0.5,0.5,-26.289164329528813,-0.1005,-0.0155,-0.001,0.41625829690123917,10,1,100,-0.27964058031851907,-10,-1,-100,6485.732714545098,0.016287008511212873,0.03179713097569996,0.9993616341522573,159.63405008808445,16.701970175132924,89.88134480145568,-7.006929271159249,178.69131469726562,4381.2578125,True
1599568767.4983995,0.0,10,0.5,0.5,-26.7491248626709,-0.1005,-0.0155,-0.001,0.4316366079396173,10,1,100,-0.2769852569334238,-10,-1,-100,6485.423740473576,0.017231093476482325,0.032558360366626266,0.9993212909709478,161.08354430567692,16.860756764252752,95.67964238440682,-7.390169747384803,178.06260681152344,4381.2578125,True
1599568767.5582397,0.0,10,0.5,0.5,-27.215599370574953,-0.1005,-0.0155,-0.001,0.4501487113891458,10,1,100,-0.27275119288969885,-10,-1,-100,6485.1128197374055,0.018037581335974,0.03341530879290275,0.9992787713135025,162.24597413912025,16.990442069295597,101.39264292009926,-7.773477908281464,177.4296875,4381.2578125,True
1599568767.6200747,0.0,10,0.5,0.5,-27.605283438873293,-0.1005,-0.0155,-0.001,0.5329434043996881,10,1,100,-0.29345688739034953,-10,-1,-100,6484.585169462487,0.01894690716071136,0.03494295749814891,0.999209689920152,164.52084307353158,17.242617242622888,110.46235696845592,-8.348544285082443,176.00155639648438,4381.2578125,True
1599568767.6804595,0.0,10,0.5,0.5,-28.07996401138306,-0.1005,-0.0155,-0.001,0.44246741046186233,10,1,100,-0.22892058480764246,-10,-1,-100,6484.429960368085,0.019175771738333493,0.03550389715518074,0.9991855498680081,165.45919333865953,17.3462080672616,113.65862996006484,-8.540254193096294,175.38107299804688,4381.2578125,True
1599568767.7402997,0.0,10,0.5,0.5,-28.386175696563722,-0.1005,-0.0155,-0.001,0.5922859889898894,10,1,100,-0.25433280567844047,-10,-1,-100,6483.903306579799,0.01960522318205771,0.03737017470042982,0.9991091558317544,168.78308000916363,17.712794588258806,123.8025364036078,-9.11542036261606,173.07904052734375,4381.2578125,True
1599568767.8031316,0.0,10,0.5,0.5,-28.732868129730228,-0.1005,-0.0155,-0.001,0.5595295143800125,10,1,100,-0.222067638021764,-10,-1,-100,6483.529427691363,0.019693090537522825,0.03876175948274922,0.9990544070203997,171.45934219674166,18.007826928192816,131.0951780327373,-9.498872941420265,171.17652893066406,4381.2578125,True
1599568767.860977,0.0,10,0.5,0.5,-29.049644804382325,-0.1005,-0.0155,-0.001,0.5886888337646626,10,1,100,-0.20354125107587734,-10,-1,-100,6483.156047197874,0.019596736070521783,0.04028369085789315,0.9989960921776662,174.72914535543813,18.36727770578983,139.03132403321626,-9.882308560828347,168.9799041748047,4381.2578125,True
1599568767.921859,0.0,10,0.5,0.5,-29.46766636734009,-0.1005,-0.0155,-0.001,0.5273982464300782,10,1,100,-0.20023619177215968,-10,-1,-100,6482.937378371484,0.019473375974337195,0.04110101098210794,0.9989652118689673,176.44023724928803,18.555814758821032,143.13930832931104,-10.074014142498541,167.77139282226562,4381.2578125,True
1599568767.9826584,0.0,10,0.5,0.5,-29.739888750457766,-0.1005,-0.0155,-0.001,0.6358309599823654,10,1,100,-0.1738301908072302,-10,-1,-100,6482.501515596639,0.019116751137334423,0.04282043251366331,0.998899875055201,180.0518162724748,18.954391000600353,151.67821656113142,-10.457389072425801,165.13363647460938,4381.2578125,True
1599568768.043496,0.0,10,0.5,0.5,-29.422514391326906,-0.1005,-0.0155,-0.001,0.6700746250242757,10,1,100,-0.1492787336098762,-10,-1,-100,6482.065179798519,0.018565795394826088,0.04468420367325515,0.9988286305385146,184.08148707446767,19.39897892444055,160.81211892676546,-10.840699754268059,162.20199584960938,4381.2578125,True
1599568768.1038554,0.0,10,0.5,0.5,-28.89763635940552,-0.1005,-0.0155,-0.001,0.8227494428480059,10,1,100,-0.07980274872274264,-10,-1,-100,6481.41120245331,0.017431255050950376,0.04775477845973841,0.9987069802908208,190.0751962087237,20.063425966875542,174.945919222689,-11.415505332703843,157.2537078857422,4381.2578125,True
1599568768.1646934,0.0,10,0.5,0.5,-28.49826279220581,-0.1005,-0.0155,-0.001,0.7649319629131687,10,1,100,-0.0838015912351006,-10,-1,-100,6480.975900626043,0.016436025887017102,0.050006781704321844,0.9986136284052094,193.83269969597467,20.48213527288246,184.45867920147643,-11.79857690490385,153.5880126953125,4381.2578125,True
1599568768.2250743,0.0,10,0.5,0.5,-28.063144721221928,-0.1005,-0.0155,-0.001,0.8087150756590711,10,1,100,-0.05077774043376321,-10,-1,-100,6480.477154713473,0.015232511235655565,0.052437002521713696,0.9985080527306696,197.21277111878484,20.860392900042253,193.83908515821778,-12.181531072694689,149.6291046142578,4381.2578125,True
1599568768.2859445,0.0,10,0.5,0.5,-27.59466237945557,-0.1005,-0.0155,-0.001,0.8559833150517422,10,1,100,-0.016943410769925726,-10,-1,-100,6479.976983000524,0.013834198915587514,0.05506010176380006,0.9983871995043426,200.05507151100903,21.179891549286065,202.88919138075426,-12.564367836097702,145.3772430419922,4381.2578125,True
1599568768.3457513,0.0,10,0.5,0.5,-27.325481401824955,-0.1005,-0.0155,-0.001,0.7481453260071406,10,1,100,-0.0719808821430249,-10,-1,-100,6479.697862342815,0.013068202521483593,0.05644661371564708,0.9983200898924622,201.21965380070182,21.311327456312956,207.21810869121168,-12.755743873804093,143.14151000976562,4381.2578125,True
1599568768.407586,0.0,10,0.5,0.5,-26.556021688079834,-0.1005,-0.0155,-0.001,1.1064804226200855,10,1,100,0.14165219045103836,-10,-1,-100,6478.917224350385,0.010435666067498158,0.060947328696520954,0.9980864291224915,204.07571669005452,21.63135355263683,219.74298660185048,-13.329722750947363,135.9957733154297,4381.2578125,True
1599568768.4674258,0.0,10,0.5,0.5,-26.252049912261963,-0.1005,-0.0155,-0.001,0.8369240162370644,10,1,100,-0.013716838080840052,-10,-1,-100,6478.636211989797,0.009463312663683042,0.06256820628545721,0.997995824277662,204.52689190770568,21.682205686971717,223.43275807839754,-13.521011703133983,133.4678192138672,4381.2578125,True
1599568768.5302575,0.0,10,0.5,0.5,-25.66411915664673,-0.1005,-0.0155,-0.001,1.052469295452005,10,1,100,0.11206069971421193,-10,-1,-100,6478.074732799898,0.007445135065175045,0.06598097525423731,0.997793105241944,204.48961238937105,21.67967029556562,229.80317450808252,-13.903565816112508,128.1927947998047,4381.2578125,True
1599568769.0897593,0.0,10,0.5,0.5,-25.04310048522949,-0.1005,-0.0155,-0.001,1.1228921235790692,10,1,100,0.16563549968337232,-10,-1,-100,6477.511391374399,0.005134319285820101,0.0697010818776724,0.9975547092518552,203.04095322453622,21.521564286154586,234.5481609753459,-14.286134048787638,122.62681579589844,4381.2578125,True
1599568769.14561,0.0,10,0.5,0.5,-24.07994570236206,-0.1005,-0.0155,-0.001,1.42575305048031,10,1,100,0.3314635404401699,-10,-1,-100,6476.668291738839,0.0015387613266642775,0.07581184118956649,0.9971209540216409,197.81657920199095,20.953022699043455,237.84431004500868,-14.860145018581015,113.73188781738281,4381.2578125,True
1599568769.2014604,0.0,10,0.5,0.5,-23.374992671203614,-0.1005,-0.0155,-0.001,1.3129700904741377,10,1,100,0.25940826658080196,-10,-1,-100,6476.044703509891,-0.0010594006610575245,0.08031347943894472,0.9967690919619496,192.0756431959497,20.33311840535864,236.9962420051457,-15.243001731310123,107.4390869140625,4381.2578125,True
1599568769.2573116,0.0,10,0.5,0.5,-22.973669680023193,-0.1005,-0.0155,-0.001,1.1278820578968034,10,1,100,0.1480746984165908,-10,-1,-100,6475.763483915711,-0.0023924330704826902,0.08269366055042261,0.9965721422801136,188.48101868064683,19.94729339847642,235.5363369843121,-15.434499874491621,104.18388366699219,4381.2578125,True
1599568769.316153,0.0,10,0.5,0.5,-22.217458354187013,-0.1005,-0.0155,-0.001,1.446405364689992,10,1,100,0.3240032896041593,-10,-1,-100,6475.138668845757,-0.0051865147635221,0.08772341264184413,0.9961313683139772,180.6238243774546,19.109152109196952,231.42972185059577,-15.8176340382308,97.45590209960938,4381.2578125,True
1599568769.3730285,0.0,10,0.5,0.5,-21.063864380645754,-0.1005,-0.0155,-0.001,1.857674564676446,10,1,100,0.510575472607756,-10,-1,-100,6474.109027286526,-0.009404137033591373,0.09600264689744953,0.9953366535978353,166.72275629369477,17.646009153004805,221.54648217433984,-16.392588972209385,86.82089233398438,4381.2578125,True
1599568769.4318442,0.0,10,0.5,0.5,-20.60921418914795,-0.1005,-0.0155,-0.001,1.3588494011548458,10,1,100,0.24533924307614652,-10,-1,-100,6473.827605376835,-0.010805974887049553,0.09895722878404566,0.9950330134111744,171.50786804442504,18.161456992790388,230.62701775998525,-16.58419317623725,83.13101196289062,4381.2578125,True
1599568769.4916856,0.0,10,0.5,0.5,-19.748800028991703,-0.1005,-0.0155,-0.001,1.752800381508866,10,1,100,0.4201523222776853,-10,-1,-100,6473.140909767011,-0.013647878948926858,0.10518593885228923,0.9943589159191756,184.89533559055852,19.607055993851667,254.50004242652554,-16.9671291225434,75.53408813476562,4381.2578125,True
1599568769.5495296,0.0,10,0.5,0.5,-18.862228948211673,-0.1005,-0.0155,-0.001,1.8681898134896435,10,1,100,0.44765400830708746,-10,-1,-100,6472.455444428837,-0.01645954929179495,0.11185718046855794,0.9935879701439301,196.6718933062557,20.893042245367152,276.9548299646915,-17.349668047079284,67.64785766601562,4381.2578125,True
1599568769.6073754,0.0,10,0.5,0.5,-17.93817035675049,-0.1005,-0.0155,-0.001,1.979950444056785,10,1,100,0.45287995714257095,-10,-1,-100,6471.705305198673,-0.01903955562749263,0.11889314314833706,0.9927244914042448,206.4933835607393,21.976950323513652,297.34058153472483,-17.731820823833168,59.47126770019531,4381.2578125,True
1599568769.6662185,0.0,10,0.5,0.5,-16.9805725982666,-0.1005,-0.0155,-0.001,2.1051429880901953,10,1,100,0.47088633910440353,-10,-1,-100,6471.019903055974,-0.021524633322604757,0.1263794849230817,0.9917484136366963,214.82708795755434,22.901623659000908,316.1590691278876,-18.113638112884054,51.00569152832031,4381.2578125,True
1599568769.7270992,0.0,10,0.5,0.5,-15.534027033996583,-0.1005,-0.0155,-0.001,2.676897720272083,10,1,100,0.5804184914768653,-10,-1,-100,6469.9286440515425,-0.02475530629190323,0.13833149464446182,0.990076548757632,221.50342205960524,23.652381279705637,336.53662601730684,-18.686012088472975,37.76432800292969,4381.2578125,True
1599568769.786895,0.0,10,0.5,0.5,-14.019389476013185,-0.1005,-0.0155,-0.001,2.890185122974517,10,1,100,0.534510666461866,-10,-1,-100,6468.776561584207,-0.02725103415693042,0.15107909836714323,0.9881459847481793,221.17633017369457,23.629529008686426,346.60806063719167,-19.25849641053898,23.871429443359375,4381.2578125,True
1599568769.8467367,0.0,10,0.5,0.5,-13.903752505493166,-0.1005,-0.0155,-0.001,1.6225013125991956,10,1,100,0.28755704330873405,-10,-1,-100,6468.776561584207,-0.02725103415693042,0.15107909836714323,0.9881459847481793,221.17633017369457,23.629529008686426,346.60806063719167,-19.25849641053898,23.871429443359375,4381.2578125,True
1599568769.9075956,0.0,10,0.5,0.5,-12.303036069488526,-0.1005,-0.0155,-0.001,3.1103130337461975,10,1,100,0.46431568182798044,-10,-1,-100,6467.56220233452,-0.028835332142481344,0.16454249088864623,0.985948422744513,212.24694803770768,22.67558720697246,342.8128940037494,-19.831610918828716,9.3272705078125,4381.2578125,True
1599568769.966986,0.0,10,0.5,0.5,-11.674180892181397,-0.1005,-0.0155,-0.001,2.2778147495018866,10,1,100,0.34032870828429584,-10,-1,-100,6467.15756979736,-0.02912694980860418,0.1691439368893854,0.9851608748871459,207.61151871853892,22.182742314466918,338.66501045913293,-20.022821519606126,4.33416748046875,4381.2578125,True
1599568770.0261018,0.0,10,0.5,0.5,-9.986510352325439,-0.1005,-0.0155,-0.001,3.357937181895535,10,1,100,0.32574689977656757,-10,-1,-100,6465.943565089488,-0.029241565052486488,0.1830798723754615,0.982663060872986,188.01901302891642,20.120221659629014,315.8033309679107,-20.596786789254722,-11.082672119140625,4381.2578125,True
1599568770.0869386,0.0,10,0.5,0.5,-9.319526963043215,-0.1005,-0.0155,-0.001,2.4905385324434572,10,1,100,0.29018826471880677,-10,-1,-100,6465.540156692499,-0.02900574078261309,0.18778698723724688,0.9817813984925616,189.96293714727742,20.35033826007701,322.1348325625011,-20.788036787642056,-16.367095947265625,4381.2578125,True
1599568770.1477757,0.0,10,0.5,0.5,-7.528544589996338,-0.1005,-0.0155,-0.001,3.5659955158767374,10,1,100,0.15106594604637452,-10,-1,-100,6464.265265788767,-0.02751264503858454,0.2017679723715498,0.9790468526521365,215.3262375215914,23.16881134058622,375.5535368872384,-21.360696949125774,-32.660888671875,4381.2578125,True
1599568770.2108088,0.0,10,0.5,0.5,-6.249560173797608,-0.1005,-0.0155,-0.001,3.185201621806972,10,1,100,0.1193729199678461,-10,-1,-100,6463.395326954895,-0.025857118583529428,0.21093445910037006,0.9771581567906967,226.61774412965931,24.45806170291039,402.529174280496,-21.741665603574976,-43.89044189453125,4381.2578125,True
1599568770.2730143,0.0,10,0.5,0.5,-5.519475469970702,-0.1005,-0.0155,-0.001,2.7728999151018425,10,1,100,0.17408889137286293,-10,-1,-100,6462.990661510848,-0.024843314670837627,0.21543575759656727,0.9762019484025624,231.05092400492782,24.970225109330368,414.1119084806899,-21.93198099645185,-49.6156005859375,4381.2578125,True
1599568770.3328192,0.0,10,0.5,0.5,-4.184554703521729,-0.1005,-0.0155,-0.001,3.2955651705293483,10,1,100,0.020594375430525336,-10,-1,-100,6462.058303999249,-0.02252325307677998,0.22419838921274798,0.9742832161878027,235.48039771952241,25.50398473459563,429.6120205514748,-22.312472295691496,-61.287353515625,4381.2578125,True
1599568770.394167,0.0,10,0.5,0.5,-2.2095074768066407,-0.1005,-0.0155,-0.001,3.802341652239393,10,1,100,-0.2080118608075659,-10,-1,-100,6460.720758790849,-0.018337896801122314,0.23669341606612332,0.9714113177906979,230.8470780049798,25.051572853392216,432.3237997900802,-22.883531319884586,-79.34832763671875,4381.2578125,True
1599568770.4559994,0.0,10,0.5,0.5,-1.4415166091918945,-0.1005,-0.0155,-0.001,2.997235788182014,10,1,100,0.039685652902009816,-10,-1,-100,6460.25502015301,-0.016792925890934948,0.24065555597076202,0.970465301296458,226.51711853913687,24.594162620954087,427.88670764605047,-23.07409615708918,-85.51641845703125,4381.2578125,True
1599568770.516348,0.0,10,0.5,0.5,0.6450472236633301,-0.1005,-0.0155,-0.001,3.8501880416680776,10,1,100,-0.3300912610145345,-10,-1,-100,6458.85570135538,-0.01203630594449239,0.2519301795906672,0.9676705596175926,204.7517205834532,22.281270585642524,396.77933898601975,-23.646430847300586,-104.4640121459961,4381.2578125,True
1599568770.5781825,0.0,10,0.5,0.5,1.4585175952911378,-0.1005,-0.0155,-0.001,3.1241173714981874,10,1,100,-0.032905782075504125,-10,-1,-100,6458.389374767314,-0.010429064007352148,0.2554997516174893,0.9667528699452262,194.44322239684826,21.18731195257998,379.97596359386836,-23.837306759411014,-110.92747497558594,4381.2578125,True
1599568770.6390204,0.0,10,0.5,0.5,2.9653566204071042,-0.1005,-0.0155,-0.001,3.5244363858076904,10,1,100,-0.23618031814388146,-10,-1,-100,6457.394627273432,-0.007136982723695092,0.262305575576752,0.9649584698311894,209.99648110409007,22.963285097265416,417.20375420430156,-24.218446161634546,-124.07670593261719,4381.2578125,True
1599568770.6978621,0.0,10,0.5,0.5,4.466565495681763,-0.1005,-0.0155,-0.001,3.5764205183750555,10,1,100,-0.24467684322712158,-10,-1,-100,6456.399324375787,-0.004087035494458122,0.2688932479237839,0.9631613142988383,228.1862767265184,25.049276239247526,460.73433395788084,-24.598653663795297,-137.27096557617188,4381.2578125,True
1599568770.7596972,0.0,10,0.5,0.5,6.607296014785767,-0.1005,-0.0155,-0.001,3.950777858926992,10,1,100,-0.42206620322230315,-10,-1,-100,6454.9365654904395,0.0002756209818151784,0.2782115565527518,0.9605197831557502,242.7688309080281,26.776402822969377,501.9559764397097,-25.168096234181768,-156.6455841064453,4381.2578125,True
1599568770.819537,0.0,10,0.5,0.5,8.679748789596559,-0.1005,-0.0155,-0.001,4.028575753018522,10,1,100,-0.4087680381686428,-10,-1,-100,6453.41286179109,0.00409551785428454,0.28732050563066275,0.9578257429082002,241.3321438334549,26.701186994877396,510.7673617795432,-25.73782175318548,-175.36135864257812,4381.2578125,True
1599568770.8773851,0.0,10,0.5,0.5,8.864812936019897,-0.1005,-0.0155,-0.001,3.125319449880458,10,1,100,-0.029773614565488105,-10,-1,-100,6453.41286179109,0.00409551785428454,0.28732050563066275,0.9578257429082002,241.3321438334549,26.701186994877396,510.7673617795432,-25.73782175318548,-175.36135864257812,4381.2578125,True
1599568770.9422426,0.0,10,0.5,0.5,-26.252235835647582,-0.1005,-0.0155,-0.001,3.8082100825067577,10,1,100,-0.2813306257136419,-10,-1,-100,6452.35281484609,0.006356091744244918,0.29346325251996175,0.9559492243409919,234.0702331465198,25.947870316767492,503.08708985773495,-26.11821808742032,172.5396728515625,4381.2578125,True
1599568771.0060406,0.0,10,0.5,0.5,-25.069566637039184,-0.1005,-0.0155,-0.001,3.888284058034963,10,1,100,-0.2845637988764895,-10,-1,-100,6451.293994944426,0.00841429745039749,0.2997125450483925,0.9539924475272494,221.1338721574744,24.577621750767758,482.5875938550978,-26.49899638350974,160.74459838867188,4381.2578125,True
1599568771.0698698,0.0,10,0.5,0.5,-23.706564615249633,-0.1005,-0.0155,-0.001,4.329247647207191,10,1,100,-0.37821238919617856,-10,-1,-100,6449.64841954119,0.011112424191395619,0.30934518985854775,0.9508848865872089,214.22519869233238,23.956064734542824,478.1125207408067,-27.06995996544614,143.53335571289062,4381.2578125,True
1599568771.1366904,0.0,10,0.5,0.5,-22.90168736152649,-0.1005,-0.0155,-0.001,4.1177034488202455,10,1,100,-0.30015009085475997,-10,-1,-100,6448.587944552302,0.012830240925487995,0.3161165654880005,0.9486335973081833,233.4373993362279,26.236708739121212,528.6369600542218,-27.449459980635247,131.9361572265625,4381.2578125,True
1599568771.2025137,0.0,10,0.5,0.5,-22.681112537384035,-0.1005,-0.0155,-0.001,3.830058321186651,10,1,100,-0.2237794861339115,-10,-1,-100,6448.002198095317,0.013675008325500641,0.3195990545491091,0.947454188063261,241.0779303045836,27.16348304681323,549.872179123112,-27.638893719998,126.0386962890625,4381.2578125,True
1599568771.2662866,0.0,10,0.5,0.5,-21.2158002243042,-0.1005,-0.0155,-0.001,4.688785184626585,10,1,100,-0.4366007459555195,-10,-1,-100,6446.351125117624,0.016355804621769617,0.3305132894514512,0.9436596066120218,257.1207634716394,29.16276258959872,599.0283720397083,-28.2065094077012,107.92532348632812,4381.2578125,True
1599568771.3291855,0.0,10,0.5,0.5,-20.96630014419556,-0.1005,-0.0155,-0.001,4.020699945666798,10,1,100,-0.27664178666566513,-10,-1,-100,6445.755110620055,0.01731736272724686,0.33429981199587805,0.9423076698444587,259.55398902370086,29.491800060645083,608.9363889253174,-28.3956670591858,101.745849609375,4381.2578125,True
1599568771.3900218,0.0,10,0.5,0.5,-20.066934220123294,-0.1005,-0.0155,-0.001,4.505409893215389,10,1,100,-0.41152095387684173,-10,-1,-100,6444.641086604097,0.019398222163035318,0.342089098773915,0.9394672732335937,258.9308343302896,29.514074170400864,615.9805869941771,-28.774230128505426,89.17420959472656,4381.2578125,True
1599568771.4518569,0.0,10,0.5,0.5,-19.155716596221925,-0.1005,-0.0155,-0.001,4.615264987272998,10,1,100,-0.47897653931619344,-10,-1,-100,6443.453331488534,0.021885760971217822,0.3501108807524531,0.9364525533338314,252.19285024628178,28.83367010012178,608.315702645144,-29.15331390512597,76.31893920898438,4381.2578125,True
1599568771.514689,0.0,10,0.5,0.5,-17.54747836074829,-0.1005,-0.0155,-0.001,5.182219354883866,10,1,100,-0.7185455548876147,-10,-1,-100,6441.688433281961,0.026308887081017626,0.362500458279294,0.9316121833723839,228.99126957740128,26.338730873698317,563.8323962477368,-29.72273782281022,56.504180908203125,4381.2578125,True
1599568771.5765238,0.0,10,0.5,0.5,-17.241835385894777,-0.1005,-0.0155,-0.001,4.409685379459634,10,1,100,-0.46955588520138736,-10,-1,-100,6441.098712741281,0.028046174393481987,0.36667232902470304,0.9299273171756438,218.59098196843505,25.21020869559748,541.8670513197382,-29.912549350699734,49.75689697265625,4381.2578125,True
1599568771.6398838,0.0,10,0.5,0.5,-14.960055469512941,-0.1005,-0.0155,-0.001,5.3668878392322235,10,1,100,-0.9658398626703499,-10,-1,-100,6439.257246915367,0.03411748076121358,0.3791002256307305,0.9247264549223394,253.8865513409548,29.550811983515242,641.9175099955111,-30.479976165540712,29.0848388671875,4381.2578125,True
1599568771.7032585,0.0,10,0.5,0.5,-13.341347389984131,-0.1005,-0.0155,-0.001,5.0236611296957,10,1,100,-0.8847041002778646,-10,-1,-100,6438.016296123853,0.03887588581620987,0.3872059000217122,0.9211733042649364,270.9683491207832,31.717393621446078,693.9766253960722,-30.857125216011397,14.943878173828125,4381.2578125,True
1599568771.7640955,0.0,10,0.5,0.5,-12.42756647567749,-0.1005,-0.0155,-0.001,4.657925998117452,10,1,100,-0.6973559311799129,-10,-1,-100,6437.428320635576,0.04147330390929347,0.3911790476262904,0.9193796374518177,277.03168257080034,32.50730878391524,714.0506652185074,-31.045612215983965,7.765472412109375,4381.2578125,True
1599568771.823936,0.0,10,0.5,0.5,-10.011718079376221,-0.1005,-0.0155,-0.001,5.4841204719073815,10,1,100,-1.3780810372717438,-10,-1,-100,6435.541066922364,0.0499969639920372,0.4022336202265988,0.9141708912183669,279.48173498111385,33.00970314162485,734.2783360192145,-31.611645080616,-14.21051025390625,4381.2578125,True
1599568771.8847759,0.0,10,0.5,0.5,-8.292342658233643,-0.1005,-0.0155,-0.001,5.1357996547722475,10,1,100,-1.2121689445765111,-10,-1,-100,6434.241023422452,0.0562044341739689,0.40904155646594387,0.9107832160635714,269.4372510301418,31.974146530835977,716.9779421141459,-31.989791515684722,-29.224945068359375,4381.2578125,True
1599568771.9486022,0.0,10,0.5,0.5,-6.540930228424073,-0.1005,-0.0155,-0.001,5.143650489674133,10,1,100,-1.306024611119755,-10,-1,-100,6432.998696920462,0.06266459619016157,0.41523057130353425,0.9075553542562925,248.63230916093767,29.685774266123378,670.0271313175726,-32.36825619504487,-44.53375244140625,4381.2578125,True
1599568772.00944,0.0,10,0.5,0.5,-4.7457395240783695,-0.1005,-0.0155,-0.001,5.148507340308219,10,1,100,-1.3848652891088014,-10,-1,-100,6431.689959423034,0.06921297942890722,0.4208275281986466,0.9044964096052515,254.6087382569677,30.62793413487248,694.6163768587783,-32.74591258157278,-60.137359619140625,4381.2578125,True
1599568772.0672865,0.0,10,0.5,0.5,-2.916203305053711,-0.1005,-0.0155,-0.001,5.150662103366298,10,1,100,-1.4539629929436555,-10,-1,-100,6430.323082104907,0.07574892990147843,0.42586367919525425,0.9016109063010842,280.03741498546185,33.93682361341418,773.1709858891053,-33.12196817389661,-76.03594970703125,4381.2578125,True
1599568772.1311142,0.0,10,0.5,0.5,-1.8778806503295897,-0.1005,-0.0155,-0.001,4.909861415035466,10,1,100,-1.1592005312914822,-10,-1,-100,6429.6680157791125,0.07896207779885953,0.4281840349360329,0.9002352039859278,288.0981291699379,35.02839939265199,800.1332612581947,-33.30972154279684,-84.09576416015625,4381.2578125,True
1599568772.1929493,0.0,10,0.5,0.5,0.8307702728271488,-0.1005,-0.0155,-0.001,5.378747717811439,10,1,100,-1.8612349526568506,-10,-1,-100,6427.652329327888,0.08821738590823856,0.4344963396559253,0.8963429163267368,295.12617739274714,36.18136762270886,834.279265330419,-33.87334074529612,-108.71429443359375,4381.2578125,True
1599568772.253788,0.0,10,0.5,0.5,1.8994587135314944,-0.1005,-0.0155,-0.001,4.967374829977439,10,1,100,-1.2632968047985473,-10,-1,-100,6426.99343323533,0.09114079992576697,0.4364333867749446,0.8951085149282422,290.49223978415597,35.7079831429777,826.0654451503736,-34.06160723847236,-117.06578826904297,4381.2578125,True
1599568772.3156211,0.0,10,0.5,0.5,4.69615591621399,-0.1005,-0.0155,-0.001,5.389501257283885,10,1,100,-1.8804905602252087,-10,-1,-100,6424.903648849693,0.09935746197361285,0.44197973062125323,0.8915054752889219,257.0108124920179,31.902204793606536,743.9227006347702,-34.627342319760245,-142.46987915039062,4381.2578125,True
1599568772.3754618,0.0,10,0.5,0.5,6.622169037246705,-0.1005,-0.0155,-0.001,5.242262292145763,10,1,100,-1.6182229907285046,-10,-1,-100,6423.537781337742,0.10438792086154143,0.4456335309524604,0.8891084962303798,266.5415787506424,33.35287561981532,780.3552098584989,-35.003661034408914,-159.29180908203125,4381.2578125,True
1599568772.4378166,0.0,10,0.5,0.5,7.7074858066558845,-0.1005,-0.0155,-0.001,5.0869982350638825,10,1,100,-1.3850697347321486,-10,-1,-100,6422.823661350063,0.10678429514428031,0.447494172113426,0.8878885516972604,282.57925492873113,35.49807672563117,831.9269909533742,-35.19111474603819,-167.5991973876953,4381.2578125,True
1599568772.4986563,0.0,10,0.5,0.5,-26.12008107185364,-0.1005,-0.0155,-0.001,5.551617965500502,10,1,100,-1.9033918600006623,-10,-1,-100,6420.672533142497,0.11362321169361829,0.45336833385292147,0.8840514236309182,309.72745623654606,39.29891265151659,927.0744805925145,-35.75271570618197,167.9378662109375,4381.2578125,True
1599568772.5604882,0.0,10,0.5,0.5,-25.27836938819885,-0.1005,-0.0155,-0.001,5.198302082031007,10,1,100,-1.4681452356217954,-10,-1,-100,6419.94905037072,0.11583142217364525,0.4554562212414792,0.8826906095397545,311.805155506469,39.6800525976485,938.4901478066731,-35.940090576661184,159.9400634765625,4381.2578125,True
1599568772.6213267,0.0,10,0.5,0.5,-23.207143638992314,-0.1005,-0.0155,-0.001,5.733649029863475,10,1,100,-1.982687057006907,-10,-1,-100,6417.739472161629,0.12246820568991307,0.4621845223477924,0.8782864031153141,298.28103717520224,38.336819622157286,913.002233389793,-36.50341801788403,136.3325958251953,4381.2578125,True
1599568773.1857855,0.0,10,0.5,0.5,-22.734062054061894,-0.1005,-0.0155,-0.001,5.328773497673444,10,1,100,-1.5749723559888027,-10,-1,-100,6417.030791878235,0.12474673412611831,0.46458287579348667,0.8766989242860522,287.56907739529026,37.109422197260265,885.136663043288,-36.691433364857104,128.43882751464844,4381.2578125,True
1599568773.240639,0.0,10,0.5,0.5,-21.437928859329222,-0.1005,-0.0155,-0.001,5.6435518527588355,10,1,100,-1.876484030758077,-10,-1,-100,6415.53584840917,0.1295145953803668,0.46958961924798664,0.8733335898028832,269.1230083667589,35.047147357181856,837.4161418308586,-37.067072519235914,112.46875,4381.2578125,True
1599568773.2944956,0.0,10,0.5,0.5,-19.276014897537234,-0.1005,-0.0155,-0.001,6.014778263013813,10,1,100,-2.276751841475842,-10,-1,-100,6413.326489435509,0.1374418561474983,0.4774783483141119,0.8678272656871056,317.20257938097745,41.85867878266664,1002.5131944786854,-37.62707943170077,88.01004028320312,4381.2578125,True
1599568773.3523405,0.0,10,0.5,0.5,-17.91542349433899,-0.1005,-0.0155,-0.001,5.818296636079291,10,1,100,-2.1442754675339577,-10,-1,-100,6411.774580777739,0.14339937665429228,0.4828246490305863,0.8638963925515905,332.91982198611987,44.253311570429325,1063.0604394010968,-37.999716265374424,71.36006164550781,4381.2578125,True
1599568773.412181,0.0,10,0.5,0.5,-17.368583758544926,-0.1005,-0.0155,-0.001,5.57952640634481,10,1,100,-1.9066445563731198,-10,-1,-100,6411.056902566925,0.14660751558016236,0.4854721100822899,0.861871838910903,334.4044532111489,44.602759350486174,1073.3649757360904,-38.186265749753616,62.930999755859375,4381.2578125,True
1599568773.4700265,0.0,10,0.5,0.5,-15.086120510864257,-0.1005,-0.0155,-0.001,6.156496209932195,10,1,100,-2.754221418386268,-10,-1,-100,6408.727986102109,0.15718629511870327,0.49308453436239574,0.8556635498836417,314.47218979473064,42.43349433286675,1025.462812807792,-38.74735687745029,37.223968505859375,4381.2578125,True
1599568773.5279114,0.0,10,0.5,0.5,-14.532341181945801,-0.1005,-0.0155,-0.001,5.660182785376732,10,1,100,-2.123953440764472,-10,-1,-100,6407.954325919389,0.1610256600169449,0.49544984257252417,0.853580804792943,299.4543126129141,40.59713977746944,981.6010180192841,-38.934638474812914,28.513763427734375,4381.2578125,True
1599568773.5877512,0.0,10,0.5,0.5,-13.055063692474366,-0.1005,-0.0155,-0.001,5.909120020632138,10,1,100,-2.637652297943662,-10,-1,-100,6406.39615657588,0.1691366710216366,0.49981959247454544,0.8494546259184761,296.412927730763,40.5898951132308,981.4427314416819,-39.30833511400404,10.878662109375,4381.2578125,True
1599568773.6485863,0.0,10,0.5,0.5,-11.009883156585692,-0.1005,-0.0155,-0.001,5.893870763059729,10,1,100,-2.777555836800052,-10,-1,-100,6404.782474567881,0.17773170096157076,0.5036112343542505,0.8454508661687531,334.3460802373804,46.20502527345368,1117.7676148569926,-39.67980383601627,-7.04620361328125,4381.2578125,True
1599568773.709434,0.0,10,0.5,0.5,-8.919943450164794,-0.1005,-0.0155,-0.001,5.864145207618667,10,1,100,-2.9073089197614843,-10,-1,-100,6403.167743142811,0.18666866504408036,0.5067441719107793,0.8416443154475169,355.16495564712295,49.46847053219268,1198.886451838037,-40.050830297417555,-25.2633056640625,4381.2578125,True
1599568773.7712696,0.0,10,0.5,0.5,-6.808837280273438,-0.1005,-0.0155,-0.001,5.82356419861269,10,1,100,-3.0227415095547245,-10,-1,-100,6401.556176921586,0.19578420097234203,0.5091828699261484,0.8380938799582016,353.9831689228811,49.69814520619788,1206.7861498315751,-40.422691803661614,-43.774139404296875,4381.2578125,True
1599568773.8296983,0.0,10,0.5,0.5,-3.686154099273682,-0.1005,-0.0155,-0.001,5.848855372501774,10,1,100,-3.618696689883315,-10,-1,-100,6399.161643165862,0.20942424666752507,0.511589242435355,0.8333174256741299,315.0148868143,44.90654736139705,1090.03675270041,-40.98179870517574,-72.09201049804688,4381.2578125,True
1599568773.8903022,0.0,10,0.5,0.5,-1.4749103370666505,-0.1005,-0.0155,-0.001,5.709053124265488,10,1,100,-3.237085783133851,-10,-1,-100,6397.478126131115,0.21828245300970803,0.5124677428023153,0.8304995986122838,330.21030260877245,47.58644227282815,1153.2251570144817,-41.3529641544927,-91.33824157714844,4381.2578125,True
1599568773.9496539,0.0,10,0.5,0.5,0.7670256553649903,-0.1005,-0.0155,-0.001,5.672079159514158,10,1,100,-3.296703692929573,-10,-1,-100,6395.801172677544,0.226803857412688,0.5128984440068234,0.8279463728999025,363.2469649723903,52.82174736206738,1279.982178339395,-41.72217392272991,-110.87708282470703,4381.2578125,True
1599568774.0089073,0.0,10,0.5,0.5,2.0325518611907967,-0.1005,-0.0155,-0.001,5.642100523358176,10,1,100,-2.904836922721302,-10,-1,-100,6394.955618073931,0.23091234124917787,0.5129901176867979,0.8267530645933576,372.1066189236526,54.32509278807391,1317.145279139149,-41.90680678652235,-120.75489044189453,4381.2578125,True
1599568774.0697775,0.0,10,0.5,0.5,4.334260997009277,-0.1005,-0.0155,-0.001,5.638948113568817,10,1,100,-3.37044932617714,-10,-1,-100,6393.274400295108,0.23880352583588627,0.5130197827545038,0.8244898899021569,367.59177319563986,54.10925770164908,1313.328871062185,-42.277024697953735,-140.72409057617188,4381.2578125,True
1599568774.1298373,0.0,10,0.5,0.5,6.618361181640626,-0.1005,-0.0155,-0.001,5.6326091313581585,10,1,100,-3.411526696988565,-10,-1,-100,6391.578745620791,0.24627656316689123,0.512971000933783,0.8223190418783316,339.3372099632459,50.45557358217879,1223.8619552206965,-42.6483548198278,-160.70684814453125,4381.2578125,True
1599568774.1887517,0.0,10,0.5,0.5,-27.644463523864747,-0.1005,-0.0155,-0.001,5.639227464735905,10,1,100,-3.456763519858917,-10,-1,-100,6389.842084708507,0.25340397649103535,0.5129708921653243,0.8201507718033568,321.177063127592,48.27808982313669,1168.7302542174593,-43.019134831239164,179.55062866210938,4381.2578125,True
1599568774.2481022,0.0,10,0.5,0.5,-24.61856374816895,-0.1005,-0.0155,-0.001,5.672436485840375,10,1,100,-3.88294293635047,-10,-1,-100,6387.249386379612,0.2636811948397538,0.5132607377497745,0.8167225003466215,380.5912497063719,57.972215097047346,1402.6097480009792,-43.57133693053323,150.51531982421875,4381.2578125,True
1599568774.3069456,0.0,10,0.5,0.5,-23.925741873168946,-0.1005,-0.0155,-0.001,5.6662048882714515,10,1,100,-3.2360479831513818,-10,-1,-100,6386.4107941064285,0.26706512149688955,0.513458810572834,0.8154975602201284,388.4378849081837,59.404397973556954,1437.750068280795,-43.75543546595028,140.997314453125,4381.2578125,True
1599568774.3677814,0.0,10,0.5,0.5,-21.277923983764648,-0.1005,-0.0155,-0.001,5.741978991654814,10,1,100,-4.039164542592237,-10,-1,-100,6383.760724763619,0.2773693904015182,0.5143216280439532,0.8115044572856686,371.9904454075434,57.7184950118754,1395.50994956348,-44.309388258387585,112.2777099609375,4381.2578125,True
1599568774.4296165,0.0,10,0.5,0.5,-20.565199339294434,-0.1005,-0.0155,-0.001,5.69474468983265,10,1,100,-3.407614507532786,-10,-1,-100,6382.857364731026,0.2809213752784318,0.5146719332210257,0.8100592460222934,354.1723828694046,55.27720732301925,1334.5593667679516,-44.49430628088988,102.58978271484375,4381.2578125,True
1599568774.4934459,0.0,10,0.5,0.5,-17.85538367004395,-0.1005,-0.0155,-0.001,5.773430161173604,10,1,100,-4.296858076963791,-10,-1,-100,6380.143363821786,0.29216948749898886,0.5157029124934769,0.8054113834683017,373.4692424527973,59.24991928545446,1424.5374694131071,-45.046266433821934,73.12908935546875,4381.2578125,True
1599568774.5572753,0.0,10,0.5,0.5,-16.11173101425171,-0.1005,-0.0155,-0.001,5.723584983676818,10,1,100,-4.068029860480799,-10,-1,-100,6378.333972210181,0.300247617518296,0.5161840873369243,0.8021255239391983,404.7853561178836,64.7590760366944,1556.2103472312233,-45.41216425741992,53.14842224121094,4381.2578125,True
1599568774.6217904,0.0,10,0.5,0.5,-14.329719746017458,-0.1005,-0.0155,-0.001,5.68927768852579,10,1,100,-4.209444668827064,-10,-1,-100,6376.5242627660045,0.30881019419344524,0.5163066475629308,0.7987889018035582,406.4910825344896,65.59276480403115,1575.784632277669,-45.77899479010886,32.889984130859375,4381.2578125,True
1599568774.682595,0.0,10,0.5,0.5,-11.449727791595459,-0.1005,-0.0155,-0.001,5.587274513313723,10,1,100,-4.860295041578015,-10,-1,-100,6373.759291889612,0.32244036014773114,0.5154877493302122,0.7939172465932918,353.7870868615054,58.052853107638875,1388.8299479135862,-46.331176497224476,1.96978759765625,4381.2578125,True
1599568774.7440073,0.0,10,0.5,0.5,-11.701823499298097,-0.1005,-0.0155,-0.001,5.6694111332431465,10,1,100,-3.5056421295806093,-10,-1,-100,6373.759291889612,0.32244036014773114,0.5154877493302122,0.7939172465932918,353.7870868615054,58.052853107638875,1388.8299479135862,-46.331176497224476,1.96978759765625,4381.2578125,True
1599568774.8058734,0.0,10,0.5,0.5,-8.748724451446535,-0.1005,-0.0155,-0.001,5.412928861245369,10,1,100,-5.076792887993447,-10,-1,-100,6370.89632473432,0.336654309045138,0.513153804358963,0.789516972124896,403.7966957305882,67.23411263223724,1602.9611319173157,-46.87961649013289,-29.6090087890625,4381.2578125,True
1599568774.8736591,0.0,10,0.5,0.5,-7.372548085784913,-0.1005,-0.0155,-0.001,5.521518413418841,10,1,100,-4.1874743342973755,-10,-1,-100,6369.9789850866655,0.34141568452503984,0.512019047666501,0.788207983458039,420.8130737061875,70.34642374438613,1676.763926061942,-47.06178112430011,-40.284454345703125,4381.2578125,True
1599568774.9355307,0.0,10,0.5,0.5,-3.7912955421447756,-0.1005,-0.0155,-0.001,5.150931040795795,10,1,100,-5.261712681288267,-10,-1,-100,6367.1081062813755,0.3554393431251539,0.5076196033677653,0.7848472536968653,418.1774607119605,70.91198732277051,1686.2201390251514,-47.60994657376904,-72.75921630859375,4381.2578125,True
1599568774.9963646,0.0,10,0.5,0.5,-1.2572894744873044,-0.1005,-0.0155,-0.001,5.1907755548758665,10,1,100,-4.851210550706027,-10,-1,-100,6365.147351187188,0.36437594591848427,0.5039876397761928,0.783087880757219,372.39654683360664,63.92633226201632,1513.3454710350559,-47.976231228689414,-94.78047943115234,4381.2578125,True
1599568775.0552065,0.0,10,0.5,0.5,0.17043983116149908,-0.1005,-0.0155,-0.001,5.335609145222845,10,1,100,-4.439519125193981,-10,-1,-100,6364.179033238906,0.36867838408456877,0.5020119182308882,0.7823428168411436,372.61658348395844,64.3136503149347,1519.572372184918,-48.15864780190047,-105.90176391601562,4381.2578125,True
1599568775.1160445,0.0,10,0.5,0.5,2.7623074169158937,-0.1005,-0.0155,-0.001,5.074008460096207,10,1,100,-4.921480428169554,-10,-1,-100,6362.2417209405685,0.3768913788000543,0.49784912879308746,0.7810884287621715,426.7332737813166,74.27768447154745,1752.0633583712922,-48.52135360672352,-128.3631134033203,4381.2578125,True
1599568775.17888,0.0,10,0.5,0.5,6.520506721878053,-0.1005,-0.0155,-0.001,4.778425044424535,10,1,100,-5.352935890136878,-10,-1,-100,6359.333041930804,0.3882030401126522,0.4913938835105265,0.7796348189349533,435.1822744930167,76.70086070146766,1806.453675047382,-49.06650783389604,-162.53402709960938,4381.2578125,True
1599568775.2412252,0.0,10,0.5,0.5,7.97980594291687,-0.1005,-0.0155,-0.001,5.186589272308014,10,1,100,-4.61859002258962,-10,-1,-100,6358.301777890418,0.39173053758040766,0.4892585991469812,0.7792131987381236,417.81445204489523,74.04696112036385,1740.9650008378267,-49.248956861329475,-173.954345703125,4381.2578125,True
1599568775.3026145,0.0,10,0.5,0.5,-25.94992960700989,-0.1005,-0.0155,-0.001,4.938735688938586,10,1,100,-5.0199541630188715,-10,-1,-100,6356.362779408344,0.39851073624282674,0.4850888062844143,0.7783816821564867,361.5881085418947,64.79903842454878,1517.358503404404,-49.613984667236046,163.3749542236328,4381.2578125,True
1599568775.3660023,0.0,10,0.5,0.5,-23.592285761642458,-0.1005,-0.0155,-0.001,4.913426472786251,10,1,100,-5.067884911578541,-10,-1,-100,6354.359099295456,0.40504113239911826,0.48109563711982845,0.7774886938143257,428.36798197221924,77.38103298180657,1809.1223363763204,-49.97601958482544,141.0055694580078,4381.2578125,True
1599568775.4463801,0.0,10,0.5,0.5,-19.358061563491823,-0.1005,-0.0155,-0.001,4.485290612072024,10,1,100,-5.844912830328818,-10,-1,-100,6350.293207251118,0.41796665473688455,0.47360460470208504,0.7752435449154285,442.2349528463974,81.27648610700261,1893.9681346936,-50.70060839532667,96.94548034667969,4381.2578125,True
1599568775.5051835,0.0,10,0.5,0.5,-18.473200941085818,-0.1005,-0.0155,-0.001,5.02845814843723,10,1,100,-4.925487868663355,-10,-1,-100,6349.261359495227,0.4212848005327208,0.47176841574350825,0.7745667684241084,421.44755929459615,77.91797318639321,1811.3244531245182,-50.88228308127406,85.86094665527344,4381.2578125,True
1599568775.5660548,0.0,10,0.5,0.5,-16.41027233314514,-0.1005,-0.0155,-0.001,4.793752834797836,10,1,100,-5.3553942439058995,-10,-1,-100,6347.2595942118205,0.4281369281984063,0.4680020598680103,0.7730930362331121,401.303628098674,74.9714312819706,1735.6682402970478,-51.24477927966119,63.50096130371094,4381.2578125,True
1599568775.6268864,0.0,10,0.5,0.5,-15.498816596603394,-0.1005,-0.0155,-0.001,4.949461481490067,10,1,100,-5.067087894516357,-10,-1,-100,6346.228104575654,0.43167907964087615,0.4660296490815777,0.7723144038390762,434.6819412045606,81.50918459970198,1885.5193890753308,-51.42476608679354,52.21998596191406,4381.2578125,True
1599568775.6867332,0.0,10,0.5,0.5,-12.260272328948977,-0.1005,-0.0155,-0.001,4.425723933563192,10,1,100,-5.935330956059998,-10,-1,-100,6343.1332743548555,0.4427311513901342,0.4595098051952079,0.769960951294433,471.96586952833286,89.42220869214205,2066.64459344692,-51.96480856938332,17.957168579101562,4381.2578125,True
1599568775.7465713,0.0,10,0.5,0.5,-8.942706623840333,-0.1005,-0.0155,-0.001,4.217128737292208,10,1,100,-6.096949619212165,-10,-1,-100,6339.977099775686,0.45418042922056523,0.45172499270789523,0.767896261663042,408.64570922784,78.65638893924023,1807.2611339241907,-52.507567996534256,-16.95721435546875,4381.2578125,True
1599568775.8073812,0.0,10,0.5,0.5,-7.953815622711182,-0.1005,-0.0155,-0.001,4.669046540592902,10,1,100,-5.380312748044057,-10,-1,-100,6338.945008498034,0.4580037201917738,0.44879816514587656,0.7673413837739952,398.3890992590422,77.02618624819502,1766.9647604800707,-52.688172916414636,-28.7452392578125,4381.2578125,True
1599568775.869249,0.0,10,0.5,0.5,-5.75669826889038,-0.1005,-0.0155,-0.001,4.260302837735091,10,1,100,-5.830092133699415,-10,-1,-100,6336.817539327429,0.4655048875987584,0.44246028435293827,0.7665077275487733,466.0135336137865,90.66647650123889,2078.366115496598,-53.046942002799234,-52.550933837890625,4381.2578125,True
1599568775.9309359,0.0,10,0.5,0.5,-3.521444495391846,-0.1005,-0.0155,-0.001,4.130683360220466,10,1,100,-5.872975107766588,-10,-1,-100,6334.68981780496,0.47264690832388384,0.4355627595772196,0.7660874509619325,488.36136272188725,95.66982282737725,2191.374515562761,-53.40581210078082,-76.66162109375,4381.2578125,True
1599568775.9947653,0.0,10,0.5,0.5,-0.695825814819336,-0.1005,-0.0155,-0.001,4.0106018503946075,10,1,100,-5.895541035126647,-10,-1,-100,6332.496839839383,0.4792774027117429,0.42824565609788323,0.7660932249296943,458.5825682134558,90.77476030808499,2070.8847345227227,-53.7657435225403,-101.07218933105469,4381.2578125,True
1599568776.056617,0.0,10,0.5,0.5,2.1624396102905274,-0.1005,-0.0155,-0.001,3.9038887035682635,10,1,100,-5.903690874534458,-10,-1,-100,6330.364708574954,0.48531172681321977,0.4206716697646306,0.7664906223007614,420.71705774698324,84.06730609544027,1910.3538039668606,-54.1254110481415,-125.77618408203125,4381.2578125,True
1599568776.1204567,0.0,10,0.5,0.5,5.018030374908448,-0.1005,-0.0155,-0.001,3.815697358850778,10,1,100,-5.900221203246748,-10,-1,-100,6328.169638437103,0.49070471073733196,0.4130326089960033,0.7672111513567474,484.1927292153192,97.25426589104335,2209.785491260996,-54.48243510653367,-150.75230407714844,4381.2578125,True
1599568776.182292,0.0,10,0.5,0.5,7.9075591804504395,-0.1005,-0.0155,-0.001,3.746558005047615,10,1,100,-5.893770321971493,-10,-1,-100,6325.972465369618,0.49548567001110927,0.40551286490517474,0.7681492480046046,494.8652736391744,100.02135457826138,2271.5760486331155,-54.84015754212615,-175.85333251953125,4381.2578125,True
1599568776.2411346,0.0,10,0.5,0.5,-25.761953215026857,-0.1005,-0.0155,-0.001,3.690935846775435,10,1,100,-5.893202351510125,-10,-1,-100,6323.775507482234,0.49976560712688284,0.398227886288277,0.7691871609143442,449.76188331162876,91.78240122001819,2076.811536117581,-55.19928261425097,159.27386474609375,4381.2578125,True
1599568776.2999773,0.0,10,0.5,0.5,-24.34244605331421,-0.1005,-0.0155,-0.001,4.023293093002223,10,1,100,-5.692191166266395,-10,-1,-100,6322.675829509972,0.5017671877958376,0.3946882459320619,0.7697083069413562,408.0849574783745,83.63973513706782,1889.3223872259935,-55.37920905608716,146.95550537109375,4381.2578125,True
1599568776.360358,0.0,10,0.5,0.5,-20.845519970703126,-0.1005,-0.0155,-0.001,3.2485755641918943,10,1,100,-6.123466718639866,-10,-1,-100,6319.316804699367,0.5074538243015502,0.3844864331274663,0.7711425282933436,496.2725491605127,102.44397532637448,2314.644899601482,-55.914465588486294,110.4117431640625,4381.2578125,True
1599568776.4211621,0.0,10,0.5,0.5,-19.84169392242432,-0.1005,-0.0155,-0.001,3.9010613006650616,10,1,100,-5.764041692662525,-10,-1,-100,6318.217566634412,0.5093075632568758,0.3812048723272085,0.771549513202711,506.49873773887225,104.8517680314124,2368.8759348591157,-56.09282855567541,98.21675109863281,4381.2578125,True
1599568776.482032,0.0,10,0.5,0.5,-16.302538191986084,-0.1005,-0.0155,-0.001,3.152047740166608,10,1,100,-6.209517924122525,-10,-1,-100,6314.79715727095,0.5149959245540217,0.3714738694977325,0.7725194897043892,453.7877623334217,95.22008596363439,2140.110508895629,-56.6292335168784,61.28924560546875,4381.2578125,True
1599568776.5448315,0.0,10,0.5,0.5,-13.984303290557863,-0.1005,-0.0155,-0.001,3.3874486013453673,10,1,100,-6.08519685344823,-10,-1,-100,6312.537807474844,0.5189919786935195,0.36483204422242954,0.7730102881335206,465.8228574521283,98.3256326997282,2206.771076250176,-56.98605821712274,36.34722900390625,4381.2578125,True
1599568776.6076648,0.0,10,0.5,0.5,-11.624650144195558,-0.1005,-0.0155,-0.001,3.279051468362309,10,1,100,-6.14361481662073,-10,-1,-100,6310.278592735995,0.5231136956942952,0.3578728934135398,0.7734850053730049,514.2432775952225,108.92136242069628,2447.662462086599,-57.34104240824336,11.1279296875,4381.2578125,True
1599568776.6665063,0.0,10,0.5,0.5,-9.234962779235842,-0.1005,-0.0155,-0.001,3.153327382787957,10,1,100,-6.191683809024551,-10,-1,-100,6307.9570838971995,0.5272578508141419,0.3504674216844953,0.7740618483639885,502.84907393896424,107.2135893602489,2406.285909744195,-57.69713045368998,-14.377655029296875,4381.2578125,True
1599568776.7283401,0.0,10,0.5,0.5,-8.127584280395507,-0.1005,-0.0155,-0.001,3.4582904558881737,10,1,100,-6.005056458435233,-10,-1,-100,6306.796586910263,0.5292905194413715,0.34657138827543876,0.7744287048258981,477.01420001417574,102.15722632501162,2288.6140327886733,-57.87558038411945,-27.240234375,4381.2578125,True
1599568777.2893689,0.0,10,0.5,0.5,-4.369611576080323,-0.1005,-0.0155,-0.001,2.4700443853901968,10,1,100,-6.428556924843189,-10,-1,-100,6303.311742507387,0.5349533262437398,0.3341059038269699,0.776014293533774,490.82544552167565,105.90751309633382,2370.36486406262,-58.409603838338676,-66.2774658203125,4381.2578125,True
1599568777.3469253,0.0,10,0.5,0.5,-3.242608542633057,-0.1005,-0.0155,-0.001,3.229779194256178,10,1,100,-6.048329785000366,-10,-1,-100,6302.149719188106,0.5366088423780193,0.3297452407372146,0.7767361369814579,516.4347846349746,111.59025285364088,2499.755878145021,-58.58673824654572,-79.43887329101562,4381.2578125,True
