Timestamp,Input Throttle,horizon,dT,dt,Input Roll,Roll P,Roll I,Roll D,Input Pitch,Pitch P,Pitch I,Pitch D,Input Yaw,Yaw P,Yaw I,Yaw D,Altitude,Direction X,Direction Y,Direction Z,Drag X,Drag Y,Drag Z,Vertical Velocity,Roll,Mass,Has Fuel
1599570661.258315,0.0,10,0.5,0.5,-8.121830047607421,-0.15025,-0.0155,-0.001,-0.0671899076813578,10,1,100,0.6903765878070698,-10,-1,-100,6483.617967186263,-0.0672583804600809,-0.007002485092537887,0.9977110180109348,205.073065957201,21.498760943744742,-156.76512332291475,9.590824240983354,-35.944580078125,4381.2578125,True
1599570661.330122,0.0,10,0.5,0.5,-8.206115864562989,-0.15025,-0.0155,-0.001,-0.06732506184448529,10,1,100,0.699911989415779,-10,-1,-100,6483.997883073753,-0.06744567452161691,-0.006971575659900184,0.9976985908184607,204.6120084226331,21.456727132000463,-150.26661872825935,9.210801809921175,-35.941253662109375,4381.2578125,True
1599570661.4029279,0.0,10,0.5,0.5,-8.283944618225098,-0.15025,-0.0155,-0.001,-0.051999229132023234,10,1,100,0.7005287311286582,-10,-1,-100,6484.316760174581,-0.06756023434356527,-0.006797812627698162,0.9976920388972347,204.14940047460664,21.41434879320673,-143.78930874872137,8.830798220492412,-35.98065185546875,4381.2578125,True
1599570661.4717457,0.0,10,0.5,0.5,-8.325982705688475,-0.15025,-0.0155,-0.001,-0.03407336087843488,10,1,100,0.6995168096721912,-10,-1,-100,6484.697140606237,-0.06759376195541993,-0.006470703966456704,0.997691943104129,203.75656314965215,21.378965380777583,-137.38149476828792,8.450806027930671,-36.256561279296875,4381.2578125,True
1599570661.5475411,0.0,10,0.5,0.5,-8.324658219909669,-0.15025,-0.0155,-0.001,-0.0152470174775505,10,1,100,0.6974028684616771,-10,-1,-100,6485.016948901466,-0.06754357508068728,-0.0059963014217141964,0.9976983060197003,203.44702114684247,21.351716664961938,-131.0456400075871,8.070816695802417,-36.817901611328125,4381.2578125,True
1599570661.6213434,0.0,10,0.5,0.5,-8.278516032409668,-0.15025,-0.0155,-0.001,0.01232386938364824,10,1,100,0.6892355148865887,-10,-1,-100,6485.3357547825435,-0.06736229873017437,-0.0053089307719176426,0.9977144561265241,203.19982826122268,21.330128850859836,-124.76143019932377,7.690822509136026,-37.67169189453125,4381.2578125,True
1599570661.7006488,0.0,10,0.5,0.5,-8.279263986206056,-0.15025,-0.0155,-0.001,-0.010213586805726732,10,1,100,0.6984054625818796,-10,-1,-100,6485.49392730929,-0.06721962675536511,-0.004884108027667896,0.9977262486612466,203.087067175463,21.320066445702132,-121.62944166778699,7.500821269017438,-38.208648681640625,4381.2578125,True
1599570661.7704613,0.0,10,0.5,0.5,-8.049753784179686,-0.15025,-0.0155,-0.001,0.12064640752227797,10,1,100,0.6469696410138714,-10,-1,-100,6485.909320933279,-0.0665612178305972,-0.0033038291226156575,0.9977768733509693,202.7104947911006,21.283954723400285,-112.22492752790058,6.93078845778367,-40.2603759765625,4381.2578125,True
1599570661.8459957,0.0,10,0.5,0.5,-7.86645308380127,-0.15025,-0.0155,-0.001,0.1060105757859997,10,1,100,0.6494023253340215,-10,-1,-100,6486.165058796643,-0.06592426937659991,-0.00199726147096832,0.9978226303576091,202.33955756793463,21.24551440902468,-105.90504641105763,6.550731104100576,-41.995574951171875,4381.2578125,True
1599570661.9267795,0.0,10,0.5,0.5,-7.794700816345214,-0.15025,-0.0155,-0.001,0.055256618860460946,10,1,100,0.6777756453009078,-10,-1,-100,6486.2611804639455,-0.06554323344595898,-0.0012690566129111218,0.9978489234572345,202.0862367462298,21.218588410333904,-102.71711784396015,6.360688079560827,-42.973388671875,4381.2578125,True
1599570662.0025785,0.0,10,0.5,0.5,-7.539330642700195,-0.15025,-0.0155,-0.001,0.1511836924268097,10,1,100,0.6210765729096586,-10,-1,-100,6486.517857201747,-0.06462180627505046,0.00026616579648305736,0.9979097911682792,201.38024025361983,21.142615413083405,-96.26512647356019,5.980565207043047,-45.150177001953125,4381.2578125,True
1599570662.0769632,0.0,10,0.5,0.5,-6.949975,-0.15025,-0.0155,-0.001,0.28714332745620114,10,1,100,0.5224906479313418,-10,-1,-100,6486.868647124735,-0.06289030641458986,0.0028912113499367596,0.998016257510873,199.59893040163104,20.949950789883925,-86.34513220033345,5.4102574829263546,-48.966796875,4381.2578125,True
1599570662.145779,0.0,10,0.5,0.5,-6.718926544189453,-0.15025,-0.0155,-0.001,0.12988022148159922,10,1,100,0.620392938733085,-10,-1,-100,6486.965221850085,-0.062210377701557,0.0038389856287529833,0.9980556753486108,198.74936373628591,20.858161291508324,-82.96504657696141,5.220112515417646,-50.386138916015625,4381.2578125,True
1599570662.2235742,0.0,10,0.5,0.5,-6.235165055847167,-0.15025,-0.0155,-0.001,0.2491118745251268,10,1,100,0.5196306808394312,-10,-1,-100,6487.157868477865,-0.06068110366944119,0.005774852911475755,0.9981404984927269,196.56039597480333,20.62221523861588,-76.08854990470495,4.8397435637043404,-53.446319580078125,4381.2578125,True
1599570662.3013642,0.0,10,0.5,0.5,-5.433600001525878,-0.15025,-0.0155,-0.001,0.3889223116254009,10,1,100,0.3744806306618285,-10,-1,-100,6487.448514266987,-0.05797759287343587,0.008794603908609918,0.9982791461643847,191.7521663127122,20.106705488461746,-65.49183060551042,4.268938479280013,-58.589996337890625,4381.2578125,True
1599570662.3721728,0.0,10,0.5,0.5,-4.830544187927246,-0.15025,-0.0155,-0.001,0.3168419951124678,10,1,100,0.4144961711656778,-10,-1,-100,6487.578622808913,-0.05589232977456352,0.010871110205586744,0.9983776171545862,187.29455398493903,19.631520344038695,-58.27409471838266,3.888185942918711,-62.388031005859375,4381.2578125,True
1599570663.070819,0.0,10,0.5,0.5,-4.492017919921874,-0.15025,-0.0155,-0.001,0.22403887524076288,10,1,100,0.4980906619814737,-10,-1,-100,6487.675167970243,-0.05476701320932827,0.011900469348570628,0.9984282413340544,184.6341905809208,19.348891371494656,-54.637010142184366,3.6977328956823197,-64.39804077148438,4381.2578125,True
1599570663.1396356,0.0,10,0.5,0.5,-3.811715812683105,-0.15025,-0.0155,-0.001,0.34067530962353365,10,1,100,0.3469415009693,-10,-1,-100,6487.805264940485,-0.05238123542586377,0.013881322902602767,0.9985306780714021,178.38180040733928,18.686897942685697,-47.354030893220376,3.3166521738841546,-68.64080810546875,4381.2578125,True
1599570663.2074535,0.0,10,0.5,0.5,-3.0855187911987305,-0.15025,-0.0155,-0.001,0.3610000314811768,10,1,100,0.2977583017333697,-10,-1,-100,6487.934869616409,-0.04977811743184644,0.015851246194042178,0.998634506222891,170.75906859016064,17.883413039050076,-40.1235729324104,2.935272241816815,-73.1793212890625,4381.2578125,True
1599570663.2798378,0.0,10,0.5,0.5,-1.927929277038574,-0.15025,-0.0155,-0.001,0.47355350693504195,10,1,100,0.08575880641384581,-10,-1,-100,6488.100468756747,-0.04549905670887569,0.018649073047054043,0.998790292260136,156.61722613746426,16.39824858213078,-29.62665947759985,2.3626285791444586,-80.54324340820312,4381.2578125,True
1599570663.3546858,0.0,10,0.5,0.5,-1.078326251220703,-0.15025,-0.0155,-0.001,0.3822762877021515,10,1,100,0.17711031791280674,-10,-1,-100,6488.167092623422,-0.0424576917713811,0.020344651711620403,0.9988911049539781,145.36324459025752,15.21887695745486,-23.054084280122254,1.980607204287701,-85.82412719726562,4381.2578125,True
1599570663.4264524,0.0,10,0.5,0.5,-0.6043342178344727,-0.15025,-0.0155,-0.001,0.30272961580198,10,1,100,0.30542476182113804,-10,-1,-100,6488.200652747299,-0.04087945869510145,0.021144682129483592,0.9989403246813289,148.01128118696536,15.496092889277786,-21.21090802146348,1.789559388904014,-88.5760498046875,4381.2578125,True
1599570663.4992607,0.0,10,0.5,0.5,0.7706558578491212,-0.15025,-0.0155,-0.001,0.4563871312968686,10,1,100,-0.06642538339030074,-10,-1,-100,6488.301354739349,-0.03608425534903368,0.023252274949513162,0.999078204259095,160.30208450650213,16.781909378548885,-15.617839684618534,1.216437347307476,-97.2791748046875,4381.2578125,True
1599570663.575056,0.0,10,0.5,0.5,1.29594528427124,-0.15025,-0.0155,-0.001,0.3159161231219631,10,1,100,0.22895283379941658,-10,-1,-100,6488.273407179164,-0.03443398712010816,0.02387361081220385,0.9991217899924911,164.77573431053958,17.24926851882059,-13.533849265424088,1.0254398271912164,-100.32914733886719,4381.2578125,True
1599570663.656517,0.0,10,0.5,0.5,2.312957913208008,-0.15025,-0.0155,-0.001,0.37777888359802775,10,1,100,0.018747364821250778,-10,-1,-100,6488.341057276237,-0.031046645481782844,0.02498439691179531,0.9992056273436827,172.76162032401996,18.083215486058336,-8.905934650104829,0.6435179205870942,-106.59291076660156,4381.2578125,True
1599570663.735306,0.0,10,0.5,0.5,3.3258434257507323,-0.15025,-0.0155,-0.001,0.36879791591864136,10,1,100,-0.0019297642814222193,-10,-1,-100,6488.3452521413565,-0.02780375277090976,0.0258978393025175,0.9992778658868189,180.06147448816375,18.84643312913331,-3.774239524499538,0.26162591962811765,-112.83915710449219,4381.2578125,True
1599570663.8198483,0.0,10,0.5,0.5,4.747182706832885,-0.15025,-0.0155,-0.001,0.3951290452699766,10,1,100,-0.23561001361810718,-10,-1,-100,6488.3220389512135,-0.022756837655240416,0.026953954716279874,0.9993776116489133,187.52085332598477,19.626098175663707,4.6790422454149185,-0.31138058441534566,-121.7607192993164,4381.2578125,True
1599570663.9009094,0.0,10,0.5,0.5,5.2552906955719,-0.15025,-0.0155,-0.001,0.3210372661589334,10,1,100,0.08646619129445779,-10,-1,-100,6488.355165234534,-0.021125798663431682,0.027226813022901905,0.9994060242381212,189.0423444274528,19.785005534370782,7.612033463791653,-0.5024532188565503,-124.59124755859375,4381.2578125,True
1599570663.9760015,0.0,10,0.5,0.5,6.162076033401489,-0.15025,-0.0155,-0.001,0.3429898770070613,10,1,100,-0.10934499116520222,-10,-1,-100,6488.298875212902,-0.01789134831830177,0.02766230295470464,0.9994572010099259,191.3835206286613,20.02931221622869,13.570740726040853,-0.8846912000049869,-130.0318603515625,4381.2578125,True
1599570664.057027,0.0,10,0.5,0.5,7.395330949020385,-0.15025,-0.0155,-0.001,0.3507229689796092,10,1,100,-0.29847890586861825,-10,-1,-100,6488.211313035921,-0.013260527660983111,0.028117766404493327,0.9995166579995426,191.8656940681856,20.078427547866156,22.430370875110516,-1.4582678131249247,-137.6389617919922,4381.2578125,True
1599570664.1318262,0.0,10,0.5,0.5,7.837460366439818,-0.15025,-0.0155,-0.001,0.3140895371172867,10,1,100,-0.005900342591568047,-10,-1,-100,6488.181973181316,-0.011739803574164688,0.0281901849843188,0.999533636493835,191.355365137909,20.02444264423707,25.306331790415857,-1.649508834932279,-140.02731323242188,4381.2578125,True
1599570664.2039409,0.0,10,0.5,0.5,8.60786573524475,-0.15025,-0.0155,-0.001,0.32374744843655445,10,1,100,-0.1732964142022136,-10,-1,-100,6488.124285144266,-0.008863470015321359,0.028336686947723757,0.9995591383565627,189.48528712628524,19.827385580152583,30.874977628263455,-2.032040878952405,-144.5812225341797,4381.2578125,True
1599570664.2780056,0.0,10,0.5,0.5,9.33401936073303,-0.15025,-0.0155,-0.001,0.3239521673538022,10,1,100,-0.18868773862721874,-10,-1,-100,6488.003142730449,-0.006137805638581722,0.02846519344568666,0.9995759401386384,186.71044835198558,19.53522514960858,36.15595663039464,-2.4146106634117044,-148.83840942382812,4381.2578125,True
1599570664.358788,0.0,10,0.5,0.5,10.009010805130004,-0.15025,-0.0155,-0.001,0.3093465574874595,10,1,100,-0.2126570601952582,-10,-1,-100,6487.882994749118,-0.0034692500543002857,0.028444500246416937,0.9995893530394332,183.26241350682574,19.17210717830829,41.11732545346146,-2.7971880841182983,-152.80093383789062,4381.2578125,True
1599570664.449583,0.0,10,0.5,0.5,10.901033060836792,-0.15025,-0.0155,-0.001,0.31586451010867894,10,1,100,-0.3523753845002,-10,-1,-100,6487.732588761835,0.00019872639139521055,0.02848078700778808,0.9995943203516306,177.37418244986932,18.5521922208167,47.970821377363905,-3.370998614659708,-158.18707275390625,4381.2578125,True
1599570664.5273376,0.0,10,0.5,0.5,11.224747874069214,-0.15025,-0.0155,-0.001,0.3126850992275351,10,1,100,-0.11613296283362498,-10,-1,-100,6487.640794385457,0.0013571871706284544,0.02848169270093691,0.999593392947289,175.30004203633808,18.333789544163363,50.10339086692671,-3.5622488646505586,-159.83421325683594,4381.2578125,True
1599570664.6031368,0.0,10,0.5,0.5,11.760498620223999,-0.15025,-0.0155,-0.001,0.31492671783791143,10,1,100,-0.24684610688837832,-10,-1,-100,6487.518739504507,0.003572124697755036,0.02850054545171343,0.9995873942953154,171.03252196422315,17.884193626528855,54.1405270812079,-3.944734198844843,-162.90565490722656,4381.2578125,True
1599570664.67694,0.0,10,0.5,0.5,12.433677090454102,-0.15025,-0.0155,-0.001,0.32584451058576047,10,1,100,-0.3630831102670478,-10,-1,-100,6487.2433988008415,0.006618468878264382,0.028615530985822136,0.9995685805666897,164.5578893783607,17.20161197192018,59.681146880740485,-4.5184976926195874,-166.955078125,4381.2578125,True
1599570664.7507403,0.0,10,0.5,0.5,12.677028855895996,-0.15025,-0.0155,-0.001,0.3180646095366186,10,1,100,-0.16592179153116887,-10,-1,-100,6487.151135671884,0.007570274992454255,0.028648074445507925,0.9995608929760623,162.44943954529612,16.97932830931541,61.4153287108411,-4.709782763698836,-168.15664672851562,4381.2578125,True
1599570664.824543,0.0,10,0.5,0.5,13.212349676513671,-0.15025,-0.0155,-0.001,0.34717479374819243,10,1,100,-0.3620157821080887,-10,-1,-100,6486.813325852272,0.01019507898940727,0.028941401291244947,0.9995291169624319,156.57543994678701,16.36058705711609,66.42479074118863,-5.2837932086377055,-171.31320190429688,4381.2578125,True
1599570664.9003408,0.0,10,0.5,0.5,13.398001543426513,-0.15025,-0.0155,-0.001,0.33295752546088503,10,1,100,-0.19054806792332246,-10,-1,-100,6486.721073642606,0.011001143760729961,0.029078065407587853,0.9995166036380325,154.79664610475703,16.17355075228466,68.05458244739171,-5.475191614584858,-172.2164306640625,4381.2578125,True
1599570664.9741461,0.0,10,0.5,0.5,13.686638320159911,-0.15025,-0.0155,-0.001,0.34646630793149935,10,1,100,-0.27977935699671946,-10,-1,-100,6486.473096250556,0.012524449865022477,0.029324305462702198,0.9994914823372476,151.59693565378484,15.837808698232685,71.32092813369002,-5.858087829460963,-173.80087280273438,4381.2578125,True
1599570665.0539305,0.0,10,0.5,0.5,13.924678060913084,-0.15025,-0.0155,-0.001,0.3689026127639158,10,1,100,-0.2794968131843286,-10,-1,-100,6486.226592922234,0.013887261452557262,0.0297512286308145,0.9994608588455605,149.30284963916762,15.598012480036163,74.84774361927226,-6.241109226249801,-175.08572387695312,4381.2578125,True
1599570665.1277325,0.0,10,0.5,0.5,14.113563317871092,-0.15025,-0.0155,-0.001,0.3728182010093579,10,1,100,-0.2817784664169004,-10,-1,-100,6485.98009476508,0.015128718773256684,0.030173767735706857,0.9994301704515985,151.2474713456043,15.802282929709236,80.49247735544868,-6.624224101224687,-176.07406616210938,4381.2578125,True
1599570665.2006488,0.0,10,0.5,0.5,14.252923500061035,-0.15025,-0.0155,-0.001,0.3925187590903795,10,1,100,-0.27962145224435203,-10,-1,-100,6485.732625914039,0.016220799873389757,0.03073541811590075,0.9993959274105075,152.7573592837368,15.96216546090052,86.01644589470385,-7.007423872632975,-176.76348876953125,4381.2578125,True
1599570665.2804358,0.0,10,0.5,0.5,14.352957587432861,-0.15025,-0.0155,-0.001,0.4458116878747121,10,1,100,-0.32200670312758506,-10,-1,-100,6485.267925580149,0.01758435581473831,0.031728440876745395,0.9993418316422622,154.3952533484765,16.13787388567616,94.10304744933056,-7.582374651454295,-177.2390594482422,4381.2578125,True
1599570665.356231,0.0,10,0.5,0.5,14.371047262573242,-0.15025,-0.0155,-0.001,0.4326808154429961,10,1,100,-0.26664026646321515,-10,-1,-100,6484.95747998415,0.01830586891115717,0.03250886568433783,0.999303792054911,154.89708061671763,16.193843223132486,99.2060143695048,-7.965770422665194,-177.18344116210938,4381.2578125,True
1599570665.4316075,0.0,10,0.5,0.5,14.37211623916626,-0.15025,-0.0155,-0.001,0.40192247301590667,10,1,100,-0.22920128281951913,-10,-1,-100,6484.802746802568,0.01860804119821944,0.0329350775598732,0.9992842545886983,154.9719233032785,16.20344826194754,101.65531326804097,-8.157495497346805,-177.0438232421875,4381.2578125,True
1599570665.5044155,0.0,10,0.5,0.5,14.256879007720945,-0.15025,-0.0155,-0.001,0.5179577026041308,10,1,100,-0.2702276437631091,-10,-1,-100,6484.27409918292,0.019244810583835998,0.034373481764276445,0.9992237492258644,154.48255478367048,16.15713888646464,108.5224037374909,-8.732775056187203,-176.1776123046875,4381.2578125,True
1599570665.575224,0.0,10,0.5,0.5,14.126534526824951,-0.15025,-0.0155,-0.001,0.4912959632975884,10,1,100,-0.2321800135903892,-10,-1,-100,6483.903116374393,0.019467191082288705,0.035433537586111945,0.9991824122178588,153.5397426316372,16.060826935770855,112.62860509102461,-9.116378026286094,-175.2279052734375,4381.2578125,True
1599570666.2928784,0.0,10,0.5,0.5,14.044841277313234,-0.15025,-0.0155,-0.001,0.44764681835237985,10,1,100,-0.21606998960540863,-10,-1,-100,6483.746434164117,0.019514471215479633,0.03599451234619244,0.999161438654505,152.88608195796417,15.993133781022468,114.52494963923714,-9.308203441056248,-174.64138793945312,4381.2578125,True
1599570666.364687,0.0,10,0.5,0.5,13.837963600921631,-0.15025,-0.0155,-0.001,0.5236287969015256,10,1,100,-0.2020816171502977,-10,-1,-100,6483.3100230965065,0.019422546743829695,0.03718894698131367,0.999119485797572,154.96760499814417,16.21099906195938,120.90407508669165,-9.69188204215998,-173.244873046875,4381.2578125,True
1599570666.4458818,0.0,10,0.5,0.5,13.437386713409422,-0.15025,-0.0155,-0.001,0.6131268343248093,10,1,100,-0.16134593663822105,-10,-1,-100,6482.719860311248,0.018962383676875593,0.03908126549752772,0.9990560958686967,160.62630269467635,16.799226124936517,132.82183961158842,-10.267420147530503,-170.5928955078125,4381.2578125,True
1599570666.5276287,0.0,10,0.5,0.5,13.109503754425047,-0.15025,-0.0155,-0.001,0.5706529596047994,10,1,100,-0.1452141798895774,-10,-1,-100,6482.282961478108,0.018392787534452996,0.040406947072207024,0.9990140059053306,164.9297127979926,17.243762163467196,141.52235699112893,-10.65109711118447,-168.45358276367188,4381.2578125,True
1599570666.6193805,0.0,10,0.5,0.5,12.731431774139404,-0.15025,-0.0155,-0.001,0.5870707561103683,10,1,100,-0.11410847213604679,-10,-1,-100,6481.847526258905,0.01758922636289018,0.04175206194529656,0.9989731650246022,169.67810581227874,17.732012674866937,150.89169457897546,-11.034735181925976,-166.01788330078125,4381.2578125,True
1599570666.705152,0.0,10,0.5,0.5,12.304025292205809,-0.15025,-0.0155,-0.001,0.6021252409905369,10,1,100,-0.08204452432261437,-10,-1,-100,6481.410621495801,0.01656598174817505,0.04310173747080732,0.9989333353511217,174.79327234519192,18.25569974966003,160.89966873510414,-11.41830951951837,-163.28607177734375,4381.2578125,True
1599570666.7884734,0.0,10,0.5,0.5,12.061762968444825,-0.15025,-0.0155,-0.001,0.5423685484812617,10,1,100,-0.1188061074604513,-10,-1,-100,6481.191924330895,0.015970881376111235,0.043775133201556356,0.9989137443549649,177.41349848786595,18.523037190643734,166.08381423940654,-11.610065808324785,-161.80926513671875,4381.2578125,True
1599570666.893711,0.0,10,0.5,0.5,11.302391464996338,-0.15025,-0.0155,-0.001,0.6901214808900786,10,1,100,0.058142555883988506,-10,-1,-100,6480.475276537356,0.013823379541590174,0.04572027755366544,0.9988586338408779,185.33046339972464,19.327334975282007,182.18943792595923,-12.185174864725752,-156.93641662597656,4381.2578125,True
1599570666.9794805,0.0,10,0.5,0.5,11.008137742614744,-0.15025,-0.0155,-0.001,0.5650479384897978,10,1,100,-0.0646348534315179,-10,-1,-100,6480.194073836552,0.012991613105490749,0.046339935488313146,0.9988412428248327,187.923736890118,19.589763778893225,187.67942082780993,-12.376814550988172,-155.16477966308594,4381.2578125,True
1599570667.0730848,0.0,10,0.5,0.5,10.106742679595946,-0.15025,-0.0155,-0.001,0.6946353925125481,10,1,100,0.16334428556906155,-10,-1,-100,6479.476434302982,0.010168608897648135,0.04807045005299603,0.9987921862053131,195.26642524683504,20.33060927171227,204.18478477156566,-12.951506980909226,-149.4087677001953,4381.2578125,True
1599570667.1618135,0.0,10,0.5,0.5,9.43659712753296,-0.15025,-0.0155,-0.001,0.6338110037424026,10,1,100,0.11858931357872513,-10,-1,-100,6478.914501744672,0.008017558074234855,0.04907920802073653,0.9987627096075341,199.56007009813058,20.762844075659856,214.92807795891918,-13.334428642624651,-145.20458984375,4381.2578125,True
1599570667.261547,0.0,10,0.5,0.5,9.060576108551025,-0.15025,-0.0155,-0.001,0.5859685602375408,10,1,100,0.031294687518599956,-10,-1,-100,6478.633289548452,0.006866096574534143,0.049549434236206835,0.9987480714798407,201.44488821515012,20.95261406359169,220.11561242018567,-13.525826139609638,-142.99237060546875,4381.2578125,True
1599570667.3553061,0.0,10,0.5,0.5,7.946138304901123,-0.15025,-0.0155,-0.001,0.6505737386854484,10,1,100,0.32572963195593757,-10,-1,-100,6477.790120174177,0.0031540470346206944,0.05055299561138364,0.9987163994958824,205.7460244446105,21.38789972937924,234.4958820224968,-14.09977741385,-135.91958618164062,4381.2578125,True
1599570667.451039,0.0,10,0.5,0.5,7.131013327789306,-0.15025,-0.0155,-0.001,0.6024796341057372,10,1,100,0.25122376958835907,-10,-1,-100,6477.226691280492,0.00047115378044305006,0.05101767615617077,0.9986976392951668,207.18047778987733,21.537011457714332,242.6350085783341,-14.482241141029833,-130.83889770507812,4381.2578125,True
1599570667.555275,0.0,10,0.5,0.5,6.677023527526855,-0.15025,-0.0155,-0.001,0.5739571565474422,10,1,100,0.13847785469379253,-10,-1,-100,6476.945462589967,-0.0009265848299914668,0.051171171647189144,0.9986894675687766,207.37394821345336,21.55999415287903,246.1189042728145,-14.673437291480944,-128.18919372558594,4381.2578125,True
1599570667.6410885,0.0,10,0.5,0.5,5.352941047286988,-0.15025,-0.0155,-0.001,0.5580232105016939,10,1,100,0.46628428377088904,-10,-1,-100,6476.038275701227,-0.005160482184548376,0.051157296120697325,0.9986772754384882,206.70653683254426,21.5112449415724,255.07883774063257,-15.246958741310598,-119.8050765991211,4381.2578125,True
1599570667.7248645,0.0,10,0.5,0.5,4.393412148666381,-0.15025,-0.0155,-0.001,0.5286027022784751,10,1,100,0.3673580840837751,-10,-1,-100,6475.412797226571,-0.00809039936068751,0.050869899604902874,0.9986725182723173,204.01323692323314,21.253616690242005,258.18436647903735,-15.629340472986598,-113.85124206542969,4381.2578125,True
1599570667.81263,0.0,10,0.5,0.5,3.3805493885040283,-0.15025,-0.0155,-0.001,0.49490851699610977,10,1,100,0.3943789800444684,-10,-1,-100,6474.7873074661475,-0.01097773104705957,0.0502958694821561,0.99867402836666,199.26671150838092,20.786154077053627,258.4695892978235,-16.01183957986818,-107.60673522949219,4381.2578125,True
1599570667.8854327,0.0,10,0.5,0.5,2.321776265716553,-0.15025,-0.0155,-0.001,0.46202973111917545,10,1,100,0.4193013852900298,-10,-1,-100,6474.1603383143665,-0.01380659889091323,0.04947096623357009,0.9986801296346004,193.38287634823232,20.200381134806275,256.9579370451433,-16.394513848212,-101.0708236694336,4381.2578125,True
1599570667.9642215,0.0,10,0.5,0.5,1.2118049549102783,-0.15025,-0.0155,-0.001,0.42760156616803385,10,1,100,0.4421180063957252,-10,-1,-100,6473.4732971275225,-0.016561358748107966,0.048405224480076746,0.9986904703858197,185.15623883350352,19.36532181467896,251.90100048688902,-16.777410177348912,-94.2433090209961,4381.2578125,True
1599570668.0420163,0.0,10,0.5,0.5,0.05632944831848144,-0.15025,-0.0155,-0.001,0.39215606146229787,10,1,100,0.4563049830531017,-10,-1,-100,6472.785755707882,-0.01917035843549228,0.04711383213918785,0.9987055542944653,174.84980518208891,18.30256012542482,243.43916378757805,-17.16054361426312,-87.12399291992188,4381.2578125,True
1599570668.1267877,0.0,10,0.5,0.5,-0.5815272182464599,-0.15025,-0.0155,-0.001,0.4416261537297595,10,1,100,0.33504233621929597,-10,-1,-100,6472.441492611892,-0.020415072346889124,0.04639135391888537,0.9987147075629976,169.45393281190687,17.74046031671799,238.62427988319348,-17.3521810822582,-83.45489501953125,4381.2578125,True
1599570668.198595,0.0,10,0.5,0.5,-2.3949903362274165,-0.15025,-0.0155,-0.001,0.248920386914095,10,1,100,0.592252371065757,-10,-1,-100,6471.346188176889,-0.02386010242956188,0.043985555911483724,0.9987471984357247,191.01679654857074,19.9867056940072,278.11830614549626,-17.926677531671018,-72.05093383789062,4381.2578125,True
1599570668.2773848,0.0,10,0.5,0.5,-3.6473204113006594,-0.15025,-0.0155,-0.001,0.29190367605299417,10,1,100,0.47671072351917965,-10,-1,-100,6470.65764192713,-0.02591701102750988,0.04219519438756304,0.998773184516883,202.91019567277306,21.2135352855399,301.89928851551855,-18.309195805252408,-64.35018920898438,4381.2578125,True
1599570668.3514097,0.0,10,0.5,0.5,-4.318228464889526,-0.15025,-0.0155,-0.001,0.3661549058627347,10,1,100,0.37830095212544307,-10,-1,-100,6470.251354223001,-0.026868304408603227,0.041250624620240615,0.9987875050212867,208.11747998956704,21.74872391301617,312.96082952493737,-18.50029719748136,-60.544891357421875,4381.2578125,True
1599570668.4297147,0.0,10,0.5,0.5,-5.542513565444946,-0.15025,-0.0155,-0.001,0.2605501224615966,10,1,100,0.47083077228728665,-10,-1,-100,6469.50030038273,-0.028550713375087928,0.0394409000254162,0.9988139327076684,216.40710835547216,22.59962436183427,332.3164535817621,-18.88221022266909,-53.118499755859375,4381.2578125,True
1599570668.518511,0.0,10,0.5,0.5,-7.753094197845459,-0.15025,-0.0155,-0.001,0.021482183760936913,10,1,100,0.6097773766862131,-10,-1,-100,6467.998187703779,-0.0313220631744365,0.035633002220201895,0.9988739747892482,224.71639820384576,23.466027724049834,359.3918731657075,-19.6452286638369,-39.13739013671875,4381.2578125,True
1599570668.5937839,0.0,10,0.5,0.5,-7.85491955871582,-0.15025,-0.0155,-0.001,0.40074827454389705,10,1,100,0.3349655631327311,-10,-1,-100,6467.998187703779,-0.0313220631744365,0.035633002220201895,0.9988739747892482,224.71639820384576,23.466027724049834,359.3918731657075,-19.6452286638369,-39.13739013671875,4381.2578125,True
1599570668.6755652,0.0,10,0.5,0.5,-9.429193978118896,-0.15025,-0.0155,-0.001,0.11017143629793907,10,1,100,0.5091332254349631,-10,-1,-100,6466.777854499174,-0.03288691071161372,0.033004724479113144,0.9989139799131375,224.70482827525927,23.496249303933705,370.13874692872423,-20.217266872083528,-29.430633544921875,4381.2578125,True
1599570668.7513628,0.0,10,0.5,0.5,-10.452970808029173,-0.15025,-0.0155,-0.001,0.18590044516540669,10,1,100,0.44424178140143333,-10,-1,-100,6465.964797137189,-0.033702231425269374,0.03131879592396804,0.9989410856596251,222.0152509971305,23.247788679660815,372.82347989397226,-20.598732407755854,-23.33184814453125,4381.2578125,True
1599570668.8321848,0.0,10,0.5,0.5,-11.434379124450684,-0.15025,-0.0155,-0.001,0.18255220031006716,10,1,100,0.43779815017752877,-10,-1,-100,6465.089729429339,-0.03436927099685069,0.029771228128384043,0.9989656786831431,217.55905875486675,22.818796922443205,372.33514616176893,-20.980368322755965,-17.529571533203125,4381.2578125,True
1599570668.912968,0.0,10,0.5,0.5,-11.958478535461424,-0.15025,-0.0155,-0.001,0.25871592342448907,10,1,100,0.40647859741107306,-10,-1,-100,6464.682472518645,-0.034677130207173786,0.029072511800721342,0.998975618170029,215.03528929484457,22.57341420964188,371.48154479653005,-21.171261186693492,-14.739288330078125,4381.2578125,True
1599570668.9836788,0.0,10,0.5,0.5,-12.872539811706543,-0.15025,-0.0155,-0.001,0.17852122543926072,10,1,100,0.43112469133538445,-10,-1,-100,6463.806928232778,-0.035168092108724625,0.027724016832178778,0.9989967888777829,209.553755155207,22.03445540094475,368.7836832623388,-21.5532002823809,-9.38165283203125,4381.2578125,True
1599570669.0574715,0.0,10,0.5,0.5,-14.095897396850585,-0.15025,-0.0155,-0.001,0.12129660624132405,10,1,100,0.4448246379969296,-10,-1,-100,6462.5226774232,-0.03572868608916747,0.02599267172177639,0.9990234441729112,199.7516110414317,21.045863005260834,361.25341370036205,-22.126474446564686,-1.900146484375,4381.2578125,True
1599570669.1462355,0.0,10,0.5,0.5,-14.5400149017334,-0.15025,-0.0155,-0.001,0.23745388669540263,10,1,100,0.4050034878049791,-10,-1,-100,6462.053418530151,-0.03586738681958718,0.02548942646432565,0.9990314407971622,196.55368216650695,20.718451581417117,358.6665011094063,-22.317643773022027,0.445648193359375,4381.2578125,True
1599570669.7955072,0.0,10,0.5,0.5,-15.308255201721192,-0.15025,-0.0155,-0.001,0.18942662751956932,10,1,100,0.42095903879771335,-10,-1,-100,6461.179847029969,-0.03613034787225633,0.02460964769064096,0.9990440246571581,189.78469256857977,20.015369911585406,352.4969575814321,-22.700061771341588,4.9154052734375,4381.2578125,True
1599570669.857381,0.0,10,0.5,0.5,-16.02502488555908,-0.15025,-0.0155,-0.001,0.19630704952378797,10,1,100,0.4205469357845385,-10,-1,-100,6460.239878374967,-0.03635876640683836,0.02388588105308848,0.9990533042794516,195.8207172107378,20.651178316050515,370.09616192944173,-23.082384771400065,9.089202880859375,4381.2578125,True
1599570669.9341397,0.0,10,0.5,0.5,-16.394455838012696,-0.15025,-0.0155,-0.001,0.2337877474238864,10,1,100,0.4062480569019774,-10,-1,-100,6459.770628969534,-0.03643185099095111,0.02357932420092086,0.9990579240982982,200.014745690277,21.08935098583873,381.287608444683,-23.273449637613925,11.065093994140625,4381.2578125,True
1599570670.002953,0.0,10,0.5,0.5,-17.03446026687622,-0.15025,-0.0155,-0.001,0.2100551563263593,10,1,100,0.4171927021095071,-10,-1,-100,6458.832138413447,-0.036593143034925224,0.02309584321444485,0.9990633232728742,207.5042933741507,21.864518931115327,402.34224233874505,-23.65537150130238,14.795120239257812,4381.2578125,True
1599570670.074794,0.0,10,0.5,0.5,-17.618710453033447,-0.15025,-0.0155,-0.001,0.22212198080835727,10,1,100,0.4162059926145739,-10,-1,-100,6457.892678581062,-0.03672743277738111,0.022775021523179974,0.9990657606365069,213.8903633564214,22.51649416852414,421.71330152903425,-24.037008838867365,18.2293701171875,4381.2578125,True
1599570670.145578,0.0,10,0.5,0.5,-18.154401749420167,-0.15025,-0.0155,-0.001,0.23619386751059696,10,1,100,0.4163571888072353,-10,-1,-100,6456.893169126357,-0.036848138689226914,0.02261905875059662,0.9990648591840154,219.29096224587806,23.059865143514525,439.52848075235465,-24.41836499811579,21.367919921875,4381.2578125,True
1599570670.2293537,0.0,10,0.5,0.5,-18.43213799819946,-0.15025,-0.0155,-0.001,0.24934820711942396,10,1,100,0.4111303717628728,-10,-1,-100,6456.421982243657,-0.03690810130169037,0.022603361289580896,0.9990630010748656,221.6593250364847,23.29541865122983,447.898413563431,-24.60894141289338,22.826324462890625,4381.2578125,True
1599570670.3071477,0.0,10,0.5,0.5,-19.083603864288328,-0.15025,-0.0155,-0.001,0.272985194474324,10,1,100,0.42363114711496414,-10,-1,-100,6454.889295318746,-0.037074228024317514,0.022809853619621276,0.9990521568938493,227.61326995136963,23.87873200325801,471.0936679269586,-25.180290497257243,26.758209228515625,4381.2578125,True
1599570670.3779569,0.0,10,0.5,0.5,-19.31157551116943,-0.15025,-0.0155,-0.001,0.26875744766733883,10,1,100,0.4134919423193785,-10,-1,-100,6454.420072288485,-0.03713134487773178,0.022963607278878626,0.9990465134158231,229.26353324795068,24.037836181017518,478.25914329734684,-25.37062208520931,27.921096801757812,4381.2578125,True
1599570670.449764,0.0,10,0.5,0.5,-19.817283839416504,-0.15025,-0.0155,-0.001,0.3326385964933592,10,1,100,0.42723103057730805,-10,-1,-100,6452.886442734045,-0.03730689494791814,0.023686874744297218,0.9990230865971983,233.73540906436406,24.465960033904416,499.06317477945726,-25.94129388252976,30.966705322265625,4381.2578125,True
1599570670.529586,0.0,10,0.5,0.5,-20.22171085510254,-0.15025,-0.0155,-0.001,0.3831717732971648,10,1,100,0.43158329125619155,-10,-1,-100,6451.289854125585,-0.03750474328323347,0.02480542182173056,0.9989885311050897,237.3410100797102,24.806505204539054,518.4264712303587,-26.511526264439148,33.34796142578125,4381.2578125,True
1599570670.6044183,0.0,10,0.5,0.5,-20.36116235961914,-0.15025,-0.0155,-0.001,0.323266082832596,10,1,100,0.4187537146938364,-10,-1,-100,6450.759618366836,-0.037566723441670564,0.025277507638691073,0.9989743684887181,238.36398371300695,24.90221343868371,524.569371949693,-26.701516648215076,33.99432373046875,4381.2578125,True
1599570670.6782155,0.0,10,0.5,0.5,-20.561183715820313,-0.15025,-0.0155,-0.001,0.3957284543139624,10,1,100,0.4265954741357024,-10,-1,-100,6449.632752078702,-0.037693259619689584,0.026364160279771596,0.9989415144201312,240.19294452466815,25.07239199875835,536.4771577396398,-27.08137898109795,35.065826416015625,4381.2578125,True
1599570670.747031,0.0,10,0.5,0.5,-20.71478504333496,-0.15025,-0.0155,-0.001,0.4274214103687585,10,1,100,0.4288216124497367,-10,-1,-100,6448.568402856123,-0.037827383394717425,0.027637612430271262,0.9989020229455257,241.77847477213467,25.21901384122,547.9622087835571,-27.46109541398327,35.842498779296875,4381.2578125,True
1599570670.8188405,0.0,10,0.5,0.5,-20.81956580581665,-0.15025,-0.0155,-0.001,0.46292270877362196,10,1,100,0.4295187754694326,-10,-1,-100,6447.441573387361,-0.03795452990823107,0.02911390639875533,0.9988552618441021,243.1672778543844,25.346798905000956,559.1090726593127,-27.840677967695367,36.32470703125,4381.2578125,True
1599570670.8976293,0.0,10,0.5,0.5,-20.86690769500732,-0.15025,-0.0155,-0.001,0.4059130172777574,10,1,100,0.4232457454436074,-10,-1,-100,6446.908928536694,-0.03801197455925338,0.0299319592793461,0.9988288980620283,243.79900360808202,25.404705445283255,564.5756717278799,-28.030422473276353,36.45545959472656,4381.2578125,True
1599570670.9674423,0.0,10,0.5,0.5,-20.882765835571288,-0.15025,-0.0155,-0.001,0.6301086856360564,10,1,100,0.4332138923399699,-10,-1,-100,6445.192864295328,-0.0381537584539042,0.03270713806447793,0.998736468662015,245.48178548021997,25.557990653191265,580.6155884167382,-28.59948395609466,36.40655517578125,4381.2578125,True
1599570671.0482268,0.0,10,0.5,0.5,-20.843346557617185,-0.15025,-0.0155,-0.001,0.5860177575118016,10,1,100,0.4270718037714432,-10,-1,-100,6444.0597595113795,-0.03822568331918906,0.034820015998218275,0.9986622870723942,246.43945563815686,25.644037278886884,591.0235002722522,-28.97872577550956,36.006439208984375,4381.2578125,True
1599570671.1140528,0.0,10,0.5,0.5,-20.753192361450193,-0.15025,-0.0155,-0.001,0.6351766820265684,10,1,100,0.42090210075235507,-10,-1,-100,6442.866626339732,-0.038233934573551884,0.03717679510413593,0.9985770136313025,247.26849310945894,25.717019366964475,601.1958131793779,-29.357871882834424,35.312957763671875,4381.2578125,True
1599570671.191843,0.0,10,0.5,0.5,-20.696277256011964,-0.15025,-0.0155,-0.001,0.5411059416086856,10,1,100,0.417063337901253,-10,-1,-100,6442.283743916079,-0.03820553551551187,0.038451211934966444,0.9985298399931296,247.6299327723942,25.74798671864672,606.1781580227314,-29.547411999019054,34.8563232421875,4381.2578125,True
1599570671.2676399,0.0,10,0.5,0.5,-20.531344131469726,-0.15025,-0.0155,-0.001,0.7134893350832813,10,1,100,0.4100524591514197,-10,-1,-100,6441.095544476993,-0.038115165982688284,0.04116347232440808,0.9984251612756511,248.23171039415612,25.797135368713118,615.890094255878,-29.92643203206835,33.72297668457031,4381.2578125,True
1599570671.340448,0.0,10,0.5,0.5,-20.192887033081057,-0.15025,-0.0155,-0.001,0.9421067307211018,10,1,100,0.38452755321495224,-10,-1,-100,6439.24251860613,-0.03780041233279036,0.045692632592878236,0.9982401074662364,248.7667279997903,25.831681179153616,629.6343243397141,-30.494832416521838,31.473907470703125,4381.2578125,True
1599570671.4112587,0.0,10,0.5,0.5,-19.909140452575684,-0.15025,-0.0155,-0.001,0.8574678756564793,10,1,100,0.3767465856059236,-10,-1,-100,6438.058332077111,-0.03744332413744552,0.049022047677305274,0.9980956047989903,248.82385462931924,25.822742198523798,638.0821473975855,-30.8736979662106,29.608856201171875,4381.2578125,True
1599570671.4945483,0.0,10,0.5,0.5,-19.57629437713623,-0.15025,-0.0155,-0.001,0.9223509181021609,10,1,100,0.3514383818748942,-10,-1,-100,6436.801440106006,-0.03688885114001562,0.05261803642411102,0.9979331415001913,248.57992915152818,25.781890116188677,645.7725883242641,-31.252526715944526,27.451812744140625,4381.2578125,True
1599570671.5643637,0.0,10,0.5,0.5,-19.385760321807858,-0.15025,-0.0155,-0.001,0.7735309711961919,10,1,100,0.36769334782428564,-10,-1,-100,6436.146891023964,-0.036533410407578085,0.05451149901843121,0.9978445802822977,248.32191506730717,25.747176660284705,649.264407619446,-31.441932650943478,26.263809204101562,4381.2578125,True
1599570671.6387587,0.0,10,0.5,0.5,-18.766056215667724,-0.15025,-0.0155,-0.001,1.2492049451982488,10,1,100,0.2542059029234082,-10,-1,-100,6434.241922816145,-0.03517987035126385,0.0605340487836322,0.9975459917517232,246.88864000037213,25.57478996778054,657.967740102426,-32.01014350478666,22.2618408203125,4381.2578125,True
1599570671.7125568,0.0,10,0.5,0.5,-18.289401496887205,-0.15025,-0.0155,-0.001,1.1236768651179352,10,1,100,0.2565843055283682,-10,-1,-100,6432.984717366984,-0.03397357587303054,0.06484010957898999,0.997317179402914,245.29020189133206,25.394375915774337,661.9875256449675,-32.388969719634595,19.229400634765625,4381.2578125,True
1599570671.7883544,0.0,10,0.5,0.5,-18.019942705535886,-0.15025,-0.0155,-0.001,0.9418952391965871,10,1,100,0.30101461565107357,-10,-1,-100,6432.322937957826,-0.0332846566053711,0.06707293827410798,0.9971927359271829,244.2721845962541,25.282275465601238,663.3733299044467,-32.578395972462204,17.603836059570312,4381.2578125,True
1599570671.8601623,0.0,10,0.5,0.5,-17.189267818450926,-0.15025,-0.0155,-0.001,1.4865359075264029,10,1,100,0.07777579113401156,-10,-1,-100,6430.349906559335,-0.03063341434526543,0.07402474050696277,0.9967858003194207,240.21545819429184,24.847527664601856,664.5940870944568,-33.14675567475536,12.28961181640625,4381.2578125,True
1599570671.9359593,0.0,10,0.5,0.5,-16.567937070465085,-0.15025,-0.0155,-0.001,1.3271861501033988,10,1,100,0.10659562785572063,-10,-1,-100,6428.971816900419,-0.028492102188301522,0.0788624284280736,0.996478257412232,236.56126833276463,24.466166664628506,662.5553371400497,-33.52574928465196,8.3824462890625,4381.2578125,True
1599570672.009763,0.0,10,0.5,0.5,-15.895659427642823,-0.15025,-0.0155,-0.001,1.388146228103424,10,1,100,0.04399550779188144,-10,-1,-100,6427.597709976602,-0.02598519316623326,0.08377777159590813,0.9961455991583446,232.059747690798,24.00490665061835,657.8932538112763,-33.90482491520984,4.18310546875,4381.2578125,True
1599570672.0867414,0.0,10,0.5,0.5,-15.174720924377441,-0.15025,-0.0155,-0.001,1.4468581497971944,10,1,100,-0.023158984472870126,-10,-1,-100,6426.292519230163,-0.023106716828142967,0.08874126985545425,0.9957866572021667,226.6306233553044,23.457453171043998,650.2861752897711,-34.28398484615519,-0.3084716796875,4381.2578125,True
1599570672.167525,0.0,10,0.5,0.5,-14.406374946594239,-0.15025,-0.0155,-0.001,1.5018532571099277,10,1,100,-0.09458394245871438,-10,-1,-100,6424.918061269331,-0.019853960262284705,0.09371436139673686,0.9954011446295937,220.1990660657283,22.817731094705973,639.4144100466257,-34.66322151484324,-5.092437744140625,4381.2578125,True
1599570672.2433238,0.0,10,0.5,0.5,-13.188840107727051,-0.15025,-0.0155,-0.001,1.8146872171073911,10,1,100,-0.38562780016469156,-10,-1,-100,6422.758592230035,-0.014267045917700274,0.10103866942177124,0.9947801961650928,213.84196654603753,22.223976281310286,632.0173795375118,-35.23209861931424,-12.818267822265625,4381.2578125,True
1599570672.3181567,0.0,10,0.5,0.5,-12.722405560302734,-0.15025,-0.0155,-0.001,1.3481200417948216,10,1,100,-0.05414549720614817,-10,-1,-100,6422.0970649056835,-0.01222207363608511,0.10341159272987217,0.9945635542312544,217.16551424007056,22.598990247916277,645.5845722452029,-35.4215883855603,-15.54052734375,4381.2578125,True
1599570672.9813545,0.0,10,0.5,0.5,-12.237479154205323,-0.15025,-0.0155,-0.001,1.3727335578751134,10,1,100,-0.08696040788415449,-10,-1,-100,6421.384280893253,-0.010086791770972624,0.10574810034368345,0.9943417902841414,220.41313133828058,22.970360689175724,659.0369769602443,-35.610973932059835,-18.33624267578125,4381.2578125,True
1599570673.0427067,0.0,10,0.5,0.5,-11.297944115447997,-0.15025,-0.0155,-0.001,1.6286874609863404,10,1,100,-0.3687666799116608,-10,-1,-100,6419.937733053463,-0.005606563128420571,0.11015794815583209,0.9938982809664096,227.20892316898914,23.755975111453804,687.1747737433595,-35.989407719207804,-24.150482177734375,4381.2578125,True
1599570673.118495,0.0,10,0.5,0.5,-11.236519536590576,-0.15025,-0.0155,-0.001,1.192234463629161,10,1,100,0.07641948306908347,-10,-1,-100,6419.937733053463,-0.005606563128420571,0.11015794815583209,0.9938982809664096,227.20892316898914,23.755975111453804,687.1747737433595,-35.989407719207804,-24.150482177734375,4381.2578125,True
1599570673.189306,0.0,10,0.5,0.5,-9.769179074096678,-0.15025,-0.0155,-0.001,1.8830197315557045,10,1,100,-0.7361396625505217,-10,-1,-100,6417.72572408116,0.001755176292233157,0.11639864603709,0.9932010242427841,236.13429246814985,24.822902224240536,726.3136510851302,-36.55620203920919,-33.42401123046875,4381.2578125,True
1599570673.2610483,0.0,10,0.5,0.5,-8.716546186828614,-0.15025,-0.0155,-0.001,1.677961541025641,10,1,100,-0.5822934943814887,-10,-1,-100,6416.286060020677,0.007019620972529429,0.12016932064656924,0.9927285929682613,241.05347143555832,25.432206695375946,749.6752630105121,-36.93352994777788,-39.976409912109375,4381.2578125,True
1599570673.3298643,0.0,10,0.5,0.5,-8.13587806854248,-0.15025,-0.0155,-0.001,1.5011879919594535,10,1,100,-0.36283963186658935,-10,-1,-100,6415.5000746996375,0.009778161274335291,0.12195262267075002,0.9924877557863466,243.31742282726026,25.71589836409801,760.8603727073875,-37.12204657297102,-43.36328125,4381.2578125,True
1599570673.4056947,0.0,10,0.5,0.5,-6.460581582641601,-0.15025,-0.0155,-0.001,1.8171381790021441,10,1,100,-0.9918254759566966,-10,-1,-100,6413.281706241425,0.01797146617275926,0.12641137634668898,0.9918150988635619,247.75039573019308,26.30745699140485,787.3525038330253,-37.68713874081697,-53.974761962890625,4381.2578125,True
1599570673.4801056,0.0,10,0.5,0.5,-5.830575964355469,-0.15025,-0.0155,-0.001,1.5178945559328345,10,1,100,-0.48585287710701364,-10,-1,-100,6412.499093382852,0.02078283046996493,0.12771014665464772,0.9915937637959938,248.37248167713787,26.40860047743204,793.5453984268049,-37.8753961608787,-57.6602783203125,4381.2578125,True
1599570673.5550246,0.0,10,0.5,0.5,-4.012718576049805,-0.15025,-0.0155,-0.001,1.7389724849509047,10,1,100,-1.1328776449448321,-10,-1,-100,6410.224889803329,0.029183717001648207,0.13086974102999457,0.9909699397785533,247.2582412775679,26.375087052102202,802.5890181712313,-38.44006729367726,-69.16482543945312,4381.2578125,True
1599570673.6357741,0.0,10,0.5,0.5,-3.3342400085449215,-0.15025,-0.0155,-0.001,1.5135641509864275,10,1,100,-0.5928263169174255,-10,-1,-100,6409.439268430462,0.03187182835482081,0.13166581372462535,0.9907816611411179,245.8209353051562,26.2440270411442,802.1111466004264,-38.62831025214001,-73.14926147460938,4381.2578125,True
1599570673.7130282,0.0,10,0.5,0.5,-1.3734779876708985,-0.15025,-0.0155,-0.001,1.6282954995235133,10,1,100,-1.2118598347139273,-10,-1,-100,6407.092022643192,0.03990305801768146,0.13340684277826798,0.9902577241611257,238.07628244248707,25.471971974746914,789.060837449825,-39.193295431846316,-85.5489501953125,4381.2578125,True
1599570673.7903342,0.0,10,0.5,0.5,0.024949607086181533,-0.15025,-0.0155,-0.001,1.523202507270311,10,1,100,-0.9619095664485766,-10,-1,-100,6405.530788337928,0.044886455408970995,0.134009061313428,0.9899630183025587,229.92527700142907,24.63512935109769,769.9621567813415,-39.57026390389013,-94.18794250488281,4381.2578125,True
1599570673.8631387,0.0,10,0.5,0.5,0.7950712387084959,-0.15025,-0.0155,-0.001,1.4809187543692393,10,1,100,-0.7338512551848214,-10,-1,-100,6404.748418297735,0.047297656554529714,0.13415045212523863,0.9898315957166874,224.9366704235488,24.1205410656451,757.1412547138915,-39.758857169745745,-98.61903381347656,4381.2578125,True
1599570673.9369423,0.0,10,0.5,0.5,2.2799948062896727,-0.15025,-0.0155,-0.001,1.476161541003283,10,1,100,-0.9755648818539483,-10,-1,-100,6403.116688813432,0.051638959456863386,0.13421393046540378,0.9896060017679966,213.14104871068372,22.90251180076009,724.8115786102549,-40.13625491001089,-107.7028579711914,4381.2578125,True
1599570674.016729,0.0,10,0.5,0.5,3.781184586334228,-0.15025,-0.0155,-0.001,1.447688934020729,10,1,100,-0.982086830266809,-10,-1,-100,6401.489233986591,0.05559954000531579,0.13399660045259587,0.9894208418152232,202.07099086157746,21.772543490238427,694.1518526212575,-40.51384402965241,-116.92693328857422,4381.2578125,True
1599570674.0945213,0.0,10,0.5,0.5,5.9474373687744135,-0.15025,-0.0155,-0.001,1.3913416121885591,10,1,100,-1.1482495679497207,-10,-1,-100,6399.085931516136,0.06066647455645101,0.13327420907901802,0.9892206852160208,218.52208575498466,23.66365348684296,761.9305775498418,-41.07925219004211,-130.52166748046875,4381.2578125,True
1599570674.180294,0.0,10,0.5,0.5,6.734598762512207,-0.15025,-0.0155,-0.001,1.4348801308065418,10,1,100,-0.801699343323919,-10,-1,-100,6398.243768810993,0.06207606000335563,0.1330030020119214,0.9891697347929104,222.61385334842788,24.147841086590528,780.0035920048005,-41.26743593275362,-134.9227294921875,4381.2578125,True
1599570674.2570875,0.0,10,0.5,0.5,8.785152333068847,-0.15025,-0.0155,-0.001,1.3720316731395026,10,1,100,-1.046257992077642,-10,-1,-100,6395.70496950089,0.06554066667663859,0.13217910813061934,0.9890566740007246,231.28272890764518,25.205396176034352,822.1996122234128,-41.83138087793103,-147.67965698242188,4381.2578125,True
1599570674.3418992,0.0,10,0.5,0.5,10.141067097473146,-0.15025,-0.0155,-0.001,1.4033601550655534,10,1,100,-0.8881113718127819,-10,-1,-100,6394.077155211358,0.0672119236170274,0.13171085538196706,0.9890069807125981,234.9698468337731,25.67285243753693,843.3035186895439,-42.20700561811606,-155.80621337890625,4381.2578125,True
1599570674.4196534,0.0,10,0.5,0.5,11.450153889465332,-0.15025,-0.0155,-0.001,1.4192424270006294,10,1,100,-0.8527200593021214,-10,-1,-100,6392.324312727433,0.0683749378067245,0.13142879070591842,0.9889647824131588,236.45381700075825,25.88965452811609,856.6922190145871,-42.58252522921485,-163.62716674804688,4381.2578125,True
1599570674.4944522,0.0,10,0.5,0.5,12.719099644470214,-0.15025,-0.0155,-0.001,1.4428278156607592,10,1,100,-0.8172586825879067,-10,-1,-100,6390.633973527583,0.06907666263681819,0.1313869963728015,0.9889215701273244,236.03794328111107,25.890098092169666,863.2663635829255,-42.95805663187346,-171.14138793945312,4381.2578125,True
1599570674.574239,0.0,10,0.5,0.5,13.93431487045288,-0.15025,-0.0155,-0.001,1.4713959110320487,10,1,100,-0.7800700265533929,-10,-1,-100,6388.877739115036,0.0693499941505722,0.13161054770643915,0.9888727127612162,234.03420790517217,25.711705059007336,863.9922934261668,-43.33367998903638,-178.34840393066406,4381.2578125,True
1599570674.652609,0.0,10,0.5,0.5,-39.86490782012939,-0.15025,-0.0155,-0.001,1.474865559355852,10,1,100,-0.7537641778712596,-10,-1,-100,6388.032596525503,0.06933709368529137,0.13184749891596886,0.9888420523364085,232.52829848758557,25.566748569909098,862.4507974725051,-43.521541346579234,178.16375732421875,4381.2578125,True
1599570674.7253468,0.0,10,0.5,0.5,-38.42481205368042,-0.15025,-0.0155,-0.001,1.5865188742581704,10,1,100,-0.6942025461755887,-10,-1,-100,6385.368841878022,0.0687638607585929,0.13308003283575265,0.9887169647143755,226.42181021153266,24.96148938068925,851.599466537559,-44.08534993001221,168.16311645507812,4381.2578125,True
1599570674.8027222,0.0,10,0.5,0.5,-38.38157876777649,-0.15025,-0.0155,-0.001,1.5293643375238046,10,1,100,-0.7145713343662657,-10,-1,-100,6384.527188027627,0.0684123426257807,0.13368196233581608,0.988660146017072,223.96799714531397,24.716403578445483,846.277088525715,-44.27335945890343,164.98410034179688,4381.2578125,True
1599570674.8735342,0.0,10,0.5,0.5,-37.8494396697998,-0.15025,-0.0155,-0.001,1.6347336227274805,10,1,100,-0.6509360939423914,-10,-1,-100,6382.705283725169,0.0675026304988067,0.1351873595996497,0.9885179678084847,218.51536878896593,24.17171430665005,833.3136176765375,-44.649475886954285,158.55580139160156,4381.2578125,True
1599570674.9600909,0.0,10,0.5,0.5,-36.246247062683096,-0.15025,-0.0155,-0.001,1.9558743020027796,10,1,100,-0.4690480586578406,-10,-1,-100,6379.131681801868,0.06501587719356863,0.13947362405970967,0.988089087028291,215.52194341118604,23.98988588253682,836.9796900101098,-45.401805540126524,144.95123291015625,4381.2578125,True
1599570675.0358882,0.0,10,0.5,0.5,-36.69365627288818,-0.15025,-0.0155,-0.001,1.5278949182015609,10,1,100,-0.7180173709006684,-10,-1,-100,6379.131681801868,0.06501587719356863,0.13947362405970967,0.988089087028291,215.52194341118604,23.98988588253682,836.9796900101098,-45.401805540126524,144.95123291015625,4381.2578125,True
1599570675.1066978,0.0,10,0.5,0.5,-36.055121267700194,-0.15025,-0.0155,-0.001,1.8375193990123122,10,1,100,-0.5550042950601097,-10,-1,-100,6377.317047889577,0.06353441722182089,0.14228176068896278,0.9877850365355472,225.58790906673292,25.205868642982708,883.9388373565517,-45.77735024567055,137.73065185546875,4381.2578125,True
1599570675.1875582,0.0,10,0.5,0.5,-35.38254049301147,-0.15025,-0.0155,-0.001,1.9127334102294198,10,1,100,-0.5247897184856507,-10,-1,-100,6375.440583352116,0.06191630064809623,0.14550876599452386,0.9874176273152132,234.87410915605898,26.3486381733926,928.4906472483128,-46.15235287002446,130.2279510498047,4381.2578125,True
1599570675.254887,0.0,10,0.5,0.5,-33.44871524734497,-0.15025,-0.0155,-0.001,2.4624813073343357,10,1,100,-0.3395342510474505,-10,-1,-100,6371.703474878101,0.05876701645632529,0.15342731535936172,0.9864109167473974,250.7799399325665,28.353167036926287,1008.7377914092078,-46.900944488176805,114.38131713867188,4381.2578125,True
1599570675.3306842,0.0,10,0.5,0.5,-33.9071220741272,-0.15025,-0.0155,-0.001,1.6728304027492065,10,1,100,-0.6534317056064953,-10,-1,-100,6371.703474878101,0.05876701645632529,0.15342731535936172,0.9864109167473974,250.7799399325665,28.353167036926287,1008.7377914092078,-46.900944488176805,114.38131713867188,4381.2578125,True
1599570675.4110422,0.0,10,0.5,0.5,-33.09877325439453,-0.15025,-0.0155,-0.001,2.1839831827508247,10,1,100,-0.48933133084352276,-10,-1,-100,6369.796486235922,0.057284815756383944,0.15805432538878286,0.9857673559768827,257.12569788045164,29.172174680656997,1043.1672475541704,-47.27469614927273,106.0369873046875,4381.2578125,True
1599570675.4813607,0.0,10,0.5,0.5,-31.690819843292235,-0.15025,-0.0155,-0.001,2.2790641557852673,10,1,100,-0.4810892269282239,-10,-1,-100,6367.821408421965,0.055873388973506286,0.16310124623723082,0.9850259630489329,261.5000823386482,29.761951539145606,1070.006527753978,-47.64825816684545,97.41218566894531,4381.2578125,True
1599570675.5641403,0.0,10,0.5,0.5,-29.553608502960206,-0.15025,-0.0155,-0.001,2.6924703744186727,10,1,100,-0.4501660034138204,-10,-1,-100,6364.973849271191,0.05432087211329119,0.17142030243848586,0.9836993050545221,263.60319933142836,30.131510435377997,1092.4935743325736,-48.20856891522806,83.94989013671875,4381.2578125,True
1599570676.2099342,0.0,10,0.5,0.5,-28.741553412628175,-0.15025,-0.0155,-0.001,2.1892321905776,10,1,100,-0.5595494817591273,-10,-1,-100,6364.003005468869,0.053916698834882516,0.17437388064097825,0.9832022881060409,262.93600235973224,30.099146823034026,1094.3897396951734,-48.395397644398756,79.32235717773438,4381.2578125,True
1599570676.268773,0.0,10,0.5,0.5,-27.19172609786987,-0.15025,-0.0155,-0.001,2.5736661265041154,10,1,100,-0.5396648442843575,-10,-1,-100,6362.062036300311,0.05338084999716211,0.1805181815870839,0.9821220244807023,259.32709365969663,29.78093993259486,1088.6333796159872,-48.7692173734291,69.85694885253906,4381.2578125,True
1599570676.3365924,0.0,10,0.5,0.5,-26.353059793090818,-0.15025,-0.0155,-0.001,2.3130595906140066,10,1,100,-0.5774963981156536,-10,-1,-100,6361.030386311351,0.053248215204242985,0.18369744615951772,0.9815395437026639,256.31981892908505,29.489280510632664,1080.6172467499414,-48.956222038988194,65.01902770996094,4381.2578125,True
1599570676.4084024,0.0,10,0.5,0.5,-25.491613994598385,-0.15025,-0.0155,-0.001,2.3545883166932144,10,1,100,-0.5885825936515034,-10,-1,-100,6360.060335062677,0.05323911959008726,0.18692501707872325,0.9809304940388953,252.47435128158858,29.105850185981048,1068.9571191661544,-49.14329286834695,60.11067199707031,4381.2578125,True
1599570676.4747972,0.0,10,0.5,0.5,-23.085146375274658,-0.15025,-0.0155,-0.001,3.131275790911735,10,1,100,-0.6566145170889075,-10,-1,-100,6357.088592958869,0.05385868224267821,0.1968793829014514,0.9789472666775396,237.73886655279725,27.615581816313426,1019.4214492198078,-49.70482453176054,44.963134765625,4381.2578125,True
1599570676.5515916,0.0,10,0.5,0.5,-22.183074033355712,-0.15025,-0.0155,-0.001,2.5118105566756506,10,1,100,-0.6431797074411925,-10,-1,-100,6356.118814422749,0.054307111492241135,0.2002506036864154,0.9782384338005717,245.75136417952967,28.632049510333946,1058.1755894483758,-49.89178111159222,39.77265930175781,4381.2578125,True
1599570676.6224022,0.0,10,0.5,0.5,-20.470330249023437,-0.15025,-0.0155,-0.001,2.9227724417430565,10,1,100,-0.7381804639636842,-10,-1,-100,6354.11741453188,0.05558247214656107,0.20700880036578903,0.9767588982759224,262.64825158461093,30.79497438949809,1140.2555525679384,-50.26491848444182,29.179000854492188,4381.2578125,True
1599570676.7081728,0.0,10,0.5,0.5,-17.864620147705075,-0.15025,-0.0155,-0.001,3.3491318963974006,10,1,100,-0.9267773566006292,-10,-1,-100,6351.085609743255,0.05845930316928757,0.21697990013025326,0.9744240518441788,282.80752270232716,33.46796807100406,1242.684935729424,-50.82302316908467,12.7542724609375,4381.2578125,True
1599570676.7799838,0.0,10,0.5,0.5,-16.026234957885745,-0.15025,-0.0155,-0.001,3.062193695235514,10,1,100,-0.9171674834230685,-10,-1,-100,6349.02156910894,0.06098617389977665,0.22338243847398406,0.9728211412045292,293.2544563489383,34.897826992547415,1298.8918689456927,-51.19437966558168,1.447021484375,4381.2578125,True
1599570676.8617628,0.0,10,0.5,0.5,-14.135029190826415,-0.15025,-0.0155,-0.001,3.0940217496201057,10,1,100,-0.9895346043669367,-10,-1,-100,6346.958516016253,0.0639365640406871,0.22943747274247495,0.9712211704242331,299.0433611503928,35.76823885116849,1335.1393270259193,-51.56553704049152,-10.14813232421875,4381.2578125,True
1599570676.9325724,0.0,10,0.5,0.5,-12.203395471954346,-0.15025,-0.0155,-0.001,3.115386951012005,10,1,100,-1.057526606466821,-10,-1,-100,6344.895377480076,0.06722810446794336,0.23508353557166212,0.9696474169886571,299.42891903636036,35.994881965903886,1347.6504447342875,-51.936806343659725,-22.0316162109375,4381.2578125,True
1599570677.004965,0.0,10,0.5,0.5,-10.21704572982788,-0.15025,-0.0155,-0.001,3.1251585418541215,10,1,100,-1.1192790350817574,-10,-1,-100,6342.770556870149,0.07076969838410024,0.24024996201045998,0.9681278869780562,293.82531446905926,35.519093202641486,1333.1856603967926,-52.30839706521241,-34.20440673828125,4381.2578125,True
1599570677.074161,0.0,10,0.5,0.5,-7.223995997619629,-0.15025,-0.0155,-0.001,3.3591873609858633,10,1,100,-1.3739817415579876,-10,-1,-100,6339.613649276434,0.07628900032276592,0.2470199464192708,0.9660026576054404,273.4581345173711,33.40712914101104,1255.875378397631,-52.866503765004154,-53.007232666015625,4381.2578125,True
1599570677.1429744,0.0,10,0.5,0.5,-6.0899573402404785,-0.15025,-0.0155,-0.001,2.9082280515782863,10,1,100,-1.026682607108795,-10,-1,-100,6338.580739801982,0.07812833651281613,0.24901728170515744,0.9653426109138219,264.02433553742605,32.38806407377224,1217.348489113499,-53.05268771246014,-59.4197998046875,4381.2578125,True
1599570677.223275,0.0,10,0.5,0.5,-4.930229794311523,-0.15025,-0.0155,-0.001,2.9207665968585412,10,1,100,-1.044801476557522,-10,-1,-100,6337.487210366293,0.07994255075610227,0.25089058031794176,0.9647088189118695,273.5502911586097,33.70124070766011,1266.1772215855983,-53.23850973845271,-65.90487670898438,4381.2578125,True
1599570677.2947602,0.0,10,0.5,0.5,-2.770324699401855,-0.15025,-0.0155,-0.001,3.1125503022304426,10,1,100,-1.2507008923713157,-10,-1,-100,6335.360958235804,0.08343993669511195,0.2542879661989298,0.9635223958013261,293.996439725366,36.52978104880575,1371.182547437516,-53.609082899727454,-79.09194946289062,4381.2578125,True
1599570677.3695927,0.0,10,0.5,0.5,-0.5611734935760498,-0.15025,-0.0155,-0.001,3.107107806335793,10,1,100,-1.2602737984519798,-10,-1,-100,6333.233919147286,0.08667992049021508,0.25727789670759255,0.9624420373453809,308.27869637926216,38.600252153201744,1448.5335105981412,-53.97867377769139,-92.56697845458984,4381.2578125,True
1599570677.4443886,0.0,10,0.5,0.5,1.6953423065185547,-0.15025,-0.0155,-0.001,3.1069960236883576,10,1,100,-1.2579337225733882,-10,-1,-100,6331.043615409988,0.08957581647928196,0.2599492999674531,0.9614585454134262,317.29979929780393,39.99628447388424,1502.0454798518624,-54.3478449135589,-106.3275375366211,4381.2578125,True
1599570677.5266924,0.0,10,0.5,0.5,5.065126286315918,-0.15025,-0.0155,-0.001,3.2454204419521244,10,1,100,-1.3635144018320546,-10,-1,-100,6327.757503051776,0.09313998581413974,0.2635971890971449,0.9601257547543581,313.98382566927563,39.954954625751576,1503.3240475510402,-54.902041775771316,-127.47773742675781,4381.2578125,True
1599570677.6044493,0.0,10,0.5,0.5,7.401815272521972,-0.15025,-0.0155,-0.001,3.1457827847063156,10,1,100,-1.2094052438017098,-10,-1,-100,6325.567733820877,0.09494991667108515,0.2659710961940636,0.9592934323310475,299.6686116693688,38.41339368975984,1445.8359292284551,-55.27226384399445,-141.74554443359375,4381.2578125,True
1599570677.680248,0.0,10,0.5,0.5,8.659158837890624,-0.15025,-0.0155,-0.001,3.046035182771348,10,1,100,-1.112432404655241,-10,-1,-100,6324.408137389924,0.09568554313731273,0.26718918478871584,0.9588817530678425,289.04929337414956,37.206945355768624,1399.9200653544776,-55.45761262139705,-148.80429077148438,4381.2578125,True
1599570677.7540867,0.0,10,0.5,0.5,10.950607167053223,-0.15025,-0.0155,-0.001,3.2107008077023673,10,1,100,-1.168697330629969,-10,-1,-100,6322.217399910209,0.09683992339849953,0.26976431132939344,0.9580444903913129,282.5404678310554,36.700509834128134,1378.585135765289,-55.828254019303365,-162.70187377929688,4381.2578125,True
1599570677.832839,0.0,10,0.5,0.5,-40.25037906951904,-0.15025,-0.0155,-0.001,3.4419919512248276,10,1,100,-1.1716567803915092,-10,-1,-100,6318.80634563975,0.09789256388376118,0.2741811509899237,0.9566826759057071,317.52897501080935,41.7895027457906,1565.930523661284,-56.381343301324165,177.0419921875,4381.2578125,True
1599570677.905686,0.0,10,0.5,0.5,-39.27024838256836,-0.15025,-0.0155,-0.001,3.1863197758215454,10,1,100,-1.0916263180227168,-10,-1,-100,6317.709984779591,0.0981023205183182,0.27584747526440256,0.9561820460033622,325.5332523410068,43.0095219292633,1611.0640497296615,-56.56522129680683,170.45050048828125,4381.2578125,True
1599570677.9774516,0.0,10,0.5,0.5,-37.675935775756834,-0.15025,-0.0155,-0.001,3.426557726401719,10,1,100,-1.1036648218358611,-10,-1,-100,6315.393501780927,0.09838429114439362,0.27952190579778563,0.955085355052201,336.8752523987363,44.82976652124207,1679.0830366499313,-56.93272849884166,157.51031494140625,4381.2578125,True
1599570678.055272,0.0,10,0.5,0.5,-35.0927574180603,-0.15025,-0.0155,-0.001,3.7705789755584096,10,1,100,-1.1098258997549229,-10,-1,-100,6311.982570633059,0.09867987265791885,0.28596373461548574,0.9531458572626652,337.164174890737,45.36761628907115,1699.051130090611,-57.484352140138995,138.0563507080078,4381.2578125,True
1599570678.1300445,0.0,10,0.5,0.5,-33.442730113220215,-0.15025,-0.0155,-0.001,3.6722267852209103,10,1,100,-1.1136682771982558,-10,-1,-100,6309.666282118182,0.09896965934155134,0.2908970356572208,0.9516217321896653,325.6229626270449,44.20641574835686,1653.1451147504713,-57.85272759409494,124.79313659667969,4381.2578125,True
1599570678.2158163,0.0,10,0.5,0.5,-32.77507273597717,-0.15025,-0.0155,-0.001,3.474091545964291,10,1,100,-1.1101954874331987,-10,-1,-100,6308.509812068776,0.09919035847530643,0.29355006248469284,0.950783694433583,316.1974869751517,43.14534237003003,1611.2254078347626,-58.037109694718296,118.06369018554688,4381.2578125,True
