Timestamp,Input Throttle,horizon,dT,dt,Input Roll,Roll P,Roll I,Roll D,Input Pitch,Pitch P,Pitch I,Pitch D,Input Yaw,Yaw P,Yaw I,Yaw D,Altitude,Direction X,Direction Y,Direction Z,Drag X,Drag Y,Drag Z,Vertical Velocity,Roll,Mass,Has Fuel
1599567509.2808018,0.0,10,0.5,0.5,-2.743717056274414,-0.05075,-0.02275,-0.12575,-0.06718669146537035,10,1,100,0.6903845810939682,-10,-1,-100,6483.617967456696,-0.06725802115019788,-0.007002455615127496,0.9977110424398026,205.0732818752703,21.498784093336774,-156.7652897387329,9.59082430702348,-35.944549560546875,4381.2578125,True
1599567509.3356562,0.0,10,0.5,0.5,-2.86687737197876,-0.05075,-0.02275,-0.12575,-0.067336165963884,10,1,100,0.6998825436919018,-10,-1,-100,6483.997882792144,-0.06744508051451518,-0.006971649835592008,0.9976986304555904,204.61213470987235,21.456740908159635,-150.26671275023062,9.210801879894385,-35.94122314453125,4381.2578125,True
1599567509.391506,0.0,10,0.5,0.5,-2.989749814605713,-0.05075,-0.02275,-0.12575,-0.06931877474014428,10,1,100,0.6986157232405874,-10,-1,-100,6484.156592000392,-0.06754230422296031,-0.006955330434129756,0.9976921672133169,204.38115559409002,21.435609320183566,-147.0254854569847,9.020798090862696,-35.939483642578125,4381.2578125,True
1599567509.4463603,0.0,10,0.5,0.5,-3.0870251403808595,-0.05075,-0.02275,-0.12575,-0.0370856697539185,10,1,100,0.6997824179400258,-10,-1,-100,6484.5389362145215,-0.06757989363315718,-0.006641143359803719,0.997691762615792,203.94238546928128,21.395603166883422,-140.5758122752015,8.640801182140367,-36.08392333984375,4381.2578125,True
1599567509.5018256,0.0,10,0.5,0.5,-3.098311114501953,-0.05075,-0.02275,-0.12575,0.0019869671059300348,10,1,100,0.6991203994883036,-10,-1,-100,6485.016949506709,-0.0675466112077449,-0.005994275554090696,0.9976981126447676,203.44699253598415,21.351714617151075,-131.04562013473122,8.070816592913069,-36.817840576171875,4381.2578125,True
1599567509.5566814,0.0,10,0.5,0.5,-3.1609074073791503,-0.05075,-0.02275,-0.12575,0.01262473400906039,10,1,100,0.689758921709881,-10,-1,-100,6485.335755530745,-0.06736984410374103,-0.005304057599273953,0.9977139725785246,203.199339242939,21.330077977343105,-124.76113096864877,7.690822584199035,-37.67156982421875,4381.2578125,True
1599567509.6125321,0.0,10,0.5,0.5,-3.1847949562072757,-0.05075,-0.02275,-0.12575,0.04217726309878525,10,1,100,0.6786348492468736,-10,-1,-100,6485.590082166949,-0.06704677349216132,-0.004403105505352803,0.9977401178795006,202.97229922168157,21.309488675267602,-118.49838676643587,7.310816103063872,-38.8189697265625,4381.2578125,True
1599567509.671372,0.0,10,0.5,0.5,-3.3248091773986816,-0.05075,-0.02275,-0.12575,0.00978636162613581,10,1,100,0.6936681611813496,-10,-1,-100,6485.750194622902,-0.06682878779604576,-0.0038745180647164314,0.9977569349453188,202.84968986840448,21.297763002630763,-115.36504033185933,7.120805461865866,-39.50286865234375,4381.2578125,True
1599567509.7272227,0.0,10,0.5,0.5,-3.2453631095886233,-0.05075,-0.02275,-0.12575,0.08906147245241247,10,1,100,0.6611336953344903,-10,-1,-100,6486.005457426887,-0.06627409766660922,-0.002669778912931109,0.9977978834709126,202.54268007815725,21.266775414207924,-109.07232856954961,6.740764151262672,-41.09112548828125,4381.2578125,True
1599567509.7830732,0.0,10,0.5,0.5,-3.038547867584229,-0.05075,-0.02275,-0.12575,0.20546332993613978,10,1,100,0.5960007517811845,-10,-1,-100,6486.420285031898,-0.06511746706421266,-0.0005139357260806303,0.9978774731164196,201.76986076119277,21.184641820792745,-99.50448151536418,6.170633452689163,-44.024871826171875,4381.2578125,True
1599567509.8379269,0.0,10,0.5,0.5,-3.101959162902832,-0.05075,-0.02275,-0.12575,0.17112735300359286,10,1,100,0.6077670190787153,-10,-1,-100,6486.674997127848,-0.0641137530674077,0.0011342436859658155,0.9979419522992669,200.89716156215331,21.09037933591483,-92.99302029529788,5.790481623810708,-46.348388671875,4381.2578125,True
1599567509.8943622,0.0,10,0.5,0.5,-3.1459317939758304,-0.05075,-0.02275,-0.12575,0.10368673445085885,10,1,100,0.6444061397851379,-10,-1,-100,6486.772071282612,-0.06353722713862775,0.0020120950743458266,0.997977440747508,200.3099286805174,21.026836831864486,-89.68760962680287,5.600380005782339,-47.620574951171875,4381.2578125,True
1599567509.9571924,0.0,10,0.5,0.5,-2.791184335327148,-0.05075,-0.02275,-0.12575,0.21570892570273023,10,1,100,0.5569202572517593,-10,-1,-100,6486.965225944878,-0.06222133904704789,0.0038203583070629057,0.9980550635258547,198.74918729412215,20.858134343396454,-82.96497804878534,5.220112873254042,-50.386322021484375,4381.2578125,True
1599567510.0215285,0.0,10,0.5,0.5,-1.973872236633301,-0.05075,-0.02275,-0.12575,0.47370372930327986,10,1,100,0.328028330314326,-10,-1,-100,6487.351964383619,-0.05894907868724945,0.007799845197955072,0.9982305187364351,193.58297389804594,20.30257900561051,-69.05816577551849,4.459246009846741,-56.80126953125,4381.2578125,True
1599567510.0948498,0.0,10,0.5,0.5,-2.733419923400879,-0.05075,-0.02275,-0.12575,0.07719913906983912,10,1,100,0.6543912847995792,-10,-1,-100,6487.351964383619,-0.05894907868724945,0.007799845197955072,0.9982305187364351,193.58297389804594,20.30257900561051,-69.05816577551849,4.459246009846741,-56.80126953125,4381.2578125,True
1599567510.168098,0.0,10,0.5,0.5,-2.0436959953308107,-0.05075,-0.02275,-0.12575,0.3068979398295514,10,1,100,0.4360862756836225,-10,-1,-100,6487.544090447365,-0.0569723036339412,0.00987547600417787,0.9983269161914511,189.66257182000075,19.88365944362632,-61.89524055153323,4.07858668987568,-60.45147705078125,4381.2578125,True
1599567510.2389073,0.0,10,0.5,0.5,-1.386488176727295,-0.05075,-0.02275,-0.12575,0.4360947997171567,10,1,100,0.2634584580612289,-10,-1,-100,6487.770737505285,-0.05361534391661176,0.01292313043281005,0.9984780356104587,181.6596360324782,19.033568799991535,-50.991253955814095,3.5072248557147443,-66.4820556640625,4381.2578125,True
1599567510.2967844,0.0,10,0.5,0.5,-1.3071108085632326,-0.05075,-0.02275,-0.12575,0.3580780124437854,10,1,100,0.31977881949587666,-10,-1,-100,6487.839795795502,-0.05108777603169593,0.014968730723683054,0.9985819827338451,174.75790886521318,18.30449263872046,-43.72844224781448,3.1260032182485418,-70.87179565429688,4381.2578125,True
1599567510.3546278,0.0,10,0.5,0.5,-0.9604879623413087,-0.05075,-0.02275,-0.12575,0.3652445243130362,10,1,100,0.275370276561339,-10,-1,-100,6487.969400599948,-0.04840058302942606,0.01687638723348043,0.998685421499862,166.399259454006,17.42501146113172,-36.559820568021706,2.744460974863935,-75.55886840820312,4381.2578125,True
1599567510.4114752,0.0,10,0.5,0.5,-1.0381950477600097,-0.05075,-0.02275,-0.12575,0.2773806147658192,10,1,100,0.38760312545821946,-10,-1,-100,6488.00393103424,-0.04699422757609526,0.017794088368188424,0.9987366584809387,161.6851541093435,16.92995980558516,-33.055310789781245,2.5535758863876534,-78.01370239257812,4381.2578125,True
1599567510.4693205,0.0,10,0.5,0.5,0.1085324653625489,-0.05075,-0.02275,-0.12575,0.47440139968991385,10,1,100,0.03319355108620481,-10,-1,-100,6488.167101078667,-0.04251029306921996,0.020402816513510853,0.9988876814044134,145.35416669637524,15.217911973685997,-23.05264231298176,1.980606988171966,-85.82162475585938,4381.2578125,True
1599567510.5231764,0.0,10,0.5,0.5,0.7103967567443848,-0.05075,-0.02275,-0.12575,0.4659585214915713,10,1,100,-0.05040733406113185,-10,-1,-100,6488.269256936037,-0.03769362043435589,0.022680117232157633,0.9990319330536368,155.9475918127694,16.326658184374825,-17.578508016751794,1.4074613454325364,-94.28569793701172,4381.2578125,True
1599567510.5780303,0.0,10,0.5,0.5,0.26771031169891363,-0.05075,-0.02275,-0.12575,0.3109636039569,10,1,100,0.2542581308986106,-10,-1,-100,6488.301362459199,-0.03610800736293555,0.02332255679683241,0.9990757079164405,160.2774369135456,16.779314936578995,-15.615436080460439,1.2164371975113952,-97.2064208984375,4381.2578125,True
1599567510.6348777,0.0,10,0.5,0.5,0.5233872591018678,-0.05075,-0.02275,-0.12575,0.3157961286070784,10,1,100,0.2325534388565938,-10,-1,-100,6488.273414728814,-0.03449296494461155,0.023932795535638585,0.9991183396711217,164.60820888911724,17.231717002846267,-13.520075290566433,1.0254388256002867,-100.13243865966797,4381.2578125,True
1599567510.688173,0.0,10,0.5,0.5,1.2689841567993168,-0.05075,-0.02275,-0.12575,0.37831275783112017,10,1,100,0.03470015049559433,-10,-1,-100,6488.34107052919,-0.031248311137164864,0.02504122469991941,0.9991979183908477,172.0157890635074,18.005063797123363,-8.867365516459563,0.6435094859818871,-105.88294982910156,4381.2578125,True
1599567510.7450216,0.0,10,0.5,0.5,2.1394559478759767,-0.05075,-0.02275,-0.12575,0.4149742928175018,10,1,100,-0.19897848680724206,-10,-1,-100,6488.31831892347,-0.026199457125414896,0.0263665002768673,0.9993089592861075,181.61505959524723,19.008468351463307,-1.027774411465496,0.07063013882328706,-114.2791976928711,4381.2578125,True
1599567510.802737,0.0,10,0.5,0.5,2.1607198766708375,-0.05075,-0.02275,-0.12575,0.35680235013404304,10,1,100,-0.059989166475346745,-10,-1,-100,6488.322053873097,-0.02290110443275809,0.02702746857308604,0.9993723306947672,186.0438325151593,19.47129213676051,4.642602574741226,-0.3114094369956484,-119.6878890991211,4381.2578125,True
1599567510.8565786,0.0,10,0.5,0.5,2.061815351867676,-0.05075,-0.02275,-0.12575,0.32214275153433636,10,1,100,0.08699422637165233,-10,-1,-100,6488.354691147339,-0.02126673668302812,0.0273004394567964,0.9994010265735773,187.71524551982625,19.645894195813643,7.558997353982359,-0.5024817586252959,-122.29522705078125,4381.2578125,True
1599567511.3539898,0.0,10,0.5,0.5,2.733191218185425,-0.05075,-0.02275,-0.12575,0.34825628120872343,10,1,100,-0.09974783661045455,-10,-1,-100,6488.298402134678,-0.018110402737389605,0.027774779885633778,0.9994501362824433,190.5338289870001,19.940280914600557,13.510816358566911,-0.8847164342425611,-127.29386901855469,4381.2578125,True
1599567511.4038618,0.0,10,0.5,0.5,3.448636158752441,-0.05075,-0.02275,-0.12575,0.34880872587740896,10,1,100,-0.30235647814114835,-10,-1,-100,6488.211326689809,-0.01342664802770468,0.028201113051881124,0.9995120921456504,192.09261096789248,20.10234051500333,22.45716471777184,-1.45829152251849,-134.2418975830078,4381.2578125,True
1599567511.4557066,0.0,10,0.5,0.5,3.455236058425904,-0.05075,-0.02275,-0.12575,0.3243313333556687,10,1,100,-0.16371963835643139,-10,-1,-100,6488.153625929845,-0.010459540089259802,0.02835670597583226,0.9995431432646225,191.69928737465673,20.06014125142738,28.293890426279095,-1.8408036830734988,-138.5047607421875,4381.2578125,True
1599567511.5075865,0.0,10,0.5,0.5,3.7391263217926025,-0.05075,-0.02275,-0.12575,0.3219957034075588,10,1,100,-0.1799822552643333,-10,-1,-100,6488.033445698209,-0.007643464312401678,0.02846969028038473,0.9995654326699398,190.4123784561681,19.92409044912132,33.95016532934342,-2.2233917595011072,-142.47128295898438,4381.2578125,True
1599567511.5654602,0.0,10,0.5,0.5,3.6803841554641723,-0.05075,-0.02275,-0.12575,0.3159999521419887,10,1,100,-0.050489670281331375,-10,-1,-100,6488.00314969779,-0.00628791906612336,0.02851263320661068,0.9995736550257028,189.5027875815472,19.828045340114446,36.698127263872465,-2.414705427848188,-144.3433837890625,4381.2578125,True
1599567511.618291,0.0,10,0.5,0.5,4.1739668992996215,-0.05075,-0.02275,-0.12575,0.3131547683693814,10,1,100,-0.209191198726568,-10,-1,-100,6487.883000042755,-0.0036399732093652937,0.02852108867214713,0.9995865635831599,187.27169510229845,19.59240060252127,42.01957009760604,-2.7973564930504446,-147.86611938476562,4381.2578125,True
1599567511.6721854,0.0,10,0.5,0.5,4.674079234313965,-0.05075,-0.02275,-0.12575,0.31004287164318967,10,1,100,-0.3529699495099307,-10,-1,-100,6487.732591351494,4.628167504965796e-05,0.028496314313181698,0.999593896504261,183.21924475176309,19.163751926410775,49.5576469530863,-3.3713613970784606,-152.59417724609375,4381.2578125,True
1599567511.7250063,0.0,10,0.5,0.5,4.676700784683228,-0.05075,-0.02275,-0.12575,0.3090099607763773,10,1,100,-0.23856183055230037,-10,-1,-100,6487.549489891157,0.002328899040528234,0.028461261079320954,0.9995921832662727,180.38980189758558,18.863781040587487,54.339312011792664,-3.7540373334633963,-155.37551879882812,4381.2578125,True
1599567511.7789023,0.0,10,0.5,0.5,4.646234420204163,-0.05075,-0.02275,-0.12575,0.3115913608928607,10,1,100,-0.13261374343364035,-10,-1,-100,6487.51873514941,0.0034149064388246278,0.028450957448867897,0.9995893564030465,178.9412480897944,18.7100627410986,56.65488594646126,-3.9453761586920657,-156.65480041503906,4381.2578125,True
1599567511.8307552,0.0,10,0.5,0.5,5.168117167282105,-0.05075,-0.02275,-0.12575,0.31594517659590915,10,1,100,-0.3605159896820271,-10,-1,-100,6487.24338479084,0.006450100847832517,0.02847987657405121,0.9995735554872286,174.65731834211658,18.254559119923865,63.3598302267383,-4.5194174004634835,-160.04660034179688,4381.2578125,True
1599567511.8845782,0.0,10,0.5,0.5,5.000837070846558,-0.05075,-0.02275,-0.12575,0.3146531513701958,10,1,100,-0.1635501446289128,-10,-1,-100,6487.151119125658,0.00739357277596514,0.02849334878842296,0.999566638176979,173.32169432161132,18.112120717483563,65.54306641456601,-4.710781541376692,-161.02877807617188,4381.2578125,True
1599567511.938435,0.0,10,0.5,0.5,5.395430172729493,-0.05075,-0.02275,-0.12575,0.32470343555598913,10,1,100,-0.35891206712160173,-10,-1,-100,6486.813296397566,0.010004106573734375,0.02859630923144741,0.9995409791249185,169.67289011437921,17.721687719801224,72.0023459166448,-5.284963525676797,-163.5293731689453,4381.2578125,True
1599567511.9922922,0.0,10,0.5,0.5,5.268411768341065,-0.05075,-0.02275,-0.12575,0.32361566756406224,10,1,100,-0.18724549286960918,-10,-1,-100,6486.72103877028,0.010795413210686984,0.02867966156501615,0.9995303577511425,168.61104703877012,17.607571419934942,74.15002648392522,-5.476394442596798,-164.21380615234375,4381.2578125,True
1599567512.0461473,0.0,10,0.5,0.5,5.524752427673341,-0.05075,-0.02275,-0.12575,0.3414974651017835,10,1,100,-0.3502910235913133,-10,-1,-100,6486.380794480327,0.012977692293295805,0.028917704613522305,0.9994975467016542,166.06256235936524,17.331710064225476,80.71154849505064,-6.050810407872069,-165.82241821289062,4381.2578125,True
1599567512.1010396,0.0,10,0.5,0.5,5.499183152770996,-0.05075,-0.02275,-0.12575,0.34497220253276983,10,1,100,-0.27362474869787445,-10,-1,-100,6486.134278058889,0.014245869726994655,0.029165288621234013,0.9994730817462578,164.9434762847042,17.208388236830807,85.25922837597845,-6.433857671196348,-166.52264404296875,4381.2578125,True
1599567512.1548567,0.0,10,0.5,0.5,5.5037411666870115,-0.05075,-0.02275,-0.12575,0.3346305498246621,10,1,100,-0.2130575885178243,-10,-1,-100,6485.980015206849,0.014829480675272138,0.029295756644157657,0.9994607771921558,164.57948836731336,17.167134693242048,87.61272565702154,-6.625412774765688,-166.761474609375,4381.2578125,True
1599567512.2077157,0.0,10,0.5,0.5,5.561374950408936,-0.05075,-0.02275,-0.12575,0.3642138285811118,10,1,100,-0.2699514351150863,-10,-1,-100,6485.732038854971,0.01586046245742256,0.029682598591899593,0.9994335340939231,164.2420007012191,17.12529164101318,92.50898344662943,-7.008584755278612,-167.01461791992188,4381.2578125,True
1599567512.262568,0.0,10,0.5,0.5,5.5546300384521485,-0.05075,-0.02275,-0.12575,0.37090845271373984,10,1,100,-0.2663975069506364,-10,-1,-100,6485.423517525429,0.016751033657171243,0.030094054868980955,0.999406699363657,164.45723370168128,17.14084888636419,97.7170043908481,-7.391834743430754,-166.97088623046875,4381.2578125,True
1599567512.3174222,0.0,10,0.5,0.5,5.526294724273682,-0.05075,-0.02275,-0.12575,0.38132421409484746,10,1,100,-0.26068552937497197,-10,-1,-100,6485.111578812008,0.017495605738421603,0.030561310411801663,0.9993797626957228,165.22586006460668,17.213636502190997,103.28865515733231,-7.775155204133034,-166.62973022460938,4381.2578125,True
1599567512.3717856,0.0,10,0.5,0.5,5.40304253730774,-0.05075,-0.02275,-0.12575,0.42790866101459923,10,1,100,-0.27554439719710516,-10,-1,-100,6484.584830550593,0.018294769429487143,0.031407664647306474,0.999339211685864,167.39279790177906,17.42706784479949,112.4248684746147,-8.350244362519703,-165.55978393554688,4381.2578125,True
1599567512.425642,0.0,10,0.5,0.5,5.460946243667602,-0.05075,-0.02275,-0.12575,0.37744561470555893,10,1,100,-0.2174420429282986,-10,-1,-100,6484.429592896253,0.01848231077475607,0.03171566099670752,0.9993260334024964,168.37462001071444,17.524738183327898,115.69567042050643,-8.541962896153295,-165.0544891357422,4381.2578125,True
1599567512.4794981,0.0,10,0.5,0.5,5.315937267303467,-0.05075,-0.02275,-0.12575,0.41894015503554616,10,1,100,-0.22693760118063028,-10,-1,-100,6484.119114422123,0.018729045492750118,0.03236995139715537,0.9993004598725432,170.69916036637647,17.75672653096379,122.59133607043297,-8.925421360290136,-163.82101440429688,4381.2578125,True
1599567512.534432,0.0,10,0.5,0.5,5.046840096664429,-0.05075,-0.02275,-0.12575,0.4714344501927949,10,1,100,-0.20664401834125956,-10,-1,-100,6483.527413237374,0.018760930902460414,0.033438551133386854,0.9992646750334833,174.9906684677605,18.185820107351063,133.829691688495,-9.50062852672607,-161.413818359375,4381.2578125,True
1599567512.5882475,0.0,10,0.5,0.5,5.175363213729859,-0.05075,-0.02275,-0.12575,0.40600497742148145,10,1,100,-0.1965282573702602,-10,-1,-100,6483.309670412098,0.018690714795468168,0.03381086578697774,0.9992534626085463,176.60535500910325,18.347255014494618,137.810782073938,-9.692359837950114,-160.46304321289062,4381.2578125,True
1599567512.6421046,0.0,10,0.5,0.5,4.700799854660035,-0.05075,-0.02275,-0.12575,0.4955859173897878,10,1,100,-0.14682048645169005,-10,-1,-100,6482.718443169841,0.01816979948757715,0.0349592575070691,0.9992235529155302,181.85404403181627,18.87141512339855,150.39696657114743,-10.267504990431233,-157.16598510742188,4381.2578125,True
1599567512.696995,0.0,10,0.5,0.5,4.640830014419556,-0.05075,-0.02275,-0.12575,0.4664357825614942,10,1,100,-0.13652708124466179,-10,-1,-100,6482.282453770866,0.01759909649692089,0.035732981509726,0.9992063980154038,185.56485481508864,19.24126652200558,159.24742449085997,-10.650870096092099,-154.5977783203125,4381.2578125,True
1599567512.7538111,0.0,10,0.5,0.5,4.158390324783325,-0.05075,-0.02275,-0.12575,0.5119474168332616,10,1,100,-0.05937454529960445,-10,-1,-100,6481.62870041409,0.016376371073349546,0.0368442570738251,0.9991868269703849,191.1631214736394,19.798021365761194,172.99405717750045,-11.225775111696603,-150.19143676757812,4381.2578125,True
1599567512.807668,0.0,10,0.5,0.5,4.674215037918091,-0.05075,-0.02275,-0.12575,0.40153602627154467,10,1,100,-0.1816986785183317,-10,-1,-100,6481.62870041409,0.016376371073349546,0.0368442570738251,0.9991868269703849,191.1631214736394,19.798021365761194,172.99405717750045,-11.225775111696603,-150.19143676757812,4381.2578125,True
1599567512.8610337,0.0,10,0.5,0.5,3.7411962703704833,-0.05075,-0.02275,-0.12575,0.5121524003271318,10,1,100,-0.0021405504149084598,-10,-1,-100,6480.974437270197,0.014744365056576446,0.037843723926871485,0.9991748877240787,196.37715834798,20.31552665486356,186.90823527740366,-11.800452703505815,-145.12149047851562,4381.2578125,True
1599567512.917882,0.0,10,0.5,0.5,4.005573893356323,-0.05075,-0.02275,-0.12575,0.4446260427448648,10,1,100,-0.09512177193412247,-10,-1,-100,6480.693193386658,0.014108508183031795,0.03813183380297026,0.9991731147542312,197.93896228778323,20.470532821045037,191.4863536321366,-11.991953690399278,-143.28445434570312,4381.2578125,True
1599567512.9732444,0.0,10,0.5,0.5,3.498283047103882,-0.05075,-0.02275,-0.12575,0.4809632415033839,10,1,100,-0.004381172912833992,-10,-1,-100,6480.192223162623,0.01270934763529445,0.03871797716163235,0.9991693503741977,200.66011843117158,20.74100283025554,200.39012179381106,-12.374866029348198,-139.38858032226562,4381.2578125,True
1599567513.0270994,0.0,10,0.5,0.5,2.801474212646484,-0.05075,-0.02275,-0.12575,0.487067128247618,10,1,100,0.11919941581781296,-10,-1,-100,6479.475905234693,0.010319171751745038,0.03929995889794099,0.9991741729673452,203.3976242187178,21.015579682506218,212.66742664416338,-12.949018904796144,-132.9958038330078,4381.2578125,True
1599567513.0809548,0.0,10,0.5,0.5,2.718250014877319,-0.05075,-0.02275,-0.12575,0.45780621630643625,10,1,100,0.07618641410655522,-10,-1,-100,6478.913388754823,0.008544957212930648,0.03955672490648284,0.9991807890571666,204.02487863982904,21.0819152510663,219.71137746150168,-13.331665955970015,-128.36697387695312,4381.2578125,True
1599567513.1358087,0.0,10,0.5,0.5,2.356545986557007,-0.05075,-0.02275,-0.12575,0.441973463772746,10,1,100,0.10560379014926805,-10,-1,-100,6478.3523260926595,0.0066738914624288395,0.0396406524605118,0.9991917122580894,203.7374995316922,21.060277605366544,225.7870658677608,-13.714251463688763,-123.44573974609375,4381.2578125,True
1599567513.1946516,0.0,10,0.5,0.5,2.437518003463745,-0.05075,-0.02275,-0.12575,0.4318907980606853,10,1,100,0.02598032251148724,-10,-1,-100,6478.071058988455,0.005707696688982512,0.039619989833452544,0.9991985181154462,203.30514961509266,21.022108685307252,228.49642212037142,-13.905533123205634,-120.87543487548828,4381.2578125,True
1599567513.249505,0.0,10,0.5,0.5,1.2397164220809933,-0.05075,-0.02275,-0.12575,0.40134736345999894,10,1,100,0.2625555202004761,-10,-1,-100,6477.226265119156,0.002689983373039219,0.03931930101036845,0.9992230764736715,199.70209148773893,20.677695416947337,233.85598390578852,-14.479416548909224,-112.72554016113281,4381.2578125,True
1599567513.303361,0.0,10,0.5,0.5,1.664035500907898,-0.05075,-0.02275,-0.12575,0.41034537909760194,10,1,100,0.07495461369372139,-10,-1,-100,6476.9449893696,0.0016656241569011608,0.03912448738654235,0.9992329559131384,197.65015486767004,20.476839521266825,234.5623501280828,-14.670750398453974,-109.8628158569336,4381.2578125,True
1599567513.3562188,0.0,10,0.5,0.5,0.339015280532837,-0.05075,-0.02275,-0.12575,0.33660603652251825,10,1,100,0.3151503342422379,-10,-1,-100,6476.038649742375,-0.001435835547377725,0.03827495349573358,0.9992662139345952,189.5504188399649,19.67396617362264,233.91268088497412,-15.244962761373756,-100.83584594726562,4381.2578125,True
1599567513.4130716,0.0,10,0.5,0.5,0.2351595932006837,-0.05075,-0.02275,-0.12575,0.33482714964792204,10,1,100,0.23200441675902247,-10,-1,-100,6475.413094377378,-0.0034832794772195474,0.0374851776266639,0.9992911128506953,182.05911494802587,18.917969497230096,230.4221074026527,-15.627996791033054,-94.45220184326172,4381.2578125,True
1599567513.4769387,0.0,10,0.5,0.5,0.3399184309005737,-0.05075,-0.02275,-0.12575,0.3627852948604646,10,1,100,0.1422268872237266,-10,-1,-100,6475.130832769675,-0.004511862195360518,0.037021690471532955,0.9993042767516609,177.43404042588287,18.445807792391356,227.3766597527109,-15.819591700039858,-91.15071868896484,4381.2578125,True
1599567513.5437186,0.0,10,0.5,0.5,-1.150246124267578,-0.05075,-0.02275,-0.12575,0.23385394565386766,10,1,100,0.3535965640294297,-10,-1,-100,6474.1624595255125,-0.007351552300651072,0.03542924455892797,0.9993451472383076,168.76194478986707,17.553379166572466,224.28976070479095,-16.39459209447837,-81.02764892578125,4381.2578125,True
1599567513.6155596,0.0,10,0.5,0.5,-1.220871725845337,-0.05075,-0.02275,-0.12575,0.2545788988105978,10,1,100,0.2713195227372931,-10,-1,-100,6473.473907114705,-0.009166878475590383,0.03417296487853254,0.9993738923998486,182.04495417684427,18.926713916099818,247.7215478459566,-16.77773976248408,-74.16741943359375,4381.2578125,True
1599567514.1357703,0.0,10,0.5,0.5,-1.1035342727661135,-0.05075,-0.02275,-0.12575,0.30472946577470705,10,1,100,0.18695848238776724,-10,-1,-100,6473.1301181537565,-0.010032541858514672,0.03349146759059169,0.999388647975594,188.00581450429928,19.539135396415816,258.8170898853933,-16.96919312018795,-70.70281982421875,4381.2578125,True
1599567514.1926224,0.0,10,0.5,0.5,-1.9992662132263184,-0.05075,-0.02275,-0.12575,0.22306995127794155,10,1,100,0.27518895668761384,-10,-1,-100,6472.442053076113,-0.011604715155652225,0.03213507924914386,0.9994161632011999,198.34383263676008,20.595217943903204,279.344765208591,-17.351830558571322,-63.9027099609375,4381.2578125,True
1599567514.2487707,0.0,10,0.5,0.5,-2.9892518592834474,-0.05075,-0.02275,-0.12575,0.11141232883134977,10,1,100,0.35814632597570695,-10,-1,-100,6471.3477038310375,-0.013771504595107138,0.0298937528921417,0.9994582078302277,210.39079225421108,21.819412001168274,306.326859619559,-17.925126004411712,-54.21636962890625,4381.2578125,True
1599567514.3086116,0.0,10,0.5,0.5,-2.9973566312789925,-0.05075,-0.02275,-0.12575,0.16550470533525607,10,1,100,0.28150235168852944,-10,-1,-100,6470.659154820838,-0.015026841409015362,0.028356774387576437,0.9994849110334786,215.40540482909313,22.328744693862337,320.4649323404162,-18.30695915244994,-48.12847900390625,4381.2578125,True
1599567514.3684573,0.0,10,0.5,0.5,-2.896294223976135,-0.05075,-0.02275,-0.12575,0.23360555158912744,10,1,100,0.22096273280747936,-10,-1,-100,6470.253847148153,-0.015601590318393244,0.027588585737209386,0.999497603957387,217.08639056800436,22.500813750616903,326.41227473982633,-18.497796821140028,-45.1962890625,4381.2578125,True
1599567514.4302917,0.0,10,0.5,0.5,-4.613359852218628,-0.05075,-0.02275,-0.12575,-0.019851840685989774,10,1,100,0.3847830171716593,-10,-1,-100,6468.751283894293,-0.017597667171615414,0.024596561490419486,0.9995425610112684,220.6703299242507,22.887998405922612,345.83551584228996,-19.260855621398314,-34.212310791015625,4381.2578125,True
1599567514.4941218,0.0,10,0.5,0.5,-3.3836931270599364,-0.05075,-0.02275,-0.12575,0.27798274479246887,10,1,100,0.18679151501186608,-10,-1,-100,6468.751283894293,-0.017597667171615414,0.024596561490419486,0.9995425610112684,220.6703299242507,22.887998405922612,345.83551584228996,-19.260855621398314,-34.212310791015625,4381.2578125,True
1599567514.5579498,0.0,10,0.5,0.5,-4.411135272026062,-0.05075,-0.02275,-0.12575,0.11404467527951356,10,1,100,0.27648029645946876,-10,-1,-100,6468.001229888643,-0.018400188468689623,0.023117932327698296,0.9995634018256214,220.1123653007888,22.85168278358122,351.97951295463383,-19.642350363167,-29.167572021484375,4381.2578125,True
1599567514.624772,0.0,10,0.5,0.5,-5.155215503692627,-0.05075,-0.02275,-0.12575,0.03950077873628188,10,1,100,0.3143119747632234,-10,-1,-100,6466.781435798737,-0.019461051881270012,0.021108691991325867,0.9995877603202682,217.0573060788951,22.578514529572747,357.5071090540926,-20.214719650128337,-22.15655517578125,4381.2578125,True
1599567514.6866066,0.0,10,0.5,0.5,-4.793675646209717,-0.05075,-0.02275,-0.12575,0.16486138493549998,10,1,100,0.24017954397597796,-10,-1,-100,6466.374188815476,-0.019740533340476662,0.020434770426041644,0.9995962842573338,215.56530680998432,22.440060168553472,358.50590622525596,-20.405560830343816,-19.968658447265625,4381.2578125,True
1599567514.752221,0.0,10,0.5,0.5,-5.3750885986328125,-0.05075,-0.02275,-0.12575,0.09748934349566098,10,1,100,0.27502487576010326,-10,-1,-100,6465.562139782938,-0.020301770724279404,0.019222130621286988,0.9996090974975352,212.06218775374177,22.109840076937626,359.4939874993032,-20.78733432706009,-15.8143310546875,4381.2578125,True
1599567514.816052,0.0,10,0.5,0.5,-5.658436679077148,-0.05075,-0.02275,-0.12575,0.09307488310382783,10,1,100,0.2752092914832124,-10,-1,-100,6464.685644333134,-0.02080432737170492,0.01809257146519273,0.9996198471521001,208.41143785879373,21.763160884323856,360.0203562420591,-21.169231147271233,-11.956634521484375,4381.2578125,True
1599567514.885376,0.0,10,0.5,0.5,-5.919972116851807,-0.05075,-0.02275,-0.12575,0.08560435005955601,10,1,100,0.26954644173924946,-10,-1,-100,6463.8101301601855,-0.021201353315132045,0.01701055148450816,0.9996305036141104,204.69729489814324,21.406796078539653,360.21755544325856,-21.55123920312931,-8.39593505859375,4381.2578125,True
1599567514.9547,0.0,10,0.5,0.5,-6.4212134757995605,-0.05075,-0.02275,-0.12575,0.037800232021137165,10,1,100,0.2920063766493745,-10,-1,-100,6462.52591876057,-0.02175971280950327,0.015604026066634413,0.9996414503555562,199.1576678159236,20.866643123161683,360.1504892536556,-22.12442468754535,-3.609771728515625,4381.2578125,True
1599567515.021538,0.0,10,0.5,0.5,-6.418450970458986,-0.05075,-0.02275,-0.12575,0.08650131610503298,10,1,100,0.27238218635646366,-10,-1,-100,6461.5879162870115,-0.022082789827722934,0.014779697131440006,0.9996468931308331,195.87309592806812,20.54222207121044,360.57632525140673,-22.50662299943679,-0.789276123046875,4381.2578125,True
1599567515.0923347,0.0,10,0.5,0.5,-6.610374843597413,-0.05075,-0.02275,-0.12575,0.08826059907702773,10,1,100,0.2747825822507569,-10,-1,-100,6460.712418057839,-0.022392425989225903,0.014057945116104833,0.9996504156140934,192.67719595409994,20.221102645880833,360.96719353707823,-22.888853022895304,1.7352294921875,4381.2578125,True
1599567515.1621473,0.0,10,0.5,0.5,-6.57789367980957,-0.05075,-0.02275,-0.12575,0.1240045405881684,10,1,100,0.2611663513076771,-10,-1,-100,6460.243176892516,-0.022545770619457322,0.013736332403514422,0.9996514399525841,191.14684058270163,20.06540663857805,361.21651920066,-23.07997282477576,2.886474609375,4381.2578125,True
1599567515.233955,0.0,10,0.5,0.5,-7.048769521331788,-0.05075,-0.02275,-0.12575,0.06453529981687864,10,1,100,0.2924275908435344,-10,-1,-100,6458.8344821244245,-0.02296486963958655,0.012913200684226783,0.999652871756254,188.45184085195436,19.78903079599716,365.35583371553093,-23.653306403900377,5.8963623046875,4381.2578125,True
1599567515.303768,0.0,10,0.5,0.5,-6.901026055908203,-0.05075,-0.02275,-0.12575,0.12137012566124081,10,1,100,0.26625946340849227,-10,-1,-100,6458.365245427471,-0.023103826971048284,0.012690856384953559,0.9996525172996407,190.67368863389984,20.022052104736666,372.78172993839945,-23.84436598262214,6.75177001953125,4381.2578125,True
1599567515.3665981,0.0,10,0.5,0.5,-7.233867340087891,-0.05075,-0.02275,-0.12575,0.08593444112720519,10,1,100,0.2965813583314404,-10,-1,-100,6456.895526206819,-0.02350249379432232,0.012174235194947007,0.9996496490185279,196.34002834108162,20.61018354250287,393.5066118005256,-24.417316714838186,8.8743896484375,4381.2578125,True
1599567515.4314575,0.0,10,0.5,0.5,-7.131367720794677,-0.05075,-0.02275,-0.12575,0.12369783218777206,10,1,100,0.2723027414587452,-10,-1,-100,6456.425316240056,-0.023640783516225262,0.012055392700247199,0.9996478284183794,197.91826731459943,20.771934961935745,399.91571840720377,-24.60822620223154,9.434173583984375,4381.2578125,True
1599567515.4912958,0.0,10,0.5,0.5,-7.276876344299317,-0.05075,-0.02275,-0.12575,0.11626312359333636,10,1,100,0.28574369976108677,-10,-1,-100,6455.423862221767,-0.02388565650907473,0.011886281025044357,0.9996440325118359,200.6439758254331,21.04825212213492,412.01171668596896,-24.989939988557683,10.33197021484375,4381.2578125,True
1599567515.551172,0.0,10,0.5,0.5,-7.321033138275147,-0.05075,-0.02275,-0.12575,0.12668404387326032,10,1,100,0.2908516806618995,-10,-1,-100,6454.422900177189,-0.02415190330245675,0.011832920859623036,0.9996382683505063,202.82793576902554,21.265696665655106,423.16624462478484,-25.37152230532346,10.93450927734375,4381.2578125,True
1599567515.608982,0.0,10,0.5,0.5,-7.343454250335693,-0.05075,-0.02275,-0.12575,0.13619825850233397,10,1,100,0.2912231265645413,-10,-1,-100,6453.358465002268,-0.024394640304657763,0.011875611415526946,0.9996318679283458,204.49921239262963,21.428038910435497,433.38827236683926,-25.752985007897124,11.241668701171875,4381.2578125,True
1599567515.668822,0.0,10,0.5,0.5,-7.322289945220948,-0.05075,-0.02275,-0.12575,0.16168841804691425,10,1,100,0.30747515783901885,-10,-1,-100,6451.825782419299,-0.024760660656885612,0.012149539202800418,0.9996195768296029,206.0808646679953,21.573553838612,446.94219204212084,-26.32498453557589,11.149169921875,4381.2578125,True
1599567515.726667,0.0,10,0.5,0.5,-7.2851286743164065,-0.05075,-0.02275,-0.12575,0.16904184974843206,10,1,100,0.296493964274306,-10,-1,-100,6450.761355338851,-0.02499114297120521,0.012467804895725227,0.9996099222267028,206.52689111931224,21.607150365641175,454.740770634857,-26.70620894881411,10.718841552734375,4381.2578125,True
1599567515.7835174,0.0,10,0.5,0.5,-7.231716606903078,-0.05075,-0.02275,-0.12575,0.184729349445809,10,1,100,0.29715626307536636,-10,-1,-100,6449.633943052031,-0.025204330776067232,0.012901196559469735,0.9995990700463183,206.478826518938,21.590112292147843,461.47770688580715,-27.087363481593766,9.99383544921875,4381.2578125,True
1599567515.8400097,0.0,10,0.5,0.5,-7.159086559295654,-0.05075,-0.02275,-0.12575,0.20145314294917954,10,1,100,0.29725460192423053,-10,-1,-100,6448.570010564639,-0.025396614988061825,0.013447982681853606,0.9995869965685512,205.91842253508727,21.52133376882884,467.0632327615557,-27.468462341292,8.97418212890625,4381.2578125,True
1599567515.8978558,0.0,10,0.5,0.5,-6.926933829498291,-0.05075,-0.02275,-0.12575,0.26064271323700816,10,1,100,0.30383761535592185,-10,-1,-100,6446.911373734241,-0.025629053716210035,0.014482661812094087,0.9995666081419727,204.0523304724117,21.31630493849479,473.0216355737329,-28.040034831675776,6.892730712890625,4381.2578125,True
1599567515.9556265,0.0,10,0.5,0.5,-6.879157873535156,-0.05075,-0.02275,-0.12575,0.24905304520887978,10,1,100,0.29222837281256087,-10,-1,-100,6445.79032069433,-0.025732527421636796,0.015316289670759594,0.9995515235860613,202.0664915373153,21.107046030311334,475.1643857670784,-28.42104942639014,5.13726806640625,4381.2578125,True
1599567516.0124772,0.0,10,0.5,0.5,-7.0914053497314455,-0.05075,-0.02275,-0.12575,0.16600446478991038,10,1,100,0.2821040056326161,-10,-1,-100,6445.79032069433,-0.025732527421636796,0.015316289670759594,0.9995515235860613,202.0664915373153,21.107046030311334,475.1643857670784,-28.42104942639014,5.13726806640625,4381.2578125,True
1599567516.0693278,0.0,10,0.5,0.5,-6.719898612213135,-0.05075,-0.02275,-0.12575,0.2710248050630178,10,1,100,0.2858202004046934,-10,-1,-100,6444.597004692419,-0.025764409425105307,0.016268055585087378,0.9995356649837243,199.4305713475418,20.835002852333417,475.63844849840626,-28.802047608849556,3.087799072265625,4381.2578125,True
1599567516.1261783,0.0,10,0.5,0.5,-6.547499291992189,-0.05075,-0.02275,-0.12575,0.2926409648188526,10,1,100,0.2804541504251883,-10,-1,-100,6443.469121102127,-0.025742902834884788,0.017325824437202004,0.9995184434322386,202.5049377399157,21.165791363120306,489.75984159083197,-29.182936752165055,0.744232177734375,4381.2578125,True
1599567516.183024,0.0,10,0.5,0.5,-6.353504430389404,-0.05075,-0.02275,-0.12575,0.3154938992641139,10,1,100,0.2761880326650038,-10,-1,-100,6442.281183102052,-0.025683122137289523,0.018490192885374422,0.9994991195615645,207.0408857037406,21.656575032637825,507.6837139071668,-29.563629417416102,-1.89324951171875,4381.2578125,True
1599567516.2368803,0.0,10,0.5,0.5,-6.1379051071166995,-0.05075,-0.02275,-0.12575,0.3391351962897692,10,1,100,0.2622939216188763,-10,-1,-100,6441.092760567903,-0.02550129460102664,0.01975761728260999,0.9994795248192858,211.73553168032734,22.17182910557517,526.3173090561714,-29.944100188969905,-4.8245849609375,4381.2578125,True
1599567516.2917736,0.0,10,0.5,0.5,-5.596858592224121,-0.05075,-0.02275,-0.12575,0.4409608670441618,10,1,100,0.23262706087215318,-10,-1,-100,6439.244214299833,-0.02506562480314095,0.021828592761427883,0.9994474608458837,218.92001253355988,22.974765477652728,555.2352240230657,-30.514333457065554,-9.7725830078125,4381.2578125,True
1599567516.3466275,0.0,10,0.5,0.5,-5.52538882522583,-0.05075,-0.02275,-0.12575,0.3976127997991923,10,1,100,0.2283134658377592,-10,-1,-100,6438.051404854865,-0.02463027913944862,0.023308714596430153,0.9994248611943647,224.25609957500274,23.5769444307035,576.3256432081278,-30.89412626400165,-13.43865966796875,4381.2578125,True
1599567516.4009922,0.0,10,0.5,0.5,-5.590107654571534,-0.05075,-0.02275,-0.12575,0.3349045598548616,10,1,100,0.24261779575602166,-10,-1,-100,6437.396651626565,-0.02436507158229127,0.024074743612359246,0.9994132028379397,226.84044064619053,23.871710366434304,586.7890460103921,-31.08390461235796,-15.38189697265625,4381.2578125,True
1599567516.4541776,0.0,10,0.5,0.5,-5.054121250152589,-0.05075,-0.02275,-0.12575,0.4298224505233561,10,1,100,0.195195758250438,-10,-1,-100,6436.146226058365,-0.02369380213792089,0.025624362850253365,0.9993908123295749,231.84767763158027,24.448006067599486,607.5514800645491,-31.463217259025317,-19.48919677734375,4381.2578125,True
1599567516.508543,0.0,10,0.5,0.5,-4.733780938720703,-0.05075,-0.02275,-0.12575,0.4514188904592317,10,1,100,0.1740893989188752,-10,-1,-100,6434.893847849453,-0.0228934405141866,0.027219310064994017,0.9993672996156163,236.9785183560125,25.04028790903329,628.9733952953593,-31.842192609744163,-23.890411376953125,4381.2578125,True
1599567516.5644004,0.0,10,0.5,0.5,-4.392521524810792,-0.05075,-0.02275,-0.12575,0.4723131703555487,10,1,100,0.14967836997244133,-10,-1,-100,6433.575064699049,-0.02194650158119462,0.028848389149820915,0.9993428448294446,241.68600270863925,25.58768509461587,649.5951290295619,-32.220836891799756,-28.58544921875,4381.2578125,True
1599567516.6192532,0.0,10,0.5,0.5,-3.565712567901612,-0.05075,-0.02275,-0.12575,0.5722283617376545,10,1,100,0.05068857897661419,-10,-1,-100,6431.669886972057,-0.02018918265654934,0.031225388149065364,0.9993084468964529,247.17616797149876,26.234258727525436,676.8063270508256,-32.78825159359703,-36.1802978515625,4381.2578125,True
1599567517.072059,0.0,10,0.5,0.5,-3.958637382507325,-0.05075,-0.02275,-0.12575,0.421513699951619,10,1,100,0.152918402569572,-10,-1,-100,6430.945797255845,-0.01952605041841557,0.03200256546617456,0.999297037501183,248.47226946157397,26.389176168439782,684.5266034945405,-32.977267904678165,-38.8590087890625,4381.2578125,True
1599567517.1159472,0.0,10,0.5,0.5,-3.719587387847901,-0.05075,-0.02275,-0.12575,0.42837188718373453,10,1,100,0.14115746297354886,-10,-1,-100,6430.297877707169,-0.018821936980526904,0.03275809496472127,0.9992860661004854,249.4530028174668,26.507946124828916,691.4162572596043,-33.16623674102413,-41.611419677734375,4381.2578125,True
1599567517.1648164,0.0,10,0.5,0.5,-2.9646867340087892,-0.05075,-0.02275,-0.12575,0.5106750475518111,10,1,100,0.04294684751542044,-10,-1,-100,6428.974692380172,-0.017295247519333097,0.03418017969212866,0.9992660255054501,250.35501109734955,26.62380193197412,702.3257602354288,-33.544071610777316,-47.3375244140625,4381.2578125,True
1599567517.216678,0.0,10,0.5,0.5,-2.5255047927856444,-0.05075,-0.02275,-0.12575,0.5202622705192992,10,1,100,0.01169618727496255,-10,-1,-100,6427.599744137959,-0.01563071114068156,0.03554702914183116,0.9992457603554924,249.65468818571185,26.556348248581415,708.7591297095767,-33.921844979895354,-53.35748291015625,4381.2578125,True
1599567517.267052,0.0,10,0.5,0.5,-2.6325828338623047,-0.05075,-0.02275,-0.12575,0.45415946265067864,10,1,100,0.07972515711452141,-10,-1,-100,6426.934729631408,-0.014744518625596567,0.03617621362786379,0.9992366490166633,248.63649309873927,26.446925333579628,710.0581321144427,-34.110739257995306,-56.47802734375,4381.2578125,True
1599567517.3708274,0.0,10,0.5,0.5,-1.7863926986694336,-0.05075,-0.02275,-0.12575,0.5137060901030075,10,1,100,-0.035400797630299546,-10,-1,-100,6425.563190491055,-0.012901276532851705,0.03727783477470423,0.9992216571403627,245.13948573720043,26.065223494356534,708.3546710165748,-34.488605798683366,-62.940826416015625,4381.2578125,True
1599567517.423687,0.0,10,0.5,0.5,0.5882584022521973,-0.05075,-0.02275,-0.12575,0.6293734629518484,10,1,100,-0.39923954277480306,-10,-1,-100,6422.026150267338,-0.007928398579087653,0.039318827305764685,0.9991952613554923,226.91640557939303,24.09248593843365,675.0289243741196,-35.43423500514926,-80.38644409179688,4381.2578125,True
1599567517.4765441,0.0,10,0.5,0.5,-0.8121517456054689,-0.05075,-0.02275,-0.12575,0.4558869824751073,10,1,100,-0.017349153684743004,-10,-1,-100,6421.367954753456,-0.006893663434265272,0.03958467572561699,0.999192439348974,221.53060605984916,23.51838730421402,662.8113297427789,-35.62358466414314,-84.0965576171875,4381.2578125,True
1599567517.5304017,0.0,10,0.5,0.5,0.8884338638305664,-0.05075,-0.02275,-0.12575,0.47980873571195803,10,1,100,-0.2411204751287792,-10,-1,-100,6419.213176141609,-0.003933255632280888,0.04003258534976262,0.999190633267919,207.06355385344338,22.001255692516978,630.2289861459574,-36.1920110711332,-95.5988998413086,4381.2578125,True
1599567517.5872617,0.0,10,0.5,0.5,0.9529120794296264,-0.05075,-0.02275,-0.12575,0.44371007485684416,10,1,100,-0.15643318914019644,-10,-1,-100,6417.706330461311,-0.0020282359085084865,0.04010143882193948,0.9991935552551916,219.0565198706304,23.312947127632174,674.2846093461624,-36.57059879824002,-103.29545593261719,4381.2578125,True
1599567517.6441076,0.0,10,0.5,0.5,1.5132928754806518,-0.05075,-0.02275,-0.12575,0.4242056147155179,10,1,100,-0.16456781541285873,-10,-1,-100,6416.272228618618,-0.0002389585996439558,0.03997865047656741,0.9992005056067876,229.60639173021028,24.48590208862835,714.6576598882234,-36.94861461897411,-111.08885955810547,4381.2578125,True
1599567517.6989603,0.0,10,0.5,0.5,1.3749358448028566,-0.05075,-0.02275,-0.12575,0.4240953102244395,10,1,100,-0.07711451270380063,-10,-1,-100,6415.4855944637675,0.0005750933912243879,0.03985877095357355,0.9992051579358775,233.9157352360607,24.972064727859838,732.0843537354285,-37.13741951272758,-114.92648315429688,4381.2578125,True
1599567517.7528164,0.0,10,0.5,0.5,2.3800012825012207,-0.05075,-0.02275,-0.12575,0.3978843191443595,10,1,100,-0.1698973683184715,-10,-1,-100,6413.979214429157,0.0021409874972637523,0.03950505267195217,0.9992170770087565,241.09505107523023,25.789672611661274,762.8068694718553,-37.514676590349595,-122.41007995605469,4381.2578125,True
1599567517.8066723,0.0,10,0.5,0.5,2.88026457862854,-0.05075,-0.02275,-0.12575,0.3821258329212699,10,1,100,-0.16769985903644177,-10,-1,-100,6412.471850472502,0.003526880931993271,0.03903539083846845,0.9992316044706451,246.35659399740447,26.393874699417477,787.8677357663643,-37.89154749914351,-129.60858154296875,4381.2578125,True
1599567517.8615263,0.0,10,0.5,0.5,3.9559525524139403,-0.05075,-0.02275,-0.12575,0.32944532808311244,10,1,100,-0.22616233908792616,-10,-1,-100,6410.1958973828005,0.005300845153058441,0.03812634061704851,0.9992588669568141,249.62679747290426,26.77856728422313,811.1099301894382,-38.45644895869162,-139.84896850585938,4381.2578125,True
1599567517.915382,0.0,10,0.5,0.5,3.433922789382935,-0.05075,-0.02275,-0.12575,0.3840748095313395,10,1,100,-0.1053711452476648,-10,-1,-100,6409.413155614049,0.005797215079316534,0.03779479013166046,0.9992687056724172,249.62333350500222,26.78194524874309,815.367164699919,-38.64471023923006,-143.1125946044922,4381.2578125,True
1599567517.9692376,0.0,10,0.5,0.5,4.854575444793702,-0.05075,-0.02275,-0.12575,0.3008542798284771,10,1,100,-0.19297287386359213,-10,-1,-100,6407.0615051835775,0.007027841189139441,0.03673636037004807,0.9993002798333352,246.86995129817765,26.47962811761803,819.084707002721,-39.20957148310895,-152.45346069335938,4381.2578125,True
1599567518.022097,0.0,10,0.5,0.5,4.366950373840332,-0.05075,-0.02275,-0.12575,0.36723100144570525,10,1,100,-0.10656630253603347,-10,-1,-100,6406.281202454818,0.0073474813316658895,0.03637992393504408,0.9993110204798911,245.16608409414184,26.290436716510563,817.659177395038,-39.39791841867185,-155.41683959960938,4381.2578125,True
1599567518.077947,0.0,10,0.5,0.5,5.646268025970459,-0.05075,-0.02275,-0.12575,0.2785711432245189,10,1,100,-0.1516405103188499,-10,-1,-100,6403.929545778781,0.008034882309473782,0.035252805511930184,0.9993461264095692,238.22287588197156,25.523691503643757,806.893800915681,-39.96322696194741,-163.85711669921875,4381.2578125,True
1599567518.1337981,0.0,10,0.5,0.5,5.667009532737732,-0.05075,-0.02275,-0.12575,0.3106618631692494,10,1,100,-0.11032793814505276,-10,-1,-100,6402.301064951578,0.008273343325953933,0.03452423147208586,0.9993696159236946,232.41603396272245,24.89025610679185,795.3390472793401,-40.340347290926545,-169.10821533203125,4381.2578125,True
1599567518.1886518,0.0,10,0.5,0.5,6.030195482063293,-0.05075,-0.02275,-0.12575,0.3053527753732899,10,1,100,-0.09571437747633883,-10,-1,-100,6400.673071536585,0.008347910444643523,0.03381869718985489,0.9993931199040692,225.97350947193513,24.196520526874785,781.2189120728483,-40.71766305952514,-174.05885314941406,4381.2578125,True
1599567518.243509,0.0,10,0.5,0.5,5.967899380111695,-0.05075,-0.02275,-0.12575,0.3385085323951178,10,1,100,-0.08731706042185858,-10,-1,-100,6399.830755233648,0.008331553243825797,0.03348431831828582,0.9994045155227711,222.58550569121513,23.835515744668438,773.4216915332311,-40.90638848358703,-176.42140197753906,4381.2578125,True
1599567518.2983618,0.0,10,0.5,0.5,-56.93501056976318,-0.05075,-0.02275,-0.12575,0.2988431264687594,10,1,100,-0.07109545952670585,-10,-1,-100,6398.195927831926,0.008162162635078655,0.03282553788356094,0.9994277678570739,215.6127971195203,23.1007003157598,756.7966469174496,-41.28395681102046,179.07843017578125,4381.2578125,True
1599567518.3522186,0.0,10,0.5,0.5,-11.824736991500854,-0.05075,-0.02275,-0.12575,0.2653158224314722,10,1,100,-0.029512489466577668,-10,-1,-100,6395.729529903387,0.007624670376454802,0.031927925192370615,0.9994610907857098,221.91333793992007,23.816361974022673,790.6770637335984,-41.85005799352811,172.89114379882812,4381.2578125,True
1599567518.4080694,0.0,10,0.5,0.5,-12.95343396034241,-0.05075,-0.02275,-0.12575,0.32448521980616346,10,1,100,-0.05527388108165424,-10,-1,-100,6394.880381240044,0.007366510256529758,0.0316562785998276,0.9994716677084201,224.91543135185833,24.157178129846997,805.3520992816434,-42.03859106179171,170.97872924804688,4381.2578125,True
1599567518.4619248,0.0,10,0.5,0.5,-13.212297510147096,-0.05075,-0.02275,-0.12575,0.29512137055665066,10,1,100,-0.014155040721016546,-10,-1,-100,6393.1830616045045,0.006756133721407129,0.031148264942535853,0.9994919410621619,230.5720163765309,24.808477603164885,833.765431831719,-42.41540960666102,167.07643127441406,4381.2578125,True
1599567518.5167782,0.0,10,0.5,0.5,-13.291532372665404,-0.05075,-0.02275,-0.12575,0.27238157507356825,10,1,100,0.055013312758006694,-10,-1,-100,6390.588260627235,0.00557157100453899,0.03048575122714181,0.9995196729272807,239.35704451535503,25.832320255476553,878.2312082009124,-42.97997163004321,160.74691772460938,4381.2578125,True
1599567518.570634,0.0,10,0.5,0.5,-14.402330540847778,-0.05075,-0.02275,-0.12575,0.3180265432371925,10,1,100,-0.011854747456826575,-10,-1,-100,6389.736188301817,0.005103911145870621,0.03030410265931009,0.9995276941901254,242.12800908780198,26.15944102939358,892.675748568295,-43.16797725069501,158.49383544921875,4381.2578125,True
1599567518.6234932,0.0,10,0.5,0.5,-14.565844231796264,-0.05075,-0.02275,-0.12575,0.29894663004501126,10,1,100,0.05446448912030912,-10,-1,-100,6387.983219846967,0.004077903278367048,0.02997103731523936,0.9995424491371544,247.8195516510086,26.83187278095254,922.4059283209178,-43.543710447947596,153.76885986328125,4381.2578125,True
1599567518.6773515,0.0,10,0.5,0.5,-14.535164443588258,-0.05075,-0.02275,-0.12575,0.2899078991027274,10,1,100,0.14971918776458887,-10,-1,-100,6385.38161102077,0.0022828143011713537,0.029590881964969475,0.9995594872059399,255.5788892680332,27.754083380529778,964.7913792301171,-44.106634596967574,146.13461303710938,4381.2578125,True
1599567518.733707,0.0,10,0.5,0.5,-15.249823376846315,-0.05075,-0.02275,-0.12575,0.31048267323309986,10,1,100,0.12006859045633579,-10,-1,-100,6383.566651554196,0.0009259120510910073,0.029436814456370343,0.9995662142357228,259.6713408052786,28.24379362939491,989.3739282421615,-44.48152745186538,140.68121337890625,4381.2578125,True
1599567518.788562,0.0,10,0.5,0.5,-16.151100611877443,-0.05075,-0.02275,-0.12575,0.3196749413015745,10,1,100,0.06512570487791053,-10,-1,-100,6382.72143196885,0.00019859260027051533,0.02938430268802407,0.9995681684190018,261.30808381510747,28.440206142434292,1000.2046887035572,-44.66888038344845,137.84539794921875,4381.2578125,True
1599567518.8414195,0.0,10,0.5,0.5,-15.644182680892945,-0.05075,-0.02275,-0.12575,0.31805647618083543,10,1,100,0.25748078121336226,-10,-1,-100,6379.9982878312,-0.0022038958120308067,0.02932557868445734,0.999567483103603,264.228328517735,28.79259767594198,1025.33596782371,-45.23069238833893,128.9021759033203,4381.2578125,True
1599567518.896275,0.0,10,0.5,0.5,-16.102912397766115,-0.05075,-0.02275,-0.12575,0.32660691500628897,10,1,100,0.11308573285659479,-10,-1,-100,6379.09106890182,-0.0030658702395640228,0.029353106269809075,0.9995644029235872,264.4388836244381,28.819665200790336,1030.8203030602137,-45.41792235921244,125.77622985839844,4381.2578125,True
1599567518.9535518,0.0,10,0.5,0.5,-14.657028626632691,-0.05075,-0.02275,-0.12575,0.3475209379712091,10,1,100,0.33435826462555235,-10,-1,-100,6376.3543006940745,-0.005851333152842907,0.02957059957337589,0.9995455675161615,262.3484796785015,28.584777379506747,1036.6338092190567,-45.97968398819549,115.96441650390625,4381.2578125,True
1599567519.0074077,0.0,10,0.5,0.5,-14.547483320236207,-0.05075,-0.02275,-0.12575,0.3557773846662892,10,1,100,0.27938201948339914,-10,-1,-100,6374.483750852407,-0.007871771896886525,0.029845275436597773,0.9995235338606675,258.40821034395645,28.140619366059056,1030.3139996788962,-46.35439235997956,109.06230163574219,4381.2578125,True
1599567519.06625,0.0,10,0.5,0.5,-14.655272220993043,-0.05075,-0.02275,-0.12575,0.3484439032274659,10,1,100,0.19336027661165023,-10,-1,-100,6373.572655543336,-0.008913220451166375,0.03002949728963376,0.9995092714896249,255.5959143679946,27.826581366784964,1023.7048183959758,-46.5418459309102,105.50326538085938,4381.2578125,True
1599567519.1201067,0.0,10,0.5,0.5,-13.016444760513304,-0.05075,-0.02275,-0.12575,0.4103586255092001,10,1,100,0.46913457490637733,-10,-1,-100,6370.703178248601,-0.012353862947322207,0.030760247589443613,0.9994504436131462,243.5363993537027,26.50344718222666,988.6799333907147,-47.10472269054465,94.39450073242188,4381.2578125,True
1599567519.1749597,0.0,10,0.5,0.5,-12.897098945236207,-0.05075,-0.02275,-0.12575,0.4115506641129983,10,1,100,0.3917295883661326,-10,-1,-100,6368.792186006671,-0.014762167362467837,0.03143498808118698,0.9993967780311771,232.33726954771325,25.300032866281622,951.734868991094,-47.48045806154622,86.62992858886719,4381.2578125,True
1599567519.2278497,0.0,10,0.5,0.5,-12.299779160308839,-0.05075,-0.02275,-0.12575,0.43879740029616376,10,1,100,0.4354958063222725,-10,-1,-100,6366.8787907580845,-0.017332282384346195,0.03229475526555886,0.999328094656448,242.73824376387444,26.475041024326398,1003.2699451565032,-47.85594654584194,78.57908630371094,4381.2578125,True
1599567519.2837,0.0,10,0.5,0.5,-11.68710191078186,-0.05075,-0.02275,-0.12575,0.471605612230501,10,1,100,0.47549801539417,-10,-1,-100,6364.916612784844,-0.02001457512608421,0.03337216020229947,0.9992425710036349,256.44081339334093,28.034653983479764,1069.3276909733547,-48.23071593213559,70.24264526367188,4381.2578125,True
1599567519.7790642,0.0,10,0.5,0.5,-11.053438934707643,-0.05075,-0.02275,-0.12575,0.5075666344667982,10,1,100,0.5133846844532255,-10,-1,-100,6362.973039318575,-0.022778410530767294,0.0346749600326246,0.999139024941188,268.03817819344476,29.37847115891605,1127.4998665139792,-48.60478063326119,61.62098693847656,4381.2578125,True
1599567519.8289309,0.0,10,0.5,0.5,-10.392337683868409,-0.05075,-0.02275,-0.12575,0.550747230955069,10,1,100,0.5518706175890469,-10,-1,-100,6361.030498149106,-0.025619972106140258,0.03624706470340937,0.9990143979591424,278.13567211200643,30.557572385835083,1180.1146335494175,-48.97821250003997,52.715240478515625,4381.2578125,True
1599567519.8797956,0.0,10,0.5,0.5,-9.717033489608765,-0.05075,-0.02275,-0.12575,0.5987668031733029,10,1,100,0.585974865346333,-10,-1,-100,6359.025517472997,-0.028491961175823637,0.038106500073362234,0.998867410020226,285.5635181536173,31.428048433500948,1222.0212009135332,-49.35115758565967,43.52613830566406,4381.2578125,True
1599567519.9296982,0.0,10,0.5,0.5,-9.013700744247437,-0.05075,-0.02275,-0.12575,0.6518075089975499,10,1,100,0.6157427997223179,-10,-1,-100,6357.081147229997,-0.03135036328719361,0.040271126468263856,0.9986968464427722,289.33844646026336,31.87120522593576,1248.7320794745158,-49.72385970772086,34.05450439453125,4381.2578125,True
1599567519.9814382,0.0,10,0.5,0.5,-9.163874214553834,-0.05075,-0.02275,-0.12575,0.5681810689619935,10,1,100,0.4874744650778594,-10,-1,-100,6356.047707911232,-0.03275965395518546,0.04146900052976492,0.9986025871525663,289.7033316335528,31.915198872048663,1255.6219645345273,-49.91020604606365,29.212921142578125,4381.2578125,True
1599567520.0353062,0.0,10,0.5,0.5,-6.952950539398192,-0.05075,-0.02275,-0.12575,0.8983647153457799,10,1,100,0.7944394594059486,-10,-1,-100,6353.071509473375,-0.03680879279992586,0.045549079439079244,0.9982837242662352,284.1093044096641,31.287281710818277,1247.2161205733137,-50.469631402398555,14.266204833984375,4381.2578125,True
1599567520.1061125,0.0,10,0.5,0.5,-7.720755733489991,-0.05075,-0.02275,-0.12575,0.6581780728894017,10,1,100,0.5318441106771618,-10,-1,-100,6352.038134123664,-0.03807723805911111,0.04706061844144388,0.9981660293426634,279.89425875327896,30.819768575409437,1233.9940933143869,-50.65632936538667,9.14337158203125,4381.2578125,True
1599567520.157978,0.0,10,0.5,0.5,-6.325280430603026,-0.05075,-0.02275,-0.12575,0.8573270912265011,10,1,100,0.6737269935413102,-10,-1,-100,6349.969959343784,-0.0404968296161247,0.05023037190951991,0.9979162873352022,267.8229716045296,29.502504200816475,1190.9913735410003,-51.030169544783206,-1.313995361328125,4381.2578125,True
1599567520.2102437,0.0,10,0.5,0.5,-3.5999841495513922,-0.05075,-0.02275,-0.12575,1.3289621054485476,10,1,100,0.8578603240589633,-10,-1,-100,6345.897222863976,-0.044347002525157844,0.057382470297218234,0.9973668309451755,275.7504196582015,30.53842803181631,1247.4507167887205,-51.77808520536432,-23.07171630859375,4381.2578125,True
1599567520.264103,0.0,10,0.5,0.5,-5.113592320251465,-0.05075,-0.02275,-0.12575,0.8243938822509911,10,1,100,0.5548708961451321,-10,-1,-100,6344.8004442733945,-0.04506815153402514,0.05927458706148287,0.9972238389880161,283.84744791178815,31.499086419999426,1289.5004174773899,-51.9644772934745,-28.687408447265625,4381.2578125,True
1599567520.3161697,0.0,10,0.5,0.5,-3.5749468048095703,-0.05075,-0.02275,-0.12575,1.0597819082339806,10,1,100,0.608541922321851,-10,-1,-100,6342.732867265586,-0.04618888398332199,0.06311103669533319,0.9969371013477306,296.4853233305656,33.03494033606506,1358.1483727448249,-52.33657811013037,-40.130767822265625,4381.2578125,True
1599567520.370054,0.0,10,0.5,0.5,-3.75386996421814,-0.05075,-0.02275,-0.12575,0.8904686990581806,10,1,100,0.5415602243578647,-10,-1,-100,6341.698586712591,-0.04657752488896239,0.06503365620936011,0.9967954442789457,301.7500778222274,33.681720065876746,1387.9453047748616,-52.52234161354536,-45.95849609375,4381.2578125,True
1599567520.422165,0.0,10,0.5,0.5,-2.167557722854614,-0.05075,-0.02275,-0.12575,1.1173682771455336,10,1,100,0.5715025939676263,-10,-1,-100,6339.5699506320525,-0.04718398584255802,0.06881804593971874,0.9965127937126789,307.6032507457199,34.42850355381929,1426.4257928915008,-52.89353782362136,-57.8262939453125,4381.2578125,True
1599567520.4790547,0.0,10,0.5,0.5,-1.2846617561340334,-0.05075,-0.02275,-0.12575,1.1398495037799963,10,1,100,0.5256161684468115,-10,-1,-100,6337.440782572376,-0.04730117190957688,0.07243485544047956,0.9962508674291317,306.6751257126488,34.37651943662615,1433.7161307482702,-53.26469831183013,-69.9775390625,4381.2578125,True
1599567520.5311458,0.0,10,0.5,0.5,0.7347890663146976,-0.05075,-0.02275,-0.12575,1.3316173743829993,10,1,100,0.4751984065402699,-10,-1,-100,6334.213713770383,-0.04693486067260512,0.07743696860213287,0.9958918790447864,291.5931384870613,32.729280463774586,1380.07762955188,-53.82235016092191,-88.735595703125,4381.2578125,True
1599567520.5849607,0.0,10,0.5,0.5,-0.2270177444458007,-0.05075,-0.02275,-0.12575,0.9992046356569908,10,1,100,0.48544458536773605,-10,-1,-100,6333.179816708434,-0.046682110985864646,0.07892971206242455,0.9957865640124122,282.87506516966033,31.774568157327273,1344.3653725572626,-54.00863019351375,-95.13041687011719,4381.2578125,True
1599567520.6388555,0.0,10,0.5,0.5,2.665401955032349,-0.05075,-0.02275,-0.12575,1.2866069539517868,10,1,100,0.40976649556619954,-10,-1,-100,6329.891480893479,-0.045755380165008484,0.08286915389025755,0.9955094919283635,273.3135904769849,30.855556610657068,1315.0755616424374,-54.56816750113568,-114.66407775878906,4381.2578125,True
1599567520.694705,0.0,10,0.5,0.5,1.6369528373718263,-0.05075,-0.02275,-0.12575,1.0194653957335715,10,1,100,0.46652836241442325,-10,-1,-100,6328.795005697408,-0.0454219344427541,0.08398935180862303,0.9954308798978688,284.25374865326876,32.16931004667833,1373.2639766176108,-54.75415648958533,-121.15839385986328,4381.2578125,True
1599567520.7485216,0.0,10,0.5,0.5,4.522691840553284,-0.05075,-0.02275,-0.12575,1.2171467934981404,10,1,100,0.40211713179343,-10,-1,-100,6325.507426541182,-0.04452876795794415,0.08677412718690673,0.9952323546162966,306.56896237334576,34.941292086004516,1498.7761190204315,-55.31045360547362,-140.59042358398438,4381.2578125,True
1599567520.8044052,0.0,10,0.5,0.5,3.47361190776825,-0.05075,-0.02275,-0.12575,1.0247792296076164,10,1,100,0.4677089163076091,-10,-1,-100,6324.3483879782725,-0.04431292213512511,0.08753022544371471,0.995175775712823,311.1730107923554,35.530532947575274,1527.2303036562166,-55.495512420239706,-146.97650146484375,4381.2578125,True
1599567520.859023,0.0,10,0.5,0.5,6.243061063194276,-0.05075,-0.02275,-0.12575,1.1493079639345671,10,1,100,0.4590045693787913,-10,-1,-100,6320.997188650072,-0.044038254805390274,0.08932397995434675,0.9950285718102828,312.7499111293893,35.83262726328939,1553.0490417357416,-56.050568362336,-165.69259643554688,4381.2578125,True
1599567520.914874,0.0,10,0.5,0.5,6.309682530784608,-0.05075,-0.02275,-0.12575,1.0719058375140815,10,1,100,0.5115860761844718,-10,-1,-100,6318.741552320658,-0.044268526048572,0.09022718022995418,0.9949368590766139,304.25760637531613,34.91055549621692,1522.878838722461,-56.42113148290699,-177.7861785888672,4381.2578125,True
1599567520.9717216,0.0,10,0.5,0.5,-57.404428706169135,-0.05075,-0.02275,-0.12575,1.0264915189744244,10,1,100,0.5170245673725842,-10,-1,-100,6317.644010461518,-0.044529403461211314,0.09061251074467261,0.9948901975212819,297.45935006956904,34.16134784965343,1494.8087548408034,-56.60669126590369,176.28323364257812,4381.2578125,True
1599567521.0285704,0.0,10,0.5,0.5,-11.360467010307314,-0.05075,-0.02275,-0.12575,1.0682461641829728,10,1,100,0.582378382200469,-10,-1,-100,6315.388400713215,-0.04536310359148359,0.09132258574648984,0.9947876025389155,279.4103468422977,32.18006845777313,1415.4074466208947,-56.978427627348836,164.65528869628906,4381.2578125,True
1599567521.0824256,0.0,10,0.5,0.5,-10.365248762702942,-0.05075,-0.02275,-0.12575,1.1111755761493483,10,1,100,0.7274865652197163,-10,-1,-100,6311.910853120149,-0.04744193998128618,0.09234120519301255,0.9945965836228847,292.6274458973199,33.95705330859052,1500.0584943736226,-57.53567165110849,147.70785522460938,4381.2578125,True
1599567521.142266,0.0,10,0.5,0.5,-11.019755739021303,-0.05075,-0.02275,-0.12575,1.096899576218251,10,1,100,0.7333394251217017,-10,-1,-100,6309.59243395587,-0.04938453808084414,0.09312389174812241,0.9944290362736928,308.5929189974999,36.01726928849568,1594.1440568993785,-57.90561859517869,136.2940216064453,4381.2578125,True
1599567521.2011085,0.0,10,0.5,0.5,-11.957339830970763,-0.05075,-0.02275,-0.12575,1.0698498597580721,10,1,100,0.6642511807097617,-10,-1,-100,6308.4344871502835,-0.05052000465206558,0.09357661466705185,0.9943294958500474,314.8642287850097,36.84761177354512,1632.7303917263591,-58.09022989827692,130.4912109375,4381.2578125,True
