Timestamp,Input Throttle,horizon,dT,dt,Input Roll,Roll P,Roll I,Roll D,Input Pitch,Pitch P,Pitch I,Pitch D,Input Yaw,Yaw P,Yaw I,Yaw D,Altitude,Direction X,Direction Y,Direction Z,Drag X,Drag Y,Drag Z,Vertical Velocity,Roll,Mass,Has Fuel
1599564654.7227798,0.0,10,0.5,0.5,-0.05405859375,-0.001,-0.001,-0.001,-0.06720873806816907,10,1,100,0.6903417491483825,-10,-1,-100,6483.617967202677,-0.0672576884238212,-0.007002709777553246,0.997711063085729,205.07327320779618,21.498782880571433,-156.765278538355,9.590824045443139,-35.944610595703125,4381.2578125,True
1599564654.7756367,0.0,10,0.5,0.5,-0.05946758117675781,-0.001,-0.001,-0.001,-0.06733540132286538,10,1,100,0.6998860443518005,-10,-1,-100,6483.997882617405,-0.06744481016265035,-0.006971873710003951,0.9976986471671172,204.61217720955088,21.45674502006611,-150.26674014398128,9.210801666273996,-35.9412841796875,4381.2578125,True
1599564654.8274982,0.0,10,0.5,0.5,-0.06487354431152344,-0.001,-0.001,-0.001,-0.06931455301687486,10,1,100,0.6985963075618769,-10,-1,-100,6484.156591622857,-0.06754188249062058,-0.006955495142441039,0.9976921946156272,204.38119776935818,21.435613389248513,-147.02551144963473,9.020797840048388,-35.9395751953125,4381.2578125,True
1599564654.8793597,0.0,10,0.5,0.5,-0.07024284362792968,-0.001,-0.001,-0.001,0.005151622292734956,10,1,100,0.7006065267057526,-10,-1,-100,6484.856804268784,-0.06758700306963729,-0.006257317128076083,0.9976937621326615,203.5166969054836,21.35679056326247,-134.1558504540121,8.260812699523084,-35.95709228515625,4381.2578125,True
1599564654.932421,0.0,10,0.5,0.5,-0.07566465148925781,-0.001,-0.001,-0.001,-0.06529191085656826,10,1,100,0.7028531691110458,-10,-1,-100,6484.856804268784,-0.06758700306963729,-0.006257317128076083,0.9976937621326615,203.5166969054836,21.35679056326247,-134.1558504540121,8.260812699523084,-35.95709228515625,4381.2578125,True
1599564654.985239,0.0,10,0.5,0.5,-0.08090683288574219,-0.001,-0.001,-0.001,0.08586291061353951,10,1,100,0.6708119637445262,-10,-1,-100,6485.4939293893985,-0.0672342766544238,-0.004877493917322307,0.99772529390401,202.7482705085871,21.28696625072485,-121.42687069959838,7.500832286032658,-36.03814697265625,4381.2578125,True
1599564655.0370984,0.0,10,0.5,0.5,-0.08632114562988281,-0.001,-0.001,-0.001,0.0014078191173552274,10,1,100,0.695134983685256,-10,-1,-100,6485.590084344847,-0.0670736125703687,-0.004386448653950256,0.9977383873365635,202.56553179347264,21.270293498336045,-118.26136769884637,7.310831045351671,-36.069610595703125,4381.2578125,True
1599564655.090956,0.0,10,0.5,0.5,-0.09167295532226563,-0.001,-0.001,-0.001,0.011838249230996786,10,1,100,0.6963909172801934,-10,-1,-100,6485.750198682887,-0.06687799587884498,-0.0038412340965298776,0.9977537665114802,202.3851761152973,21.2537851009018,-115.10147066197759,7.120825441920555,-36.10595703125,4381.2578125,True
1599564655.5143995,0.0,10,0.5,0.5,-0.09692078857421875,-0.001,-0.001,-0.001,0.0890293144530796,10,1,100,0.6627967689043687,-10,-1,-100,6486.005466293776,-0.06633396299597151,-0.0026403555113137535,0.9977939836840184,202.0311712033035,21.221203131712983,-108.79786853690526,6.740796946267356,-36.194915771484375,4381.2578125,True
1599564655.5632699,0.0,10,0.5,0.5,-0.10216894226074219,-0.001,-0.001,-0.001,0.127906132360609,10,1,100,0.6513079289661048,-10,-1,-100,6486.261199424742,-0.06567464004574235,-0.0011928217660385429,0.9978403774307275,201.6800261902335,21.188553430195515,-102.51216107894244,6.360738165646927,-36.305572509765625,4381.2578125,True
1599564655.6121383,0.0,10,0.5,0.5,-0.10737908325195314,-0.001,-0.001,-0.001,0.16170225033580968,10,1,100,0.6323119560572209,-10,-1,-100,6486.517889387789,-0.06484286066450258,0.00043143982195532654,0.9978953939569637,201.3288053038127,21.155520324497658,-96.2427653886189,5.980639924748327,-36.4405517578125,4381.2578125,True
1599564655.6620052,0.0,10,0.5,0.5,-0.10746446838378906,-0.001,-0.001,-0.001,1.9506496373608746e-05,10,1,100,0.7152484114052657,-10,-1,-100,6486.517889387789,-0.06484286066450258,0.00043143982195532654,0.9978953939569637,201.3288053038127,21.155520324497658,-96.2427653886189,5.980639924748327,-36.4405517578125,4381.2578125,True
1599564655.7108746,0.0,10,0.5,0.5,-0.1069072784423828,-0.001,-0.001,-0.001,0.3044477862495586,10,1,100,0.5421896011641685,-10,-1,-100,6486.869197584456,-0.06327196416185456,0.0031922393528643184,0.9979912164738801,200.7885071343567,21.103848161268804,-86.8637030201035,5.410399153885482,-36.694183349609375,4381.2578125,True
1599564655.760742,0.0,10,0.5,0.5,-0.10644866943359375,-0.001,-0.001,-0.001,0.38305261388992307,10,1,100,0.48664943950782114,-10,-1,-100,6487.1579754138365,-0.06134284761559753,0.00640742123724371,0.9980961877492059,200.21667732521257,21.048018911983725,-77.51092595243028,4.840017769191328,-37.0125732421875,4381.2578125,True
1599564655.8136024,0.0,10,0.5,0.5,-0.10666151123046876,-0.001,-0.001,-0.001,0.06280089928851589,10,1,100,0.6789366785881199,-10,-1,-100,6487.1579754138365,-0.06134284761559753,0.00640742123724371,0.9980961877492059,200.21667732521257,21.048018911983725,-77.51092595243028,4.840017769191328,-37.0125732421875,4381.2578125,True
1599564655.8754363,0.0,10,0.5,0.5,-0.10578148803710939,-0.001,-0.001,-0.001,0.4377043637294784,10,1,100,0.4132985249860536,-10,-1,-100,6487.44770801405,-0.05893363181508242,0.009804121151829442,0.9982137577941533,199.5944877390934,20.986096859199467,-68.18256608750177,4.269462937292834,-37.399810791015625,4381.2578125,True
1599564655.9243042,0.0,10,0.5,0.5,-0.10574453430175781,-0.001,-0.001,-0.001,0.23106166158471964,10,1,100,0.5545894679475273,-10,-1,-100,6487.544281449867,-0.05803544479139057,0.011000113222801254,0.998253917927173,199.3694315458277,20.96343900002732,-65.07766040104632,4.079233778886486,-37.5438232421875,4381.2578125,True
1599564655.976165,0.0,10,0.5,0.5,-0.1044408935546875,-0.001,-0.001,-0.001,0.6769568128091953,10,1,100,0.19784453314140038,-10,-1,-100,6487.805578275118,-0.053983991878686806,0.016126983242201087,0.9984115629500431,198.41895060505095,20.866842845659733,-52.70181395663861,3.318061491956705,-38.193939208984375,4381.2578125,True
1599564656.029025,0.0,10,0.5,0.5,-0.10452033386230469,-0.001,-0.001,-0.001,0.316431160375105,10,1,100,0.4772749652350846,-10,-1,-100,6487.838677470223,-0.052852851344353385,0.017492115312855813,0.9984490983553711,198.18411161185222,20.842847574548458,-49.623828299793374,3.12769856803283,-38.3748779296875,4381.2578125,True
1599564656.0838773,0.0,10,0.5,0.5,-0.1037109375,-0.001,-0.001,-0.001,0.4724094509365675,10,1,100,0.31949013929851716,-10,-1,-100,6487.968847713317,-0.050402389815219314,0.020132826681442343,0.9985260479280096,197.6782580631847,20.790931167716867,-43.478038959111004,2.7468809814627555,-38.76104736328125,4381.2578125,True
1599564656.1393008,0.0,10,0.5,0.5,-0.1030190399169922,-0.001,-0.001,-0.001,0.5057224321543872,10,1,100,0.2705881942266341,-10,-1,-100,6488.0995105725015,-0.047744018242835334,0.022816931710821657,0.9985989667275507,197.1129396594252,20.73265271934144,-37.347422362923744,2.3659341084378314,-39.17730712890625,4381.2578125,True
1599564656.192162,0.0,10,0.5,0.5,-0.10179883117675782,-0.001,-0.001,-0.001,0.6837440526769438,10,1,100,0.05304076605642388,-10,-1,-100,6488.201294734958,-0.04336515732314041,0.02685505511329076,0.9986982873446822,196.18564500938228,20.636810788708367,-28.19658400240179,1.7942536404953109,-39.85870361328125,4381.2578125,True
1599564656.244061,0.0,10,0.5,0.5,-0.10165330505371094,-0.001,-0.001,-0.001,0.42794235389977264,10,1,100,0.3165650090154999,-10,-1,-100,6488.2344171196455,-0.041799574789719685,0.02817658493093263,0.9987286296131841,195.8837934997612,20.60562948748499,-25.163938330362452,1.6036204530042122,-40.10125732421875,4381.2578125,True
1599564656.2959256,0.0,10,0.5,0.5,-0.10000589599609376,-0.001,-0.001,-0.001,0.7169964369241146,10,1,100,-0.07950135575580919,-10,-1,-100,6488.274242045358,-0.036795234979027244,0.031983027023939195,0.9988108913429128,194.87094237496186,20.50087087463119,-16.10599722184448,1.0314909221898372,-40.875885009765625,4381.2578125,True
1599564656.345796,0.0,10,0.5,0.5,-0.10039419250488282,-0.001,-0.001,-0.001,0.3389097882021277,10,1,100,0.4184778640497777,-10,-1,-100,6488.274242045358,-0.036795234979027244,0.031983027023939195,0.9988108913429128,194.87094237496186,20.50087087463119,-16.10599722184448,1.0314909221898372,-40.875885009765625,4381.2578125,True
1599564656.4046419,0.0,10,0.5,0.5,-0.09772862548828126,-0.001,-0.001,-0.001,0.8720590959772361,10,1,100,-0.39214697849983815,-10,-1,-100,6488.346300809993,-0.029448234240063983,0.03680658836208864,0.9988884204721197,193.27024037204362,20.335159376642192,-4.15286576792634,0.2680915995926285,-42.0155029296875,4381.2578125,True
1599564656.468468,0.0,10,0.5,0.5,-0.09840667419433594,-0.001,-0.001,-0.001,0.39240320888331764,10,1,100,0.3396045556389862,-10,-1,-100,6488.346300809993,-0.029448234240063983,0.03680658836208864,0.9988884204721197,193.27024037204362,20.335159376642192,-4.15286576792634,0.2680915995926285,-42.0155029296875,4381.2578125,True
1599564656.5213351,0.0,10,0.5,0.5,-0.09673355407714844,-0.001,-0.001,-0.001,0.664084351090373,10,1,100,-0.10103709502259695,-10,-1,-100,6488.351613914594,-0.025468389425459887,0.03925295649566252,0.9989046834139997,192.36266974143075,20.24118181869663,1.7556697582459737,-0.11385730078671452,-42.62847900390625,4381.2578125,True
1599564656.5741944,0.0,10,0.5,0.5,-0.0949375,-0.001,-0.001,-0.001,0.7512890261143176,10,1,100,-0.39149357261321727,-10,-1,-100,6488.329114520806,-0.019235758527226185,0.04224867368708057,0.9989219364722975,191.54967809410905,20.15812891226489,10.552203316488185,-0.6870812514757829,-43.61126708984375,4381.2578125,True
1599564656.6296294,0.0,10,0.5,0.5,-0.09329722290039064,-0.001,-0.001,-0.001,0.7605089309975406,10,1,100,-0.4999478596245193,-10,-1,-100,6488.242244390189,-0.012614343367653826,0.0450333643069679,0.9989058386257429,191.53939861074284,20.15970003983975,19.363222096212535,-1.260582978194503,-44.660980224609375,4381.2578125,True
1599564656.6804943,0.0,10,0.5,0.5,-0.09227696228027345,-0.001,-0.001,-0.001,0.6499024354733897,10,1,100,-0.3404451236261895,-10,-1,-100,6488.185182072339,-0.008079252682979739,0.04653675078607726,0.9988839054176211,191.43804185167124,20.150818897111304,25.228612137546108,-1.64305633343621,-45.400970458984375,4381.2578125,True
1599564656.7363453,0.0,10,0.5,0.5,-0.09085198364257813,-0.001,-0.001,-0.001,0.6388886232507993,10,1,100,-0.40018391585673324,-10,-1,-100,6488.12814198737,-0.0034494219180527677,0.04778177672953926,0.9988518425176978,191.26416436845338,20.134255423793576,31.079435893166465,-2.0256324096076868,-46.172271728515625,4381.2578125,True
1599564656.7961855,0.0,10,0.5,0.5,-0.09099192810058593,-0.001,-0.001,-0.001,0.5164787010662242,10,1,100,0.05880758709545514,-10,-1,-100,6488.12814198737,-0.0034494219180527677,0.04778177672953926,0.9988518425176978,191.26416436845338,20.134255423793576,31.079435893166465,-2.0256324096076868,-46.172271728515625,4381.2578125,True
1599564656.8490443,0.0,10,0.5,0.5,-0.08711395263671876,-0.001,-0.001,-0.001,0.7080742043354348,10,1,100,-0.9892079895342205,-10,-1,-100,6487.8871811245335,0.006043128639606405,0.04950573113035153,0.9987555572718955,190.72043192107262,20.08004690574034,42.715348250490656,-2.791062748320496,-47.807708740234375,4381.2578125,True
1599564656.9090424,0.0,10,0.5,0.5,-0.08633251342773438,-0.001,-0.001,-0.001,0.6032541797105024,10,1,100,-0.5877631955301272,-10,-1,-100,6487.767727998085,0.010984277961424229,0.05010412335803929,0.9986835947687278,190.36031869036924,20.043242896534856,48.490822694870744,-3.1739023729748355,-48.6695556640625,4381.2578125,True
1599564656.9717185,0.0,10,0.5,0.5,-0.08461830139160156,-0.001,-0.001,-0.001,0.5421566842191234,10,1,100,-0.6146351468496156,-10,-1,-100,6487.648293449194,0.01567708643603537,0.05007621079116645,0.998622352079942,189.972667996896,20.003126667701235,54.23966505971001,-3.5568161522182886,-49.567901611328125,4381.2578125,True
1599564657.0345497,0.0,10,0.5,0.5,-0.08476140747070313,-0.001,-0.001,-0.001,0.5462749031493157,10,1,100,-0.14986683145611138,-10,-1,-100,6487.648293449194,0.01567708643603537,0.05007621079116645,0.998622352079942,189.972667996896,20.003126667701235,54.23966505971001,-3.5568161522182886,-49.567901611328125,4381.2578125,True
1599564657.0983768,0.0,10,0.5,0.5,-0.08024158020019531,-0.001,-0.001,-0.001,0.4831827077578492,10,1,100,-1.2106255729362903,-10,-1,-100,6487.345017547952,0.02527932470342236,0.04949058208539941,0.9984546249216273,189.15463941279896,19.916724336721582,65.66107881335678,-4.322836211544271,-51.4501953125,4381.2578125,True
1599564657.1532333,0.0,10,0.5,0.5,-0.08124170227050781,-0.001,-0.001,-0.001,0.5427693408935268,10,1,100,-0.25547651761047946,-10,-1,-100,6487.345017547952,0.02527932470342236,0.04949058208539941,0.9984546249216273,189.15463941279896,19.916724336721582,65.66107881335678,-4.322836211544271,-51.4501953125,4381.2578125,True
1599564657.2140672,0.0,10,0.5,0.5,-0.07644932556152344,-0.001,-0.001,-0.001,0.3418145280348036,10,1,100,-1.29066900812512,-10,-1,-100,6486.9168286855565,0.03464969726880032,0.047657136597230726,0.998262588606091,188.09988596451672,19.802422796880023,76.89838073856536,-5.0890579425943105,-53.454437255859375,4381.2578125,True
1599564657.2754369,0.0,10,0.5,0.5,-0.0754852325439453,-0.001,-0.001,-0.001,0.3885624849731273,10,1,100,-0.8833135703295145,-10,-1,-100,6486.73303724383,0.03942201922042346,0.046412964150798264,0.9981441484872418,187.4430940091628,19.730289858857454,82.4163801283137,-5.472225265664477,-54.498931884765625,4381.2578125,True
1599564657.3312874,0.0,10,0.5,0.5,-0.07346764831542969,-0.001,-0.001,-0.001,0.32841836501044275,10,1,100,-0.8856961429677093,-10,-1,-100,6486.487242901698,0.04373897049869772,0.04473524609677642,0.9980409110935156,186.68339395084467,19.64632408897304,87.84879509472015,-5.855422032522003,-55.5750732421875,4381.2578125,True
1599564657.3841453,0.0,10,0.5,0.5,-0.07250682983398438,-0.001,-0.001,-0.001,0.3939314920780998,10,1,100,-0.6974946630890166,-10,-1,-100,6486.396084451466,0.04590965057785279,0.04380839132158323,0.9979845333639367,186.2626386746548,19.59964757159641,90.52880701174273,-6.047029907473188,-56.1234130859375,4381.2578125,True
1599564657.4449828,0.0,10,0.5,0.5,-0.06982433776855468,-0.001,-0.001,-0.001,0.25862267410510115,10,1,100,-0.9456243925025063,-10,-1,-100,6486.150289713405,0.05009384903312012,0.04173932807656939,0.9978719530985743,185.35144105368644,19.49817027344595,95.81639558281417,-6.4302621305558025,-57.24127197265625,4381.2578125,True
1599564657.4988415,0.0,10,0.5,0.5,-0.06770758056640624,-0.001,-0.001,-0.001,0.2059082378467818,10,1,100,-0.9715541858218979,-10,-1,-100,6485.841503598844,0.05409334509499988,0.0393861997088028,0.9977588071718193,184.33842018296352,19.38493135548442,100.99536369587906,-6.813513310463218,-58.38690185546875,4381.2578125,True
1599564657.5497391,0.0,10,0.5,0.5,-0.06671521606445312,-0.001,-0.001,-0.001,0.29920653705458866,10,1,100,-0.7890774734383509,-10,-1,-100,6485.687844385277,0.05603118134128234,0.03810490202513072,0.9977016203049665,183.79931119231838,19.324496047795,103.54432327881753,-7.005145463823274,-58.97003173828125,4381.2578125,True
1599564657.6055536,0.0,10,0.5,0.5,-0.061560403442382804,-0.001,-0.001,-0.001,-0.2107428382652538,10,1,100,-1.364000572776177,-10,-1,-100,6485.1327532180585,0.0629827387456055,0.03231506554503575,0.9974913088137275,181.3613347849239,19.050746597605176,113.40646895461137,-7.771714363391446,-61.368896484375,4381.2578125,True
1599564657.6614394,0.0,10,0.5,0.5,-0.06277916870117187,-0.001,-0.001,-0.001,0.3664646952196301,10,1,100,-0.6735753975748178,-10,-1,-100,6485.1327532180585,0.0629827387456055,0.03231506554503575,0.9974913088137275,181.3613347849239,19.050746597605176,113.40646895461137,-7.771714363391446,-61.368896484375,4381.2578125,True
1599564657.714264,0.0,10,0.5,0.5,-0.05679309692382812,-0.001,-0.001,-0.001,-0.36299481742504763,10,1,100,-1.3264234869559852,-10,-1,-100,6484.452129572048,0.06888344554539595,0.02569922953602992,0.9972936480952083,178.49370594376643,18.728534978336985,122.68656866253497,-8.538345665971617,-63.865997314453125,4381.2578125,True
1599564657.782118,0.0,10,0.5,0.5,-0.05676840515136719,-0.001,-0.001,-0.001,0.09362169828858485,10,1,100,-0.8935233273860074,-10,-1,-100,6484.296492656809,0.07027262834834931,0.02385752090028434,0.9972424862597399,177.7097739222489,18.640518276246272,124.90641027192277,-8.730013236631375,-64.506103515625,4381.2578125,True
1599564657.8389328,0.0,10,0.5,0.5,-0.052408447265625,-0.001,-0.001,-0.001,-0.3285715950341513,10,1,100,-1.1318882587389185,-10,-1,-100,6483.707493429072,0.07367009124417015,0.018366755488215255,0.9971135241029037,175.2141146753031,18.360599698896724,131.31837168692613,-9.30503986193899,-66.45355224609375,4381.2578125,True
1599564657.8957784,0.0,10,0.5,0.5,-0.05316043395996094,-0.001,-0.001,-0.001,0.2177003253064989,10,1,100,-0.7955667763592094,-10,-1,-100,6483.707493429072,0.07367009124417015,0.018366755488215255,0.9971135241029037,175.2141146753031,18.360599698896724,131.31837168692613,-9.30503986193899,-66.45355224609375,4381.2578125,True
1599564657.9476397,0.0,10,0.5,0.5,-0.049420608520507815,-0.001,-0.001,-0.001,-0.219205747683673,10,1,100,-1.0138577360749026,-10,-1,-100,6483.335634195595,0.0756273444045442,0.014418853452494202,0.997031895900744,173.41728838712368,18.159576754420158,135.36533129206123,-9.688412575450592,-67.779541015625,4381.2578125,True
1599564658.0004973,0.0,10,0.5,0.5,-0.04417302551269531,-0.001,-0.001,-0.001,-0.711685746551463,10,1,100,-1.1273855204811545,-10,-1,-100,6482.526894967654,0.07841172014146228,0.006379478464739781,0.9969006492118334,169.52123657777304,17.725609455713787,142.88266342815743,-10.455217099107237,-70.4835205078125,4381.2578125,True
1599564658.0593772,0.0,10,0.5,0.5,-0.0427994842529297,-0.001,-0.001,-0.001,-0.3610181002627585,10,1,100,-0.9388676259986759,-10,-1,-100,6482.090992996236,0.07920342825144859,0.0022909887599620107,0.9968558412948781,167.42823007654158,17.493786547268964,146.33973730357548,-10.83865205711243,-71.86016845703125,4381.2578125,True
1599564658.1102393,0.0,10,0.5,0.5,-0.040051950073242186,-0.001,-0.001,-0.001,-0.3942976106619759,10,1,100,-0.9070905956662991,-10,-1,-100,6481.654564265395,0.07961145345463595,-0.0016946381471480828,0.9968245305370401,165.23111098937025,17.251618361653694,149.5769692806818,-11.222109810129941,-73.24859619140625,4381.2578125,True
1599564658.1645763,0.0,10,0.5,0.5,-0.03861097106933594,-0.001,-0.001,-0.001,-0.22816045461781725,10,1,100,-0.8794191842448704,-10,-1,-100,6481.43877481902,0.07970939056087206,-0.003771416153053745,0.9968110099094083,164.10581915315245,17.128026125273827,151.1214368429824,-11.41384760054018,-73.94937133789062,4381.2578125,True
1599564658.2174346,0.0,10,0.5,0.5,-0.0366468994140625,-0.001,-0.001,-0.001,-0.24978865729956862,10,1,100,-0.8700657125199402,-10,-1,-100,6481.220046348521,0.07969818668557346,-0.005823210290349278,0.9968020311280199,162.9687270981552,17.003435153889022,152.62099505989764,-11.605591255241915,-74.65277099609375,4381.2578125,True
1599564658.268815,0.0,10,0.5,0.5,-0.0331944580078125,-0.001,-0.001,-0.001,-0.48964596487907125,10,1,100,-0.8368979301401609,-10,-1,-100,6480.720547139645,0.07937128018826768,-0.0098343275060358,0.9967966120948543,160.95785130969628,16.782518673241164,155.77222809734397,-11.989093575199053,-76.06649780273438,4381.2578125,True
1599564658.3251753,0.0,10,0.5,0.5,-0.02766846923828125,-0.001,-0.001,-0.001,-0.9710842884699966,10,1,100,-0.6794086958889163,-10,-1,-100,6479.72144789563,0.07763283775693941,-0.01782520650108463,0.996822654495271,156.76076465816922,16.326327228901942,161.53240540340423,-12.756151680868374,-78.92633056640625,4381.2578125,True
1599564658.3919988,0.0,10,0.5,0.5,-0.026203527832031247,-0.001,-0.001,-0.001,-0.596929312739376,10,1,100,-0.6985450135116715,-10,-1,-100,6479.223315584823,0.07621971097102186,-0.021650339692303948,0.9968559667528213,154.56244506562385,16.09022942047101,164.1173240141602,-13.139702284776051,-80.36770629882812,4381.2578125,True
1599564658.4428608,0.0,10,0.5,0.5,-0.02336628112792969,-0.001,-0.001,-0.001,-0.6066546188940212,10,1,100,-0.650372268559499,-10,-1,-100,6478.662159434287,0.07449479837541628,-0.025179766199199632,0.9969034579081165,152.31693285685336,15.851085915386935,166.5180733703884,-13.523263291002213,-81.81130981445312,4381.2578125,True
1599564658.49775,0.0,10,0.5,0.5,-0.02327410888671875,-0.001,-0.001,-0.001,-0.2580666203731942,10,1,100,-0.822945998833181,-10,-1,-100,6478.662159434287,0.07449479837541628,-0.025179766199199632,0.9969034579081165,152.31693285685336,15.851085915386935,166.5180733703884,-13.523263291002213,-81.81130981445312,4381.2578125,True
1599564658.5505729,0.0,10,0.5,0.5,-0.01896932067871094,-0.001,-0.001,-0.001,-0.6498148797528379,10,1,100,-0.5978001763870586,-10,-1,-100,6478.099016040331,0.07244904775865983,-0.028705115266603944,0.9969589519315198,152.0028325086738,15.81492397778626,170.9553334975351,-13.906818142805689,-83.26211547851562,4381.2578125,True
1599564658.603431,0.0,10,0.5,0.5,-0.013325433349609374,-0.001,-0.001,-0.001,-1.0107982368849215,10,1,100,-0.2482421057352091,-10,-1,-100,6476.972156492411,0.06741689443966697,-0.03515974985296195,0.9971051871966107,158.7303669334134,16.513726810615236,188.5232231496437,-14.673757989798894,-86.1705322265625,4381.2578125,True
1599564658.663276,0.0,10,0.5,0.5,-0.011893267822265624,-0.001,-0.001,-0.001,-0.6816304341758479,10,1,100,-0.4319588256390772,-10,-1,-100,6476.347412942676,0.06452307663408298,-0.03800111878082953,0.9971924024746064,162.2144907654937,16.87848208115151,197.78050261165532,-15.057116206077831,-87.62530517578125,4381.2578125,True
1599564658.715133,0.0,10,0.5,0.5,-0.009004974365234376,-0.001,-0.001,-0.001,-0.6795909314664599,10,1,100,-0.38662739212287106,-10,-1,-100,6475.721676938585,0.06149394593960525,-0.040532634617320464,0.9972841120481944,165.653881422037,17.240437159623838,207.20759066296898,-15.44038958421695,-89.0780029296875,4381.2578125,True
1599564658.7690227,0.0,10,0.5,0.5,-0.006038009643554687,-0.001,-0.001,-0.001,-0.6960671104513805,10,1,100,-0.3223149967819218,-10,-1,-100,6475.096413923544,0.05817209211845438,-0.042950376806298526,0.9973822100031458,169.03028134957458,17.597643247481596,216.77712508838502,-15.823570659381689,-90.53140258789062,4381.2578125,True
1599564658.8328192,0.0,10,0.5,0.5,-0.005903546142578125,-0.001,-0.001,-0.001,-0.4580056082051691,10,1,100,-0.6523477694402968,-10,-1,-100,6475.096413923544,0.05817209211845438,-0.042950376806298526,0.9973822100031458,169.03028134957458,17.597643247481596,216.77712508838502,-15.823570659381689,-90.53140258789062,4381.2578125,True
1599564658.879693,0.0,10,0.5,0.5,-0.00011202392578124913,-0.001,-0.001,-0.001,-0.7937810638273783,10,1,100,-0.0773443242455284,-10,-1,-100,6474.125781942392,0.05296406006038359,-0.045972775448954735,0.997537624483127,173.9736560641457,18.124067584727634,231.38188428858524,-16.398154198650218,-92.70391845703125,4381.2578125,True
1599564658.9315553,0.0,10,0.5,0.5,0.003422625732421875,-0.001,-0.001,-0.001,-0.7643437099394552,10,1,100,0.019031963606154223,-10,-1,-100,6473.154641783214,0.047375763552300804,-0.04842720957152665,0.9977025320209185,178.81656520928422,18.643655952213926,246.33154506984022,-16.972494386077877,-94.86862182617188,4381.2578125,True
1599564658.9913943,0.0,10,0.5,0.5,0.0055802368164062505,-0.001,-0.001,-0.001,-0.6564492894026605,10,1,100,-0.12917408676013264,-10,-1,-100,6472.46538071055,0.043669043500481536,-0.049653312341821874,0.9978113865922951,182.2322452054286,19.011408082987938,256.8252280830822,-17.355240776082034,-96.30473327636719,4381.2578125,True
1599564659.053229,0.0,10,0.5,0.5,0.007026008605957032,-0.001,-0.001,-0.001,-0.5947090100076122,10,1,100,-0.2892917231206157,-10,-1,-100,6472.059959418955,0.041782936288354715,-0.050184427278369255,0.997865576865875,183.91449333619937,19.19312694628915,262.11923056085027,-17.546567895905326,-97.02100372314453,4381.2578125,True
1599564659.104093,0.0,10,0.5,0.5,0.009260044097900391,-0.001,-0.001,-0.001,-0.5947436749012551,10,1,100,-0.2655145794791095,-10,-1,-100,6471.715575068025,0.039881875573395786,-0.050644842664191655,0.997920104974475,185.5735376089207,19.37274145925873,267.4347714709179,-17.737863427193382,-97.73567199707031,4381.2578125,True
1599564659.1549573,0.0,10,0.5,0.5,0.0156774543762207,-0.001,-0.001,-0.001,-0.6838307092371105,10,1,100,0.4067058617748102,-10,-1,-100,6470.274077147595,0.032072150159475,-0.05185333902944926,0.998139573614655,192.5510891392478,20.129628946302002,289.75361707526594,-18.50271303773222,-100.57803344726562,4381.2578125,True
1599564659.6183827,0.0,10,0.5,0.5,0.014275843048095703,-0.001,-0.001,-0.001,-0.5646504316289986,10,1,100,-0.3707322051892489,-10,-1,-100,6470.274077147595,0.032072150159475,-0.05185333902944926,0.998139573614655,192.5510891392478,20.129628946302002,289.75361707526594,-18.50271303773222,-100.57803344726562,4381.2578125,True
1599564659.6784704,0.0,10,0.5,0.5,0.02119780960083008,-0.001,-0.001,-0.001,-0.5879622914700806,10,1,100,0.4735569610297855,-10,-1,-100,6468.77107382915,0.02442629494518797,-0.052052672100505806,0.998345569150506,199.1764399986431,20.853046246305343,312.4338767949571,-19.267015348519507,-103.3913803100586,4381.2578125,True
1599564659.7283351,0.0,10,0.5,0.5,0.021211720275878906,-0.001,-0.001,-0.001,-0.5572307170820872,10,1,100,-0.06291994254354921,-10,-1,-100,6468.363224642351,0.022386278101952272,-0.051944033272954375,0.9983990544667398,200.77864461115203,21.028571700130637,318.15420352948826,-19.458004123585013,-104.08934020996094,4381.2578125,True
1599564659.7787488,0.0,10,0.5,0.5,0.024649781799316407,-0.001,-0.001,-0.001,-0.5300155465517586,10,1,100,0.15297067542734405,-10,-1,-100,6467.549975669128,0.01860160791201761,-0.051589684009934945,0.99849510999646,203.89700496617502,21.37082126615469,329.6139977986544,-19.83987567435038,-105.47945404052734,4381.2578125,True
1599564659.8375604,0.0,10,0.5,0.5,0.026138094329833984,-0.001,-0.001,-0.001,-0.539721009048664,10,1,100,-0.02505217593995787,-10,-1,-100,6467.205127189169,0.016815361373785604,-0.05134792587788584,0.998539250169921,205.40822464943173,21.536983525602114,335.3427803410487,-20.030759435339576,-106.1712646484375,4381.2578125,True
1599564659.886427,0.0,10,0.5,0.5,0.029543735504150393,-0.001,-0.001,-0.001,-0.48754537181440083,10,1,100,0.21584293456403641,-10,-1,-100,6466.389948379016,0.013034407787798921,-0.05064893528259433,0.9986314583310305,208.37432329999066,21.863378718233797,346.85641844418655,-20.412421326783914,-107.54662322998047,4381.2578125,True
1599564659.9412806,0.0,10,0.5,0.5,0.03352637176513672,-0.001,-0.001,-0.001,-0.407348480867339,10,1,100,0.427499274832449,-10,-1,-100,6465.105926344171,0.007704248121520462,-0.04928240689125506,0.9987551696646615,212.5943381483133,22.328501831006754,364.10294350082575,-20.984652263149798,-109.59172058105469,4381.2578125,True
1599564659.9981623,0.0,10,0.5,0.5,0.03416251220703125,-0.001,-0.001,-0.001,-0.48204059956715145,10,1,100,0.09176541814925643,-10,-1,-100,6464.698595849215,0.0059434696632772125,-0.04871946480135453,0.9987948182273632,213.95081175538317,22.478059573538644,369.85854202651547,-21.175326792707242,-110.26799011230469,4381.2578125,True
1599564660.0549765,0.0,10,0.5,0.5,0.038838544464111335,-0.001,-0.001,-0.001,-0.3356572832569018,10,1,100,0.4656272868257388,-10,-1,-100,6463.414616516093,0.0009765990465653994,-0.046878273628149066,0.9989001320031681,217.85704523745628,22.908637301209918,387.1069424668192,-21.74714586130925,-112.28179168701172,4381.2578125,True
1599564660.1108274,0.0,10,0.5,0.5,0.042252911376953126,-0.001,-0.001,-0.001,-0.27590387481349943,10,1,100,0.49610385204969115,-10,-1,-100,6462.067689016112,-0.0037804291283659707,-0.04466467482032775,0.998994882458764,221.52103847406067,23.311851238212345,404.30577683596096,-22.31866288071395,-114.26856994628906,4381.2578125,True
1599564660.1656811,0.0,10,0.5,0.5,0.042949395751953126,-0.001,-0.001,-0.001,-0.41500881035996995,10,1,100,0.18377474563041413,-10,-1,-100,6461.59788844455,-0.005233051429684842,-0.04392343774019367,0.9990211943646728,222.68349095289025,23.439535810251662,410.01255866967784,-22.50910254831072,-114.92567443847656,4381.2578125,True
1599564660.2195373,0.0,10,0.5,0.5,0.047630619812011714,-0.001,-0.001,-0.001,-0.2273875882530728,10,1,100,0.49954132717037314,-10,-1,-100,6460.251993106678,-0.009390308625256935,-0.04155114737663568,0.999092250122884,226.00606958603333,23.80342655468094,427.05764869653865,-23.08022866621132,-116.87745666503906,4381.2578125,True
1599564660.3003209,0.0,10,0.5,0.5,0.049593714141845706,-0.001,-0.001,-0.001,-0.2694032960813719,10,1,100,0.3773099462685901,-10,-1,-100,6459.311453738017,-0.012027696609787678,-0.039786027594316466,0.9991358298662536,228.0791280265045,24.029333824700313,438.33649544073467,-23.46082126641955,-118.16059112548828,4381.2578125,True
1599564660.3491907,0.0,10,0.5,0.5,0.05226073455810547,-0.001,-0.001,-0.001,-0.2619489425031002,10,1,100,0.3768707908725598,-10,-1,-100,6458.371906439192,-0.01439004429693195,-0.03812465912847711,0.999169373525565,230.03538331715916,24.241400578354636,449.52911638312014,-23.84129084552961,-119.4321060180664,4381.2578125,True
1599564660.410027,0.0,10,0.5,0.5,0.054897286987304686,-0.001,-0.001,-0.001,-0.2349021921580833,10,1,100,0.388854381154009,-10,-1,-100,6457.370361727197,-0.016616582422159056,-0.03638068554265159,0.9991998473318809,231.88532852877273,24.44061800682346,460.6454749044347,-24.22164062950432,-120.68850708007812,4381.2578125,True
1599564660.4679081,0.0,10,0.5,0.5,0.05757539825439454,-0.001,-0.001,-0.001,-0.21424007769508105,10,1,100,0.39560155386346824,-10,-1,-100,6456.430351745803,-0.018671653248091558,-0.03462102418799677,0.9992260775465966,233.62234902301785,24.626163412377533,471.66232380560166,-24.601873248540446,-121.92990112304688,4381.2578125,True
1599564660.520732,0.0,10,0.5,0.5,0.060224205780029294,-0.001,-0.001,-0.001,-0.19634516505891164,10,1,100,0.39993807029696776,-10,-1,-100,6455.429316735594,-0.02055049863830211,-0.03287322185170412,0.9992482315675149,235.24972639961743,24.798305088918845,482.5759212764717,-24.981992294163184,-123.15583801269531,4381.2578125,True
1599564660.5755854,0.0,10,0.5,0.5,0.06035468063354492,-0.001,-0.001,-0.001,-0.3694844801842218,10,1,100,0.21487900595189482,-10,-1,-100,6455.429316735594,-0.02055049863830211,-0.03287322185170412,0.9992482315675149,235.24972639961743,24.798305088918845,482.5759212764717,-24.981992294163184,-123.15583801269531,4381.2578125,True
1599564660.636422,0.0,10,0.5,0.5,0.066447664642334,-0.001,-0.001,-0.001,0.013223939640582216,10,1,100,0.5771284132515798,-10,-1,-100,6453.362816342968,-0.023819589642570537,-0.029408460074160127,0.9992836282183983,238.1879051025762,25.103439447318124,504.0788490442419,-25.741903399796964,-125.55793762207031,4381.2578125,True
1599564660.7211974,0.0,10,0.5,0.5,0.06537317962646486,-0.001,-0.001,-0.001,-0.331505256758418,10,1,100,0.25269893169365065,-10,-1,-100,6453.362816342968,-0.023819589642570537,-0.029408460074160127,0.9992836282183983,238.1879051025762,25.103439447318124,504.0788490442419,-25.741903399796964,-125.55793762207031,4381.2578125,True
1599564660.8009825,0.0,10,0.5,0.5,0.07001240081787108,-0.001,-0.001,-0.001,-0.04408259675388282,10,1,100,0.4801295153369762,-10,-1,-100,6451.828088383889,-0.02586892298431513,-0.026809396087524504,0.9993057865863951,240.1214361733094,25.29861188461002,519.8988595482554,-26.311564145692685,-127.31307983398438,4381.2578125,True
1599564660.8727915,0.0,10,0.5,0.5,0.07292120056152344,-0.001,-0.001,-0.001,-0.019142416140077556,10,1,100,0.4651029979212491,-10,-1,-100,6450.23087164131,-0.02757658870798121,-0.024235439950141772,0.9993258603707071,241.83315924197905,25.4659658222296,535.4415493209185,-26.881004925400745,-129.0256805419922,4381.2578125,True
1599564660.947592,0.0,10,0.5,0.5,0.0746620391845703,-0.001,-0.001,-0.001,-0.10528003317470597,10,1,100,0.4011693470522962,-10,-1,-100,6449.103889010032,-0.028531264103339237,-0.02269429062322363,0.9993352471226931,242.85425200420752,25.56239931928268,545.6412282866073,-27.26051527636249,-130.14498901367188,4381.2578125,True
1599564661.0144129,0.0,10,0.5,0.5,0.07693840560913087,-0.001,-0.001,-0.001,-0.09122936022459535,10,1,100,0.3982344945646009,-10,-1,-100,6448.0394106185995,-0.029357467106055166,-0.02118105033281622,0.9993445362996264,243.8896531622166,25.658355348833833,555.9523715040733,-27.63993392177597,-131.2436065673828,4381.2578125,True
1599564661.0802774,0.0,10,0.5,0.5,0.07917618103027343,-0.001,-0.001,-0.001,-0.07952308003636005,10,1,100,0.39259227980751094,-10,-1,-100,6446.91194560891,-0.030043661135451444,-0.019714359893276124,0.9993541526603952,244.90321162351887,25.74999577094766,566.2932862927747,-28.019261000039837,-132.32122802734375,4381.2578125,True
1599564661.1371255,0.0,10,0.5,0.5,0.08032396545410156,-0.001,-0.001,-0.001,-0.148518339183897,10,1,100,0.3580549029366822,-10,-1,-100,6446.318183703581,-0.030341291300882988,-0.019023385781989442,0.9993585526904668,245.3790460409826,25.791804561981934,571.4214067741852,-28.208890935924824,-132.852294921875,4381.2578125,True
1599564661.1950266,0.0,10,0.5,0.5,0.08193646850585938,-0.001,-0.001,-0.001,-0.14241746739803418,10,1,100,0.3587151683720468,-10,-1,-100,6445.790828853031,-0.030607257829730623,-0.018353944699499167,0.9993629613319237,245.83480963317578,25.831001584830435,576.5213416009382,-28.398498857045354,-133.37796020507812,4381.2578125,True
1599564661.2628486,0.0,10,0.5,0.5,0.08652612457275391,-0.001,-0.001,-0.001,0.06713371183485742,10,1,100,0.4165862031244942,-10,-1,-100,6443.474372767145,-0.03136600339080397,-0.015853550519801907,0.9993822285628278,247.45741676704273,25.96178611324385,596.6212369507238,-29.156714519146234,-135.4245147705078,4381.2578125,True
1599564661.3206906,0.0,10,0.5,0.5,0.08768419036865234,-0.001,-0.001,-0.001,-0.05560069671239393,10,1,100,0.3636698934407262,-10,-1,-100,6442.2814719961025,-0.03156488244487957,-0.014711704680808412,0.9993934280060209,248.15197519713416,26.012031048748252,606.4868375951862,-29.535695934369436,-136.41339111328125,4381.2578125,True
1599564661.3850505,0.0,10,0.5,0.5,0.08875296630859375,-0.001,-0.001,-0.001,-0.11310092143194372,10,1,100,0.3534701898792883,-10,-1,-100,6441.686730279122,-0.031645915831842224,-0.014209753011349644,0.999398128340513,248.47012384831663,26.033402619078988,611.3705116886667,-29.72515582079691,-136.89944458007812,4381.2578125,True
1599564661.4464083,0.0,10,0.5,0.5,0.09224197540283205,-0.001,-0.001,-0.001,-0.002992911254671493,10,1,100,0.35213822794623306,-10,-1,-100,6439.904945673188,-0.03170035896042661,-0.012766268407559934,0.9994158842207415,249.32353698639704,26.08424118267142,625.8529877636805,-30.29341422280165,-138.3199005126953,4381.2578125,True
1599564661.5022554,0.0,10,0.5,0.5,0.09375362243652342,-0.001,-0.001,-0.001,-0.05142450789039475,10,1,100,0.3365721033139234,-10,-1,-100,6438.653446046868,-0.03160304118432223,-0.011907063398694014,0.9994295721205779,249.81260947438042,26.10758946913537,635.3706890274459,-30.67215395871792,-139.23561096191406,4381.2578125,True
1599564661.560103,0.0,10,0.5,0.5,0.09564003295898438,-0.001,-0.001,-0.001,-0.05565019756884387,10,1,100,0.33015441755768793,-10,-1,-100,6437.39657313819,-0.031452567469646704,-0.011175590911848577,0.9994427658287084,250.23712494845913,26.122531934574003,644.769866782211,-31.05081563668034,-140.1261749267578,4381.2578125,True
1599564661.6169493,0.0,10,0.5,0.5,0.09574758758544921,-0.001,-0.001,-0.001,-0.1276455762822501,10,1,100,0.3454939193618712,-10,-1,-100,6437.39657313819,-0.031452567469646704,-0.011175590911848577,0.9994427658287084,250.23712494845913,26.122531934574003,644.769866782211,-31.05081563668034,-140.1261749267578,4381.2578125,True
1599564661.677786,0.0,10,0.5,0.5,0.10003797454833985,-0.001,-0.001,-0.001,0.008090924540474081,10,1,100,0.28156570187105634,-10,-1,-100,6434.893561874633,-0.030869497219399668,-0.009950718594751964,0.9994738902747133,250.9131753828361,26.129689523984872,663.2429760358253,-31.807908708126007,-141.82723999023438,4381.2578125,True
1599564661.7386258,0.0,10,0.5,0.5,0.10090720062255859,-0.001,-0.001,-0.001,-0.0602849311262469,10,1,100,0.292107980225031,-10,-1,-100,6433.644491717801,-0.03043452148958945,-0.00946767303190571,0.9994919224631384,251.168987741347,26.122523801612253,672.3174511756583,-32.18634180642764,-142.6370849609375,4381.2578125,True
1599564661.8044488,0.0,10,0.5,0.5,0.1018651107788086,-0.001,-0.001,-0.001,-0.08567981320305859,10,1,100,0.3122511636174786,-10,-1,-100,6432.978940013563,-0.030222124102249046,-0.009268090277971116,0.9995002379776342,251.27506905368003,26.11616430617337,676.8084521225427,-32.37553013634593,-143.03172302246094,4381.2578125,True
1599564661.8652866,0.0,10,0.5,0.5,0.10397149353027343,-0.001,-0.001,-0.001,-0.06689724171530398,10,1,100,0.277750999424374,-10,-1,-100,6431.662484862027,-0.029715747833572708,-0.008924160628525106,0.9995185509472888,251.4530686792656,26.0989408820814,685.7203292630098,-32.753850826524115,-143.79954528808594,4381.2578125,True
1599564661.9211369,0.0,10,0.5,0.5,0.10623657836914063,-0.001,-0.001,-0.001,-0.06140937005303354,10,1,100,0.22841849309002044,-10,-1,-100,6429.6980515161995,-0.028808428673152125,-0.008567907013818344,0.9995482306556228,251.64031211448025,26.06259381750975,698.9204098569701,-33.32119251528673,-144.89724731445312,4381.2578125,True
1599564662.1046462,0.0,10,0.5,0.5,0.10804997558593751,-0.001,-0.001,-0.001,-0.07633826586986805,10,1,100,0.20632720768126644,-10,-1,-100,6427.654024219373,-0.027785269072482674,-0.008385342596662501,0.999578743697617,251.73040013359977,26.01376129860297,711.9026931202387,-33.88836688806943,-145.92860412597656,4381.2578125,True
1599564662.1575043,0.0,10,0.5,0.5,0.10984792633056642,-0.001,-0.001,-0.001,-0.09212067084504486,10,1,100,0.1822108058692124,-10,-1,-100,6425.617319938843,-0.02663939364336392,-0.008368146272126694,0.9996100823992734,251.74254866889737,25.954732210408338,724.7081599623251,-34.45537379987143,-146.8917999267578,4381.2578125,True
1599564662.2156155,0.0,10,0.5,0.5,0.11153073883056641,-0.001,-0.001,-0.001,-0.1081564033197003,10,1,100,0.1587199139518525,-10,-1,-100,6423.521532809711,-0.02538873602247729,-0.00850229092880504,0.99964149730398,251.69115626349836,25.887282661070625,737.3673970668372,-35.02221197847429,-147.7862091064453,4381.2578125,True
1599564662.2754548,0.0,10,0.5,0.5,0.11313985748291017,-0.001,-0.001,-0.001,-0.12315217185981203,10,1,100,0.13506013793473787,-10,-1,-100,6421.3598295210395,-0.02404233504439008,-0.008763661032940816,0.9996725285666868,251.5860989892769,25.81268661267132,749.9002571365476,-35.588879989072844,-148.61044311523438,4381.2578125,True
1599564662.3313053,0.0,10,0.5,0.5,0.11316405029296875,-0.001,-0.001,-0.001,-0.09677396845834374,10,1,100,0.26895921250093313,-10,-1,-100,6421.3598295210395,-0.02404233504439008,-0.008763661032940816,0.9996725285666868,251.5860989892769,25.81268661267132,749.9002571365476,-35.588879989072844,-148.61044311523438,4381.2578125,True
1599564662.4021149,0.0,10,0.5,0.5,0.11598510284423828,-0.001,-0.001,-0.001,-0.15118211420963085,10,1,100,0.05474183502758226,-10,-1,-100,6418.4842347857775,-0.02210164091501894,-0.009260473203296978,0.9997128393218297,251.38049172070862,25.704368647073377,766.4545169057374,-36.3441680839442,-149.5967559814453,4381.2578125,True
1599564662.4549747,0.0,10,0.5,0.5,0.11577574157714844,-0.001,-0.001,-0.001,-0.10143187263486911,10,1,100,0.24793446233425803,-10,-1,-100,6418.4842347857775,-0.02210164091501894,-0.009260473203296978,0.9997128393218297,251.38049172070862,25.704368647073377,766.4545169057374,-36.3441680839442,-149.5967559814453,4381.2578125,True
1599564662.5118222,0.0,10,0.5,0.5,0.11818194427490235,-0.001,-0.001,-0.001,-0.17563556720938972,10,1,100,0.013959536180753629,-10,-1,-100,6415.539797717705,-0.019982171477782147,-0.009935240608364083,0.999750970900797,251.1094525971823,25.587394702499616,782.844949803425,-37.09914150971314,-150.45187377929688,4381.2578125,True
1599564662.5687172,0.0,10,0.5,0.5,0.11806884155273437,-0.001,-0.001,-0.001,-0.10822554173571855,10,1,100,0.22488248464198635,-10,-1,-100,6415.539797717705,-0.019982171477782147,-0.009935240608364083,0.999750970900797,251.1094525971823,25.587394702499616,782.844949803425,-37.09914150971314,-150.45187377929688,4381.2578125,True
1599564662.622571,0.0,10,0.5,0.5,0.11984143524169921,-0.001,-0.001,-0.001,-0.1775091559046643,10,1,100,0.03566259039056971,-10,-1,-100,6413.316094180453,-0.01827083932672908,-0.010564172482645554,0.9997772625390385,250.87666689540748,25.49562541638964,795.0638961517459,-37.6651595329452,-151.00555419921875,4381.2578125,True
1599564662.6844077,0.0,10,0.5,0.5,0.12023260040283204,-0.001,-0.001,-0.001,-0.13582978207473007,10,1,100,0.1415285401307348,-10,-1,-100,6412.536287542665,-0.0176870801773609,-0.010755210546748556,0.9997857233632088,250.79171442885257,25.464118607313456,799.1163487945176,-37.85379108183728,-151.1725616455078,4381.2578125,True
1599564662.7422523,0.0,10,0.5,0.5,0.12175704193115236,-0.001,-0.001,-0.001,-0.22047057487681931,10,1,100,-0.072193993586887,-10,-1,-100,6409.463454043958,-0.015222638088588834,-0.011696188841452017,0.9998157182482224,250.44822507831478,25.33704076520537,815.3252533788814,-38.60810588900474,-151.75608825683594,4381.2578125,True
1599564662.800636,0.0,10,0.5,0.5,0.12213949737548829,-0.001,-0.001,-0.001,-0.1839230503044594,10,1,100,0.030845563487426564,-10,-1,-100,6407.89408350247,-0.01392933830452142,-0.01221634793818887,0.9998283524572863,250.27385053452016,25.27287762317321,823.4269422814991,-38.985134063848214,-151.99586486816406,4381.2578125,True
1599564662.8554876,0.0,10,0.5,0.5,0.12232068634033204,-0.001,-0.001,-0.001,-0.13227854633171257,10,1,100,0.15902960212237244,-10,-1,-100,6407.89408350247,-0.01392933830452142,-0.01221634793818887,0.9998283524572863,250.27385053452016,25.27287762317321,823.4269422814991,-38.985134063848214,-151.99586486816406,4381.2578125,True
1599564662.911339,0.0,10,0.5,0.5,0.12340068359375,-0.001,-0.001,-0.001,-0.2318316889697782,10,1,100,-0.1372047610009232,-10,-1,-100,6404.769513434614,-0.011245492273164067,-0.013118237701348331,0.9998507142284517,249.93214312114048,25.14469491626354,839.663357751533,-39.73892366396443,-152.36659240722656,4381.2578125,True
1599564662.967399,0.0,10,0.5,0.5,0.12340557098388671,-0.001,-0.001,-0.001,-0.14207817032067274,10,1,100,0.12990015785768946,-10,-1,-100,6404.769513434614,-0.011245492273164067,-0.013118237701348331,0.9998507142284517,249.93214312114048,25.14469491626354,839.663357751533,-39.73892366396443,-152.36659240722656,4381.2578125,True
1599564663.0362134,0.0,10,0.5,0.5,0.1240511459350586,-0.001,-0.001,-0.001,-0.21847165935297055,10,1,100,-0.10304062416067881,-10,-1,-100,6402.3549304289045,-0.00913771802630786,-0.01380921690664372,0.9998628944198784,249.6914354471745,25.04977456574788,851.9009367854487,-40.30402487281426,-152.55088806152344,4381.2578125,True
1599564663.0890722,0.0,10,0.5,0.5,0.1242478042602539,-0.001,-0.001,-0.001,-0.1703849465211009,10,1,100,0.02791546788850585,-10,-1,-100,6401.568789006444,-0.008423854932239088,-0.013996092664164942,0.9998665651266756,249.61322476889754,25.018278923569312,855.988497104121,-40.49234492721223,-152.59365844726562,4381.2578125,True
1599564663.1429276,0.0,10,0.5,0.5,0.1245710678100586,-0.001,-0.001,-0.001,-0.2262140970532068,10,1,100,-0.14504943596112796,-10,-1,-100,6399.095137479948,-0.006212987826766754,-0.014669825764879924,0.9998730894440017,249.4070638686271,24.926532970965756,868.3541051258471,-41.057160045399954,-152.66958618164062,4381.2578125,True
1599564663.2037644,0.0,10,0.5,0.5,0.12472994232177734,-0.001,-0.001,-0.001,-0.1787005731318328,10,1,100,-0.007410435943023541,-10,-1,-100,6398.253337020986,-0.005466889716184686,-0.014846065107011494,0.9998748459020605,249.3405584906479,24.8961366766871,872.4854473535302,-41.24538278173061,-152.6761016845703,4381.2578125,True
1599564663.257621,0.0,10,0.5,0.5,0.12482166442871094,-0.001,-0.001,-0.001,-0.22270682609405007,10,1,100,-0.18579910286910223,-10,-1,-100,6395.780188290635,-0.003178543506882586,-0.015402446906220018,0.9998763230972499,249.17349344117218,24.808124236903446,884.999401379578,-41.80990001333198,-152.64169311523438,4381.2578125,True
1599564663.313471,0.0,10,0.5,0.5,0.12476812286376954,-0.001,-0.001,-0.001,-0.21848493938691635,10,1,100,-0.21615638483196836,-10,-1,-100,6393.244550235802,-0.0008354430593732379,-0.015865642993290668,0.9998737837383795,249.04762801925907,24.724167058701564,897.6708143972763,-42.374185844048355,-152.52426147460938,4381.2578125,True
1599564663.37032,0.0,10,0.5,0.5,0.12496237182617187,-0.001,-0.001,-0.001,-0.1725822760950352,10,1,100,0.016714940416044897,-10,-1,-100,6393.244550235802,-0.0008354430593732379,-0.015865642993290668,0.9998737837383795,249.04762801925907,24.724167058701564,897.6708143972763,-42.374185844048355,-152.52426147460938,4381.2578125,True
1599564663.4241762,0.0,10,0.5,0.5,0.12443852081298828,-0.001,-0.001,-0.001,-0.20697662305753628,10,1,100,-0.3315966675816083,-10,-1,-100,6389.801212702645,0.0023191225631098377,-0.016175001333808767,0.9998664865882787,248.95598864380293,24.61987862602683,914.8632022956351,-43.12619416060059,-152.2359161376953,4381.2578125,True
1599564663.4790294,0.0,10,0.5,0.5,0.12475087127685547,-0.001,-0.001,-0.001,-0.17643665434528835,10,1,100,-0.017764951420063804,-10,-1,-100,6389.801212702645,0.0023191225631098377,-0.016175001333808767,0.9998664865882787,248.95598864380293,24.61987862602683,914.8632022956351,-43.12619416060059,-152.2359161376953,4381.2578125,True
1599564663.5308924,0.0,10,0.5,0.5,0.12434049530029297,-0.001,-0.001,-0.001,-0.19278547886244474,10,1,100,-0.19766642792021102,-10,-1,-100,6388.041464239825,0.003942259063260018,-0.01632084813520795,0.9998590343191512,248.95717169172016,24.572514411642025,923.643802041702,-43.50203323938148,-152.03726196289062,4381.2578125,True
1599564664.014111,0.0,10,0.5,0.5,0.12348326721191405,-0.001,-0.001,-0.001,-0.16987899842916684,10,1,100,-0.3894175796492814,-10,-1,-100,6384.532231265563,0.0071472229415368,-0.01624228394123754,0.9998425403115213,249.03464913717943,24.48566166735449,941.5158707600623,-44.25337052334699,-151.52578735351562,4381.2578125,True
1599564664.0719566,0.0,10,0.5,0.5,0.1232684829711914,-0.001,-0.001,-0.001,-0.15922070857670134,10,1,100,-0.2460349598130056,-10,-1,-100,6382.779329694225,0.008742543613306054,-0.0160717565234833,0.9998326192785568,249.109026277016,24.44608745811108,950.6041127375682,-44.62886452764593,-151.2139129638672,4381.2578125,True
1599564664.1228201,0.0,10,0.5,0.5,0.122742919921875,-0.001,-0.001,-0.001,-0.14375758489270973,10,1,100,-0.2587878737171446,-10,-1,-100,6380.960999850649,0.010293164897183417,-0.01577427077943469,0.9998225958327689,249.21932846339803,24.410337379920566,959.843196423733,-45.004239029105946,-150.8641815185547,4381.2578125,True
1599564664.1756785,0.0,10,0.5,0.5,0.12291211090087892,-0.001,-0.001,-0.001,-0.1736166037990263,10,1,100,-0.10537636060180339,-10,-1,-100,6380.960999850649,0.010293164897183417,-0.01577427077943469,0.9998225958327689,249.21932846339803,24.410337379920566,959.843196423733,-45.004239029105946,-150.8641815185547,4381.2578125,True
1599564664.230535,0.0,10,0.5,0.5,0.12154491424560547,-0.001,-0.001,-0.001,-0.11249858560234452,10,1,100,-0.3624787593402069,-10,-1,-100,6378.241808079532,0.012616132108793114,-0.015217808608853562,0.9998046066666015,249.47880888511952,24.366670717852323,974.095909962303,-45.5670716940565,-150.27117919921875,4381.2578125,True
1599564664.283868,0.0,10,0.5,0.5,0.12054899749755861,-0.001,-0.001,-0.001,-0.08441756084493279,10,1,100,-0.3826817440825232,-10,-1,-100,6375.518714980339,0.014897225184626918,-0.014456819718073673,0.999784513305461,249.82491479901776,24.33265993183651,988.7321921374943,-46.129622392557216,-149.59524536132812,4381.2578125,True
1599564664.3337362,0.0,10,0.5,0.5,0.11993694305419922,-0.001,-0.001,-0.001,-0.08439248079180803,10,1,100,-0.3120809074705152,-10,-1,-100,6373.637892302126,0.016314817949599394,-0.013766064383495563,0.9997721351321314,250.08467907803455,24.313647620069673,998.6324809264682,-46.50449663384455,-149.0977020263672,4381.2578125,True
1599564664.4025514,0.0,10,0.5,0.5,0.11902453918457032,-0.001,-0.001,-0.001,-0.06821786189676327,10,1,100,-0.3235873682313226,-10,-1,-100,6371.756580060115,0.017692551687391738,-0.012992971706296689,0.9997590491218513,250.39684365231358,24.300528075008753,1008.7668396496346,-46.87924080126943,-148.56405639648438,4381.2578125,True
1599564664.4544275,0.0,10,0.5,0.5,0.11863054351806641,-0.001,-0.001,-0.001,-0.09935596745145163,10,1,100,-0.26154996880353515,-10,-1,-100,6370.83618752996,0.018367084700473726,-0.012576126622638071,0.9997522149206656,250.57338483467421,24.296296750369347,1013.9267132529446,-47.06656353484074,-148.28382873535156,4381.2578125,True
1599564664.50928,0.0,10,0.5,0.5,0.11793685760498047,-0.001,-0.001,-0.001,-0.09129114437350311,10,1,100,-0.26770990634224795,-10,-1,-100,6369.849877002649,0.019021706906229865,-0.01212713167743177,0.9997455212921196,250.7627753830023,24.293565652401586,1019.1460870431943,-47.253852952016544,-147.99447631835938,4381.2578125,True
1599564664.5696645,0.0,10,0.5,0.5,0.11532818756103516,-0.001,-0.001,-0.001,0.09132175841212592,10,1,100,-0.47192501441809415,-10,-1,-100,6365.963716287864,0.021459610395931347,-0.010062649625972846,0.9997190746425517,251.63072169536306,24.296257872969036,1040.5567208291418,-48.00267356452926,-146.7476043701172,4381.2578125,True
1599564664.615511,0.0,10,0.5,0.5,0.11542948608398437,-0.001,-0.001,-0.001,-0.050940095609734205,10,1,100,-0.29192795954009887,-10,-1,-100,6364.984241638333,0.02202653817181056,-0.009484755192404612,0.9997123941589929,251.87003704176718,24.299928983990217,1046.0235955822027,-48.1897935645976,-146.41372680664062,4381.2578125,True
1599564664.6768594,0.0,10,0.5,0.5,0.11317543487548828,-0.001,-0.001,-0.001,0.09731098145154402,10,1,100,-0.4026971896363152,-10,-1,-100,6362.071697106818,0.023536843701158626,-0.007617647735268305,0.9996939473816816,252.63259491712967,24.317635691541746,1062.6677932239334,-48.75094707890912,-145.35977172851562,4381.2578125,True
1599564664.7337055,0.0,10,0.5,0.5,0.11218758544921875,-0.001,-0.001,-0.001,0.06066405609032721,10,1,100,-0.35780068878888616,-10,-1,-100,6360.128859761986,0.02448965901213117,-0.00626084629846833,0.9996804781554437,253.2044274314943,24.337776066477172,1074.0823737513929,-49.12487599543285,-144.6140899658203,4381.2578125,True
1599564664.784572,0.0,10,0.5,0.5,0.11074923706054687,-0.001,-0.001,-0.001,0.08534350826282669,10,1,100,-0.34605168564869315,-10,-1,-100,6358.124007455772,0.02523613972618178,-0.004811680358428327,0.9996699380214698,253.81327620542416,24.363499615413005,1085.6994094719673,-49.49866511807898,-143.83457946777344,4381.2578125,True
1599564664.8414195,0.0,10,0.5,0.5,0.11088508758544922,-0.001,-0.001,-0.001,-0.0585324729161311,10,1,100,-0.2726656150053713,-10,-1,-100,6358.124007455772,0.02523613972618178,-0.004811680358428327,0.9996699380214698,253.81327620542416,24.363499615413005,1085.6994094719673,-49.49866511807898,-143.83457946777344,4381.2578125,True
1599564664.8932817,0.0,10,0.5,0.5,0.10868359375,-0.001,-0.001,-0.001,0.11114708861399858,10,1,100,-0.3466000031423485,-10,-1,-100,6356.181164331967,0.02589887151420743,-0.0032779071984813716,0.9996591938149164,254.48036287555328,24.397062887998757,1097.614651011002,-49.87231334921029,-143.02186584472656,4381.2578125,True
1599564664.9521224,0.0,10,0.5,0.5,0.10632814636230468,-0.001,-0.001,-0.001,0.228818734939132,10,1,100,-0.36477800100558666,-10,-1,-100,6353.142139446689,0.026657896707928726,-0.0008233604111965755,0.9996442760406038,255.56871477714876,24.460549704567406,1115.9675999337744,-50.43252015039122,-141.7415771484375,4381.2578125,True
1599564665.0498624,0.0,10,0.5,0.5,0.10422098693847656,-0.001,-0.001,-0.001,0.27335923945591906,10,1,100,-0.33969587778255617,-10,-1,-100,6350.1031145210145,0.02711174999562914,0.0018018961534921217,0.9996307849313297,256.7179374164818,24.536311603343982,1134.7172230322983,-50.992408958853055,-140.38897705078125,4381.2578125,True
1599564665.1027212,0.0,10,0.5,0.5,0.10290357818603517,-0.001,-0.001,-0.001,0.2114158829223965,10,1,100,-0.3051064825871409,-10,-1,-100,6348.036730341497,0.02720194515058469,0.0036123006776533407,0.9996234318301261,257.5241695997731,24.594694011623737,1147.4712049666834,-51.36549180245488,-139.44871520996094,4381.2578125,True
1599564665.1595693,0.0,10,0.5,0.5,0.10202661743164063,-0.001,-0.001,-0.001,0.13286247086731523,10,1,100,-0.2953642292025808,-10,-1,-100,6347.001583168982,0.027187938225917047,0.004529692469703633,0.9996200767797501,257.94617587552585,24.627001226666927,1153.9568667837,-51.55198039771889,-138.96739196777344,4381.2578125,True
1599564665.2194095,0.0,10,0.5,0.5,0.09875378417968751,-0.001,-0.001,-0.001,0.3527932490863415,10,1,100,-0.2660916347575567,-10,-1,-100,6343.900532366708,0.026903882592328076,0.007349789953471704,0.9996110051860664,259.292036857799,24.737166896298017,1173.878111869288,-52.111235575320855,-137.4793243408203,4381.2578125,True
1599564665.27526,0.0,10,0.5,0.5,0.09729198455810548,-0.001,-0.001,-0.001,0.28533773929011036,10,1,100,-0.25281333223024355,-10,-1,-100,6341.768222254119,0.026520504407525694,0.009284978899526144,0.9996051480523725,260.2381900960713,24.820266820658823,1187.474498448566,-52.48389791583494,-136.45111083984375,4381.2578125,True
1599564665.3291163,0.0,10,0.5,0.5,0.0953200180053711,-0.001,-0.001,-0.001,0.3004877074563264,10,1,100,-0.22387793036083486,-10,-1,-100,6339.699874351732,0.02590621725825039,0.01116660253687324,0.9996020082488591,261.2075790082511,24.9098843618355,1201.257030068186,-52.8564223602104,-135.39645385742188,4381.2578125,True
1599564665.3919482,0.0,10,0.5,0.5,0.09328909301757812,-0.001,-0.001,-0.001,0.3248886205309237,10,1,100,-0.20277052113442695,-10,-1,-100,6337.569024871336,0.025154601076627203,0.013083152827107538,0.9995979577594076,262.2151844007704,25.007689702806925,1215.299561645041,-53.22881010161487,-134.31454467773438,4381.2578125,True
1599564665.44983,0.0,10,0.5,0.5,0.09341899871826172,-0.001,-0.001,-0.001,0.13502307482604753,10,1,100,-0.27792398543179003,-10,-1,-100,6337.569024871336,0.025154601076627203,0.013083152827107538,0.9995979577594076,262.2151844007704,25.007689702806925,1215.299561645041,-53.22881010161487,-134.31454467773438,4381.2578125,True
1599564665.5076375,0.0,10,0.5,0.5,0.08798814392089845,-0.001,-0.001,-0.001,0.5472918375559477,10,1,100,-0.052745063427247274,-10,-1,-100,6333.244335164083,0.023107594093540046,0.01681478263993796,0.9995915676815106,264.30621015732,25.224993700434727,1244.0072072461367,-53.97318299012216,-132.0751190185547,4381.2578125,True
1599564665.5614922,0.0,10,0.5,0.5,0.08681688537597657,-0.001,-0.001,-0.001,0.38561924917280854,10,1,100,-0.11928258523420987,-10,-1,-100,6331.112510478124,0.02185410274117926,0.018719156493720336,0.9995859099514867,265.37795240071364,25.34376541469706,1258.6272688427673,-54.345172505469414,-130.9171142578125,4381.2578125,True
1599564665.6193395,0.0,10,0.5,0.5,0.08689244384765625,-0.001,-0.001,-0.001,0.1971361154850627,10,1,100,-0.24415134107361347,-10,-1,-100,6331.112510478124,0.02185410274117926,0.018719156493720336,0.9995859099514867,265.37795240071364,25.34376541469706,1258.6272688427673,-54.345172505469414,-130.9171142578125,4381.2578125,True
1599564665.6911907,0.0,10,0.5,0.5,0.08239258422851563,-0.001,-0.001,-0.001,0.4777795390932572,10,1,100,0.0030605890972490724,-10,-1,-100,6327.8224878251785,0.01961150123713001,0.021255081017121896,0.9995817177950894,266.989151407384,25.532330459948195,1280.7629108111446,-54.90291831586619,-129.14077758789062,4381.2578125,True
1599564665.7450473,0.0,10,0.5,0.5,0.07948177032470703,-0.001,-0.001,-0.001,0.5060820261934627,10,1,100,0.06381429192420401,-10,-1,-100,6324.467040976509,0.01702736661130697,0.023801723393543847,0.9995716816465846,268.6253918938926,25.7356134347202,1303.2554552497897,-55.46038655968513,-127.3125991821289,4381.2578125,True
1599564665.8028896,0.0,10,0.5,0.5,0.0801444694519043,-0.001,-0.001,-0.001,0.25334499164365154,10,1,100,-0.1935831134966391,-10,-1,-100,6324.467040976509,0.01702736661130697,0.023801723393543847,0.9995716816465846,268.6253918938926,25.7356134347202,1303.2554552497897,-55.46038655968513,-127.3125991821289,4381.2578125,True
1599564665.8637285,0.0,10,0.5,0.5,0.07664275054931641,-0.001,-0.001,-0.001,0.41552038062373886,10,1,100,0.01762186728993273,-10,-1,-100,6322.272723470232,0.01511629998232088,0.025261088808417303,0.9995665935129374,269.7064408312791,25.877176902906996,1318.340382456769,-55.831883226918166,-126.07007598876953,4381.2578125,True
1599564665.9165883,0.0,10,0.5,0.5,0.07175673141479492,-0.001,-0.001,-0.001,0.5766202251618644,10,1,100,0.2959409703065631,-10,-1,-100,6317.760561816976,0.010859160478023438,0.02803780494509532,0.9995478778565705,271.83578057898876,26.173920884395372,1348.6913516349337,-56.5745349949952,-123.52485656738281,4381.2578125,True
1599564665.978914,0.0,10,0.5,0.5,0.07311479110717774,-0.001,-0.001,-0.001,0.30063573173488484,10,1,100,-0.1282682744451585,-10,-1,-100,6317.760561816976,0.010859160478023438,0.02803780494509532,0.9995478778565705,271.83578057898876,26.173920884395372,1348.6913516349337,-56.5745349949952,-123.52485656738281,4381.2578125,True
1599564666.0277514,0.0,10,0.5,0.5,0.06812748184204101,-0.001,-0.001,-0.001,0.4820603390039587,10,1,100,0.2559299212596591,-10,-1,-100,6314.343617222388,0.007379445463069282,0.029673524418343276,0.9995324035434027,273.3850971958734,26.40620825082913,1371.526974666561,-57.13123921380736,-121.57068634033203,4381.2578125,True
1599564666.0816073,0.0,10,0.5,0.5,0.06616241455078124,-0.001,-0.001,-0.001,0.4162127968928705,10,1,100,0.17682838169662096,-10,-1,-100,6312.024314320646,0.0049513323142418115,0.03054684594611222,0.9995210725697875,274.37147359403895,26.563158894082964,1386.6681998439324,-57.5022474386224,-120.24826049804688,4381.2578125,True
1599564666.1394517,0.0,10,0.5,0.5,0.06362370300292969,-0.001,-0.001,-0.001,0.4180653547864632,10,1,100,0.21662636373996708,-10,-1,-100,6309.704526291112,0.0023986625801675995,0.03134513234920194,0.9995057424026326,275.3203623192459,26.721332323122397,1401.7409437435313,-57.873157555701724,-118.9090347290039,4381.2578125,True
1599564666.2032804,0.0,10,0.5,0.5,0.0610576530456543,-0.001,-0.001,-0.001,0.3992598852927061,10,1,100,0.24676083839077298,-10,-1,-100,6307.3837647148175,-0.00017820927476081813,0.03188841028765346,0.9994914194382966,276.2252601405817,26.87976713108159,1416.7112771704212,-58.24397354267924,-117.55680084228516,4381.2578125,True
1599564666.2681072,0.0,10,0.5,0.5,0.059710940551757824,-0.001,-0.001,-0.001,0.37038030605621663,10,1,100,0.13639745426869695,-10,-1,-100,6306.224606153322,-0.001497487185389652,0.03210778564428318,0.9994832903221297,276.6587739617531,26.95871141199133,1424.1449656536474,-58.42934736634101,-116.8753433227539,4381.2578125,True
1599564666.3279495,0.0,10,0.5,0.5,0.053651114654541025,-0.001,-0.001,-0.001,0.3942437997993743,10,1,100,0.5943261309512122,-10,-1,-100,6301.521087389905,-0.006840628720872804,0.03251429254376876,0.999447860860726,278.25384639684285,27.270098432178944,1453.462974019826,-59.1706267294298,-114.11797332763672,4381.2578125,True
1599564666.3917785,0.0,10,0.5,0.5,0.05508902206420899,-0.001,-0.001,-0.001,0.35446436676583903,10,1,100,0.06239877693611503,-10,-1,-100,6301.521087389905,-0.006840628720872804,0.03251429254376876,0.999447860860726,278.25384639684285,27.270098432178944,1453.462974019826,-59.1706267294298,-114.11797332763672,4381.2578125,True
