Timestamp,Input Throttle,horizon,dT,dt,Input Roll,Roll P,Roll I,Roll D,Input Pitch,Pitch P,Pitch I,Pitch D,Input Yaw,Yaw P,Yaw I,Yaw D,Altitude,Direction X,Direction Y,Direction Z,Drag X,Drag Y,Drag Z,Vertical Velocity,Roll,Mass,Has Fuel
1599565221.3746705,0.0,10,0.5,0.5,-0.0556575927734375,-0.001,-0.00825,-0.5,-0.06718257065997177,10,1,100,0.6903735678834981,-10,-1,-100,6483.617967439583,-0.06725783999415909,-0.007002485836325375,0.9977110544398274,205.0732803130814,21.498783458668935,-156.76529223938496,9.590824592805633,-35.944580078125,4381.2578125,True
1599565221.4454439,0.0,10,0.5,0.5,-0.10117387695312499,-0.001,-0.00825,-0.5,-0.06550697051158129,10,1,100,0.7105684880884344,-10,-1,-100,6484.156591946026,-0.06754206094095389,-0.006955048232368057,0.9976921856504308,204.3811771555457,21.43561105844438,-147.02550623646545,9.02079846249871,-35.939544677734375,4381.2578125,True
1599565221.5142622,0.0,10,0.5,0.5,-0.14325605239868164,-0.001,-0.00825,-0.5,-0.07094623573054992,10,1,100,0.6889005995030502,-10,-1,-100,6484.156591946026,-0.06754206094095389,-0.006955048232368057,0.9976921856504308,204.3811771555457,21.43561105844438,-147.02550623646545,9.02079846249871,-35.939544677734375,4381.2578125,True
1599565222.1278212,0.0,10,0.5,0.5,-0.18703030548095706,-0.001,-0.00825,-0.5,-0.037092553451033225,10,1,100,0.6998490806977452,-10,-1,-100,6484.538935898221,-0.0675801907145957,-0.006640964713252116,0.9976917436817127,203.9322264016586,21.39456328286782,-140.5688197136428,8.640801688399053,-35.941192626953125,4381.2578125,True
1599565222.177646,0.0,10,0.5,0.5,-0.2094576789855957,-0.001,-0.00825,-0.5,0.0025133002487675304,10,1,100,0.6994675074440296,-10,-1,-100,6485.015972677618,-0.06754994876040485,-0.005989343785227389,0.9976979162970568,203.3200281853927,21.338962241145005,-130.96393770936652,8.070820102921932,-35.987091064453125,4381.2578125,True
1599565222.2463658,0.0,10,0.5,0.5,-0.2125231201171875,-0.001,-0.00825,-0.5,0.060665219270224745,10,1,100,0.6759353686148519,-10,-1,-100,6485.493930422119,-0.06724711849563846,-0.004862862456114182,0.9977244998609417,202.7614425387647,21.2882912469682,-121.4347638216532,7.500832805937016,-36.11572265625,4381.2578125,True
1599565222.3053296,0.0,10,0.5,0.5,-0.24626881713867188,-0.001,-0.00825,-0.5,0.05956256585415093,10,1,100,0.671262087216614,-10,-1,-100,6485.750199541682,-0.06686820013450717,-0.003844391858470016,0.9977544108957925,202.4139529522465,21.256655929212446,-115.11783022722845,7.120825586802678,-36.265472412109375,4381.2578125,True
1599565222.367164,0.0,10,0.5,0.5,-0.3168699745178223,-0.001,-0.00825,-0.5,0.021044139194661027,10,1,100,0.688586022532955,-10,-1,-100,6485.9093299981905,-0.06662042994532319,-0.003265182110372073,0.9977730487940063,202.2467184633623,21.241362843049632,-111.96894524669764,6.930814310003314,-36.36248779296875,4381.2578125,True
1599565222.4260461,0.0,10,0.5,0.5,-0.35350156784057624,-0.001,-0.00825,-0.5,0.03242585583139424,10,1,100,0.6887802473830082,-10,-1,-100,6486.005466428469,-0.0663363859720243,-0.002632189295303303,0.9977938441760825,202.083314619635,21.226360536205732,-108.82592558360736,6.740796490232478,-36.474517822265625,4381.2578125,True
1599565222.4799044,0.0,10,0.5,0.5,-0.23280578155517584,-0.001,-0.00825,-0.5,0.211589529106011,10,1,100,0.6052656822424185,-10,-1,-100,6486.420305423089,-0.06525863505322721,-0.0004255877161121749,0.9978682926248762,201.60499665380846,21.181892233729066,-99.42495642220214,6.170692714528297,-36.915374755859375,4381.2578125,True
1599565222.5407386,0.0,10,0.5,0.5,-0.40264817428588867,-0.001,-0.00825,-0.5,0.08293745049041967,10,1,100,0.6715121542175031,-10,-1,-100,6486.517885672743,-0.06482177611313678,0.0004112362663890315,0.9978967723298194,201.44794545336984,21.167073064912312,-96.29964431410579,5.980637620627165,-37.103759765625,4381.2578125,True
1599565222.5985851,0.0,10,0.5,0.5,-0.2703517936706543,-0.001,-0.00825,-0.5,0.1996162547233647,10,1,100,0.6050753861270952,-10,-1,-100,6486.772114350577,-0.06382287560666997,0.0022259619961417063,0.9979587594898335,201.13213361102447,21.136859819239525,-90.05890278390184,5.6004897635904225,-37.553924560546875,4381.2578125,True
1599565222.6589394,0.0,10,0.5,0.5,-0.22650888290405274,-0.001,-0.00825,-0.5,0.231388030124204,10,1,100,0.5724863333050161,-10,-1,-100,6486.965291207191,-0.06262190119816695,0.004156200608444032,0.9980286686698079,200.80355657242907,21.104759192485204,-83.82720398469554,5.220284123018286,-38.088043212890625,4381.2578125,True
1599565222.7141416,0.0,10,0.5,0.5,-0.001070111846923849,-0.001,-0.00825,-0.5,0.3998078753936764,10,1,100,0.4607532378864917,-10,-1,-100,6487.255520749139,-0.06051882374094379,0.007431951350404247,0.9981393880977436,200.2520985829063,21.049443184162463,-74.48641800251693,4.649845771350675,-39.067535400390625,4381.2578125,True
1599565222.7749808,0.0,10,0.5,0.5,0.09743520736694333,-0.001,-0.00825,-0.5,0.4629784790912244,10,1,100,0.38971168564114467,-10,-1,-100,6487.54377896653,-0.05796752227485018,0.010971391225742465,0.9982581805003585,199.58736680635164,20.981096874832133,-65.1484476467978,4.079220421543411,-40.236541748046875,4381.2578125,True
1599565222.8433075,0.0,10,0.5,0.5,-0.27604041061401363,-0.001,-0.00825,-0.5,0.2424539402786922,10,1,100,0.5381054964480467,-10,-1,-100,6487.578826488694,-0.057005903246178324,0.012168876455016943,0.9982996771715945,199.32928941402022,20.954264554436456,-62.03560040461847,3.8889641682875644,-40.6507568359375,4381.2578125,True
1599565222.8991601,0.0,10,0.5,0.5,-0.06352212142944336,-0.001,-0.00825,-0.5,0.3938365947869094,10,1,100,0.4049501991946797,-10,-1,-100,6487.770987979951,-0.054930511622581904,0.014618221941785596,0.9983831661642447,198.74775272010385,20.893488046220458,-55.811667024909084,3.5083716501325592,-41.480865478515625,4381.2578125,True
1599565222.9679744,0.0,10,0.5,0.5,0.15549279708862307,-0.001,-0.00825,-0.5,0.573470109053521,10,1,100,0.22709327812840657,-10,-1,-100,6487.935207197093,-0.05143776330826624,0.018461147410544245,0.9985055545875191,197.79955820727514,20.793965067667962,-46.515789673908074,2.937263068017969,-42.737884521484375,4381.2578125,True
1599565223.0268173,0.0,10,0.5,0.5,-0.4677570220947266,-0.001,-0.00825,-0.5,0.19135019512974774,10,1,100,0.574849842896267,-10,-1,-100,6487.935207197093,-0.05143776330826624,0.018461147410544245,0.9985055545875191,197.79955820727514,20.793965067667962,-46.515789673908074,2.937263068017969,-42.737884521484375,4381.2578125,True
1599565223.0826693,0.0,10,0.5,0.5,-0.01594322967529299,-0.001,-0.00825,-0.5,0.47184139488557986,10,1,100,0.28696342839856437,-10,-1,-100,6488.004329759278,-0.048834158287981454,0.020991891647682857,0.9985862834374185,197.0776255610786,20.71802910970316,-40.34268787911869,2.556363873171858,-43.62939453125,4381.2578125,True
1599565223.1415126,0.0,10,0.5,0.5,0.4521326713562011,-0.001,-0.00825,-0.5,0.7867036439397053,10,1,100,-0.09478567454044906,-10,-1,-100,6488.201199038653,-0.04301172958533629,0.02613548187342474,0.9987326607783094,195.44705329764744,20.54651601948592,-28.08848387182974,1.7941447824148864,-45.442352294921875,4381.2578125,True
1599565223.2103276,0.0,10,0.5,0.5,-0.20055985870361331,-0.001,-0.00825,-0.5,0.4096771993820088,10,1,100,0.3112057934896544,-10,-1,-100,6488.234313799767,-0.04142927142550327,0.02736057417756827,0.9987667467681459,194.9993311756774,20.499469619359637,-25.04815596430232,1.6034972023921998,-45.9351806640625,4381.2578125,True
1599565223.2821357,0.0,10,0.5,0.5,0.27789575424194335,-0.001,-0.00825,-0.5,0.6747141154130984,10,1,100,-0.0846572722378987,-10,-1,-100,6488.274114207365,-0.03641227577738746,0.03086087131599827,0.9988602268557544,193.4704920431025,20.339045443348912,-15.987435853746408,1.0313216520885602,-47.36822509765625,4381.2578125,True
1599565223.3509514,0.0,10,0.5,0.5,0.024544000244140607,-0.001,-0.00825,-0.5,0.5934384858837343,10,1,100,0.018773046776525026,-10,-1,-100,6488.34184971964,-0.03281547320234129,0.033279813290933546,0.9989072022694737,192.35784045607923,20.22253563220662,-10.014687791304398,0.6496742440017655,-48.277435302734375,4381.2578125,True
1599565223.4347303,0.0,10,0.5,0.5,0.022287705993652263,-0.001,-0.00825,-0.5,0.5780330796590009,10,1,100,-0.03310754533440202,-10,-1,-100,6488.346129796701,-0.029099195797235067,0.03531530424615847,0.9989524844005121,191.15629901632707,20.096900215139918,-4.10394342149904,0.2678673949858221,-49.1651611328125,4381.2578125,True
1599565223.5594,0.0,10,0.5,0.5,0.013050576019287108,-0.001,-0.00825,-0.5,0.5949964594533704,10,1,100,-0.09303914717818385,-10,-1,-100,6488.351408368908,-0.025202172981720138,0.03729783228265683,0.9989863473461559,189.89473490773017,19.965149699367224,1.7367873861429226,-0.11409859378197096,-50.017974853515625,4381.2578125,True
1599565223.6341965,0.0,10,0.5,0.5,0.22708904724121093,-0.001,-0.00825,-0.5,0.6862793874882509,10,1,100,-0.3767113991388267,-10,-1,-100,6488.328854368068,-0.019109498795486592,0.039907130792674585,0.9990206444151601,188.58166687778524,19.828695513219177,10.392165583854217,-0.6873251266033509,-51.2808837890625,4381.2578125,True
1599565223.7050042,0.0,10,0.5,0.5,-0.1866028541564942,-0.001,-0.00825,-0.5,0.5124951152710395,10,1,100,-0.000620987647912602,-10,-1,-100,6488.299540232285,-0.017022272378670857,0.04067637340994254,0.9990273644346691,188.42286701541997,19.812556234761463,13.271777410453684,-0.8784569885429798,-51.69940185546875,4381.2578125,True
1599565223.77333,0.0,10,0.5,0.5,0.4320931625366211,-0.001,-0.00825,-0.5,0.7115092759059323,10,1,100,-0.7370796855550059,-10,-1,-100,6488.184786161757,-0.008461001555982608,0.04316470886232207,0.9990321413055241,187.64509702374656,19.732768667997387,24.73058013781577,-1.6432256331259858,-53.337249755859375,4381.2578125,True
1599565223.831683,0.0,10,0.5,0.5,-0.37808631134033205,-0.001,-0.00825,-0.5,0.46514608681315694,10,1,100,0.11474972053859059,-10,-1,-100,6488.184786161757,-0.008461001555982608,0.04316470886232207,0.9990321413055241,187.64509702374656,19.732768667997387,24.73058013781577,-1.6432256331259858,-53.337249755859375,4381.2578125,True
1599565223.8905265,0.0,10,0.5,0.5,0.41527319412231445,-0.001,-0.00825,-0.5,0.6359904568086864,10,1,100,-0.8541005965076507,-10,-1,-100,6488.007630522014,0.00031002572922685947,0.0446976823920863,0.9990005110473285,186.69173572355683,19.633486137539684,36.07211365045127,-2.408332333154726,-54.904815673828125,4381.2578125,True
1599565223.949368,0.0,10,0.5,0.5,-0.17302699356079104,-0.001,-0.00825,-0.5,0.5214699367401652,10,1,100,-0.23515554194882532,-10,-1,-100,6487.978370428202,0.0026175302604147235,0.045033324327141175,0.9989820560127105,186.4374889162841,19.60672767776433,38.887742936426015,-2.599655818380998,-55.2794189453125,4381.2578125,True
1599565224.0082104,0.0,10,0.5,0.5,-0.15457724380493165,-0.001,-0.00825,-0.5,0.5173441277850894,10,1,100,-0.261719671151295,-10,-1,-100,6487.886619298253,0.004916711189075308,0.045284879868372575,0.9989620140958266,186.1888899031134,19.580430991640576,41.69756973354782,-2.7909966940111035,-55.674713134765625,4381.2578125,True
1599565224.0750322,0.0,10,0.5,0.5,0.0327942245483398,-0.001,-0.00825,-0.5,0.49207674268777934,10,1,100,-0.5054795862007915,-10,-1,-100,6487.76660180476,0.009185303091065387,0.045270750488105235,0.998932524927169,185.57973846518107,19.515616466961166,47.26803238349504,-3.1737289056949027,-56.429534912109375,4381.2578125,True
1599565224.1328769,0.0,10,0.5,0.5,0.0311315231323242,-0.001,-0.00825,-0.5,0.49090968332880885,10,1,100,-0.5786688972919916,-10,-1,-100,6487.646116219927,0.013693016033436907,0.045236395114419584,0.9988824604871986,185.01246452117363,19.45454093390573,52.816023169579815,-3.556526046648989,-57.166107177734375,4381.2578125,True
1599565224.1987038,0.0,10,0.5,0.5,0.26007208633422846,-0.001,-0.00825,-0.5,0.4252892792609184,10,1,100,-0.8563829106389809,-10,-1,-100,6487.435401390656,0.020276707727992126,0.04459959465511702,0.9987991446133265,184.2162365212492,19.36726773172331,61.0965128599819,-4.1308370465690984,-58.345001220703125,4381.2578125,True
1599565224.2571352,0.0,10,0.5,0.5,-0.12190943527221682,-0.001,-0.00825,-0.5,0.45207287893264525,10,1,100,-0.44042121432088677,-10,-1,-100,6487.342712964863,0.02243906759223264,0.044257534450609974,0.9987681206816447,183.9216422358309,19.33469896428847,63.83178520803264,-4.322302931560834,-58.745391845703125,4381.2578125,True
1599565224.3119893,0.0,10,0.5,0.5,0.46590274505615237,-0.001,-0.00825,-0.5,0.2609780880049861,10,1,100,-1.14601312139312,-10,-1,-100,6486.915345469024,0.030781549745482757,0.042205390343844906,0.9986346685456047,182.6253474447513,19.18985929395405,74.64198588756062,-5.0882971056463004,-60.30596923828125,4381.2578125,True
1599565224.3708313,0.0,10,0.5,0.5,-0.12072541351318361,-0.001,-0.00825,-0.5,0.39515657831745304,10,1,100,-0.5452031468757361,-10,-1,-100,6486.822668336215,0.03286025755089378,0.041558219234231905,0.9985955727359141,182.29103929857672,19.15202677009669,77.31728333554825,-5.2798264090940235,-60.6783447265625,4381.2578125,True
1599565224.4262702,0.0,10,0.5,0.5,0.23786196517944336,-0.001,-0.00825,-0.5,0.19489970908035317,10,1,100,-0.9694410155811978,-10,-1,-100,6486.485561747453,0.03856913503576538,0.03915082531390835,0.9984886752987401,181.24350953722777,19.03256244500632,85.26542602971986,-5.854481719531201,-61.753631591796875,4381.2578125,True
1599565224.4801278,0.0,10,0.5,0.5,-0.2928379524230957,-0.001,-0.00825,-0.5,0.4352377127578672,10,1,100,-0.40325628075321235,-10,-1,-100,6486.485561747453,0.03856913503576538,0.03915082531390835,0.9984886752987401,181.24350953722777,19.03256244500632,85.26542602971986,-5.854481719531201,-61.753631591796875,4381.2578125,True
1599565224.5524735,0.0,10,0.5,0.5,0.20853750991821285,-0.001,-0.00825,-0.5,0.11199517328971481,10,1,100,-1.0023849760149794,-10,-1,-100,6486.147478551138,0.04398097852968459,0.03621729937063258,0.998375671154836,180.23669324848015,18.915544744318243,93.14552877972669,-6.429231486357653,-62.74310302734375,4381.2578125,True
1599565224.6262505,0.0,10,0.5,0.5,0.037518230438232436,-0.001,-0.00825,-0.5,0.15672857175215013,10,1,100,-0.8348076505065065,-10,-1,-100,6485.839564572554,0.047339802884743876,0.03396513943090994,0.9983012132449166,179.54017653858014,18.833939510631595,98.33779133003254,-6.812444889009635,-63.376953125,4381.2578125,True
1599565224.705041,0.0,10,0.5,0.5,0.06496352081298823,-0.001,-0.00825,-0.5,0.10942479095592952,10,1,100,-0.8451113471902476,-10,-1,-100,6485.5917124158,0.050448383094017536,0.031497977606139586,0.9982298523135452,178.82360667246854,18.749540013384763,103.47914086213873,-7.195691874018374,-64.0516357421875,4381.2578125,True
1599565224.7768493,0.0,10,0.5,0.5,0.21928477401733398,-0.001,-0.00825,-0.5,-0.09354116026497344,10,1,100,-0.9980918844804172,-10,-1,-100,6485.128115232452,0.05462758536871972,0.027422478911505573,0.9981301691498614,177.6537427537799,18.611764742456298,111.05585716716784,-7.770616863683296,-65.02044677734375,4381.2578125,True
1599565224.8406768,0.0,10,0.5,0.5,-0.2586409133911133,-0.001,-0.00825,-0.5,0.31222731757813654,10,1,100,-0.584265113943727,-10,-1,-100,6485.128115232452,0.05462758536871972,0.027422478911505573,0.9981301691498614,177.6537427537799,18.611764742456298,111.05585716716784,-7.770616863683296,-65.02044677734375,4381.2578125,True
1599565224.903509,0.0,10,0.5,0.5,0.3562675132751465,-0.001,-0.00825,-0.5,-0.3504617553230135,10,1,100,-1.0881766669166233,-10,-1,-100,6484.446780904196,0.05917737141607266,0.02141364835398931,0.9980177825953082,176.10524574346414,18.427217806494326,121.01076726460683,-8.537264903872115,-66.23681640625,4381.2578125,True
1599565224.971333,0.0,10,0.5,0.5,-0.09793514862060548,-0.001,-0.00825,-0.5,0.06742287778819406,10,1,100,-0.7534814236845402,-10,-1,-100,6484.291574146715,0.060237458062625635,0.01977079349916425,0.9979882586336208,175.73754032133564,18.382787083146447,123.48569104916108,-8.728937923086358,-66.53182983398438,4381.2578125,True
1599565225.0381532,0.0,10,0.5,0.5,0.20386411972045898,-0.001,-0.00825,-0.5,-0.31264974726890216,10,1,100,-0.9155029287261558,-10,-1,-100,6483.702398783178,0.06264731787049108,0.014842478491390303,0.9979253551222487,174.5887048996892,18.244037285127845,130.81404976449795,-9.303975907410162,-67.41839599609375,4381.2578125,True
1599565225.0979931,0.0,10,0.5,0.5,-0.23385841903686524,-0.001,-0.00825,-0.5,0.1775101794342084,10,1,100,-0.6774956539715713,-10,-1,-100,6483.702398783178,0.06264731787049108,0.014842478491390303,0.9979253551222487,174.5887048996892,18.244037285127845,130.81404976449795,-9.303975907410162,-67.41839599609375,4381.2578125,True
1599565225.166809,0.0,10,0.5,0.5,0.18671473083496093,-0.001,-0.00825,-0.5,-0.4016358219614233,10,1,100,-0.8829121487540539,-10,-1,-100,6483.173726225854,0.06449285129320935,0.009599613339450485,0.9978719955764893,173.5065270244524,18.111342801263817,138.09810574718114,-9.87903297860156,-68.24853515625,4381.2578125,True
1599565225.252579,0.0,10,0.5,0.5,-0.09265521469116211,-0.001,-0.00825,-0.5,-0.07198810679678215,10,1,100,-0.7458933055230934,-10,-1,-100,6482.955498375115,0.06490141608789228,0.007857034440978714,0.9978607484010881,173.1477117429229,18.06713581662058,140.50745823149302,-10.070721083885424,-68.50869750976562,4381.2578125,True
1599565225.336359,0.0,10,0.5,0.5,0.05693724670410155,-0.001,-0.00825,-0.5,-0.3097234413516485,10,1,100,-0.7920590635515026,-10,-1,-100,6482.521964525455,0.06567350875826393,0.004137423550896187,0.997832587147633,172.4735491847541,17.983022548523394,145.3326996320703,-10.454098862445283,-69.05743408203125,4381.2578125,True
1599565225.4071667,0.0,10,0.5,0.5,0.19350752410888672,-0.001,-0.00825,-0.5,-0.5407437097004755,10,1,100,-0.7569977202039733,-10,-1,-100,6481.866255472531,0.06604000469555742,-0.0013171090470045258,0.9978161068070455,171.4149584208911,17.85144276152639,152.45844791467098,-11.029165716011024,-69.86831665039062,4381.2578125,True
1599565225.4700012,0.0,10,0.5,0.5,-0.07038743972778322,-0.001,-0.00825,-0.5,-0.20659859451058776,10,1,100,-0.7231740571352218,-10,-1,-100,6481.6480040428,0.06605152077283417,-0.003208260282776063,0.9978110560970718,171.08176448833237,17.809532538113707,154.83188146885905,-11.22085341461467,-70.14126586914062,4381.2578125,True
1599565225.5503323,0.0,10,0.5,0.5,0.3383441635131836,-0.001,-0.00825,-0.5,-0.8270927206398643,10,1,100,-0.6265577533410216,-10,-1,-100,6480.712934453273,0.06517327450368021,-0.010540498244476082,0.9978182911668968,169.7261376883104,17.639217037967803,164.2117825400258,-11.987589493252774,-71.2210693359375,4381.2578125,True
1599565225.6171541,0.0,10,0.5,0.5,0.060647634887695284,-0.001,-0.00825,-0.5,-0.5097977220361516,10,1,100,-0.6210612772811103,-10,-1,-100,6480.2143666459015,0.06431531385014563,-0.01428715733402782,0.997827348562701,169.14397210842498,17.563911824340117,168.9412943796051,-12.370944790415674,-71.73422241210938,4381.2578125,True
1599565225.702925,0.0,10,0.5,0.5,0.03883283615112304,-0.001,-0.00825,-0.5,-0.5128013470590485,10,1,100,-0.5722670535553707,-10,-1,-100,6479.715290013817,0.06308709491084923,-0.017688061455930264,0.9978512669419429,168.69267619657273,17.50218445568711,173.77439814980093,-12.754288177599108,-72.19375610351562,4381.2578125,True
1599565225.7717407,0.0,10,0.5,0.5,0.019577014923095715,-0.001,-0.00825,-0.5,-0.5589648692661614,10,1,100,-0.5323740547013056,-10,-1,-100,6479.215705578681,0.06160527803386261,-0.021165407355037972,0.9978761522603222,168.50751131346607,17.468031614779523,178.86703969240247,-13.1376145620853,-72.6046142578125,4381.2578125,True
1599565225.8415544,0.0,10,0.5,0.5,-0.18157343215942384,-0.001,-0.00825,-0.5,-0.21483106794003343,10,1,100,-0.6804515384163047,-10,-1,-100,6479.215705578681,0.06160527803386261,-0.021165407355037972,0.9978761522603222,168.50751131346607,17.468031614779523,178.86703969240247,-13.1376145620853,-72.6046142578125,4381.2578125,True
1599565225.9063826,0.0,10,0.5,0.5,0.016650052642822266,-0.001,-0.00825,-0.5,-0.5818550661141324,10,1,100,-0.48556279706089267,-10,-1,-100,6478.653605149244,0.05983450951230125,-0.02446925471494212,0.9979083560353215,168.4018397355461,17.44206622090871,184.04038080193249,-13.52092038258678,-72.99172973632812,4381.2578125,True
1599565225.973717,0.0,10,0.5,0.5,0.21364143524169923,-0.001,-0.00825,-0.5,-0.9547383183992201,10,1,100,-0.18137871833415598,-10,-1,-100,6477.529372003977,0.05546364499680324,-0.030831628364669964,0.9979845664017313,168.37841064187205,17.409473514520066,194.60121111175883,-14.287461857885068,-73.76345825195312,4381.2578125,True
1599565226.0451288,0.0,10,0.5,0.5,0.037921711730956986,-0.001,-0.00825,-0.5,-0.6431649285651169,10,1,100,-0.3366571980977002,-10,-1,-100,6476.96626975853,0.05291033413610189,-0.03374794753610739,0.9980288435604986,168.36554855304288,17.393076901909236,199.88794466875,-14.670695530733074,-74.17425537109375,4381.2578125,True
1599565226.6165996,0.0,10,0.5,0.5,-0.06603076934814453,-0.001,-0.00825,-0.5,-0.5025879475098134,10,1,100,-0.44417757092970955,-10,-1,-100,6476.683495084988,0.05157820326541181,-0.03508673298137774,0.9980524085019812,168.38251705673048,17.387320759530223,202.5614378101647,-14.862302878634642,-74.36831665039062,4381.2578125,True
1599565226.6764398,0.0,10,0.5,0.5,-0.0691114212036133,-0.001,-0.00825,-0.5,-0.516199393151693,10,1,100,-0.42255619530381705,-10,-1,-100,6476.341148025007,0.05018376433312193,-0.03639685141570026,0.998076579729422,168.42690715060044,17.384408360865304,205.27043620284687,-15.053903720288247,-74.54843139648438,4381.2578125,True
1599565226.7448792,0.0,10,0.5,0.5,0.09964564514160154,-0.001,-0.00825,-0.5,-0.8132350841846911,10,1,100,-0.059519550505144014,-10,-1,-100,6475.433237940189,0.04563018467508839,-0.04025802119162715,0.9981468719463342,168.76810924272922,17.39718167500339,213.6787058439532,-15.628662691005353,-75.05776977539062,4381.2578125,True
1599565226.8156908,0.0,10,0.5,0.5,0.020345194244384746,-0.001,-0.00825,-0.5,-0.6851542668955027,10,1,100,-0.1514629178886303,-10,-1,-100,6474.807618088322,0.04234418204384286,-0.04257678853716156,0.998195465490051,169.05728191745607,17.412106874093713,219.3903914269412,-16.0117969879555,-75.4014892578125,4381.2578125,True
1599565226.9024596,0.0,10,0.5,0.5,0.11019072723388673,-0.001,-0.00825,-0.5,-0.7860665055070086,10,1,100,0.092404911920897,-10,-1,-100,6473.836722144042,0.037159900409720587,-0.04557642499211278,0.9982694682732103,169.55401070886444,17.441144343239426,228.0897010398136,-16.58643974703604,-75.91781616210938,4381.2578125,True
1599565226.9632971,0.0,10,0.5,0.5,-0.06327076721191408,-0.001,-0.00825,-0.5,-0.5907254621113744,10,1,100,-0.2232904795643835,-10,-1,-100,6473.492908109911,0.03534044538720391,-0.04650218649889341,0.9982928425921204,169.77074002116277,17.45613726341877,231.07309600179263,-16.77797107623691,-76.08074951171875,4381.2578125,True
1599565227.032112,0.0,10,0.5,0.5,0.016420561218261714,-0.001,-0.00825,-0.5,-0.6831978593849872,10,1,100,0.008046571869686714,-10,-1,-100,6472.804306481266,0.03160720838337599,-0.0481614125901415,0.9983393524826776,170.2618042988456,17.492122560971023,237.14615910604442,-17.16100764888136,-76.39669799804688,4381.2578125,True
1599565227.100928,0.0,10,0.5,0.5,0.01110420608520507,-0.001,-0.00825,-0.5,-0.6740729373955121,10,1,100,0.057468840442220226,-10,-1,-100,6472.115708916215,0.027791334183464377,-0.049562304286612624,0.9983843046332931,170.82424727837494,17.535544582588695,243.3595104285657,-17.544008312558585,-76.69515991210938,4381.2578125,True
1599565227.1767342,0.0,10,0.5,0.5,0.01589519271850587,-0.001,-0.00825,-0.5,-0.666558128700418,10,1,100,0.11189147623411116,-10,-1,-100,6471.36412963795,0.0238567365630083,-0.05074471388656582,0.9984266773945564,171.45719070614211,17.586315167045132,249.71894335942122,-17.926971076829158,-76.99649047851562,4381.2578125,True
1599565227.2535262,0.0,10,0.5,0.5,0.08838425216674806,-0.001,-0.00825,-0.5,-0.6933983389771374,10,1,100,0.3826673296391058,-10,-1,-100,6470.268271316192,0.017846964521124456,-0.05204553081129172,0.9984852270213878,172.50712528058006,17.673036250976054,259.4997980094985,-18.501342721485102,-77.43658447265625,4381.2578125,True
1599565227.3223464,0.0,10,0.5,0.5,-0.05746323623657226,-0.001,-0.00825,-0.5,-0.5997380866569062,10,1,100,0.008041176099030656,-10,-1,-100,6469.923985240515,0.015821103487607988,-0.052360000646063,0.9985029409154379,172.89250062807625,17.705645249514188,262.8403156182648,-18.69277969454943,-77.57931518554688,4381.2578125,True
1599565227.402663,0.0,10,0.5,0.5,-0.05577226181030273,-0.001,-0.00825,-0.5,-0.597771167013865,10,1,100,0.033283057200815896,-10,-1,-100,6469.517690456007,0.013782446446920246,-0.052612298255768616,0.9985198997727506,173.2935782290263,17.73990207222936,266.21936822393053,-18.88420628790064,-77.7198486328125,4381.2578125,True
1599565227.4734778,0.0,10,0.5,0.5,0.008233653259277343,-0.001,-0.00825,-0.5,-0.6046515870240778,10,1,100,0.2712954302253525,-10,-1,-100,6468.76516441151,0.009798465125968513,-0.05288946767664832,0.9985522992262628,174.1501306431746,17.81410106004346,273.10767741579025,-19.26702699601345,-77.98263549804688,4381.2578125,True
1599565227.547283,0.0,10,0.5,0.5,0.14167889404296874,-0.001,-0.00825,-0.5,-0.5710215470855261,10,1,100,0.7830719743933712,-10,-1,-100,6467.200572730624,0.001556724177711421,-0.05282422910847484,0.9986026123683683,176.06249256651788,17.9833272974127,287.40073998484166,-20.032530736556023,-78.50643920898438,4381.2578125,True
1599565227.6131072,0.0,10,0.5,0.5,-0.11766137771606447,-0.001,-0.00825,-0.5,-0.5785701479600057,10,1,100,-0.03702337464572479,-10,-1,-100,6467.200572730624,0.001556724177711421,-0.05282422910847484,0.9986026123683683,176.06249256651788,17.9833272974127,287.40073998484166,-20.032530736556023,-78.50643920898438,4381.2578125,True
1599565227.673942,0.0,10,0.5,0.5,0.08277654342651368,-0.001,-0.00825,-0.5,-0.499549862520334,10,1,100,0.6195251972936342,-10,-1,-100,6465.978330130689,-0.004379532679708198,-0.05209927396437204,0.9986323073813969,177.5887982704191,18.12016383990997,298.46080854970575,-20.606533610681737,-78.90225219726562,4381.2578125,True
1599565227.7347813,0.0,10,0.5,0.5,-0.05413714141845703,-0.001,-0.00825,-0.5,-0.5322301637215117,10,1,100,0.2390721773215146,-10,-1,-100,6465.508582635666,-0.006281356933918662,-0.05173222921932068,0.9986412373896185,178.13452210221854,18.169654884332548,302.24779502783366,-20.797843073670876,-79.01934814453125,4381.2578125,True
1599565227.8055928,0.0,10,0.5,0.5,0.12942894973754882,-0.001,-0.00825,-0.5,-0.3529060254392514,10,1,100,0.9049875396593543,-10,-1,-100,6463.817605096381,-0.014029619945074632,-0.049765086542499636,0.9986624083871457,180.44924983847378,18.381555795811927,317.82892204607964,-21.56294525792547,-79.498291015625,4381.2578125,True
1599565227.8604434,0.0,10,0.5,0.5,-0.049538801574707025,-0.001,-0.00825,-0.5,-0.48021908136839286,10,1,100,0.3448881190941714,-10,-1,-100,6463.409880804946,-0.01594366344632518,-0.04913398208814917,0.9986649345000913,181.06069980445096,18.43800458290885,321.83564003751314,-21.754186266699048,-79.61444091796875,4381.2578125,True
1599565227.9182875,0.0,10,0.5,0.5,-0.04628432693481445,-0.001,-0.00825,-0.5,-0.46756781975251266,10,1,100,0.36453276383959365,-10,-1,-100,6462.939171413775,-0.017826108490593757,-0.04844670359841203,0.9986666845181774,181.68298750756372,18.49561351718751,325.88421715224666,-21.94541248504753,-79.7325439453125,4381.2578125,True
1599565227.9771307,0.0,10,0.5,0.5,0.1323653022766113,-0.001,-0.00825,-0.5,-0.18318334309611206,10,1,100,0.9561343376524536,-10,-1,-100,6461.185267218505,-0.02488318822639872,-0.04523986320833179,0.9986662013508723,184.28696395260488,18.73836984861992,342.5209446788742,-22.710167481529556,-80.20321655273438,4381.2578125,True
1599565228.0399635,0.0,10,0.5,0.5,0.020789572906494136,-0.001,-0.00825,-0.5,-0.2941248855804377,10,1,100,0.6269144264609625,-10,-1,-100,6460.245828962536,-0.028268803073831488,-0.04333958609215065,0.9986603802345091,185.65799057093713,18.86717972686842,351.1135986923585,-23.092449369358786,-80.4459228515625,4381.2578125,True
1599565228.1017995,0.0,10,0.5,0.5,-0.09831456527709961,-0.001,-0.00825,-0.5,-0.4832253259821899,10,1,100,0.2925580666697608,-10,-1,-100,6460.245828962536,-0.028268803073831488,-0.04333958609215065,0.9986603802345091,185.65799057093713,18.86717972686842,351.1135986923585,-23.092449369358786,-80.4459228515625,4381.2578125,True
1599565228.1835787,0.0,10,0.5,0.5,0.12174315948486328,-0.001,-0.00825,-0.5,-0.017503288895236946,10,1,100,0.9530654512121584,-10,-1,-100,6458.36744885263,-0.03423880905312619,-0.03911443110189153,0.9986479686226768,188.43498201379398,19.129271835412208,368.6704699882608,-23.856812047136383,-80.881103515625,4381.2578125,True
1599565228.2713447,0.0,10,0.5,0.5,-0.09388807449340822,-0.001,-0.00825,-0.5,-0.4386478081204906,10,1,100,0.3596444066057716,-10,-1,-100,6458.36744885263,-0.03423880905312619,-0.03911443110189153,0.9986479686226768,188.43498201379398,19.129271835412208,368.6704699882608,-23.856812047136383,-80.881103515625,4381.2578125,True
1599565228.3371692,0.0,10,0.5,0.5,0.06958725891113281,-0.001,-0.00825,-0.5,-0.04209124132108211,10,1,100,0.8115294292147581,-10,-1,-100,6456.896293648286,-0.03831431331936167,-0.035521834856448345,0.9986341735807448,190.5214035497952,19.326979554047828,382.1152526653458,-24.42989568048403,-81.2034912109375,4381.2578125,True
1599565228.4199479,0.0,10,0.5,0.5,-0.03939095840454103,-0.001,-0.00825,-0.5,-0.26488317451431753,10,1,100,0.5360882053343697,-10,-1,-100,6456.424625702319,-0.03948445627099071,-0.03429628987971843,0.9986314346211371,191.20739691301554,19.392084928702808,386.6294532477722,-24.620886689151313,-81.30392456054688,4381.2578125,True
1599565228.5032394,0.0,10,0.5,0.5,0.09192649536132813,-0.001,-0.00825,-0.5,0.19364017254718052,10,1,100,0.897969332588139,-10,-1,-100,6454.422218518332,-0.04380786638447222,-0.029029614872440893,0.9986181213573074,193.96485789924924,19.654614730961143,404.97112808275034,-25.384653859758593,-81.66250610351562,4381.2578125,True
1599565228.580031,0.0,10,0.5,0.5,-6.570663452148962e-05,-0.001,-0.00825,-0.5,-0.020356711860100074,10,1,100,0.6750760785282329,-10,-1,-100,6453.356800184934,-0.04568486577214772,-0.026206005152863917,0.9986121060418349,195.32044331873817,19.783958587555844,414.2481761286662,-25.766414825351795,-81.83319091796875,4381.2578125,True
1599565228.6484153,0.0,10,0.5,0.5,-0.083577645111084,-0.001,-0.00825,-0.5,-0.3004248861242691,10,1,100,0.4903502599932652,-10,-1,-100,6453.356800184934,-0.04568486577214772,-0.026206005152863917,0.9986121060418349,195.32044331873817,19.783958587555844,414.2481761286662,-25.766414825351795,-81.83319091796875,4381.2578125,True
1599565228.710251,0.0,10,0.5,0.5,0.04854259567260742,-0.001,-0.00825,-0.5,0.15834687047248175,10,1,100,0.7380031949006151,-10,-1,-100,6451.822145699407,-0.04791092994650403,-0.022055571636934862,0.9986080785530574,197.28047357056147,19.971129680618997,428.1967385883048,-26.338896084545237,-82.09344482421875,4381.2578125,True
1599565228.7840536,0.0,10,0.5,0.5,-0.03804048309326172,-0.001,-0.00825,-0.5,-0.09605144958824524,10,1,100,0.5891957660194048,-10,-1,-100,6451.290408887318,-0.048560895531798674,-0.020616238888070872,0.9986074354416051,197.9164364929628,20.031924801219784,432.8580304750064,-26.529679535823362,-82.17724609375,4381.2578125,True
1599565228.8458877,0.0,10,0.5,0.5,0.10249732513427734,-0.001,-0.00825,-0.5,0.4070246074526954,10,1,100,0.7506410611007377,-10,-1,-100,6449.0989967942005,-0.050601010480571404,-0.014754993458916949,0.9986099478306695,200.3757707926362,20.267478905605948,451.5567929829307,-27.292586964299332,-82.53854370117188,4381.2578125,True
1599565228.902736,0.0,10,0.5,0.5,-0.031291033172607424,-0.001,-0.00825,-0.5,-0.008760495320716127,10,1,100,0.5921366963751381,-10,-1,-100,6448.567252760986,-0.050994409657035035,-0.01323243908729279,0.9986112720871577,200.96246659986565,20.323777190646666,456.227035468219,-27.4832561227053,-82.62863159179688,4381.2578125,True
1599565228.9624712,0.0,10,0.5,0.5,-0.028765429687499997,-0.001,-0.00825,-0.5,0.009431133371139516,10,1,100,0.5910364866459396,-10,-1,-100,6448.034043902997,-0.05132681100118752,-0.011706449390449047,0.9986132972853493,201.5724313778683,20.382537498112892,460.97336938765244,-27.673901299402523,-82.720703125,4381.2578125,True
1599565229.021314,0.0,10,0.5,0.5,0.05429044799804687,-0.001,-0.00825,-0.5,0.33937898425799934,10,1,100,0.6187489633361405,-10,-1,-100,6446.315258610877,-0.05186539110037519,-0.00734457645953914,0.9986270767421815,203.352836256333,20.554475871557425,475.23900368745666,-28.245691042265477,-82.975341796875,4381.2578125,True
1599565229.0931227,0.0,10,0.5,0.5,0.012126553344726565,-0.001,-0.00825,-0.5,0.2341085025362143,10,1,100,0.5788683989743206,-10,-1,-100,6445.187784605194,-0.051980139625637425,-0.004361857500179914,0.9986385929272147,204.48754606639196,20.664356764115272,484.741633891453,-28.626759803106808,-83.14239501953125,4381.2578125,True
1599565229.1496315,0.0,10,0.5,0.5,0.05778239059448241,-0.001,-0.00825,-0.5,0.4112514867532651,10,1,100,0.5372795555831498,-10,-1,-100,6443.470925198402,-0.05169501636017913,-6.71171645888281e-05,0.9986629164932516,206.09463216949368,20.820453055392495,498.9336111374252,-29.198172887620586,-83.397216796875,4381.2578125,True
1599565229.2104683,0.0,10,0.5,0.5,0.011979762268066393,-0.001,-0.00825,-0.5,0.2978319155492194,10,1,100,0.5178545481034271,-10,-1,-100,6442.278003115323,-0.051252052278150745,0.0027797756770864238,0.9986818812737431,207.1014950767764,20.918599102070896,508.343404489982,-29.578986177871776,-83.5572509765625,4381.2578125,True
1599565229.270887,0.0,10,0.5,0.5,-0.06661497802734376,-0.001,-0.00825,-0.5,0.016041209464689246,10,1,100,0.5627076749568662,-10,-1,-100,6442.278003115323,-0.051252052278150745,0.0027797756770864238,0.9986818812737431,207.1014950767764,20.918599102070896,508.343404489982,-29.578986177871776,-83.5572509765625,4381.2578125,True
1599565229.3257408,0.0,10,0.5,0.5,0.04620525970458984,-0.001,-0.00825,-0.5,0.46117669236697145,10,1,100,0.4471902409097981,-10,-1,-100,6440.493731052382,-0.05019683270817194,0.00680011117544358,0.998716194158315,208.5181989327404,21.057258147834776,522.376025916972,-30.15000938115752,-83.77960205078125,4381.2578125,True
1599565229.4030828,0.0,10,0.5,0.5,0.007990046691894528,-0.001,-0.00825,-0.5,0.3538528364609199,10,1,100,0.4478421488295332,-10,-1,-100,6439.241219195072,-0.04924139053222365,0.009453057772247454,0.9987421715123516,209.39270147664593,21.14320826292219,531.6498982582792,-30.530558841803654,-83.92245483398438,4381.2578125,True
1599565229.4634016,0.0,10,0.5,0.5,0.015306186676025388,-0.001,-0.00825,-0.5,0.3678146533889507,10,1,100,0.4183433866814368,-10,-1,-100,6438.05169019755,-0.04810401753910576,0.011964417289905513,0.9987706724846853,210.19382304084408,21.222237063496777,540.8074457083779,-30.911000986362282,-84.07675170898438,4381.2578125,True
1599565229.5232418,0.0,10,0.5,0.5,-0.022762773895263683,-0.001,-0.00825,-0.5,0.2502524310653651,10,1,100,0.4622345864722536,-10,-1,-100,6437.393447655835,-0.04747132299158916,0.013154433547790403,0.9987859802637725,210.5718847398244,21.259675482733265,545.3532623023605,-31.101181759998656,-84.1522216796875,4381.2578125,True
1599565229.58457,0.0,10,0.5,0.5,0.08721547088623047,-0.001,-0.00825,-0.5,0.6432225751193493,10,1,100,0.20033981368500337,-10,-1,-100,6434.890345654683,-0.04451848736547675,0.017784734298508267,0.9988502427834821,211.8929689424332,21.391434234230985,563.1895708267912,-31.861635191535505,-84.44454956054688,4381.2578125,True
1599565229.6444092,0.0,10,0.5,0.5,0.016107004547119143,-0.001,-0.00825,-0.5,0.4227775193117444,10,1,100,0.304630677054798,-10,-1,-100,6433.5733586912975,-0.04278837948476879,0.01996324248846541,0.9988846898067936,212.4490932974037,21.447558728492062,571.9134840340372,-32.2416996448246,-84.59152221679688,4381.2578125,True
1599565229.700293,0.0,10,0.5,0.5,0.01414723205566406,-0.001,-0.00825,-0.5,0.4136399063091514,10,1,100,0.2808493597479188,-10,-1,-100,6432.259787702002,-0.0410076121737132,0.021835809980268326,0.9989202035930178,212.9962131099319,21.50331138037498,580.6635101640674,-32.62165487690096,-84.73162841796875,4381.2578125,True
1599565229.7595475,0.0,10,0.5,0.5,0.00931455078125,-0.001,-0.00825,-0.5,0.4323577284116638,10,1,100,0.2425353155179616,-10,-1,-100,6430.940354646649,-0.03905039833198299,0.02368449002149341,0.9989565112268577,213.57570897385853,21.56284341443212,589.5528861322958,-33.00149805481274,-84.85919189453125,4381.2578125,True
1599565229.820385,0.0,10,0.5,0.5,-0.05326105804443359,-0.001,-0.00825,-0.5,0.2498648850077636,10,1,100,0.43699223788816327,-10,-1,-100,6430.940354646649,-0.03905039833198299,0.02368449002149341,0.9989565112268577,213.57570897385853,21.56284341443212,589.5528861322958,-33.00149805481274,-84.85919189453125,4381.2578125,True
1599565229.8762357,0.0,10,0.5,0.5,0.04089434204101562,-0.001,-0.00825,-0.5,0.5179275956166949,10,1,100,0.09570495643185667,-10,-1,-100,6428.975361673045,-0.03595887909505854,0.026102419468534234,0.9990123236037258,214.3398824653305,21.642447132198384,602.6891588335319,-33.57105227756067,-85.04498291015625,4381.2578125,True
1599565229.9351187,0.0,10,0.5,0.5,0.04504429779052734,-0.001,-0.00825,-0.5,0.5152114680631628,10,1,100,0.031450336714502036,-10,-1,-100,6426.942006149911,-0.03257817703968135,0.02825464267554701,0.9990697360785424,214.9433937820045,21.706913255120465,615.4713668743274,-34.14035436395146,-85.23623657226562,4381.2578125,True
1599565229.9909296,0.0,10,0.5,0.5,-0.049380809783935546,-0.001,-0.00825,-0.5,0.30213460051189545,10,1,100,0.3677586766853718,-10,-1,-100,6426.942006149911,-0.03257817703968135,0.02825464267554701,0.9990697360785424,214.9433937820045,21.706913255120465,615.4713668743274,-34.14035436395146,-85.23623657226562,4381.2578125,True
1599565230.0607781,0.0,10,0.5,0.5,0.01871609115600585,-0.001,-0.00825,-0.5,0.43099571659186814,10,1,100,0.11760128038776779,-10,-1,-100,6425.563486728934,-0.030319167267423622,0.029409015017271035,0.9991075307152498,215.2433148343254,21.740173953967826,623.745388131538,-34.51975005761322,-85.3699951171875,4381.2578125,True
1599565230.1155958,0.0,10,0.5,0.5,0.04636727600097656,-0.001,-0.00825,-0.5,0.48597452223068305,10,1,100,-0.05381970357130822,-10,-1,-100,6423.46372744476,-0.026723317484171984,0.03094239301762086,0.999163866749085,215.57497337205066,21.77904573320093,635.8680552751722,-35.08863657260581,-85.55654907226562,4381.2578125,True
1599565230.1781282,0.0,10,0.5,0.5,-0.013108461761474614,-0.001,-0.00825,-0.5,0.3843862167561354,10,1,100,0.16492753171324315,-10,-1,-100,6422.743463157676,-0.02546183618880952,0.03139667209592497,0.9991826378991957,215.65180703558312,21.78883014059028,639.8222367121193,-35.27821079317882,-85.6217041015625,4381.2578125,True
1599565230.2359734,0.0,10,0.5,0.5,0.0851372573852539,-0.001,-0.00825,-0.5,0.4811762984474818,10,1,100,-0.25040974124621285,-10,-1,-100,6419.8716885669855,-0.0205565658490092,0.032677188420852384,0.9992545366208768,215.77707922151706,21.8107461556024,655.140124845316,-36.036237406179154,-85.88088989257812,4381.2578125,True
1599565230.2888317,0.0,10,0.5,0.5,0.018896725463867184,-0.001,-0.00825,-0.5,0.4038875413303893,10,1,100,-0.04550896685170766,-10,-1,-100,6418.423353914288,-0.017980174228809643,0.03312711097341975,0.9992894014514796,215.7554475496696,21.813850983675678,662.5629117075052,-36.415090705342145,-86.00521850585938,4381.2578125,True
1599565230.3486745,0.0,10,0.5,0.5,-0.04221686935424805,-0.001,-0.00825,-0.5,0.3600244161729679,10,1,100,0.20982745137375755,-10,-1,-100,6418.423353914288,-0.017980174228809643,0.03312711097341975,0.9992894014514796,215.7554475496696,21.813850983675678,662.5629117075052,-36.415090705342145,-86.00521850585938,4381.2578125,True
1599565230.4085116,0.0,10,0.5,0.5,0.01664449615478515,-0.001,-0.00825,-0.5,0.3854634997337617,10,1,100,-0.054463826655877706,-10,-1,-100,6416.985766005004,-0.015596680995906753,0.03334979116856158,0.9993220376690014,215.68128897444225,21.812055734327355,669.8315256257644,-36.793838927050935,-86.12081909179688,4381.2578125,True
1599565230.4653604,0.0,10,0.5,0.5,0.06695606002807616,-0.001,-0.00825,-0.5,0.371158290808641,10,1,100,-0.36758541676053114,-10,-1,-100,6413.978762902087,-0.010604630617167345,0.033413393718328445,0.9993853545703467,215.4456402486961,21.800683857430098,684.1069770906274,-37.55102533504531,-86.33453369140625,4381.2578125,True
1599565230.5202124,0.0,10,0.5,0.5,0.01837522506713867,-0.001,-0.00825,-0.5,0.3422323812671927,10,1,100,-0.13321110392595734,-10,-1,-100,6412.471359660616,-0.008220127888153001,0.033201605063876254,0.9994148702709426,215.2292371848847,21.785509974397364,690.9310782505252,-37.92946661859673,-86.44873046875,4381.2578125,True
1599565231.0424852,0.0,10,0.5,0.5,-0.037722856140136714,-0.001,-0.00825,-0.5,0.36390594295124473,10,1,100,0.10280336406032423,-10,-1,-100,6412.471359660616,-0.008220127888153001,0.033201605063876254,0.9994148702709426,215.2292371848847,21.785509974397364,690.9310782505252,-37.92946661859673,-86.44873046875,4381.2578125,True
1599565231.1013274,0.0,10,0.5,0.5,0.06430918960571289,-0.001,-0.00825,-0.5,0.27301148345868137,10,1,100,-0.4019289811367013,-10,-1,-100,6409.412620628602,-0.003653795703772341,0.032370794557227196,0.9994692498704946,214.70278769646288,21.746556593157127,704.2559081082364,-38.68605223631903,-86.650390625,4381.2578125,True
1599565231.1581755,0.0,10,0.5,0.5,0.01526535720825195,-0.001,-0.00825,-0.5,0.2873935753019653,10,1,100,-0.20076056492522318,-10,-1,-100,6407.843704741332,-0.0013556296576794058,0.03174356604108522,0.9994951266930853,214.40963262105987,21.72440810830099,710.8058903840612,-39.064199060119435,-86.75164794921875,4381.2578125,True
1599565231.2140343,0.0,10,0.5,0.5,-0.009149992370605473,-0.001,-0.00825,-0.5,0.31180655023292103,10,1,100,-0.08401074299011725,-10,-1,-100,6407.063886698452,-0.0003508113495745123,0.03139456609576169,0.9995070075547523,214.23547297812368,21.710624012923663,713.9847656155276,-39.25323667179159,-86.802001953125,4381.2578125,True
1599565231.271881,0.0,10,0.5,0.5,0.03580028533935547,-0.001,-0.00825,-0.5,0.2097510408337882,10,1,100,-0.32276778312881405,-10,-1,-100,6404.65656842303,0.002710350181927875,0.03014951797456651,0.999541725276035,213.71381709047984,21.669645486369795,723.5012591917165,-39.820207412313025,-86.94003295898438,4381.2578125,True
1599565231.3379066,0.0,10,0.5,0.5,-0.03234142456054687,-0.001,-0.00825,-0.5,0.33400308590867733,10,1,100,-0.018978321581668973,-10,-1,-100,6404.65656842303,0.002710350181927875,0.03014951797456651,0.999541725276035,213.71381709047984,21.669645486369795,723.5012591917165,-39.820207412313025,-86.94003295898438,4381.2578125,True
1599565231.3907647,0.0,10,0.5,0.5,0.014313006591796879,-0.001,-0.00825,-0.5,0.22529015931110047,10,1,100,-0.23878378867397534,-10,-1,-100,6403.083268545568,0.004689772133302717,0.029163925544587497,0.9995636405372934,213.35439340494653,21.641352936986987,729.7867489588369,-40.198071646796095,-87.0316162109375,4381.2578125,True
1599565231.4501164,0.0,10,0.5,0.5,0.03628945388793946,-0.001,-0.00825,-0.5,0.14124118049345685,10,1,100,-0.3409923911924002,-10,-1,-100,6400.613460065797,0.007397806706209061,0.027507453696654208,0.9995942238964087,212.7735642245148,21.59495791861479,739.039807273276,-40.76469699973376,-87.16519165039062,4381.2578125,True
1599565231.5030344,0.0,10,0.5,0.5,0.04158093185424805,-0.001,-0.00825,-0.5,0.09781911854791661,10,1,100,-0.35054837045920073,-10,-1,-100,6398.143170133582,0.009925624777002,0.02561213539672986,0.9996226790610575,212.13394124023833,21.542895111389335,748.0446281081144,-41.33112237049309,-87.30734252929688,4381.2578125,True
1599565231.5578291,0.0,10,0.5,0.5,-0.005681533813476566,-0.001,-0.00825,-0.5,0.2137046671580765,10,1,100,-0.18423914552967566,-10,-1,-100,6397.357013137196,0.010693075291641563,0.02494971580081972,0.9996315170212801,211.9090566541891,21.524419646597366,750.9942971812022,-41.51988734998439,-87.353271484375,4381.2578125,True
1599565231.6186657,0.0,10,0.5,0.5,0.034709945678710934,-0.001,-0.00825,-0.5,0.047991334350782955,10,1,100,-0.34398244496137514,-10,-1,-100,6394.817883846001,0.012825775569620439,0.02284853304198334,0.9996566630693097,211.26852316353455,21.472623325496873,759.9320339002733,-42.08605439349688,-87.47824096679688,4381.2578125,True
1599565231.6745162,0.0,10,0.5,0.5,0.012322200775146484,-0.001,-0.00825,-0.5,0.08943267982653152,10,1,100,-0.2777932512484662,-10,-1,-100,6393.127412320813,0.014143741421794996,0.021324518285567886,0.9996725561395,210.88138196924993,21.442260011732852,766.0092814417684,-42.46339332667383,-87.55657958984375,4381.2578125,True
1599565231.7323635,0.0,10,0.5,0.5,0.010625409698486327,-0.001,-0.00825,-0.5,0.07488994806127233,10,1,100,-0.2689238693960643,-10,-1,-100,6391.4403606953565,0.015245081873181333,0.019816885742116624,0.9996873903967,210.5175175774819,21.414354059267904,772.153968991541,-42.840648542118316,-87.6298828125,4381.2578125,True
1599565231.7902071,0.0,10,0.5,0.5,-0.025301657867431642,-0.001,-0.00825,-0.5,0.22446053437650162,10,1,100,-0.16044989541051666,-10,-1,-100,6391.4403606953565,0.015245081873181333,0.019816885742116624,0.9996873903967,210.5175175774819,21.414354059267904,772.153968991541,-42.840648542118316,-87.6298828125,4381.2578125,True
1599565231.8450608,0.0,10,0.5,0.5,0.04335760116577149,-0.001,-0.00825,-0.5,-0.12935127064750024,10,1,100,-0.3696278411562891,-10,-1,-100,6387.93100971356,0.017132521477031305,0.01661093995131083,0.99971523614566,210.81687335094705,21.46334513878789,788.2355153468093,-43.594878820224764,-87.76556396484375,4381.2578125,True
1599565231.9039042,0.0,10,0.5,0.5,-0.006417970275878905,-0.001,-0.00825,-0.5,0.09562540954174542,10,1,100,-0.2277679201607647,-10,-1,-100,6387.085777042201,0.01754562895212187,0.015753994123228938,0.999721942628969,211.1910524992734,21.506147154077443,793.3934638050079,-43.78336824697996,-87.80026245117188,4381.2578125,True
1599565232.0066297,0.0,10,0.5,0.5,-0.004786802673339845,-0.001,-0.00825,-0.5,0.0846571693359501,10,1,100,-0.229756906341678,-10,-1,-100,6386.184880973888,0.01792577627769415,0.014888328026603021,0.9997284652511472,211.6085758337653,21.55340584368901,798.7309671876973,-43.97182754986011,-87.83673095703125,4381.2578125,True
1599565232.0744483,0.0,10,0.5,0.5,0.043677679443359374,-0.001,-0.00825,-0.5,-0.20089459431588436,10,1,100,-0.314108256860949,-10,-1,-100,6382.613527777488,0.019026162483712875,0.011518411539670042,0.9997526350736697,213.67497997370526,21.78323696395907,821.7810185626554,-44.72535104990837,-87.96853637695312,4381.2578125,True
1599565232.1402721,0.0,10,0.5,0.5,-0.021562271118164063,-0.001,-0.00825,-0.5,0.13449815016171512,10,1,100,-0.20523247183682694,-10,-1,-100,6382.613527777488,0.019026162483712875,0.011518411539670042,0.9997526350736697,213.67497997370526,21.78323696395907,821.7810185626554,-44.72535104990837,-87.96853637695312,4381.2578125,True
1599565232.211084,0.0,10,0.5,0.5,0.02819949188232422,-0.001,-0.00825,-0.5,-0.1496716471875548,10,1,100,-0.2616503763117691,-10,-1,-100,6379.949420399615,0.019530779308297157,0.008947862221819461,0.9997692155799106,215.3770625353899,21.971530734091434,839.8861329985008,-45.29016082205273,-88.0667724609375,4381.2578125,True
1599565232.2838876,0.0,10,0.5,0.5,0.024972303771972657,-0.001,-0.00825,-0.5,-0.18496059149620778,10,1,100,-0.23884844431086488,-10,-1,-100,6377.219888002612,0.01977419730880496,0.006304737760584815,0.999784592501086,217.17391774203824,22.169772510030928,858.5762192709809,-45.85468110971012,-88.15719604492188,4381.2578125,True
1599565232.3562102,0.0,10,0.5,0.5,0.008988099670410154,-0.001,-0.00825,-0.5,-0.10481832829827424,10,1,100,-0.2134913736517728,-10,-1,-100,6375.3458395330235,0.019758650828966506,0.004645503184244895,0.9997939862879673,218.44928553786943,22.30997415827791,871.4689564084701,-46.230865641639575,-88.21441650390625,4381.2578125,True
1599565232.4265351,0.0,10,0.5,0.5,-0.005900032043457033,-0.001,-0.00825,-0.5,-0.03200673367721689,10,1,100,-0.21058537318240694,-10,-1,-100,6374.434694505297,0.019712995016294428,0.003814194443310328,0.9997984045537562,219.09660148121583,22.381090822828888,877.9933648497621,-46.41890880752104,-88.24072265625,4381.2578125,True
1599565232.4963493,0.0,10,0.5,0.5,0.0056843856811523465,-0.001,-0.00825,-0.5,-0.1328450740906955,10,1,100,-0.1959110594343244,-10,-1,-100,6372.553324515233,0.019534025140570777,0.0021562949398825585,0.9998068674768842,220.4106561934899,22.525357518891667,891.201141410035,-46.79489670801246,-88.28909301757812,4381.2578125,True
1599565232.573144,0.0,10,0.5,0.5,0.01667333297729492,-0.001,-0.00825,-0.5,-0.2383722547512719,10,1,100,-0.16074271966903425,-10,-1,-100,6369.67243482545,0.01904771403453083,-0.0002941693503277143,0.9998185325620104,222.44897104258035,22.748725703054586,911.4935205033333,-47.3586318539498,-88.35821533203125,4381.2578125,True
1599565232.6509342,0.0,10,0.5,0.5,0.005305733489990232,-0.001,-0.00825,-0.5,-0.16631031557215348,10,1,100,-0.1589152381692605,-10,-1,-100,6367.760795154609,0.018587258476717026,-0.0018513873404344867,0.9998255278733562,223.86633363122206,22.90367407256284,925.4056382088613,-47.7342891655259,-88.40353393554688,4381.2578125,True
1599565232.7232537,0.0,10,0.5,0.5,0.004044612884521483,-0.001,-0.00825,-0.5,-0.17607613435929986,10,1,100,-0.14398579182703114,-10,-1,-100,6365.788610325428,0.01803199333966185,-0.0033398153372659165,0.9998318322846654,225.31271617978447,23.061625345103568,939.5577352239759,-48.10981241729614,-88.44525146484375,4381.2578125,True
1599565232.7920675,0.0,10,0.5,0.5,0.003349925994873045,-0.001,-0.00825,-0.5,-0.19083179084687288,10,1,100,-0.12725186389706605,-10,-1,-100,6363.838400114211,0.01737498367291931,-0.004810502990305272,0.9998374712938828,226.77393153870804,23.22111618165899,953.8942193977076,-48.485201299671296,-88.4844970703125,4381.2578125,True
1599565232.8808315,0.0,10,0.5,0.5,0.002744587707519529,-0.001,-0.00825,-0.5,-0.19890683904151926,10,1,100,-0.1107823367623309,-10,-1,-100,6361.895027937135,0.016629480255392858,-0.006206056827083312,0.999842460213155,228.25963510959988,23.383132288633988,968.4586371428884,-48.86045516389816,-88.5216064453125,4381.2578125,True
1599565232.9685965,0.0,10,0.5,0.5,0.0024735145568847636,-0.001,-0.00825,-0.5,-0.2073368902693268,10,1,100,-0.09375419102924923,-10,-1,-100,6359.953121633618,0.015799127353002904,-0.007535265809528187,0.9998467919356762,229.76565970122104,23.54724735855535,983.2368300786549,-49.23557339685027,-88.55718994140625,4381.2578125,True
1599565233.0369248,0.0,10,0.5,0.5,0.0023021202087402347,-0.001,-0.00825,-0.5,-0.21517729087966864,10,1,100,-0.07630654974821127,-10,-1,-100,6357.948229376227,0.014889038568234687,-0.008799929319089047,0.99985042770131,231.28855242312434,23.713107369148133,998.2171582996843,-49.61055547392689,-88.591552734375,4381.2578125,True
1599565233.1012645,0.0,10,0.5,0.5,-0.006127102661132812,-0.001,-0.00825,-0.5,-0.15684793539910774,10,1,100,-0.1138096834819943,-10,-1,-100,6356.976057055057,0.014407063760334854,-0.009405625035157753,0.9998519744099642,232.05523873802215,23.796582060840716,1005.7793271427233,-49.797995268636704,-88.60830688476562,4381.2578125,True
1599565233.1640997,0.0,10,0.5,0.5,0.010130779266357422,-0.001,-0.00825,-0.5,-0.2860219043601075,10,1,100,0.009375555601660923,-10,-1,-100,6353.937473585713,0.012853904113364168,-0.011117792560120753,0.9998555754895976,234.3723328344011,24.048789756190583,1028.740546889986,-50.36010883833628,-88.65682983398438,4381.2578125,True
1599565233.2434707,0.0,10,0.5,0.5,-0.013787406921386719,-0.001,-0.00825,-0.5,-0.11629835056415053,10,1,100,-0.1452545000051146,-10,-1,-100,6353.937473585713,0.012853904113364168,-0.011117792560120753,0.9998555754895976,234.3723328344011,24.048789756190583,1028.740546889986,-50.36010883833628,-88.65682983398438,4381.2578125,True
1599565233.3342254,0.0,10,0.5,0.5,0.010734237670898438,-0.001,-0.00825,-0.5,-0.28934584498543536,10,1,100,0.04287886765472357,-10,-1,-100,6350.897429772536,0.011149673608299463,-0.012678884248041521,0.9998574551768133,236.71532613946272,24.30373234589458,1052.1215841318276,-50.92191248160047,-88.70516967773438,4381.2578125,True
1599565233.4010494,0.0,10,0.5,0.5,0.0015129981994628922,-0.001,-0.00825,-0.5,-0.235661673353209,10,1,100,0.0038704338431189006,-10,-1,-100,6348.830046248273,0.009962175311460894,-0.01359876175413315,0.9998579042753116,238.28050346690978,24.474079965894806,1067.8960478751442,-51.29627504859213,-88.73443603515625,4381.2578125,True
1599565233.4668684,0.0,10,0.5,0.5,-0.005263690185546876,-0.001,-0.00825,-0.5,-0.196609528723625,10,1,100,-0.04264119989576469,-10,-1,-100,6347.795866974397,0.00931330542392955,-0.014069315104480503,0.9998576482252718,239.05597554978024,24.558543468625395,1075.8035977182171,-51.48340436870324,-88.74957275390625,4381.2578125,True
1599565233.6064959,0.0,10,0.5,0.5,0.0009959197998046874,-0.001,-0.00825,-0.5,-0.23724130880038632,10,1,100,0.029979266143750988,-10,-1,-100,6345.728486278909,0.00807116373301067,-0.014856716605705733,0.9998570569274853,240.61560171798143,24.728418150441698,1091.762715260903,-51.8575585561384,-88.77667236328125,4381.2578125,True
1599565233.6753123,0.0,10,0.5,0.5,0.026934809875488283,-0.001,-0.00825,-0.5,-0.37666482902039755,10,1,100,0.35580612360400415,-10,-1,-100,6339.4619027272565,0.003988339691572941,-0.016830889778260225,0.9998503959572035,245.22335515190153,25.231305472718567,1140.160939098313,-52.979186628979804,-88.85501098632812,4381.2578125,True
1599565233.749115,0.0,10,0.5,0.5,-0.0051862800598144534,-0.001,-0.00825,-0.5,-0.2085684427921501,10,1,100,0.026416985465625223,-10,-1,-100,6338.364739150042,0.003282620128400104,-0.017087784757642808,0.9998486045482933,245.99144707542732,25.315248677311107,1148.352196879797,-53.16600243326363,-88.8685302734375,4381.2578125,True
1599565233.8259108,0.0,10,0.5,0.5,0.0009093208312988266,-0.001,-0.00825,-0.5,-0.23052780697719924,10,1,100,0.10840354326382284,-10,-1,-100,6336.234379195492,0.001907103188463549,-0.017512272123356407,0.9998448296023269,247.52006733743244,25.48248614600116,1164.8071880111788,-53.539529105344954,-88.8936767578125,4381.2578125,True
1599565233.8977187,0.0,10,0.5,0.5,-0.0014460411071777358,-0.001,-0.00825,-0.5,-0.22729616976178713,10,1,100,0.12710568334172184,-10,-1,-100,6334.102555118385,0.0004984155472492092,-0.017860870896770235,0.9998403576935426,248.98827580818767,25.643686862905444,1181.1200568313773,-53.912916589438076,-88.91357421875,4381.2578125,True
1599565233.9615498,0.0,10,0.5,0.5,-0.006219769287109376,-0.001,-0.00825,-0.5,-0.21002510185387738,10,1,100,0.0676680529768674,-10,-1,-100,6333.006859030225,-0.0002292232612532542,-0.018013082577200343,0.9998377249897923,249.701061191814,25.722165098836257,1189.2275553101567,-54.09955829211995,-88.92340087890625,4381.2578125,True
1599565234.0273724,0.0,10,0.5,0.5,0.007969115447998047,-0.001,-0.00825,-0.5,-0.23359949660421386,10,1,100,0.3020482719488754,-10,-1,-100,6328.619681105483,-0.0030095485983877325,-0.018359501066215245,0.9998269206906932,252.5009603322319,26.03137717868407,1221.7558334776909,-54.84577925397346,-88.96109008789062,4381.2578125,True
1599565234.0911996,0.0,10,0.5,0.5,-0.0006711357116699207,-0.001,-0.00825,-0.5,-0.2066775737344953,10,1,100,0.181719810543395,-10,-1,-100,6326.425850533997,-0.004428800662358571,-0.018423098840589448,0.9998204714616533,253.85742624029578,26.181898499650057,1238.0146046188954,-55.21868241833744,-88.98095703125,4381.2578125,True
1599565234.1526153,0.0,10,0.5,0.5,-0.010377082824707031,-0.001,-0.00825,-0.5,-0.20089221775632987,10,1,100,0.041352451573376976,-10,-1,-100,6326.425850533997,-0.004428800662358571,-0.018423098840589448,0.9998204714616533,253.85742624029578,26.181898499650057,1238.0146046188954,-55.21868241833744,-88.98095703125,4381.2578125,True
1599565234.2244234,0.0,10,0.5,0.5,0.008678012084960938,-0.001,-0.00825,-0.5,-0.18873159513159243,10,1,100,0.3363543029805651,-10,-1,-100,6321.976179452846,-0.0070975529697204455,-0.01830816196483142,0.9998071993876176,256.46343802491106,26.47286052352687,1270.4113107282794,-55.964075298166826,-89.01858520507812,4381.2578125,True
1599565234.286259,0.0,10,0.5,0.5,0.00011564559936523555,-0.001,-0.00825,-0.5,-0.18281238950313283,10,1,100,0.22226897917940075,-10,-1,-100,6319.721316734445,-0.008471633161499155,-0.018146009438555988,0.9997994567777244,257.702167141759,26.612230646337267,1286.488606685896,-56.336566094563224,-89.03860473632812,4381.2578125,True
1599565234.3630936,0.0,10,0.5,0.5,-0.004540818786621093,-0.001,-0.00825,-0.5,-0.18760362902226624,10,1,100,0.1535732217083255,-10,-1,-100,6318.623182258918,-0.009081251179838653,-0.0180391645077224,0.9997960389103729,258.31465222525065,26.681351034443473,1294.5413106784956,-56.522760013956564,-89.04885864257812,4381.2578125,True
1599565234.4488645,0.0,10,0.5,0.5,-0.004584690856933594,-0.001,-0.00825,-0.5,-0.18480638003895689,10,1,100,0.1613872420349066,-10,-1,-100,6317.464989528642,-0.009694604480505832,-0.017915504784634995,0.9997925031386654,258.9162534920274,26.749450513635317,1302.5715854963,-56.708919886263594,-89.05868530273438,4381.2578125,True
1599565234.5485966,0.0,10,0.5,0.5,0.010427930450439453,-0.001,-0.00825,-0.5,-0.12529149903285308,10,1,100,0.37711313013158626,-10,-1,-100,6312.888859011931,-0.012201545350528623,-0.017261290009020963,0.9997765601164509,261.18984480201823,27.009192963048935,1334.3340035000315,-57.45321924010881,-89.09814453125,4381.2578125,True
1599565234.630379,0.0,10,0.5,0.5,0.0016612525939941405,-0.001,-0.00825,-0.5,-0.14427425918331752,10,1,100,0.26003832906473623,-10,-1,-100,6310.570521503803,-0.01340344008763344,-0.01683934801629819,0.9997683652487727,262.27023826221716,27.133919651755285,1350.1103444616026,-57.8251656488864,-89.11968994140625,4381.2578125,True
1599565234.7961292,0.0,10,0.5,0.5,0.0024185478210449213,-0.001,-0.00825,-0.5,-0.13443057651087365,10,1,100,0.2660622965694578,-10,-1,-100,6308.251208145404,-0.014538196957194485,-0.016367205019419333,0.9997603489982417,263.31787712297904,27.255759568299077,1365.8372287020247,-58.196977146691964,-89.14236450195312,4381.2578125,True
1599565234.8749177,0.0,10,0.5,0.5,0.01237644500732422,-0.001,-0.00825,-0.5,-0.06026539803478097,10,1,100,0.39036491370495996,-10,-1,-100,6303.552520680474,-0.016686809745576417,-0.015265251470253878,0.99974422852951,265.2591085503105,27.48508498919446,1396.8359783983515,-58.94019754617044,-89.18450927734375,4381.2578125,True
1599565234.945728,0.0,10,0.5,0.5,-0.003282678985595703,-0.001,-0.00825,-0.5,-0.13672495519432698,10,1,100,0.23199252432065454,-10,-1,-100,6302.391886310768,-0.017187911230477953,-0.014961375353913847,0.9997403327639897,265.7127056181443,27.539470446378445,1404.488689099054,-59.12591922546662,-89.1949462890625,4381.2578125,True
1599565235.0175364,0.0,10,0.5,0.5,0.007178713226318358,-0.001,-0.00825,-0.5,-0.060681890887944206,10,1,100,0.3366198297368582,-10,-1,-100,6298.790842464543,-0.01858301616547382,-0.013996970775807317,0.9997293415316442,267.00204739949174,27.696063665864145,1427.2277675249952,-59.682885430376444,-89.22589111328125,4381.2578125,True
1599565235.0863519,0.0,10,0.5,0.5,0.0012960060119628913,-0.001,-0.00825,-0.5,-0.08049283245960967,10,1,100,0.2932930474322798,-10,-1,-100,6296.409024922061,-0.0194445460713347,-0.013304362562784505,0.9997224132552384,267.79545286716535,27.794311114678283,1442.1622614495443,-60.05403157868648,-89.24462890625,4381.2578125,True
1599565235.167137,0.0,10,0.5,0.5,-0.007886404418945312,-0.001,-0.00825,-0.5,-0.14925327382168618,10,1,100,0.20837475615635329,-10,-1,-100,6296.409024922061,-0.0194445460713347,-0.013304362562784505,0.9997224132552384,267.79545286716535,27.794311114678283,1442.1622614495443,-60.05403157868648,-89.24462890625,4381.2578125,True
