Timestamp,Input Throttle,horizon,dT,dt,Input Roll,Roll P,Roll I,Roll D,Input Pitch,Pitch P,Pitch I,Pitch D,Input Yaw,Yaw P,Yaw I,Yaw D,Altitude,Direction X,Direction Y,Direction Z,Drag X,Drag Y,Drag Z,Vertical Velocity,Roll,Mass,Has Fuel
1599566105.0758991,0.0,10,0.5,0.5,-0.05446832275390625,-0.001,-0.03,-0.2505,-0.06858268888911681,10,1,100,0.6816029591801165,-10,-1,-100,6483.617967237951,-0.06725920937851321,-0.007001949661395068,0.9977109658887771,205.07297872993638,21.498751299417513,-156.76505117708987,9.590823943454085,-35.944488525390625,4381.2578125,True
1599566105.628421,0.0,10,0.5,0.5,-0.21663650512695312,-0.001,-0.03,-0.2505,-0.06905388662215278,10,1,100,0.6894991348401115,-10,-1,-100,6483.776675490895,-0.06735176501594164,-0.006986805979959274,0.9977048282390116,204.84266148224287,21.477778537400873,-153.51317917795475,9.400810003985653,-35.942840576171875,4381.2578125,True
1599566105.696239,0.0,10,0.5,0.5,-0.37881730651855466,-0.001,-0.03,-0.2505,-0.06951300027676802,10,1,100,0.6974427781468908,-10,-1,-100,6483.997883324162,-0.06744689256637827,-0.006970861115532363,0.9976985134690978,204.61186289967048,21.4567113197824,-150.26650739888538,9.210801574534038,-35.941162109375,4381.2578125,True
1599566105.7560806,0.0,10,0.5,0.5,-0.5412411041259765,-0.001,-0.03,-0.2505,-0.05287734330404728,10,1,100,0.7074244788581052,-10,-1,-100,6484.316760509275,-0.06756279953454408,-0.006798795392559954,0.997691858491521,204.1494639239343,21.414354928674378,-143.78934599381648,8.830797783451402,-35.938507080078125,4381.2578125,True
1599566105.820789,0.0,10,0.5,0.5,-0.7003428192138671,-0.001,-0.03,-0.2505,-0.05350227926216583,10,1,100,0.7048937164084792,-10,-1,-100,6484.538936137687,-0.06758374184739409,-0.0066418725209383325,0.9976914970908195,203.93175795490134,21.394513652474355,-140.56848440024964,8.640800902316016,-35.9481201171875,4381.2578125,True
1599566105.879631,0.0,10,0.5,0.5,-0.84330859375,-0.001,-0.03,-0.2505,-0.02772167676661108,10,1,100,0.7105450175014847,-10,-1,-100,6484.856804892537,-0.06759271601278742,-0.006258808185394598,0.9976933657502755,203.52404059780815,21.35753738562145,-134.1606856913294,8.260812492332082,-36.03399658203125,4381.2578125,True
1599566105.9489553,0.0,10,0.5,0.5,-0.9295279693603515,-0.001,-0.03,-0.2505,0.038925608311087545,10,1,100,0.6934135251632705,-10,-1,-100,6485.335757538211,-0.06738368558187688,-0.005298993644934494,0.9977130647554705,202.99847063360008,21.31035487630855,-124.63799216180516,7.69082881054708,-36.420440673828125,4381.2578125,True
1599566106.0068562,0.0,10,0.5,0.5,-0.9771089172363281,-0.001,-0.03,-0.2505,0.10279574778041657,10,1,100,0.6647675456798073,-10,-1,-100,6485.7501998679945,-0.06687198202612502,-0.0038409800732996493,0.9977541705710752,202.57829732862606,21.27288082069332,-115.21115482226413,7.1208204086832,-37.255279541015625,4381.2578125,True
1599566106.0646994,0.0,10,0.5,0.5,-1.34447021484375,-0.001,-0.03,-0.2505,-0.043389707390397866,10,1,100,0.7226250994576061,-10,-1,-100,6485.7501998679945,-0.06687198202612502,-0.0038409800732996493,0.9977541705710752,202.57829732862606,21.27288082069332,-115.21115482226413,7.1208204086832,-37.255279541015625,4381.2578125,True
1599566106.123542,0.0,10,0.5,0.5,-1.2860112762451172,-0.001,-0.03,-0.2505,0.09203035564696743,10,1,100,0.6711701807383756,-10,-1,-100,6486.004490895779,-0.06634341732683553,-0.0026063967910751468,0.9977934443927584,202.3363149678429,21.25087288842912,-108.9619148729077,6.740787298249856,-38.11688232421875,4381.2578125,True
1599566106.210832,0.0,10,0.5,0.5,-1.3716380615234374,-0.001,-0.03,-0.2505,0.12307891137437718,10,1,100,0.6532395022312829,-10,-1,-100,6486.261197547545,-0.06563958559802895,-0.0011994193035390786,0.9978426760746673,202.0876822371555,21.22717212106375,-102.71889999922453,6.3607218433391655,-39.25347900390625,4381.2578125,True
1599566106.2746623,0.0,10,0.5,0.5,-1.2881515808105468,-0.001,-0.03,-0.2505,0.16576909218881924,10,1,100,0.6312450970644599,-10,-1,-100,6486.517883037333,-0.06480126181921592,0.00046246866493604205,0.9978980822656046,201.7798761455265,21.196120937434063,-96.45766879102048,5.980614595645783,-40.67803955078125,4381.2578125,True
1599566106.344474,0.0,10,0.5,0.5,-1.1985865020751953,-0.001,-0.03,-0.2505,0.19633632353272043,10,1,100,0.5991539754165869,-10,-1,-100,6486.772106381017,-0.06374973046276589,0.0022443877624535305,0.9979633934115502,201.34395094271898,21.15037921514909,-90.15277431496791,5.6004551630800545,-42.396575927734375,4381.2578125,True
1599566106.422247,0.0,10,0.5,0.5,-0.8226939239501951,-0.001,-0.03,-0.2505,0.3465428236635103,10,1,100,0.49179914590921314,-10,-1,-100,6487.061853108811,-0.06182120092692938,0.005221450353314804,0.9980735822433934,200.2388360682634,21.03203789132273,-80.5541608524262,5.0300884455883645,-45.52587890625,4381.2578125,True
1599566106.4910638,0.0,10,0.5,0.5,-1.2784444885253907,-0.001,-0.03,-0.2505,0.1664693783852888,10,1,100,0.6020173000934302,-10,-1,-100,6487.157939000754,-0.061075195112941454,0.006279912073617699,0.9981134120160212,199.69723278471375,20.973803808718653,-77.30739647576665,4.8399236657243065,-46.71624755859375,4381.2578125,True
1599566106.5648658,0.0,10,0.5,0.5,-0.536815444946289,-0.001,-0.03,-0.2505,0.42182008378220637,10,1,100,0.3939850934318736,-10,-1,-100,6487.447638921323,-0.058511722991242326,0.00955177297332453,0.9982410239544667,197.33892811047613,20.720411552262398,-67.40753385985072,4.269268959451569,-50.722259521484375,4381.2578125,True
1599566106.6436555,0.0,10,0.5,0.5,-0.7411579895019531,-0.001,-0.03,-0.2505,0.3467392806327382,10,1,100,0.4311334056630758,-10,-1,-100,6487.578746046987,-0.056527261167273635,0.011829265961554921,0.9983309757849536,195.0006507013124,20.469902805893167,-60.68210658032077,3.888670302697291,-53.724639892578125,4381.2578125,True
1599566106.7144659,0.0,10,0.5,0.5,-1.0369906463623046,-0.001,-0.03,-0.2505,0.2496731304764869,10,1,100,0.5099489405503304,-10,-1,-100,6487.675302490592,-0.055449579303017686,0.013001723440701638,0.9983768323347102,193.55210429119342,20.315109203553824,-57.287992890944224,3.698312056689351,-55.3323974609375,4381.2578125,True
1599566106.7882693,0.0,10,0.5,0.5,-0.0968643951416015,-0.001,-0.03,-0.2505,0.501202963710456,10,1,100,0.22607654032525115,-10,-1,-100,6487.83849979646,-0.05189959433594166,0.01633891717522201,0.9985186387310484,187.93665348932316,19.717345636916317,-47.043987363559985,3.1269591257006084,-60.456207275390625,4381.2578125,True
1599566106.8760364,0.0,10,0.5,0.5,-0.3839914093017577,-0.001,-0.03,-0.2505,0.4167833487678245,10,1,100,0.2884928562849663,-10,-1,-100,6487.968128938344,-0.049253367590679206,0.018586933255081584,0.9986133544536387,183.1932902675624,19.21448017425942,-40.27303356409343,2.745797041627358,-64.1412353515625,4381.2578125,True
1599566106.9488401,0.0,10,0.5,0.5,0.26054858398437486,-0.001,-0.03,-0.2505,0.5382510646151406,10,1,100,0.07819656540262537,-10,-1,-100,6488.133771373192,-0.044951458859452204,0.02171556953534211,0.9987531228417577,173.969316481717,18.242109021058646,-30.281063258534278,2.17356225333431,-70.06396484375,4381.2578125,True
1599566107.0296242,0.0,10,0.5,0.5,-1.1306636962890626,-0.001,-0.03,-0.2505,0.227678935472976,10,1,100,0.5063186258514679,-10,-1,-100,6488.133771373192,-0.044951458859452204,0.02171556953534211,0.9987531228417577,173.969316481717,18.242109021058646,-30.281063258534278,2.17356225333431,-70.06396484375,4381.2578125,True
1599566107.0994368,0.0,10,0.5,0.5,-0.019328887939453088,-0.001,-0.03,-0.2505,0.4480804181320127,10,1,100,0.16342608842450107,-10,-1,-100,6488.200914018671,-0.04185229924917047,0.023699898376905712,0.998842680237725,166.64243760541598,17.472610827108873,-23.91322448846353,1.7917257744283774,-74.13226318359375,4381.2578125,True
1599566107.180222,0.0,10,0.5,0.5,0.6055268249511719,-0.001,-0.03,-0.2505,0.5437551306505881,10,1,100,-0.06677394835715111,-10,-1,-100,6488.301649807836,-0.03696206057018442,0.026354098791573806,0.998969102402717,154.29933121394595,16.17762956916345,-15.061967923449528,1.218601421721651,-80.29034423828125,4381.2578125,True
1599566107.2600074,0.0,10,0.5,0.5,0.2480308074951172,-0.001,-0.03,-0.2505,0.4549604067809929,10,1,100,0.04087467069414735,-10,-1,-100,6488.3073000476,-0.03351761207189685,0.02794057199842279,0.9990474934243112,145.04975984593736,15.207375432208872,-9.719249144902156,0.8363993403788466,-84.58779907226562,4381.2578125,True
1599566107.3368027,0.0,10,0.5,0.5,0.9045557098388671,-0.001,-0.03,-0.2505,0.5173342736400712,10,1,100,-0.19001924678211157,-10,-1,-100,6488.3455950700445,-0.028312311990070387,0.0299301640125273,0.9991509386834204,150.45873470724038,15.773525056977128,-3.171697339285876,0.2630892183203035,-91.02685546875,4381.2578125,True
1599566107.4056203,0.0,10,0.5,0.5,-0.06185702514648439,-0.001,-0.03,-0.2505,0.3854512549541672,10,1,100,0.13113198685130953,-10,-1,-100,6488.318656240706,-0.026527231685987585,0.030521421681805726,0.999182039869412,153.1932495740714,16.05932283887059,-0.8838334385610938,0.07200050406455771,-93.116943359375,4381.2578125,True
1599566107.4926085,0.0,10,0.5,0.5,0.053234989166259794,-0.001,-0.03,-0.2505,0.3870919704054433,10,1,100,0.11034767867487377,-10,-1,-100,6488.350805141381,-0.024742755907473154,0.03105685138005203,0.9992113230005256,155.68760736621599,16.319576871696277,1.4856548948013637,-0.11908149510891919,-95.18645477294922,4381.2578125,True
1599566107.5594647,0.0,10,0.5,0.5,1.144670566558838,-0.001,-0.03,-0.2505,0.4776617875113278,10,1,100,-0.29036647037860774,-10,-1,-100,6488.328143538674,-0.019505564593242517,0.03235055387220276,0.9992862325750619,163.5686439244644,17.14113270092088,9.076253811391632,-0.6923266767126162,-101.11204528808594,4381.2578125,True
1599566107.6273596,0.0,10,0.5,0.5,0.2693305702209473,-0.001,-0.03,-0.2505,0.3873845392899531,10,1,100,0.03509301284603511,-10,-1,-100,6488.298789597466,-0.017732653273022963,0.032691388756966394,0.9993081737427346,166.55486532124004,17.452748178644132,11.793614513668308,-0.8834206946356771,-103.04863739013672,4381.2578125,True
1599566107.694144,0.0,10,0.5,0.5,0.8720739097595215,-0.001,-0.03,-0.2505,0.4140138635092953,10,1,100,-0.17482148804523695,-10,-1,-100,6488.241071049473,-0.014241257259555128,0.033230501185562006,0.9993462464944888,172.18749875618104,18.041272552774885,17.470139882364755,-1.2656611435493277,-106.91001892089844,4381.2578125,True
1599566107.7669492,0.0,10,0.5,0.5,1.837557804107666,-0.001,-0.03,-0.2505,0.4275254002985681,10,1,100,-0.5638066397304669,-10,-1,-100,6488.124717543484,-0.007558950597082184,0.03383296742632393,0.9993989156392958,181.56476638446125,19.024037764625263,29.561273272310736,-2.030457495324054,-114.15543365478516,4381.2578125,True
1599566107.8352904,0.0,10,0.5,0.5,0.5845253181457519,-0.001,-0.03,-0.2505,0.37548694861713705,10,1,100,-0.07495243189213234,-10,-1,-100,6488.033872943604,-0.005962248709966523,0.03389657135910269,0.9994075615285378,183.37094010027192,19.213674436172578,32.670181780990816,-2.2217300437678067,-115.86386108398438,4381.2578125,True
1599566107.900118,0.0,10,0.5,0.5,1.094705467224121,-0.001,-0.03,-0.2505,0.37712594142538786,10,1,100,-0.2546342661260004,-10,-1,-100,6487.975733333267,-0.002909857638225489,0.033960023348083665,0.9994189559652762,186.364941105897,19.52845664823477,38.928069655904345,-2.6043671607206056,-119.09625244140625,4381.2578125,True
1599566107.9622042,0.0,10,0.5,0.5,1.5023740463256838,-0.001,-0.03,-0.2505,0.3553798293403758,10,1,100,-0.4381661360380959,-10,-1,-100,6487.76184800989,0.0015025583326199936,0.033813100569514885,0.999427044134955,189.49938451160995,19.85889271954741,48.3211969854173,-3.178535779256586,-123.47384643554688,4381.2578125,True
1599566108.023341,0.0,10,0.5,0.5,0.86089306640625,-0.001,-0.03,-0.2505,0.3621914566499964,10,1,100,-0.14993753506697388,-10,-1,-100,6487.734016213333,0.002861749051465217,0.03373611962947519,0.9994266779632771,190.25606441636907,19.938813509959424,51.44048697255994,-3.3699749559327774,-124.81956481933594,4381.2578125,True
1599566108.0911314,0.0,10,0.5,0.5,0.9460868225097655,-0.001,-0.03,-0.2505,0.35942957690423766,10,1,100,-0.16272292933837232,-10,-1,-100,6487.641246018698,0.004185267779208555,0.03363756899937134,0.9994253336219913,190.8859694271051,20.00537641921354,54.54776925125044,-3.56143610693291,-126.0955810546875,4381.2578125,True
1599566108.1524768,0.0,10,0.5,0.5,1.8306743545532227,-0.001,-0.03,-0.2505,0.3103287856422482,10,1,100,-0.5712217086751157,-10,-1,-100,6487.337086007581,0.009074171435249988,0.03309877382660652,0.9994108917677148,192.41710323625037,20.167079606172543,66.83679350021504,-4.327469904442955,-130.49038696289062,4381.2578125,True
1599566108.2118797,0.0,10,0.5,0.5,1.069519027709961,-0.001,-0.03,-0.2505,0.34506616879817475,10,1,100,-0.20955601892809778,-10,-1,-100,6487.244814105914,0.010200016736366833,0.03292289813237732,0.9994058447083163,192.64923878079557,20.191402079614633,69.88617713496357,-4.5190175207725085,-131.42013549804688,4381.2578125,True
1599566108.2736695,0.0,10,0.5,0.5,1.3419774932861328,-0.001,-0.03,-0.2505,0.32742088324018653,10,1,100,-0.3281954532008677,-10,-1,-100,6487.060763248592,0.012275047702289502,0.03260207913776891,0.9993930296133754,193.00400306758814,20.228092619748992,75.96602551008608,-4.902148533694811,-133.0679931640625,4381.2578125,True
1599566108.3387744,0.0,10,0.5,0.5,1.3601936569213864,-0.001,-0.03,-0.2505,0.3192272113483709,10,1,100,-0.3352821388209247,-10,-1,-100,6486.815195106785,0.014198584176060344,0.032236018770580396,0.9993794270952442,193.2205392317959,20.249611814953937,82.01268436500975,-5.285318220761285,-134.42364501953125,4381.2578125,True
1599566108.3986135,0.0,10,0.5,0.5,1.3697408065795897,-0.001,-0.03,-0.2505,0.3123938034188947,10,1,100,-0.3390498992826019,-10,-1,-100,6486.629686270258,0.015955651664198524,0.03184201880324558,0.999365550246007,193.3836298744872,20.264845362246525,88.05199108549992,-5.66851804966365,-135.48367309570312,4381.2578125,True
1599566108.4684267,0.0,10,0.5,0.5,1.2734688110351562,-0.001,-0.03,-0.2505,0.3312748363585377,10,1,100,-0.25371511358122356,-10,-1,-100,6486.476385158603,0.016755838054074084,0.03165729272204985,0.9993583229796087,193.4548333241749,20.27112418012302,91.0719188899062,-5.860126800079836,-135.90228271484375,4381.2578125,True
1599566108.5512054,0.0,10,0.5,0.5,1.3833808975219726,-0.001,-0.03,-0.2505,0.30795035011452404,10,1,100,-0.3383304360070888,-10,-1,-100,6486.229352056747,0.018231857624410604,0.031279354844778194,0.9993443857490059,193.618995588598,20.285485358057436,97.13206331643782,-6.243358247432051,-136.51722717285156,4381.2578125,True
1599566108.6230137,0.0,10,0.5,0.5,1.361656105041504,-0.001,-0.03,-0.2505,0.30429823837986647,10,1,100,-0.3358395509070792,-10,-1,-100,6485.981828221586,0.019531829446295865,0.030905010911946446,0.9993314705036629,193.83417578194653,20.30463663538592,103.23329656314584,-6.626603381107297,-136.83554077148438,4381.2578125,True
1599566108.69582,0.0,10,0.5,0.5,1.327606506347656,-0.001,-0.03,-0.2505,0.297282596064157,10,1,100,-0.3332897819364639,-10,-1,-100,6485.7347874082625,0.02067405204726444,0.030503563397099833,0.9993208274583424,194.12413737560573,20.331201846627376,109.39384375607393,-7.009856654735249,-136.85781860351562,4381.2578125,True
1599566108.7666638,0.0,10,0.5,0.5,1.1453619079589843,-0.001,-0.03,-0.2505,0.2566688193746663,10,1,100,-0.41183928300891737,-10,-1,-100,6485.114710918511,0.022410329600625632,0.029772333646636975,0.9993054514393608,194.94163234841668,20.40871765207824,121.92933321855725,-7.776362910038459,-136.01177978515625,4381.2578125,True
1599566108.8593817,0.0,10,0.5,0.5,1.2872506561279295,-0.001,-0.03,-0.2505,0.3095088493946973,10,1,100,-0.2762329295834638,-10,-1,-100,6484.960419204086,0.02273941047088494,0.029591457087628052,0.999303389806553,195.1882858042779,20.432597377733277,125.10868423947429,-7.967984498851733,-135.614990234375,4381.2578125,True
1599566108.9361756,0.0,10,0.5,0.5,1.283584686279297,-0.001,-0.03,-0.2505,0.30759561090139953,10,1,100,-0.27611152969042685,-10,-1,-100,6484.804173053941,0.023025048318424307,0.029412819244716306,0.9993021230909158,195.44459990862435,20.45758999676199,128.30306176914476,-8.1596023090494,-135.14407348632812,4381.2578125,True
1599566108.9990857,0.0,10,0.5,0.5,0.9454644165039063,-0.001,-0.03,-0.2505,0.27054585690381006,10,1,100,-0.3139646844254771,-10,-1,-100,6484.276339231525,0.023617179557795045,0.02891679624107996,0.9993027808051407,196.2239969318558,20.534692688588173,137.94756577096157,-8.734424277686543,-133.28619384765625,4381.2578125,True
1599566109.0658722,0.0,10,0.5,0.5,1.2185563964843749,-0.001,-0.03,-0.2505,0.30041505056041456,10,1,100,-0.26894935751775617,-10,-1,-100,6484.121061071986,0.02373593941092052,0.02874075461910395,0.9993050456213085,196.4662390222657,20.559053256596304,141.16804742261456,-8.926018300205815,-132.51895141601562,4381.2578125,True
1599566109.151644,0.0,10,0.5,0.5,0.7149542541503905,-0.001,-0.03,-0.2505,0.26184269296546103,10,1,100,-0.26937648546512744,-10,-1,-100,6483.529231970664,0.02383911557216082,0.028233236497491158,0.999317057257412,197.0170929336939,20.615906863398997,150.746616047328,-9.500750463119935,-129.77508544921875,4381.2578125,True
1599566109.205499,0.0,10,0.5,0.5,0.8349684524536131,-0.001,-0.03,-0.2505,0.27283778826355093,10,1,100,-0.24572377312688998,-10,-1,-100,6483.15712718002,0.023710720639388057,0.027875092509921942,0.9993301661334577,197.14105935982312,20.63071917004019,156.97271487397987,-9.883857714283545,-127.58741760253906,4381.2578125,True
1599566109.26933,0.0,10,0.5,0.5,0.3975560913085938,-0.001,-0.03,-0.2505,0.24501621436542403,10,1,100,-0.2078081283748646,-10,-1,-100,6482.5032472938765,0.02324298767313503,0.027300022031432527,0.999357029454994,196.72247508133847,20.594290197610185,165.82539618382165,-10.458444080864048,-123.76841735839844,4381.2578125,True
1599566109.3297174,0.0,10,0.5,0.5,0.5964795150756835,-0.001,-0.03,-0.2505,0.2550411572931263,10,1,100,-0.20133676740395334,-10,-1,-100,6482.066663438571,0.0227543897585797,0.026871984107433394,0.9993798748308095,195.8985946348899,20.516502886738973,171.23534329660063,-10.841458804787038,-120.90762329101562,4381.2578125,True
1599566109.391552,0.0,10,0.5,0.5,0.887253433227539,-0.001,-0.03,-0.2505,0.27256747313102664,10,1,100,-0.21911364605550684,-10,-1,-100,6481.848367678234,0.02246888822371417,0.02664585525396465,0.9993923891344053,195.43966657923488,20.47379814852367,173.88121937415863,-11.032956557404779,-119.40435791015625,4381.2578125,True
1599566109.458884,0.0,10,0.5,0.5,0.020606456756592006,-0.001,-0.03,-0.2505,0.2121465806273108,10,1,100,-0.13234595376346736,-10,-1,-100,6481.193957085139,0.021418912501930197,0.025894509735453045,0.9994351927727957,193.56255919850443,20.297575051548193,181.27295633155174,-11.607430098447676,-114.66934967041016,4381.2578125,True
1599566109.5227146,0.0,10,0.5,0.5,1.1426987304687501,-0.001,-0.03,-0.2505,0.28689335008735295,10,1,100,-0.23724438423199526,-10,-1,-100,6481.193957085139,0.021418912501930197,0.025894509735453045,0.9994351927727957,193.56255919850443,20.297575051548193,181.27295633155174,-11.607430098447676,-114.66934967041016,4381.2578125,True
1599566109.5825875,0.0,10,0.5,0.5,-0.222071674346924,-0.001,-0.03,-0.2505,0.1896883247908942,10,1,100,-0.09442712034364456,-10,-1,-100,6480.477027352783,0.020121774192007877,0.02501418854853267,0.9994845694529877,190.23454817538195,19.97452520575129,187.07640280061008,-12.181927999097582,-109.49267578125,4381.2578125,True
1599566110.1210515,0.0,10,0.5,0.5,0.09333485412597664,-0.001,-0.03,-0.2505,0.20346849803021605,10,1,100,-0.11416080073095454,-10,-1,-100,6479.977420234238,0.019124593981168964,0.02434316961777724,0.9995207151420203,187.142040013907,19.669056847039197,189.89425956431506,-12.564980852806983,-105.89666748046875,4381.2578125,True
1599566110.175904,0.0,10,0.5,0.5,-0.04048397827148431,-0.001,-0.03,-0.2505,0.18851786974777635,10,1,100,-0.09557824430735855,-10,-1,-100,6479.476830337313,0.018053218354352377,0.023601395447816764,0.9995584302280512,183.42440133591754,19.297965360945298,191.87229086763816,-12.94810132008689,-102.10958862304688,4381.2578125,True
1599566110.2347465,0.0,10,0.5,0.5,0.3397934875488281,-0.001,-0.03,-0.2505,0.2189700780838842,10,1,100,-0.14136118474221634,-10,-1,-100,6479.196993726073,0.017500615171251066,0.02320856569560939,0.9995774562018594,181.5613320488908,19.111619155830752,192.77242244586785,-13.139691762180156,-100.21234130859375,4381.2578125,True
1599566110.2895994,0.0,10,0.5,0.5,-0.23024456787109382,-0.001,-0.03,-0.2505,0.16393149935391732,10,1,100,-0.06653218367414095,-10,-1,-100,6478.635365557391,0.01632374726817729,0.022355664905877426,0.9996168063421809,177.3323647720769,18.68444818923635,193.8537463804036,-13.522939520600719,-96.40872192382812,4381.2578125,True
1599566110.3634021,0.0,10,0.5,0.5,-0.8100109786987304,-0.001,-0.03,-0.2505,0.0920532350209474,10,1,100,0.02072124827954086,-10,-1,-100,6477.791944591561,0.014467369768868758,0.0209318794463705,0.9996762234017641,170.34621471770564,17.969435538214707,194.25937847159193,-14.09798283025696,-90.68690490722656,4381.2578125,True
1599566110.430223,0.0,10,0.5,0.5,0.03711226654052718,-0.001,-0.03,-0.2505,0.17667419105057242,10,1,100,-0.09291582402533008,-10,-1,-100,6477.510642269743,0.013820795988545525,0.020412599667619942,0.9996961095118118,167.90312911776942,17.716648443985147,194.1195153041636,-14.289705111696904,-88.750732421875,4381.2578125,True
1599566110.4880714,0.0,10,0.5,0.5,-0.5442585449218751,-0.001,-0.03,-0.2505,0.10959365108282539,10,1,100,-0.014805660440927515,-10,-1,-100,6476.948526675347,0.01253103069545714,0.019336576218539746,0.9997344997997489,162.53992793241275,17.156282415253557,193.04718361514844,-14.673200874612144,-84.89422607421875,4381.2578125,True
1599566110.5449483,0.0,10,0.5,0.5,-0.6150502319335938,-0.001,-0.03,-0.2505,0.09289581240823899,10,1,100,-0.0006863087081311059,-10,-1,-100,6476.323427764233,0.011239193465558874,0.01821321934873008,0.9997709533544165,163.82931587218488,17.291684451776145,199.75330971285968,-15.056700785027811,-81.1832275390625,4381.2578125,True
1599566110.602792,0.0,10,0.5,0.5,-1.1409011611938478,-0.001,-0.03,-0.2505,-8.19623467152586e-05,10,1,100,0.09144056702491625,-10,-1,-100,6475.416550409398,0.00923653322174763,0.016353716324209636,0.9998236056507321,174.90289340628928,18.44843077917789,221.5509932547517,-15.63167607595295,-75.79556274414062,4381.2578125,True
1599566110.6616054,0.0,10,0.5,0.5,-0.7729503021240234,-0.001,-0.03,-0.2505,0.04300722559969458,10,1,100,0.0372772685403855,-10,-1,-100,6474.791465366143,0.0079194015129424,0.015063652368168635,0.9998551742412537,181.46103951392442,19.126276473775654,235.60135132632035,-16.014771442710177,-72.35604858398438,4381.2578125,True
1599566110.726432,0.0,10,0.5,0.5,-0.4389019775390625,-0.001,-0.03,-0.2505,0.09768068785384622,10,1,100,-0.02081770806677595,-10,-1,-100,6474.447676350479,0.007261238267438263,0.014396944370605798,0.9998699927548647,184.46483530846342,19.434639096563938,242.42177489968444,-16.206247302001046,-70.701416015625,4381.2578125,True
1599566110.7822816,0.0,10,0.5,0.5,-0.9135988464355469,-0.001,-0.03,-0.2505,0.018934871633313588,10,1,100,0.055790341341418956,-10,-1,-100,6473.821627952275,0.005977256100281577,0.013084017157404896,0.9998965350997755,189.9033543596979,19.989048771833957,255.5846404255721,-16.589052675832832,-67.58572387695312,4381.2578125,True
1599566110.8471086,0.0,10,0.5,0.5,-0.9563135833740235,-0.001,-0.03,-0.2505,-0.00153112537702621,10,1,100,0.06966281356018986,-10,-1,-100,6473.134553831769,0.004694864348381281,0.011713953698301362,0.9999203675980924,194.57976719669222,20.461037777497435,268.04567947473583,-16.97166550775182,-64.72439575195312,4381.2578125,True
1599566110.9039564,0.0,10,0.5,0.5,-1.0194188690185546,-0.001,-0.03,-0.2505,-0.020907399974097185,10,1,100,0.08196215815637359,-10,-1,-100,6472.446511668852,0.0034288830328910425,0.010302743159140511,0.9999410463845074,198.80722953542562,20.88460002290875,280.17408937767715,-17.354091149479174,-62.046844482421875,4381.2578125,True
1599566110.959808,0.0,10,0.5,0.5,-1.3574480743408204,-0.001,-0.03,-0.2505,-0.10987225717055167,10,1,100,0.15950338133058806,-10,-1,-100,6471.352208887925,0.0015847933210754994,0.008222010259705367,0.9999649428742085,204.19816923529083,21.41960312057313,297.49248129196485,-17.927394674205814,-58.445770263671875,4381.2578125,True
1599566111.0206466,0.0,10,0.5,0.5,-1.0692247009277343,-0.001,-0.03,-0.2505,-0.05656212458457338,10,1,100,0.10921843612693873,-10,-1,-100,6470.663701320067,0.00037719542713799363,0.006826626892079279,0.9999766271712985,207.13663238994744,21.708025316452268,308.3530203740939,-18.309392394215074,-56.389617919921875,4381.2578125,True
1599566111.0839942,0.0,10,0.5,0.5,-0.8821954498291016,-0.001,-0.03,-0.2505,0.0053475359096435,10,1,100,0.055375922558181176,-10,-1,-100,6470.257928300649,-0.00021892198894248163,0.006133262537617117,0.9999811674045703,208.43111762722756,21.834218621475227,313.5922498188762,-18.500335286364027,-55.4713134765625,4381.2578125,True
1599566111.1438403,0.0,10,0.5,0.5,-1.3218538208007813,-0.001,-0.03,-0.2505,-0.1454864811278243,10,1,100,0.18991675524352872,-10,-1,-100,6469.1631789500825,-0.0019723545255329825,0.0041437159820208284,0.9999894696622991,211.73227237270794,22.15321660852505,328.66129858035947,-19.07296050963711,-53.15948486328125,4381.2578125,True
1599566111.2017217,0.0,10,0.5,0.5,-1.122436538696289,-0.001,-0.03,-0.2505,-0.09249385810439248,10,1,100,0.1421408068279907,-10,-1,-100,6468.349210533546,-0.0031200468023002818,0.0028295788711160457,0.9999911293563376,213.5375596582245,22.325640610688726,338.2635200960984,-19.454556122857802,-51.984039306640625,4381.2578125,True
1599566111.261525,0.0,10,0.5,0.5,-1.0217565460205078,-0.001,-0.03,-0.2505,-0.033667010569653245,10,1,100,0.09103606450615598,-10,-1,-100,6467.943450214807,-0.0036875815964138308,0.002181992963748503,0.9999908202822044,214.3459303703551,22.402289303048587,342.95938713064305,-19.645311598864176,-51.49761962890625,4381.2578125,True
1599566111.3273485,0.0,10,0.5,0.5,-1.2210371856689453,-0.001,-0.03,-0.2505,-0.16555320739790239,10,1,100,0.21957318843703347,-10,-1,-100,6466.785749247647,-0.005361489823971074,0.0004060236762524905,0.9999855446813428,216.4699474657575,22.601590749084703,356.7160244125831,-20.217421127343705,-50.469573974609375,4381.2578125,True
1599566111.3851948,0.0,10,0.5,0.5,-1.1037911224365233,-0.001,-0.03,-0.2505,-0.11687169440266859,10,1,100,0.17437082586932962,-10,-1,-100,6465.973267050576,-0.0064608188001427065,-0.0007532156299741654,0.9999788450195567,217.7747659380103,22.723138940225656,365.8226610512188,-20.598704999571503,-50.15313720703125,4381.2578125,True
1599566111.4413526,0.0,10,0.5,0.5,-1.0821480407714845,-0.001,-0.03,-0.2505,-0.11980692534385355,10,1,100,0.1847562075996129,-10,-1,-100,6465.09682661132,-0.00754331399884638,-0.0018211741598388256,0.9999698904160036,218.91483583679522,22.8272961209214,374.7386476048681,-20.97989813858796,-50.1319580078125,4381.2578125,True
1599566111.5011966,0.0,10,0.5,0.5,-1.0516048278808594,-0.001,-0.03,-0.2505,-0.12382757707495456,10,1,100,0.19510623821137543,-10,-1,-100,6464.284356330521,-0.008610366113822808,-0.0028162922683093077,0.9999589642046544,219.86859190014013,22.911413493374784,383.4110881333592,-21.36100769355981,-50.4063720703125,4381.2578125,True
1599566111.5632908,0.0,10,0.5,0.5,-1.0928524780273436,-0.001,-0.03,-0.2505,-0.0782738239893708,10,1,100,0.14772377099175416,-10,-1,-100,6463.814646377345,-0.009138719017125992,-0.0032948936702976665,0.9999528126318898,220.2745540589662,22.945728523791267,387.6487065368937,-21.55153333186128,-50.654541015625,4381.2578125,True
1599566111.6191452,0.0,10,0.5,0.5,-0.8798053131103515,-0.001,-0.03,-0.2505,-0.174396680997562,10,1,100,0.26692044482392746,-10,-1,-100,6462.531009809114,-0.01069289731647755,-0.004593360095879728,0.999932279201951,221.16599233487713,23.012657535201456,399.863411992464,-22.123006361357533,-51.841766357421875,4381.2578125,True
1599566111.691947,0.0,10,0.5,0.5,-0.8989390411376954,-0.001,-0.03,-0.2505,-0.13144008678911462,10,1,100,0.2241380143443566,-10,-1,-100,6461.592085557873,-0.011706791772670491,-0.005372887819979391,0.999917038110095,221.44621829625225,23.02246324421682,407.48875814317586,-22.503914523371655,-53.00244140625,4381.2578125,True
1599566111.7487955,0.0,10,0.5,0.5,-0.8324013366699217,-0.001,-0.03,-0.2505,-0.12948257352773584,10,1,100,0.2323552151540224,-10,-1,-100,6460.715663855197,-0.012692772313130374,-0.0060532936755505525,0.9999011206947838,221.57558069656648,23.014535798684193,414.8605112250276,-22.8847761967296,-54.4525146484375,4381.2578125,True
1599566111.8076453,0.0,10,0.5,0.5,-0.7599144287109376,-0.001,-0.03,-0.2505,-0.12760893723301162,10,1,100,0.2399725445092688,-10,-1,-100,6459.77820768964,-0.013648620873334691,-0.006645541387338142,0.9998847693249084,221.45828767075633,22.978758770086657,421.78261640245415,-23.265603190636373,-56.16961669921875,4381.2578125,True
1599566111.8695064,0.0,10,0.5,0.5,-0.9365758209228516,-0.001,-0.03,-0.2505,-0.09903011147635316,10,1,100,0.19688843722842056,-10,-1,-100,6459.308015147923,-0.014116328976357237,-0.006915527145485915,0.9998764447373142,221.2635478151419,22.945913158769955,424.984181840802,-23.456008323259443,-57.127532958984375,4381.2578125,True
1599566111.9283159,0.0,10,0.5,0.5,-0.343420379638672,-0.001,-0.03,-0.2505,-0.14590355106146566,10,1,100,0.2985458749379175,-10,-1,-100,6457.899878092925,-0.015456196006118667,-0.007578820449021973,0.9998518227645645,220.1550931083788,22.790007261854374,433.53961601402835,-24.02721546148893,-60.372955322265625,4381.2578125,True
1599566111.985164,0.0,10,0.5,0.5,-0.8253613281250001,-0.001,-0.03,-0.2505,-0.09991248487413631,10,1,100,0.21239095504297095,-10,-1,-100,6457.367184881237,-0.015881853392145772,-0.007756454810419692,0.9998437898699999,219.57270593950278,22.71516532392291,435.952294588737,-24.21762222737856,-61.571075439453125,4381.2578125,True
1599566112.044007,0.0,10,0.5,0.5,-0.43945341491699197,-0.001,-0.03,-0.2505,-0.1172155306435875,10,1,100,0.2618509019367582,-10,-1,-100,6456.428750289022,-0.016709885956121204,-0.008068874428521314,0.9998278216657056,218.003329981318,22.522929040355873,439.9167984907286,-24.598457014921664,-64.16265869140625,4381.2578125,True
1599566112.0998595,0.0,10,0.5,0.5,0.015959365844726348,-0.001,-0.03,-0.2505,-0.11792293099511704,10,1,100,0.3028250555071107,-10,-1,-100,6454.895605340833,-0.017826801890413642,-0.0083536434479288,0.9998061921070027,214.5220685971847,22.11839836347974,443.37576432901835,-25.169800844626362,-68.38735961914062,4381.2578125,True
1599566112.15571,0.0,10,0.5,0.5,-0.6092318115234374,-0.001,-0.03,-0.2505,-0.09746580693862976,10,1,100,0.23093729604144886,-10,-1,-100,6454.424432219588,-0.018180276348467486,-0.008421516563986068,0.9997992576565837,213.0597111183462,21.953148202958264,443.8334768819615,-25.360281083412495,-69.89492797851562,4381.2578125,True
1599566112.2135534,0.0,10,0.5,0.5,0.6639172973632814,-0.001,-0.03,-0.2505,-0.09751800023566562,10,1,100,0.3280989727802502,-10,-1,-100,6452.35906485084,-0.019376685137658865,-0.008479033315016921,0.9997763000127173,205.46819724479246,21.121936280455913,441.4916103936697,-26.122411337444838,-76.22921752929688,4381.2578125,True
1599566112.2704005,0.0,10,0.5,0.5,-0.43949107360839845,-0.001,-0.03,-0.2505,-0.09014142485332668,10,1,100,0.23866707455420194,-10,-1,-100,6451.826850883197,-0.01964341788230406,-0.008460729064097217,0.9997712499355065,203.21824850222274,20.881255497596722,440.0002022420082,-26.31299857404944,-77.860107421875,4381.2578125,True
1599566112.3322363,0.0,10,0.5,0.5,0.4694611816406251,-0.001,-0.03,-0.2505,-0.0750630462488088,10,1,100,0.28201498674404374,-10,-1,-100,6450.231667374144,-0.020272759009971313,-0.008304205538452672,0.999759998905987,195.5021619621794,20.07104819702703,432.96814055714145,-26.88488568499928,-82.8021240234375,4381.2578125,True
1599566112.3930736,0.0,10,0.5,0.5,-0.275107681274414,-0.001,-0.03,-0.2505,-0.0828146595218675,10,1,100,0.24003359662119833,-10,-1,-100,6449.698960015434,-0.02045634740973673,-0.008230334352291889,0.9997568701674932,192.76997943990017,19.78864878389319,430.104954639518,-27.075549972414017,-84.42581176757812,4381.2578125,True
1599566112.4858284,0.0,10,0.5,0.5,0.22714070129394537,-0.001,-0.03,-0.2505,-0.07038274139394138,10,1,100,0.25349300363029925,-10,-1,-100,6448.5720182164805,-0.02073941535820948,-0.008048720570105528,0.9997525167499126,196.57855046334802,20.182204740393544,445.11402959880996,-27.456783375657015,-87.7030029296875,4381.2578125,True
1599566112.5556388,0.0,10,0.5,0.5,0.7135895309448244,-0.001,-0.03,-0.2505,-0.051272915859455266,10,1,100,0.2550626519169528,-10,-1,-100,6446.913334788405,-0.021004998399079874,-0.00770886126923658,0.9997496504126352,205.64685818898238,21.132207911866605,475.88620513735844,-28.02820524013933,-92.53663635253906,4381.2578125,True
1599566112.625452,0.0,10,0.5,0.5,0.011005294799804666,-0.001,-0.03,-0.2505,-0.07156106686713869,10,1,100,0.23389235852274287,-10,-1,-100,6446.317631531274,-0.02104893594865745,-0.007584217785952646,0.9997496796378604,208.44359125634983,21.429395762966966,485.8216478129702,-28.218556133161062,-94.17381286621094,4381.2578125,True
1599566112.6932707,0.0,10,0.5,0.5,0.9161997184753417,-0.001,-0.03,-0.2505,-0.039862678189333436,10,1,100,0.23079377275142307,-10,-1,-100,6444.595945092151,-0.021056012866210054,-0.007182894937736719,0.9997524945417697,216.6999205252815,22.31686653343526,515.8751981038062,-28.789206885755206,-99.01476287841797,4381.2578125,True
1599566112.766154,0.0,10,0.5,0.5,-0.1919019470214844,-0.001,-0.03,-0.2505,-0.07990636506184769,10,1,100,0.23052069368717146,-10,-1,-100,6444.595945092151,-0.021056012866210054,-0.007182894937736719,0.9997524945417697,216.6999205252815,22.31686653343526,515.8751981038062,-28.789206885755206,-99.01476287841797,4381.2578125,True
1599566112.842746,0.0,10,0.5,0.5,0.6691225700378418,-0.001,-0.03,-0.2505,-0.048470675842903065,10,1,100,0.22024171043949178,-10,-1,-100,6443.4684930511285,-0.020959631917616788,-0.006898180261664669,0.9997565248293985,221.62628458090958,22.855265980445292,534.978060552839,-29.169295418999535,-102.07298278808594,4381.2578125,True
1599566112.916548,0.0,10,0.5,0.5,1.4263331909179686,-0.001,-0.03,-0.2505,-0.01364048829449676,10,1,100,0.18269998795971187,-10,-1,-100,6441.091994606424,-0.02052819780038023,-0.006324095520524859,0.9997692728379464,230.4618862962764,23.835102307137642,571.6503826484015,-29.928668520476002,-107.74598693847656,4381.2578125,True
1599566112.9743927,0.0,10,0.5,0.5,0.4438220634460449,-0.001,-0.03,-0.2505,-0.05566005880326909,10,1,100,0.2091068911033826,-10,-1,-100,6440.498233530321,-0.02037500089268698,-0.006186155431199773,0.9997732697064889,232.4197383645828,24.05469071276491,580.376376493813,-30.11835071127488,-109.11388397216797,4381.2578125,True
1599566113.0402193,0.0,10,0.5,0.5,0.5285073013305664,-0.001,-0.03,-0.2505,-0.05407486053160224,10,1,100,0.2055341830575529,-10,-1,-100,6439.9030075749615,-0.020202586737085228,-0.006048412250828085,0.9997776113708361,234.23856997007962,24.259768413290203,588.8184783844524,-30.30797218071241,-110.44025421142578,4381.2578125,True
1599566113.116531,0.0,10,0.5,0.5,1.466252010345459,-0.001,-0.03,-0.2505,-0.010508324853187909,10,1,100,0.13019060128556564,-10,-1,-100,6437.400025507784,-0.01936096873613183,-0.00552918248367517,0.9997972699655969,240.0941183921222,24.929023247581732,619.5354721627994,-31.065909631410204,-115.1602783203125,4381.2578125,True
1599566113.1753726,0.0,10,0.5,0.5,0.6454130363464357,-0.001,-0.03,-0.2505,-0.0489524132863018,10,1,100,0.18659090713035387,-10,-1,-100,6436.801378116012,-0.019109587314466454,-0.0054091027282632065,0.9998027631889933,241.34355905296954,25.072639690909554,626.7821300658537,-31.255269875922764,-116.23114776611328,4381.2578125,True
1599566113.2401996,0.0,10,0.5,0.5,0.9665524864196777,-0.001,-0.03,-0.2505,-0.03598840528525286,10,1,100,0.15329267155343607,-10,-1,-100,6435.552324136486,-0.018579829178656627,-0.00518448434864447,0.9998139382253732,243.55270618630692,25.327584757109655,640.642226584693,-31.63385610177033,-118.23435974121094,4381.2578125,True
1599566113.2990432,0.0,10,0.5,0.5,0.9818777923583983,-0.001,-0.03,-0.2505,-0.03548457229355043,10,1,100,0.14146599171114987,-10,-1,-100,6434.237840108108,-0.01799292030137275,-0.004978000409903407,0.9998257219790595,245.37656312941397,25.539393221755464,653.6297790269243,-32.012278393112496,-119.9840087890625,4381.2578125,True
1599566113.359883,0.0,10,0.5,0.5,1.0052365112304686,-0.001,-0.03,-0.2505,-0.03551438339058757,10,1,100,0.12986388643855004,-10,-1,-100,6432.984878303134,-0.017356671288315847,-0.004792928036817369,0.9998378737588526,246.87833465375007,25.71463097260502,665.8780589682059,-32.39055253374191,-121.51170349121094,4381.2578125,True
1599566113.4352274,0.0,10,0.5,0.5,1.1370149002075196,-0.001,-0.03,-0.2505,-0.027411602644021045,10,1,100,0.08067085073545192,-10,-1,-100,6431.006802470656,-0.01633441671694313,-0.0045531914789530194,0.9998562173022045,248.631954328329,25.92021523046983,683.0842464062996,-32.957712069267245,-123.2889404296875,4381.2578125,True
1599566113.4950666,0.0,10,0.5,0.5,0.8771786918640138,-0.001,-0.03,-0.2505,-0.04341346504944851,10,1,100,0.14297953863248172,-10,-1,-100,6430.348582507926,-0.015975829356712993,-0.004483111269542755,0.9998623278180401,249.1042995433662,25.975847373566978,688.5535459033298,-33.14670332272284,-123.73641204833984,4381.2578125,True
1599566113.5549066,0.0,10,0.5,0.5,0.9240789947509764,-0.001,-0.03,-0.2505,-0.04300229360224975,10,1,100,0.13786431841564134,-10,-1,-100,6429.631281688111,-0.015607869575042413,-0.004417859583279,0.9998684298066575,249.53044723885623,26.026172929957816,693.9128187206863,-33.33566531804741,-124.11017608642578,4381.2578125,True
1599566113.6177394,0.0,10,0.5,0.5,1.0513504524230957,-0.001,-0.03,-0.2505,-0.03010760242894713,10,1,100,0.04947979924883429,-10,-1,-100,6427.656624635914,-0.014474338079484856,-0.004243048345043059,0.9998862385681195,250.57897242194917,26.1510080250922,709.4420157335574,-33.90238296603772,-124.79330444335938,4381.2578125,True
1599566114.158871,0.0,10,0.5,0.5,0.9501831207275391,-0.001,-0.03,-0.2505,-0.04224358473500208,10,1,100,0.11837881466414227,-10,-1,-100,6426.939812597586,-0.01407557382622006,-0.0041962226104164824,0.9998921291505732,250.8657329277854,26.185622874293315,714.4689519280876,-34.09123480157165,-124.88442993164062,4381.2578125,True
1599566114.2067087,0.0,10,0.5,0.5,0.9363039474487304,-0.001,-0.03,-0.2505,-0.03259882678406857,10,1,100,0.024370778547872618,-10,-1,-100,6424.906075745705,-0.012864012370295854,-0.004067657951784209,0.9999089815300812,251.56402764906224,26.272298333457474,729.1562608865195,-34.65763488650037,-124.74771118164062,4381.2578125,True
1599566114.2675467,0.0,10,0.5,0.5,0.8019088973999023,-0.001,-0.03,-0.2505,-0.03457014072305469,10,1,100,0.0053576895497289,-10,-1,-100,6422.814237062004,-0.011595652925259665,-0.003970030683865554,0.9999248870238234,252.01872712795316,26.33486282933399,743.2243162585373,-35.223811700481654,-123.96279907226562,4381.2578125,True
1599566114.4081707,0.0,10,0.5,0.5,0.9201300163269044,-0.001,-0.03,-0.2505,-0.04009875658454937,10,1,100,0.08588805886445933,-10,-1,-100,6422.086196431774,-0.011181524000259959,-0.003932847013629817,0.999929750650214,252.10772999679588,26.349871952982777,747.7450450845964,-35.412490318462424,-123.55884552001953,4381.2578125,True
1599566114.5548003,0.0,10,0.5,0.5,0.6330138053894041,-0.001,-0.03,-0.2505,-0.03205600621687375,10,1,100,-0.012151975359916106,-10,-1,-100,6419.921609303565,-0.009920495852928082,-0.0038270656167411995,0.9999434670674123,252.16130616058635,26.375746514042493,760.7029590105735,-35.97839567860606,-121.95137023925781,4381.2578125,True
1599566114.624615,0.0,10,0.5,0.5,0.491401496887207,-0.001,-0.03,-0.2505,-0.03240936017799086,10,1,100,-0.030159178543422246,-10,-1,-100,6417.766791143105,-0.008617743348638542,-0.0037351593235736688,0.9999558905693813,251.81566765189663,26.36593502134549,772.4769170280102,-36.544127280373324,-119.76374816894531,4381.2578125,True
1599566114.6877098,0.0,10,0.5,0.5,0.34211750030517596,-0.001,-0.03,-0.2505,-0.0285016256703342,10,1,100,-0.040487184911990784,-10,-1,-100,6415.539224431384,-0.007347476403151681,-0.003617044896727438,0.9999664652260695,250.89420933502493,26.3031619385033,782.4600433921546,-37.109724586578125,-117.01210021972656,4381.2578125,True
1599566114.7491279,0.0,10,0.5,0.5,0.756922523498535,-0.001,-0.03,-0.2505,-0.035556793804859974,10,1,100,0.039345151384391076,-10,-1,-100,6414.756500677438,-0.006926606728415998,-0.003574657079528577,0.9999696215115705,250.4431290658922,26.268861910729115,785.3254872208211,-37.29823586084794,-115.99559020996094,4381.2578125,True
1599566114.817944,0.0,10,0.5,0.5,0.7224448699951169,-0.001,-0.03,-0.2505,-0.03446587291737439,10,1,100,0.03495853944037014,-10,-1,-100,6414.039207920781,-0.0065123462088272745,-0.0035270311050888473,0.9999725743231361,249.91485488839442,26.227291887100876,787.9375509224644,-37.48673991745602,-114.93836975097656,4381.2578125,True
1599566114.88277,0.0,10,0.5,0.5,0.4054086074829101,-0.001,-0.03,-0.2505,-0.027530842468428574,10,1,100,-0.013391784170446383,-10,-1,-100,6412.53577602352,-0.005704465997617572,-0.003421498877406122,0.9999778759618203,248.6273458543286,26.12219546234712,792.3885135910098,-37.863734555742724,-112.73417663574219,4381.2578125,True
1599566114.9456024,0.0,10,0.5,0.5,0.3250438461303711,-0.001,-0.03,-0.2505,-0.025660249026512615,10,1,100,-0.023303722667036286,-10,-1,-100,6410.969845699379,-0.004887893521168722,-0.003309301956829533,0.9999825783569853,247.01818315283958,25.985866498675453,795.7393330915341,-38.24072486626972,-110.36305236816406,4381.2578125,True
1599566115.018409,0.0,10,0.5,0.5,-0.11397336959838866,-0.001,-0.03,-0.2505,-0.014696266073390207,10,1,100,-0.07113878607127168,-10,-1,-100,6408.6802799977595,-0.0037190431300904016,-0.003108438475507509,0.9999882530952255,243.76855215129316,25.69648965535283,797.8718297353311,-38.80624664818559,-106.4289779663086,4381.2578125,True
1599566115.07725,0.0,10,0.5,0.5,0.11157243347167967,-0.001,-0.03,-0.2505,-0.01817803449566755,10,1,100,-0.03756255739512271,-10,-1,-100,6407.114842044888,-0.0029700039163843787,-0.002958359768577533,0.9999912135535073,241.00696174661866,25.441266519661472,797.1733392218848,-39.183316786953824,-103.62586212158203,4381.2578125,True
1599566115.142077,0.0,10,0.5,0.5,0.027148754119872942,-0.001,-0.03,-0.2505,-0.015131027276103402,10,1,100,-0.04198706304886637,-10,-1,-100,6405.5518475672,-0.0022566778970802112,-0.0027951442156590517,0.9999935472660222,237.7935500187085,25.13703720659721,794.8024070473435,-39.56045293409332,-100.74079895019531,4381.2578125,True
1599566115.2059064,0.0,10,0.5,0.5,-0.40900283432006834,-0.001,-0.03,-0.2505,-0.0021013573159129745,10,1,100,-0.08199579774255027,-10,-1,-100,6403.144614511984,-0.0012525974242276416,-0.0025293491704568563,0.9999960166883001,233.14523009673687,24.6933535046789,791.4630981888517,-40.12627972623825,-96.40518951416016,4381.2578125,True
1599566115.2697375,0.0,10,0.5,0.5,0.6004287872314453,-0.001,-0.03,-0.2505,-0.028551090191504078,10,1,100,0.01754545969983666,-10,-1,-100,6403.144614511984,-0.0012525974242276416,-0.0025293491704568563,0.9999960166883001,233.14523009673687,24.6933535046789,791.4630981888517,-40.12627972623825,-96.40518951416016,4381.2578125,True
1599566115.342542,0.0,10,0.5,0.5,-0.5627005958557129,-0.001,-0.03,-0.2505,0.0027748910006787295,10,1,100,-0.08184247676243384,-10,-1,-100,6400.733965970459,-0.0003557663163201016,-0.0022456637143034824,0.9999974152090647,228.03054725583104,24.189851535566323,786.087368509615,-40.692257987420156,-92.05905151367188,4381.2578125,True
1599566115.402417,0.0,10,0.5,0.5,-0.2630498504638672,-0.001,-0.03,-0.2505,-0.0035556628871807015,10,1,100,-0.053792772930100555,-10,-1,-100,6399.102128865779,0.00019818128322296718,-0.0020465650451286137,0.9999978861456134,224.71043903151087,23.85610478279953,782.5447891258211,-41.06964628289288,-89.21929931640625,4381.2578125,True
1599566115.4652836,0.0,10,0.5,0.5,-0.7201144256591796,-0.001,-0.03,-0.2505,0.009336878407989285,10,1,100,-0.07903373598838366,-10,-1,-100,6396.559160048608,0.0009247562305995679,-0.0017497505086811877,0.9999980415976178,219.13286614655084,23.27854113394149,774.7140318542686,-41.63582417569145,-84.89288330078125,4381.2578125,True
1599566115.52623,0.0,10,0.5,0.5,-0.4218925323486329,-0.001,-0.03,-0.2505,0.0016319494585359355,10,1,100,-0.054871331519850006,-10,-1,-100,6394.934648900991,0.0013588596853739655,-0.0015515796301752924,0.9999978730482414,215.69006865296151,22.912939235893674,770.165850493543,-42.01332524305829,-82.12783813476562,4381.2578125,True
1599566115.5840726,0.0,10,0.5,0.5,-0.15563610839843753,-0.001,-0.03,-0.2505,-0.0077925157052467775,10,1,100,-0.033217275163897456,-10,-1,-100,6394.08601641492,0.0015502229267665842,-0.0014588011687018038,0.9999977343514473,218.5027138836416,23.20885363576307,784.0738131439388,-42.20200660555085,-80.79754638671875,4381.2578125,True
1599566115.6538856,0.0,10,0.5,0.5,-0.5458772277832031,-0.001,-0.03,-0.2505,0.0032411156955774074,10,1,100,-0.05318849946739753,-10,-1,-100,6392.333087809966,0.0018998932612935698,-0.0012758336462530741,0.9999973813236227,223.69947726405894,23.749737781186706,810.6405580017737,-42.57916051819186,-78.2735595703125,4381.2578125,True
1599566115.7137313,0.0,10,0.5,0.5,-0.3018757247924804,-0.001,-0.03,-0.2505,-0.005140836270377484,10,1,100,-0.03610521923652037,-10,-1,-100,6391.491291792132,0.0020573647120452334,-0.001187365102653141,0.9999971787032974,226.0986411571072,23.99655976918938,823.338547912485,-42.76763448641234,-77.06564331054688,4381.2578125,True
1599566115.772151,0.0,10,0.5,0.5,-0.9585556182861328,-0.001,-0.03,-0.2505,0.014117437098479145,10,1,100,-0.06509137942860616,-10,-1,-100,6388.88973135734,0.0024594607884489534,-0.0009334739366326185,0.9999965398335334,232.69854537288703,24.665120149086242,859.74049765503,-43.332651567819624,-73.56829833984375,4381.2578125,True
1599566115.8309932,0.0,10,0.5,0.5,-0.7114351196289062,-0.001,-0.03,-0.2505,0.005978368157088892,10,1,100,-0.04841033482838879,-10,-1,-100,6387.192466838984,0.0026690694172816962,-0.0007783477490620787,0.999996135114145,236.63499583979862,25.05573883558525,882.6728849513113,-43.70899857037674,-71.39157104492188,4381.2578125,True
1599566115.8938262,0.0,10,0.5,0.5,-0.5049553604125977,-0.001,-0.03,-0.2505,-0.0011137430215124424,10,1,100,-0.037674115037179795,-10,-1,-100,6386.288171098568,0.002758455566444554,-0.00070338949964105,0.9999959480748408,238.4647486895093,25.234957540696904,893.7255822957196,-43.89707589830975,-70.34286499023438,4381.2578125,True
1599566115.94868,0.0,10,0.5,0.5,-1.0246690979003907,-0.001,-0.03,-0.2505,0.012561545093918238,10,1,100,-0.04997678068437248,-10,-1,-100,6383.624109937227,0.002947911705211929,-0.0005125847988187594,0.9999955235266819,243.37094923817466,25.706622783269133,925.060064326851,-44.46093992800315,-67.54275512695312,4381.2578125,True
1599566116.0075223,0.0,10,0.5,0.5,-0.6026078491210938,-0.001,-0.03,-0.2505,9.650892615033907e-05,10,1,100,-0.03601753465337018,-10,-1,-100,6382.720302128,0.0029902389783354015,-0.0004540200167922803,0.9999954261578784,244.78504302500534,25.839400611092596,934.7773183228608,-44.64877913304295,-66.72439575195312,4381.2578125,True
1599566116.0663645,0.0,10,0.5,0.5,-1.1514149932861328,-0.001,-0.03,-0.2505,0.015298230821043337,10,1,100,-0.03822174705169585,-10,-1,-100,6379.138271843432,0.0030462183778005077,-0.0002640296022949415,0.9999953254100561,249.56619983386796,26.275195212199563,970.7557833519745,-45.39961185792076,-63.9954833984375,4381.2578125,True
1599566116.1281996,0.0,10,0.5,0.5,-0.6644310302734375,-0.001,-0.03,-0.2505,0.0008838078541948567,10,1,100,-0.03154542335963351,-10,-1,-100,6378.237392175128,0.0030344862872525823,-0.0002237019078199708,0.9999953709145003,250.54766845070776,26.36117864905334,979.0249919438155,-45.58719875214278,-63.4630126953125,4381.2578125,True
1599566116.1840508,0.0,10,0.5,0.5,-0.8139656982421875,-0.001,-0.03,-0.2505,0.004138319477340512,10,1,100,-0.026764205685977333,-10,-1,-100,6376.353114913218,0.002978831838264977,-0.0001586610596526327,0.9999955506838756,252.31319213115682,26.51213929879987,994.895976046673,-45.96224018664361,-62.56072998046875,4381.2578125,True
1599566116.241895,0.0,10,0.5,0.5,-0.803349380493164,-0.001,-0.03,-0.2505,0.0033613908281976117,10,1,100,-0.02187359379575764,-10,-1,-100,6374.534266256029,0.0028824780411728854,-0.00010777794913730549,0.9999958398434745,253.8025067858795,26.633900796902722,1009.8036031287006,-46.33711701844466,-61.921783447265625,4381.2578125,True
1599566116.3022442,0.0,10,0.5,0.5,-0.7520921325683593,-0.001,-0.03,-0.2505,0.0007444692580878308,10,1,100,-0.024621512933365206,-10,-1,-100,6373.633875631727,0.002818971504358435,-8.637264084902037e-05,0.9999960229618038,254.45154338776047,26.68470273433989,1016.9194175026493,-46.52449826684648,-61.684234619140625,4381.2578125,True
1599566116.361637,0.0,10,0.5,0.5,-0.829612075805664,-0.001,-0.03,-0.2505,0.003484582841918078,10,1,100,-0.00404847090992623,-10,-1,-100,6370.768151381053,0.0025735182645028414,-4.3004048426489934e-05,0.999996687571711,256.08282610713866,26.80383380690762,1037.146831348223,-47.08643184062972,-61.3228759765625,4381.2578125,True
1599566116.4344013,0.0,10,0.5,0.5,-0.7761119842529296,-0.001,-0.03,-0.2505,0.00020463827982950813,10,1,100,-0.017527932825994033,-10,-1,-100,6369.844322991441,0.00247281582980196,-3.420525123245484e-05,0.9999969420012607,256.5191027675029,26.832211070737024,1043.4984332893496,-47.273677932488475,-61.321746826171875,4381.2578125,True
1599566116.4892535,0.0,10,0.5,0.5,-0.6614460601806641,-0.001,-0.03,-0.2505,0.0007118950123291992,10,1,100,0.026537033960835812,-10,-1,-100,6365.958577946178,0.0019808559670913234,-2.2271413031361765e-05,0.9999980378548858,257.7449958174047,26.89079173972505,1066.9560472089388,-48.02237815302303,-61.89666748046875,4381.2578125,True
1599566116.5480986,0.0,10,0.5,0.5,-0.7567292022705079,-0.001,-0.03,-0.2505,-0.0006306563599394693,10,1,100,-0.006716883307280021,-10,-1,-100,6364.97713174473,0.0018366349757912097,-2.424667994791022e-05,0.9999983130906093,257.9160917258354,26.891097205484854,1072.29748736836,-48.20948987513289,-62.191192626953125,4381.2578125,True
1599566116.6059415,0.0,10,0.5,0.5,-0.7576455841064453,-0.001,-0.03,-0.2505,-0.0009740457345837493,10,1,100,-0.00387947135463532,-10,-1,-100,6364.005939827999,0.0016807405811574462,-2.9608042476875768e-05,0.9999985871162332,258.02868027057116,26.885210925041715,1077.4062966462561,-48.39657956594778,-62.54473876953125,4381.2578125,True
1599566116.6671767,0.0,10,0.5,0.5,-0.641525177001953,-0.001,-0.03,-0.2505,-0.0011398149040301813,10,1,100,0.015619307028194342,-10,-1,-100,6362.064044428174,0.001362947235643917,-3.637482992937147e-05,0.9999990705254204,258.07975029409977,26.8550439020681,1086.920517231856,-48.7706997421581,-63.408447265625,4381.2578125,True
1599566116.733,0.0,10,0.5,0.5,-0.26184155273437504,-0.001,-0.03,-0.2505,-0.0050164443542276395,10,1,100,0.06695893059669306,-10,-1,-100,6358.115311933681,0.0006088505901381353,-7.797549968104043e-05,0.9999998116103723,257.4541071703104,26.718486692286497,1102.920892585357,-49.5187497124003,-65.785400390625,4381.2578125,True
1599566116.7978282,0.0,10,0.5,0.5,-0.6670794677734375,-0.001,-0.03,-0.2505,-0.002107990400875686,10,1,100,0.01416983771032589,-10,-1,-100,6357.082595987362,0.00040541415291541204,-8.948627843221166e-05,0.9999999138157816,257.1201492702371,26.66599621783736,1106.1611259105675,-49.70573334425872,-66.513916015625,4381.2578125,True
1599566116.8686383,0.0,10,0.5,0.5,-0.642249496459961,-0.001,-0.03,-0.2505,-0.002363680245892649,10,1,100,0.017465024338183775,-10,-1,-100,6356.111405221745,0.00019285516581000065,-0.00010233796205272192,0.9999999761669129,256.71224760161846,26.605976864565424,1109.0776301305923,-49.89270952584629,-67.29110717773438,4381.2578125,True
1599566116.956445,0.0,10,0.5,0.5,0.041155181884765635,-0.001,-0.03,-0.2505,-0.006491437264645731,10,1,100,0.09553499929808706,-10,-1,-100,6352.099687052774,-0.0007076622103982551,-0.0001515513200482907,0.9999997381231625,254.40695168809742,26.298997202541003,1117.7183009982575,-50.6405732120712,-70.71847534179688,4381.2578125,True
1599566117.041177,0.0,10,0.5,0.5,-0.29434362792968755,-0.001,-0.03,-0.2505,-0.004633036884225294,10,1,100,0.05982548134568459,-10,-1,-100,6350.0308405166725,-0.0011984763585523228,-0.000179336934150259,0.9999992657460715,252.78977938681948,26.100468918952995,1119.9065504473854,-51.01450364486895,-72.69046020507812,4381.2578125,True
1599566117.1269507,0.0,10,0.5,0.5,-0.4885316925048827,-0.001,-0.03,-0.2505,-0.0027970928656087584,10,1,100,0.03740579237788667,-10,-1,-100,6348.9986144047,-0.0014374265984187166,-0.00018778224417760373,0.9999989492707494,251.8352257393705,25.9872839001033,1120.3204801956567,-51.20147577215596,-73.74688720703125,4381.2578125,True
1599566117.2027473,0.0,10,0.5,0.5,0.10884425354003913,-0.001,-0.03,-0.2505,-0.005719909614508129,10,1,100,0.09838277510217536,-10,-1,-100,6345.958579278435,-0.002205435529946953,-0.0002218912446534158,0.999997543406182,248.44703190540275,25.59982455343069,1119.0440304266724,-51.762441970193194,-77.02615356445312,4381.2578125,True
1599566117.2775455,0.0,10,0.5,0.5,-0.08389517211914055,-0.001,-0.03,-0.2505,-0.0049246887407734434,10,1,100,0.08152110917331626,-10,-1,-100,6343.828211988322,-0.002746531876076596,-0.00024548867365963684,0.9999961981417552,245.806420958153,25.308596975401496,1116.2952949211524,-52.136473478932636,-79.34555053710938,4381.2578125,True
1599566117.3403795,0.0,10,0.5,0.5,-0.01811640930175773,-0.001,-0.03,-0.2505,-0.0043613129544783896,10,1,100,0.08620602636774458,-10,-1,-100,6341.758880462963,-0.003276861286278467,-0.0002616181547046903,0.9999945968534288,242.81099439228572,24.987235868232368,1111.7602012363182,-52.510561225152216,-81.712646484375,4381.2578125,True
1599566117.4037867,0.0,10,0.5,0.5,0.0437729797363281,-0.001,-0.03,-0.2505,-0.0048041043071391665,10,1,100,0.09471836843089268,-10,-1,-100,6339.628514117678,-0.0038318569489747545,-0.0002800957769405388,0.9999926191821009,239.60923732987186,24.651849821067525,1106.0808602133466,-52.88470977677547,-84.0877685546875,4381.2578125,True
1599566117.4636269,0.0,10,0.5,0.5,0.1108339996337891,-0.001,-0.03,-0.2505,-0.004833304116548238,10,1,100,0.1012143242010066,-10,-1,-100,6337.497172928299,-0.004390730054622762,-0.00029693750365229163,0.9999903166119691,239.87409337879896,24.6809320391828,1116.322811268462,-53.258842751885936,-86.47341918945312,4381.2578125,True
1599566117.526006,0.0,10,0.5,0.5,-0.4247074279785156,-0.001,-0.03,-0.2505,-0.0031710276457700822,10,1,100,0.04582697170068196,-10,-1,-100,6337.497172928299,-0.004390730054622762,-0.00029693750365229163,0.9999903166119691,239.87409337879896,24.6809320391828,1116.322811268462,-53.258842751885936,-86.47341918945312,4381.2578125,True
1599566117.5858185,0.0,10,0.5,0.5,0.5313432235717773,-0.001,-0.03,-0.2505,-0.005771015916866412,10,1,100,0.13933790041453997,-10,-1,-100,6334.271597862244,-0.005236469275469164,-0.0003203851686393309,0.9999862382767428,246.45624278106558,25.375609120674316,1160.9016549498044,-53.81952711890075,-90.03672790527344,4381.2578125,True
1599566117.6466916,0.0,10,0.5,0.5,0.002423118591308615,-0.001,-0.03,-0.2505,-0.004316547525436979,10,1,100,0.08655193936256848,-10,-1,-100,6333.236934563378,-0.005520514989910443,-0.00032828056306311124,0.9999847079561357,248.54707053808556,25.6003258220154,1175.449100953795,-54.00628018034591,-91.21148681640625,4381.2578125,True
1599566117.7154844,0.0,10,0.5,0.5,0.37453788375854496,-0.001,-0.03,-0.2505,-0.005307794676115982,10,1,100,0.12425683073351321,-10,-1,-100,6331.042119560763,-0.006117134785702457,-0.00034430886914270717,0.9999812308805682,252.59182673151182,26.04100265519163,1204.1414692973217,-54.37957291922995,-93.61670684814453,4381.2578125,True
1599566117.775323,0.0,10,0.5,0.5,0.7230431022644043,-0.001,-0.03,-0.2505,-0.00699071062452645,10,1,100,0.15975998994621132,-10,-1,-100,6327.752584232716,-0.006977800903422315,-0.00037402931789607823,0.9999755849002623,258.353634047839,26.68304532764574,1246.3071457351796,-54.93897166511153,-97.14845275878906,4381.2578125,True
1599566117.8391511,0.0,10,0.5,0.5,0.19877627944946288,-0.001,-0.03,-0.2505,-0.005166830216511931,10,1,100,0.10706629422691552,-10,-1,-100,6326.655910704867,-0.007276154345442222,-0.0003842978611683577,0.9999734545942183,260.2987042725662,26.902518896364484,1260.6318395147375,-55.125292506197255,-98.30245208740234,4381.2578125,True
1599566117.9122124,0.0,10,0.5,0.5,0.5382654991149902,-0.001,-0.03,-0.2505,-0.0070407233935507844,10,1,100,0.14130451811383957,-10,-1,-100,6324.461586962687,-0.007854031583690996,-0.0004105206506466786,0.9999690723520791,264.090008803225,27.335016379810106,1289.0263831326245,-55.497711860148215,-100.54792785644531,4381.2578125,True
1599566118.4569333,0.0,10,0.5,0.5,0.8134104232788086,-0.001,-0.03,-0.2505,-0.010131980082235675,10,1,100,0.17838215921054218,-10,-1,-100,6321.109066817095,-0.00871180081051662,-0.0004623118546359357,0.9999619446730895,269.2649933673321,27.93822637785288,1329.6426729625946,-56.05580343883393,-103.62557983398438,4381.2578125,True
1599566118.5117867,0.0,10,0.5,0.5,0.5878648834228515,-0.001,-0.03,-0.2505,-0.009805313071076186,10,1,100,0.15561610917560903,-10,-1,-100,6318.852733357111,-0.009279686071382123,-0.000506242618433873,0.9999568146399261,272.62667233155446,28.334725571758757,1356.6164385083932,-56.4275110643573,-105.53280639648438,4381.2578125,True
1599566118.5736232,0.0,10,0.5,0.5,0.8138390426635742,-0.001,-0.03,-0.2505,-0.015414885227205995,10,1,100,0.18906824972930142,-10,-1,-100,6315.437228539842,-0.010095103196182141,-0.0005969701989045475,0.9999488649516235,277.1165945751104,28.875107641218374,1394.7876736215032,-56.98456678863624,-108.07514953613281,4381.2578125,True
1599566118.6304696,0.0,10,0.5,0.5,0.42881200408935544,-0.001,-0.03,-0.2505,-0.010277695427996354,10,1,100,0.1378055673128192,-10,-1,-100,6314.278055648087,-0.010365181312085447,-0.0006324753350712074,0.999946080041978,278.4387026263677,29.037485611274533,1406.7475592456635,-57.17012547809238,-108.81878662109375,4381.2578125,True
1599566118.6893137,0.0,10,0.5,0.5,0.6468773460388184,-0.001,-0.03,-0.2505,-0.01606677698568914,10,1,100,0.16840544717320755,-10,-1,-100,6311.959223239566,-0.010883456278676108,-0.0007170757113549972,0.9999405163217732,280.8641900747809,29.339614746177,1429.7124612505459,-57.541065768280745,-110.15998077392578,4381.2578125,True
1599566118.7521443,0.0,10,0.5,0.5,0.5184858283996581,-0.001,-0.03,-0.2505,-0.013071844535199066,10,1,100,0.14453998976449312,-10,-1,-100,6310.801028238959,-0.011132523010949117,-0.0007663978579333367,0.9999377378445792,281.96900478420656,29.4793977876958,1440.7170788276185,-57.726451238901134,-110.74530029296875,4381.2578125,True
1599566118.807995,0.0,10,0.5,0.5,0.811222282409668,-0.001,-0.03,-0.2505,-0.026607934717811667,10,1,100,0.2023043534723025,-10,-1,-100,6307.321559093543,-0.01187897606670372,-0.0009338932498511506,0.9999290063654541,284.91246651226606,29.859499722295553,1472.0877461076636,-58.282290720952,-112.25924682617188,4381.2578125,True
1599566118.8778083,0.0,10,0.5,0.5,0.7725227394104004,-0.001,-0.03,-0.2505,-0.03276881180863074,10,1,100,0.20637883297782245,-10,-1,-100,6303.842091062572,-0.01258937243900263,-0.0011416337757105108,0.9999200989948719,287.4262756826917,30.193552063343105,1501.5876421496557,-58.837683697942666,-113.39092254638672,4381.2578125,True
