Timestamp,Input Throttle,horizon,dT,dt,Input Roll,Roll P,Roll I,Roll D,Input Pitch,Pitch P,Pitch I,Pitch D,Input Yaw,Yaw P,Yaw I,Yaw D,Altitude,Direction X,Direction Y,Direction Z,Drag X,Drag Y,Drag Z,Vertical Velocity,Roll,Mass,Has Fuel
1599571933.0867088,0.0,10,0.5,0.5,-8.123429016113281,-0.15025,-0.03,-0.5,-0.06717769642311214,10,1,100,0.6903658785596951,-10,-1,-100,6483.617967321072,-0.06725828844324845,-0.007002440862050053,0.9977110245244653,205.07315141630554,21.49876975292185,-156.76519278958278,9.590824533691293,-35.944580078125,4381.2578125,True
1599571933.1650348,0.0,10,0.5,0.5,-8.286156105041504,-0.15025,-0.03,-0.5,-0.06734914519431569,10,1,100,0.6999146367488234,-10,-1,-100,6483.99788280006,-0.06744561502026676,-0.006971754430119236,0.9976985935916237,204.61197854603472,21.456723814909466,-150.26660204523998,9.210802183504573,-35.941253662109375,4381.2578125,True
1599571933.8453236,0.0,10,0.5,0.5,-8.447780403137207,-0.15025,-0.03,-0.5,-0.06932140643482568,10,1,100,0.6986116694573993,-10,-1,-100,6484.156591826235,-0.06754275255579749,-0.006955449362886658,0.9976921360326273,204.38117686308928,21.4356108054502,-147.02550528529662,9.020798426351115,-35.939544677734375,4381.2578125,True
1599571933.91115,0.0,10,0.5,0.5,-8.51518536376953,-0.15025,-0.03,-0.5,-0.03710157781000782,10,1,100,0.6997873400980228,-10,-1,-100,6484.5389360502595,-0.06758034481887128,-0.006641395905756073,0.9976917303729571,203.94236175842954,21.395599844897507,-140.57579996701944,8.640801479412257,-36.083984375,4381.2578125,True
1599571933.9789684,0.0,10,0.5,0.5,-8.636935127258301,-0.15025,-0.03,-0.5,-0.0503868167710989,10,1,100,0.7042780496870366,-10,-1,-100,6484.69714060449,-0.06759390755900314,-0.006470630029914773,0.9976919337189816,203.7565891150797,21.37896786298825,-137.38151439233204,8.45080619452683,-36.256561279296875,4381.2578125,True
1599571934.0557604,0.0,10,0.5,0.5,-8.51942250061035,-0.15025,-0.03,-0.5,-0.016173667261195804,10,1,100,0.7039311601378888,-10,-1,-100,6485.016948990291,-0.06754163477453168,-0.005998477301760004,0.9976984242956606,203.44695028703708,21.351709104475344,-131.0455960178749,8.070816843648394,-36.81793212890625,4381.2578125,True
1599571934.130561,0.0,10,0.5,0.5,-8.404496841430664,-0.15025,-0.03,-0.5,0.011712205400341305,10,1,100,0.6959235748749113,-10,-1,-100,6485.335754360538,-0.0673599163455537,-0.005310286454421912,0.9977146097595705,203.1999402033695,21.33014051088212,-124.7615035271663,7.690822853620097,-37.67169189453125,4381.2578125,True
1599571934.2073574,0.0,10,0.5,0.5,-8.242284706115722,-0.15025,-0.03,-0.5,0.041673538812607686,10,1,100,0.6851640423809254,-10,-1,-100,6485.590079983696,-0.06703566755440517,-0.00440745511995357,0.997740844916605,202.97357907706032,21.309623726947404,-118.49913522419838,7.310816185503249,-38.819061279296875,4381.2578125,True
1599571934.2821553,0.0,10,0.5,0.5,-8.032317176818847,-0.15025,-0.03,-0.5,0.07273381843660638,10,1,100,0.671445195229343,-10,-1,-100,6485.909319967264,-0.06655523761784266,-0.0033003264055642217,0.9977772838621098,202.71132407862854,21.284042440207458,-112.22538646376985,6.930788494500916,-40.260345458984375,4381.2578125,True
1599571934.3549602,0.0,10,0.5,0.5,-8.361923828125,-0.15025,-0.03,-0.5,0.030854725841723024,10,1,100,0.6931094372331131,-10,-1,-100,6486.0054537074175,-0.06625492602316752,-0.002671564482976877,0.9977991518942467,202.5449617193903,21.267018120229224,-109.07355723368131,6.740764160370705,-41.0911865234375,4381.2578125,True
1599571934.4417293,0.0,10,0.5,0.5,-7.016362556457519,-0.15025,-0.03,-0.5,0.20421663032915258,10,1,100,0.6009600421597536,-10,-1,-100,6486.420279895887,-0.06508396195822942,-0.0005215167266635891,0.9978796550266587,201.77278808741565,21.184953981721865,-99.50592415363533,6.170633367271131,-44.024993896484375,4381.2578125,True
1599571934.5211961,0.0,10,0.5,0.5,-6.948197860717773,-0.15025,-0.03,-0.5,0.171817064571154,10,1,100,0.6066706863495965,-10,-1,-100,6486.674989993102,-0.06407334077954338,0.0011326388866072434,0.9979445496271327,200.90085083660412,21.090773362584613,-92.99472332803845,5.790481311980936,-46.34844970703125,4381.2578125,True
1599571934.595997,0.0,10,0.5,0.5,-6.3762628402709955,-0.15025,-0.03,-0.5,0.20238051251451103,10,1,100,0.5733332345314703,-10,-1,-100,6486.868642440066,-0.06285459221351922,0.002906898613323313,0.9980184618423269,199.60306049008665,20.95038360977083,-86.34691566507301,5.41025731868746,-48.966583251953125,4381.2578125,True
1599571934.6757832,0.0,10,0.5,0.5,-5.752153274536132,-0.15025,-0.03,-0.5,0.23287077546594198,10,1,100,0.5374902119506831,-10,-1,-100,6487.061784686521,-0.061425055275801256,0.004788080439008921,0.9981002138413129,197.7471167093417,20.75001462815236,-79.5479680652636,5.029941853777495,-51.87945556640625,4381.2578125,True
1599571934.7535734,0.0,10,0.5,0.5,-5.075394378662109,-0.15025,-0.03,-0.5,0.2628419612316113,10,1,100,0.49882638410834024,-10,-1,-100,6487.2553960889345,-0.05977958261525733,0.0067603206271885,0.9981887093968572,195.18335526554952,20.474205325214204,-72.59297532307525,4.649512031115806,-55.087158203125,4381.2578125,True
1599571934.8303678,0.0,10,0.5,0.5,-4.344894500732422,-0.15025,-0.03,-0.5,0.28858221384717014,10,1,100,0.45706321731278143,-10,-1,-100,6487.448503599502,-0.05791113715747936,0.008775240412350376,0.9982831739285367,191.75663108215258,20.107175551852475,-65.49334182183875,4.268937623197212,-58.5902099609375,4381.2578125,True
1599571934.908161,0.0,10,0.5,0.5,-3.5610743103027342,-0.15025,-0.03,-0.5,0.3121814354249787,10,1,100,0.41313791716976045,-10,-1,-100,6487.578610614524,-0.055821984465123785,0.01080809339710115,0.9983822370051939,187.29905531622353,19.631998713261172,-58.27547472825011,3.8881846112955065,-62.3887939453125,4381.2578125,True
1599571934.9809663,0.0,10,0.5,0.5,-2.7237778015136715,-0.15025,-0.03,-0.5,0.3324368533689597,10,1,100,0.36741620885324844,-10,-1,-100,6487.770719779539,-0.053517591879996274,0.012825628655591205,0.9984845369904108,181.66745327731311,19.03441305188742,-50.99341972597418,3.507222930948109,-66.4832763671875,4381.2578125,True
1599571935.0667396,0.0,10,0.5,0.5,-1.8329827728271484,-0.15025,-0.03,-0.5,0.34920271693756205,10,1,100,0.3204855410044163,-10,-1,-100,6487.839777263929,-0.05100833625459498,0.01479650211959169,0.9985886105687183,174.7632507299861,18.305083041572733,-43.72974577294427,3.126000902084967,-70.87396240234375,4381.2578125,True
1599571935.144529,0.0,10,0.5,0.5,-2.436691093444824,-0.15025,-0.03,-0.5,0.2594909365501734,10,1,100,0.42360571139900516,-10,-1,-100,6487.934852269129,-0.04967878441814756,0.015756191966502093,0.998640956897648,170.76598014054306,17.884155351078455,-40.12516275192599,2.9352697611615253,-73.18045043945312,4381.2578125,True
1599571935.2263105,0.0,10,0.5,0.5,1.2953778915405274,-0.15025,-0.03,-0.5,0.46446038131763484,10,1,100,0.08833482683948018,-10,-1,-100,6488.100451195263,-0.0454372530177497,0.018475243364807128,0.9987963363072634,156.62059484736966,16.39862290180868,-29.62725527922173,2.362625273589401,-80.54537963867188,4381.2578125,True
1599571935.3051,0.0,10,0.5,0.5,-0.584589515686035,-0.15025,-0.03,-0.5,0.28753613157536856,10,1,100,0.3460424190332952,-10,-1,-100,6488.1335187609075,-0.043941972318186764,0.019321436220071583,0.9988472281441148,151.16795560961262,15.826979510506714,-26.285573328180583,2.1716301262590076,-83.14889526367188,4381.2578125,True
1599571935.386882,0.0,10,0.5,0.5,5.282772953033447,-0.15025,-0.03,-0.5,0.5377753652218514,10,1,100,-0.1979686898453955,-10,-1,-100,6488.269228162826,-0.03765537193646996,0.022349069305885965,0.9990408360349875,155.80018493643524,16.311263595419856,-17.561834109863497,1.407456791722454,-94.00428771972656,4381.2578125,True
1599571935.4636774,0.0,10,0.5,0.5,-0.009810161590576238,-0.15025,-0.03,-0.5,0.2369562737096695,10,1,100,0.42817142629858024,-10,-1,-100,6488.269228162826,-0.03765537193646996,0.022349069305885965,0.9990408360349875,155.80018493643524,16.311263595419856,-17.561834109863497,1.407456791722454,-94.00428771972656,4381.2578125,True
1599571935.5424678,0.0,10,0.5,0.5,3.638204469680786,-0.15025,-0.03,-0.5,0.38325212327187935,10,1,100,0.054153208403408426,-10,-1,-100,6488.273382285493,-0.03427681512227688,0.023663067039299802,0.9991322030659241,163.61936805733282,17.128257588926516,-13.4386501753421,1.0254237853820647,-99.42011260986328,4381.2578125,True
1599571935.61926,0.0,10,0.5,0.5,6.2217778358459475,-0.15025,-0.03,-0.5,0.4257338292502268,10,1,100,-0.15283380666452123,-10,-1,-100,6488.311636414612,-0.029346884033750156,0.02522844162728635,0.9992508624617584,173.5985803708799,18.169805178693498,-6.293241869596499,0.45251233840126037,-107.35319519042969,4381.2578125,True
1599571935.7090201,0.0,10,0.5,0.5,5.754863243103027,-0.15025,-0.03,-0.5,0.36250541027697675,10,1,100,-0.03529024851096002,-10,-1,-100,6488.318280010484,-0.025959673802961627,0.026061748170049175,0.999323211287702,179.74620592648333,18.812429851813604,-1.016278791692775,0.07056657286721402,-112.51019287109375,4381.2578125,True
1599571935.7873192,0.0,10,0.5,0.5,6.521681015014648,-0.15025,-0.03,-0.5,0.3554977202466932,10,1,100,-0.05962069298078987,-10,-1,-100,6488.322015958489,-0.02268635347130284,0.02674172634067376,0.9993849155548106,184.21258737474565,19.2791964075143,4.597917387521594,-0.31147970493802735,-117.42361450195312,4381.2578125,True
1599571935.866108,0.0,10,0.5,0.5,5.745753696441651,-0.15025,-0.03,-0.5,0.3205794882435035,10,1,100,0.08646547088874976,-10,-1,-100,6488.355144067784,-0.02106669214898039,0.02702979884331704,0.9994126197203986,185.9892066497126,19.464792499691374,7.4905080888706355,-0.5025529420061958,-119.77342224121094,4381.2578125,True
1599571935.9417608,0.0,10,0.5,0.5,9.015472896575927,-0.15025,-0.03,-0.5,0.3638499771110853,10,1,100,-0.2846696377329304,-10,-1,-100,6488.268526852131,-0.01624753690858617,0.02767392983840374,0.9994849529391141,190.2999039456626,19.91515839521798,16.41205036851745,-1.075947246720561,-126.38307189941406,4381.2578125,True
1599571936.0205417,0.0,10,0.5,0.5,7.207030864715575,-0.15025,-0.03,-0.5,0.31750193133711524,10,1,100,0.023478031658243442,-10,-1,-100,6488.241619075066,-0.014698221182247156,0.02782732329247201,0.9995046785145401,191.11535550389902,20.000233134523462,19.412626595106133,-1.2671383118078072,-128.43885803222656,4381.2578125,True
1599571936.0983055,0.0,10,0.5,0.5,10.04509664916992,-0.15025,-0.03,-0.5,0.3352971537983076,10,1,100,-0.3218071548943605,-10,-1,-100,6488.154086997616,-0.01017874067312938,0.0281200447458834,0.9995527281348385,192.14603062685032,20.107107166840684,28.360742055778232,-1.8408765625390833,-134.16323852539062,4381.2578125,True
1599571936.1767807,0.0,10,0.5,0.5,9.577176712036131,-0.15025,-0.03,-0.5,0.31623896444644595,10,1,100,-0.18913985331679983,-10,-1,-100,6488.033421522239,-0.0073068822534047345,0.028204900156217003,0.9995754564208309,191.84918772007995,20.074994996961784,34.20761463343454,-2.2234874662024495,-137.60995483398438,4381.2578125,True
1599571936.2545738,0.0,10,0.5,0.5,9.033334342956543,-0.15025,-0.03,-0.5,0.3074359803797679,10,1,100,-0.06051967170317579,-10,-1,-100,6488.00312462321,-0.005892965786218061,0.028196690827868357,0.9995850236876301,191.49097188537834,20.036826568601768,37.08475777196984,-2.414821704368088,-139.22271728515625,4381.2578125,True
1599571936.3423433,0.0,10,0.5,0.5,10.314479595184325,-0.15025,-0.03,-0.5,0.3153486178668105,10,1,100,-0.20998031786761104,-10,-1,-100,6487.882975346874,-0.0032777289474173574,0.028255844850595447,0.9995953499915485,190.413699384328,19.92233517438999,42.727242775565905,-2.7975352386709575,-142.2244415283203,4381.2578125,True
1599571936.4226856,0.0,10,0.5,0.5,11.509682525634766,-0.15025,-0.03,-0.5,0.3004226773622918,10,1,100,-0.365832713480271,-10,-1,-100,6487.7325673718005,0.0004884180605394099,0.02816975561411418,0.999603034367363,188.2391807784763,19.690858526094363,50.92076088072376,-3.3716878809555717,-146.17315673828125,4381.2578125,True
1599571936.4947953,0.0,10,0.5,0.5,11.12251703262329,-0.15025,-0.03,-0.5,0.30093269005059314,10,1,100,-0.24755090396178236,-10,-1,-100,6487.549465941847,0.002809775888428129,0.028093455229036834,0.999601352006264,186.64750486496337,19.52065628419063,56.23208442461013,-3.7544964696633256,-148.43495178222656,4381.2578125,True
1599571936.5788324,0.0,10,0.5,0.5,11.376884605407716,-0.15025,-0.03,-0.5,0.3035814373285739,10,1,100,-0.2560787509923532,-10,-1,-100,6487.42692400096,0.004971473023430891,0.028046323756894538,0.999594261778098,185.1165180200973,19.35591012819668,61.46819786767989,-4.1373338775857,-150.39956665039062,4381.2578125,True
1599571936.6516376,0.0,10,0.5,0.5,11.57808186340332,-0.15025,-0.03,-0.5,0.3030099025872287,10,1,100,-0.2652896445390467,-10,-1,-100,6487.243358992157,0.00699524415431722,0.02799709519601093,0.9995835278853923,183.687331082614,19.200920292827725,66.64968598763353,-4.520202227690281,-152.0675048828125,4381.2578125,True
1599571936.7307818,0.0,10,0.5,0.5,11.732509017944334,-0.15025,-0.03,-0.5,0.30433225284250975,10,1,100,-0.27196979081835243,-10,-1,-100,6487.060291468399,0.008870253842840937,0.027963483964480482,0.9995695884536163,182.41526749792217,19.061510416538322,71.80786402162377,-4.903106746700995,-153.43853759765625,4381.2578125,True
1599571936.809764,0.0,10,0.5,0.5,11.82637213897705,-0.15025,-0.03,-0.5,0.30853475881398057,10,1,100,-0.2760792356606019,-10,-1,-100,6486.813266483368,0.010589332339381651,0.02797086966816974,0.9995526481834823,181.3660934947408,18.944605302818818,76.98534621103019,-5.286053623511697,-154.51229858398438,4381.2578125,True
1599571936.8895495,0.0,10,0.5,0.5,11.644357940673828,-0.15025,-0.03,-0.5,0.3096459246339611,10,1,100,-0.19509078647229505,-10,-1,-100,6486.721006500884,0.011392883658596212,0.027987554955000073,0.9995433452179963,180.94510826836364,18.896698119855284,79.5966380834183,-5.4775449969511545,-154.937744140625,4381.2578125,True
1599571936.9882874,0.0,10,0.5,0.5,11.902309646606444,-0.15025,-0.03,-0.5,0.3147492026822085,10,1,100,-0.2810749473097043,-10,-1,-100,6486.474477288313,0.012885448479738873,0.02804923727963979,0.9995234892214923,180.34074216290176,18.825161825234463,84.89474426433053,-5.8605668054840425,-155.56573486328125,4381.2578125,True
1599571937.0710692,0.0,10,0.5,0.5,11.85729118347168,-0.15025,-0.03,-0.5,0.31978882962899596,10,1,100,-0.28122913923872916,-10,-1,-100,6486.226975376485,0.014225370670375024,0.028151268422352674,0.9995024486790931,180.08428350036104,18.789239386944693,90.33376449105472,-6.243643021391022,-155.89654541015625,4381.2578125,True
1599571937.1558375,0.0,10,0.5,0.5,11.764112892150877,-0.15025,-0.03,-0.5,0.32162152309037706,10,1,100,-0.2815935441713509,-10,-1,-100,6485.979961814475,0.015428505128107547,0.028260726149381955,0.9994815118785447,180.2025042490334,18.79170832057457,95.96038508983594,-6.62677380509095,-155.93069458007812,4381.2578125,True
1599571937.2366216,0.0,10,0.5,0.5,11.458805282592774,-0.15025,-0.03,-0.5,0.34135877945501775,10,1,100,-0.3277324019650224,-10,-1,-100,6485.578190960456,0.01692470222046547,0.02853965833972459,0.9994493695813711,181.09582174096727,18.868735623374853,104.83625282054011,-7.20156484565134,-155.4241943359375,4381.2578125,True
1599571937.3144138,0.0,10,0.5,0.5,11.278870803833007,-0.15025,-0.03,-0.5,0.33831447442678414,10,1,100,-0.2685620449542736,-10,-1,-100,6485.267698964803,0.01773202698236593,0.028765221282756128,0.9994289055573942,182.1620256722586,18.968230196289067,111.091966970911,-7.584811692774712,-154.71533203125,4381.2578125,True
1599571937.39819,0.0,10,0.5,0.5,10.997973896026611,-0.15025,-0.03,-0.5,0.34587610075994213,10,1,100,-0.25965197548390934,-10,-1,-100,6484.958668871783,0.018371392269732185,0.02903840986485558,0.9994094569787662,183.57722350225112,19.10335810193912,117.64177246679031,-7.968088698918423,-153.7093048095703,4381.2578125,True
1599571937.4799728,0.0,10,0.5,0.5,10.663704551696778,-0.15025,-0.03,-0.5,0.35246136058099553,10,1,100,-0.24941244624687497,-10,-1,-100,6484.585670098779,0.018847365065868194,0.029345727223221058,0.9993916174972723,185.3012503038679,19.26997148992607,124.49123473190528,-8.35138246347281,-152.40640258789062,4381.2578125,True
1599571937.5627499,0.0,10,0.5,0.5,10.276006515502928,-0.15025,-0.03,-0.5,0.35863701409454807,10,1,100,-0.23728378490464686,-10,-1,-100,6484.274677691981,0.019159032394779264,0.02968002291546996,0.9993758190577922,187.28294363701974,19.46284500412438,131.63321083767434,-8.734677843414204,-150.8067626953125,4381.2578125,True
1599571937.6435342,0.0,10,0.5,0.5,10.475526557922363,-0.15025,-0.03,-0.5,0.3448581380083597,10,1,100,-0.2172241052894778,-10,-1,-100,6484.11893528793,0.019250652171331484,0.029857105090411805,0.9993687836162376,188.34729841835878,19.566784008233675,135.30480934585907,-8.926321458223201,-149.89572143554688,4381.2578125,True
1599571937.718335,0.0,10,0.5,0.5,9.587834278106689,-0.15025,-0.03,-0.5,0.3672156434068645,10,1,100,-0.21528724149906325,-10,-1,-100,6483.74738555646,0.01930846109752796,0.030219624175416033,0.9993567719512094,190.57306606064773,19.784655519471784,142.823261372355,-9.309591384951892,-147.85133361816406,4381.2578125,True
1599571937.7981615,0.0,10,0.5,0.5,8.233765785217285,-0.15025,-0.03,-0.5,0.39110572601766785,10,1,100,-0.18582504912230596,-10,-1,-100,6483.1551342777675,0.01908598057479157,0.03076434039531771,0.9993444254637837,193.96865624124987,20.117953010678832,154.41406176451642,-9.884427635622625,-144.22964477539062,4381.2578125,True
1599571937.8729613,0.0,10,0.5,0.5,9.129416744232177,-0.15025,-0.03,-0.5,0.356513980890108,10,1,100,-0.19172627423822608,-10,-1,-100,6482.936391516239,0.018931736207816807,0.03094259827305444,0.9993418559113142,195.06253464654847,20.225560596497587,158.3194491964074,-10.076013950818128,-142.87449645996094,4381.2578125,True
1599571937.9517508,0.0,10,0.5,0.5,7.861456764221192,-0.15025,-0.03,-0.5,0.37591068332418015,10,1,100,-0.15930322175379075,-10,-1,-100,6482.50085166574,0.018492480519310843,0.031278446975078755,0.999339625412237,197.09961346545876,20.426381066141378,166.10866580646334,-10.459138690782998,-139.94259643554688,4381.2578125,True
1599571938.0285454,0.0,10,0.5,0.5,6.059952892303468,-0.15025,-0.03,-0.5,0.3895773831314394,10,1,100,-0.09871482976627789,-10,-1,-100,6481.8465454969555,0.01753956817042694,0.031705263319870766,0.9993433543213326,199.50726987816822,20.665113587324484,177.46236143507804,-11.033692398898351,-134.99143981933594,4381.2578125,True
1599571938.1057286,0.0,10,0.5,0.5,6.088233352661133,-0.15025,-0.03,-0.5,0.3715688602626076,10,1,100,-0.1033056055441141,-10,-1,-100,6481.409515420557,0.016714459573103753,0.031926686511801264,0.9993504458044516,200.45847168237347,20.76090580027331,184.5602874581419,-11.41663744097572,-131.32208251953125,4381.2578125,True
1599571938.784426,0.0,10,0.5,0.5,6.587951553344726,-0.15025,-0.03,-0.5,0.35893568118726393,10,1,100,-0.13426357492369323,-10,-1,-100,6481.190752598224,0.016246721994814542,0.032010259180844915,0.9993554859666296,200.67624398845456,20.78373277354326,187.8919145154483,-11.608084200509975,-129.37701416015625,4381.2578125,True
1599571938.8452642,0.0,10,0.5,0.5,6.174963363647461,-0.15025,-0.03,-0.5,0.35694762198451063,10,1,100,-0.1263979988973741,-10,-1,-100,6480.973939853138,0.015751932296380465,0.03206545938784503,0.999361637718387,200.6923241334722,20.78687397392851,191.0396249578887,-11.799515831440788,-127.3585205078125,4381.2578125,True
1599571938.915077,0.0,10,0.5,0.5,4.34052318572998,-0.15025,-0.03,-0.5,0.35761176997324834,10,1,100,-0.05582140831143892,-10,-1,-100,6480.474877057131,0.01466333214044961,0.03211920661941128,0.9993764772380218,200.02283494823058,20.72429113833719,196.65087959773126,-12.182344405973124,-123.10086059570312,4381.2578125,True
1599571938.987882,0.0,10,0.5,0.5,3.426484683990479,-0.15025,-0.03,-0.5,0.3489003336974129,10,1,100,-0.03052061456190687,-10,-1,-100,6479.974828102859,0.013447775419384295,0.03208665542405123,0.9993946186967229,198.8701856056939,20.616755295861452,201.73637202085973,-12.565147549940772,-118.54914855957031,4381.2578125,True
1599571939.0576952,0.0,10,0.5,0.5,2.457719875335693,-0.15025,-0.03,-0.5,0.33569516594308535,10,1,100,-0.007680388747836608,-10,-1,-100,6479.476235629059,0.012140360780789686,0.0319349895847449,0.9994162136369085,196.58657061976504,20.396586141971536,205.57427340643795,-12.947959416705316,-113.70396423339844,4381.2578125,True
1599571939.1324956,0.0,10,0.5,0.5,3.1310117912292483,-0.15025,-0.03,-0.5,0.33779192861897467,10,1,100,-0.06246008552921378,-10,-1,-100,6479.1949543810915,0.011456315716731414,0.03181461360478421,0.9994281280769403,194.93080900687835,20.2345173975486,206.89715979951495,-13.139383285983513,-111.17131042480469,4381.2578125,True
1599571939.210298,0.0,10,0.5,0.5,0.861297361373901,-0.15025,-0.03,-0.5,0.31352946980198915,10,1,100,0.025818810457604535,-10,-1,-100,6478.632874056697,0.010038857208487418,0.0314836582944751,0.9994538511638965,190.48505741067825,19.794039061487883,208.15466333370006,-13.522298746890254,-105.88585662841797,4381.2578125,True
1599571939.2850943,0.0,10,0.5,0.5,-0.23461850357055702,-0.15025,-0.03,-0.5,0.29621284450013974,10,1,100,0.04598169271024699,-10,-1,-100,6478.071275208378,0.0085750440705137,0.031024874091430538,0.9994818286526271,185.22062506819086,19.268434777441133,208.22257523631922,-13.905335790746037,-100.30696105957031,4381.2578125,True
1599571939.3588972,0.0,10,0.5,0.5,-3.3592313175201416,-0.15025,-0.03,-0.5,0.23884800286091645,10,1,100,0.15050873386635724,-10,-1,-100,6477.227402471821,0.006303074876799132,0.03008652950365495,0.99952742433088,174.18633487066072,18.146765070132837,204.04714952998648,-14.48018795406103,-91.39476776123047,4381.2578125,True
1599571939.4456654,0.0,10,0.5,0.5,-3.0812536849975585,-0.15025,-0.03,-0.5,0.24595012620768497,10,1,100,0.0900968703859692,-10,-1,-100,6476.664328639046,0.004797062089874533,0.02929952530320796,0.9995591658387776,165.22652865591687,17.222187835846917,198.7661185219359,-14.863628851716772,-85.17050170898438,4381.2578125,True
1599571939.5214975,0.0,10,0.5,0.5,-2.1328795166015624,-0.15025,-0.03,-0.5,0.2758307992618633,10,1,100,0.023177995564732323,-10,-1,-100,6476.321023697965,0.0040471469614845315,0.028858097749847402,0.9995753252235334,161.81655876523212,16.867401036302244,197.2199452131604,-15.05538722789355,-82.05584716796875,4381.2578125,True
1599571939.6018734,0.0,10,0.5,0.5,-6.5736750259399415,-0.15025,-0.03,-0.5,0.15887265618816443,10,1,100,0.18592964569728676,-10,-1,-100,6475.413668836118,0.0018969360026825173,0.02739640972924145,0.9996228480620825,179.62522728119916,18.711183794281876,227.4426644792305,-15.630334369333466,-73.04983520507812,4381.2578125,True
1599571939.6766746,0.0,10,0.5,0.5,-5.905677978515625,-0.15025,-0.03,-0.5,0.18124019432353655,10,1,100,0.12442180371539267,-10,-1,-100,6474.788585268776,0.000513956418419449,0.026275188284156332,0.9996546155194964,189.11619426286677,19.68339361222316,245.44111598949223,-16.013292494355685,-67.40264892578125,4381.2578125,True
1599571939.7579665,0.0,10,0.5,0.5,-6.727901878356933,-0.15025,-0.03,-0.5,0.16303867603287456,10,1,100,0.13001459629600304,-10,-1,-100,6474.1014917055145,-0.0007812782491688617,0.025095740457195894,0.999684747015379,197.19483111042035,20.505301945907757,262.16315033014587,-16.39596002573019,-62.052825927734375,4381.2578125,True
1599571939.8347635,0.0,10,0.5,0.5,-5.889122009277344,-0.15025,-0.03,-0.5,0.2140299105748669,10,1,100,0.06944989274726311,-10,-1,-100,6473.820203219191,-0.0013952405931982785,0.024493427214856204,0.9996990173682065,200.64381919043174,20.854648993369967,269.9220242173688,-16.587188149035928,-59.48974609375,4381.2578125,True
1599571939.9115567,0.0,10,0.5,0.5,-7.957537200927734,-0.15025,-0.03,-0.5,0.1329589936903505,10,1,100,0.14049458394022515,-10,-1,-100,6473.132628786378,-0.0025869439155483233,0.023215626443206235,0.9997271339770806,206.3144701293786,21.427176506150204,284.0783326634387,-16.969451288478478,-54.58807373046875,4381.2578125,True
1599571939.9823663,0.0,10,0.5,0.5,-10.09351912689209,-0.15025,-0.03,-0.5,0.0418882613110487,10,1,100,0.2016587753958102,-10,-1,-100,6472.099323615781,-0.004213582076706156,0.021233890890223137,0.9997656563433979,212.07867122024652,22.00874127633011,302.0855382198936,-17.542437776123037,-47.795196533203125,4381.2578125,True
1599571940.0641472,0.0,10,0.5,0.5,-9.573577033996582,-0.15025,-0.03,-0.5,0.09053862421014891,10,1,100,0.1487363765488923,-10,-1,-100,6471.34974990983,-0.005198274561618392,0.019883907111506914,0.9997887817832141,214.50164956698296,22.256241637042162,312.3332029863335,-17.92422516639413,-43.6395263671875,4381.2578125,True
1599571940.1399455,0.0,10,0.5,0.5,-10.174469398498536,-0.15025,-0.03,-0.5,0.07814134489092003,10,1,100,0.15250389235201187,-10,-1,-100,6470.661705852486,-0.006115178492810482,0.018554074743390016,0.9998091572407296,216.3885085951235,22.45457701771745,321.9439221290878,-18.305897830170355,-39.78143310546875,4381.2578125,True
1599571940.2237215,0.0,10,0.5,0.5,-9.582035789489746,-0.15025,-0.03,-0.5,0.13762661098546702,10,1,100,0.1098700236171605,-10,-1,-100,6470.254942691303,-0.0065498575750595435,0.017896395423016232,0.9998183927077006,217.01239900007766,22.523015982440008,326.3169187716628,-18.49670319551537,-37.964019775390625,4381.2578125,True
1599571940.2995214,0.0,10,0.5,0.5,-12.06975065612793,-0.15025,-0.03,-0.5,-0.015480755059637474,10,1,100,0.19991212838446565,-10,-1,-100,6469.160638849833,-0.007753269584384251,0.015916986467612016,0.999843255891913,217.86989826968394,22.632035113681177,337.99676067573284,-19.069044956846714,-32.95855712890625,4381.2578125,True
1599571940.383294,0.0,10,0.5,0.5,-11.642478668212892,-0.15025,-0.03,-0.5,0.03968169276046238,10,1,100,0.1606127067603595,-10,-1,-100,6468.347614513477,-0.008479285381236776,0.014630765225865669,0.9998570109912363,217.80369591172143,22.644885857942285,344.83322370329375,-19.45057506743865,-29.9932861328125,4381.2578125,True
1599571940.4551022,0.0,10,0.5,0.5,-11.180566528320313,-0.15025,-0.03,-0.5,0.09689126715036853,10,1,100,0.12637958652027842,-10,-1,-100,6467.941836984246,-0.008818656629480226,0.013993165359189387,0.999863201952388,217.6359451286757,22.63886559583732,348.03920995941394,-19.64133758580693,-28.6221923828125,4381.2578125,True
1599571940.5299032,0.0,10,0.5,0.5,-12.250202163696288,-0.15025,-0.03,-0.5,0.029171029545302485,10,1,100,0.16832322204680544,-10,-1,-100,6467.190344765433,-0.009499997529899154,0.012809056068460318,0.9998728309788034,217.12013149915668,22.6105697533088,354.1506728134765,-20.02286231620394,-26.10186767578125,4381.2578125,True
1599571940.6032887,0.0,10,0.5,0.5,-12.54333366394043,-0.15025,-0.03,-0.5,0.0166581452435014,10,1,100,0.16933903860140387,-10,-1,-100,6466.376358292066,-0.010120706935975683,0.01163000929631637,0.9998811500247834,216.46371073258734,22.570289769863503,360.00840619869155,-20.404388584360007,-23.87896728515625,4381.2578125,True
1599571940.687066,0.0,10,0.5,0.5,-13.345120147705078,-0.15025,-0.03,-0.5,-0.05126076858182524,10,1,100,0.2029688686448084,-10,-1,-100,6465.095084533095,-0.010982781699764589,0.009952397939517573,0.9998901581080738,215.46087192572628,22.511372907101016,368.7096361334389,-20.976674559099422,-21.1009521484375,4381.2578125,True
1599571940.7693617,0.0,10,0.5,0.5,-13.019943290710449,-0.15025,-0.03,-0.5,0.0005399690942750751,10,1,100,0.17797300253843806,-10,-1,-100,6464.282086439896,-0.011531618304256395,0.008910269983577478,0.9998938087957665,214.91196292748023,22.48600763690052,374.6816006733635,-21.358185981750992,-19.619415283203125,4381.2578125,True
1599571940.8501823,0.0,10,0.5,0.5,-13.134445304870605,-0.15025,-0.03,-0.5,-0.003895259936430903,10,1,100,0.1828120529192196,-10,-1,-100,6463.404639088083,-0.012067899278867368,0.007933763960540652,0.9998957051594999,214.54447365684354,22.480282411945428,380.95299331964003,-21.739675059076998,-18.434112548828125,4381.2578125,True
1599571940.9229877,0.0,10,0.5,0.5,-13.19556672668457,-0.15025,-0.03,-0.5,-0.007833560162733288,10,1,100,0.18733498895762124,-10,-1,-100,6462.529638637439,-0.012590299924574406,0.007021092249496212,0.9998960889069589,214.41943395641385,22.50038151017124,387.65123819776716,-22.12112915617356,-17.54498291015625,4381.2578125,True
1599571941.0037713,0.0,10,0.5,0.5,-13.034586936950683,-0.15025,-0.03,-0.5,0.03459610179905642,10,1,100,0.16380611418311103,-10,-1,-100,6462.0604014283745,-0.012845424266874562,0.006587599423193804,0.9998957938751636,214.4611653577979,22.52148974067778,391.1919345398739,-22.311838575429746,-17.211456298828125,4381.2578125,True
1599571941.080566,0.0,10,0.5,0.5,-13.292175796508788,-0.15025,-0.03,-0.5,-0.05343379934962664,10,1,100,0.22320150810269426,-10,-1,-100,6460.715194731834,-0.013611590371241992,0.005403523930657971,0.9998927575178732,215.05879177393817,22.634910666251454,402.72376614205234,-22.883872978973834,-16.65460205078125,4381.2578125,True
1599571941.1603365,0.0,10,0.5,0.5,-12.991856948852538,-0.15025,-0.03,-0.5,-0.050482410042162355,10,1,100,0.22849737698944575,-10,-1,-100,6459.307495254208,-0.01435092352801298,0.0043634801698177565,0.9998874991891341,216.4036051310844,22.827808032118273,415.7731529155921,-23.45572428847157,-16.76348876953125,4381.2578125,True
1599571941.2357228,0.0,10,0.5,0.5,-13.085989700317382,-0.15025,-0.03,-0.5,0.05249523753625432,10,1,100,0.15515122512702453,-10,-1,-100,6459.307495254208,-0.01435092352801298,0.0043634801698177565,0.9998874991891341,216.4036051310844,22.827808032118273,415.7731529155921,-23.45572428847157,-16.76348876953125,4381.2578125,True
1599571941.312901,0.0,10,0.5,0.5,-12.618638076782226,-0.15025,-0.03,-0.5,-0.04034158883013157,10,1,100,0.23919848001380167,-10,-1,-100,6457.89931201376,-0.015109960147985015,0.0035282632802954954,0.9998796129847588,218.5005476651085,23.101135496124463,430.45693908731846,-24.027336299501634,-17.53692626953125,4381.2578125,True
1599571941.400665,0.0,10,0.5,0.5,-12.767324157714842,-0.15025,-0.03,-0.5,0.015751395963947864,10,1,100,0.1913025364983027,-10,-1,-100,6457.36758194305,-0.015359475804529524,0.003287348508665221,0.9998766323116031,219.35717558536217,23.209171758040643,435.7145198197462,-24.21781084394626,-17.9425048828125,4381.2578125,True
1599571941.4754694,0.0,10,0.5,0.5,-12.31608251953125,-0.15025,-0.03,-0.5,-0.011786351229728799,10,1,100,0.2183729584834213,-10,-1,-100,6456.427657800261,-0.015827640447736015,0.0028255761606839572,0.9998707426048717,221.28533510284115,23.448360271175915,446.7531752830846,-24.598653385951955,-18.9757080078125,4381.2578125,True
1599571941.5602388,0.0,10,0.5,0.5,-11.975724349975586,-0.15025,-0.03,-0.5,-0.0026434507373139723,10,1,100,0.2262204634544363,-10,-1,-100,6455.426699196571,-0.01632018120607117,0.0024953793231582465,0.999863703095294,223.4674429519697,23.71480390352322,458.44565551906163,-24.979341389671184,-20.30340576171875,4381.2578125,True
1599571941.6400251,0.0,10,0.5,0.5,-10.982249237060547,-0.15025,-0.03,-0.5,-0.013775393788572132,10,1,100,0.25329199736754326,-10,-1,-100,6453.892548494157,-0.01700969714658427,0.0020998326164510892,0.9998531196660659,227.080764022498,24.150461885235984,476.9772038949114,-25.550053926705456,-22.8489990234375,4381.2578125,True
1599571941.7198129,0.0,10,0.5,0.5,-10.898616645812988,-0.15025,-0.03,-0.5,0.00839786500685996,10,1,100,0.2336644400900179,-10,-1,-100,6452.891592051368,-0.017453604937375296,0.0019471233551704103,0.9998457783004987,229.61473777554556,24.453275600697385,489.80133777184284,-25.930301508912684,-24.914642333984375,4381.2578125,True
1599571941.7966077,0.0,10,0.5,0.5,-11.165832107543945,-0.15025,-0.03,-0.5,0.01794967748587179,10,1,100,0.21323253225938227,-10,-1,-100,6452.3588872618275,-0.017666991671440632,0.0018997441119011059,0.9998421217260206,230.88572547365393,24.604529075781212,496.28569253966737,-26.120354754205934,-26.05804443359375,4381.2578125,True
1599571941.871407,0.0,10,0.5,0.5,-10.080407379150389,-0.15025,-0.03,-0.5,0.019999245009258152,10,1,100,0.23738943800991208,-10,-1,-100,6451.295918996213,-0.018076204602500694,0.0018795661912427894,0.9998348453910283,233.37230212233356,24.899326477566397,509.2609808185647,-26.500319297144717,-28.565673828125,4381.2578125,True
1599571941.9501982,0.0,10,0.5,0.5,-8.493234001159667,-0.15025,-0.03,-0.5,0.03287037801039613,10,1,100,0.2579260292605534,-10,-1,-100,6449.698779170867,-0.018630853901896345,0.0019814365249632244,0.9998244671902081,236.74213688493955,25.29632238679205,528.2323451331879,-27.069921954782554,-32.879791259765625,4381.2578125,True
1599571942.033973,0.0,10,0.5,0.5,-8.492461212158203,-0.15025,-0.03,-0.5,0.04071814632652365,10,1,100,0.23833414144569254,-10,-1,-100,6448.572331394651,-0.018953081620871944,0.002147554761805556,0.9998180678031467,238.55742942240735,25.508495696795535,540.092513409854,-27.449447301860324,-36.1239013671875,4381.2578125,True
1599571942.109774,0.0,10,0.5,0.5,-8.929947547912597,-0.15025,-0.03,-0.5,0.03611513418473307,10,1,100,0.22237142128359727,-10,-1,-100,6448.03962527134,-0.019096716492928115,0.0022587402534714088,0.9998150896599111,239.28060043720944,25.59246193169545,545.6485247616148,-27.639155456257782,-37.856292724609375,4381.2578125,True
1599571942.1855679,0.0,10,0.5,0.5,-6.068678428649902,-0.15025,-0.03,-0.5,0.07219328432526717,10,1,100,0.24609259422054386,-10,-1,-100,6446.3174783609575,-0.01943931635209238,0.0026889552681059704,0.9998074227066579,240.7604400975138,25.759418418221966,560.863441191241,-28.208106790848984,-43.494903564453125,4381.2578125,True
1599571942.2613647,0.0,10,0.5,0.5,-6.127874603271485,-0.15025,-0.03,-0.5,0.06838263467231998,10,1,100,0.2297621788460515,-10,-1,-100,6445.1900480815675,-0.019598603501975818,0.0030459615511474695,0.999803289081908,240.956686233115,25.775836203356977,569.2334168194641,-28.587304957558175,-47.6217041015625,4381.2578125,True
1599571942.3382044,0.0,10,0.5,0.5,-5.230727050781249,-0.15025,-0.03,-0.5,0.07711934736912364,10,1,100,0.22367814456846133,-10,-1,-100,6444.067497735028,-0.019684672451115177,0.0034497370280738987,0.9998002865497336,240.1829620946782,25.679902998302317,575.3076668867058,-28.966476778041486,-52.04248046875,4381.2578125,True
1599571942.4180286,0.0,10,0.5,0.5,-5.836916366577149,-0.15025,-0.03,-0.5,0.06056814430368712,10,1,100,0.2168845591099618,-10,-1,-100,6443.473751021549,-0.01969809845412365,0.0036654725631349427,0.9997992544647054,239.37714830117727,25.58410638159554,577.3223087821443,-29.156070462010483,-54.36309814453125,4381.2578125,True
1599571942.4921966,0.0,10,0.5,0.5,-2.089090599060059,-0.15025,-0.03,-0.5,0.11439191871373533,10,1,100,0.20918465580743642,-10,-1,-100,6441.685668760329,-0.019637860789283357,0.004349479507875708,0.999797697762718,235.01476278910752,25.079537589654628,578.4556929069938,-29.724976490010654,-61.765777587890625,4381.2578125,True
1599571942.57298,0.0,10,0.5,0.5,-3.9798367080688477,-0.15025,-0.03,-0.5,0.0721622663393285,10,1,100,0.2088626999584716,-10,-1,-100,6441.091918692575,-0.01957818671729986,0.0045852141122793375,0.9997978147687697,232.8426438590616,24.83283481464523,576.9722986902807,-29.914679152058554,-64.38021850585938,4381.2578125,True
1599571942.6488066,0.0,10,0.5,0.5,-1.6288552169799804,-0.15025,-0.03,-0.5,0.10189892710243546,10,1,100,0.19604708756890826,-10,-1,-100,6439.902951171156,-0.019405694543731686,0.005067410241401447,0.9997988499556902,227.30263357646635,24.212255271890246,570.8105748426057,-30.294227944974942,-69.82925415039062,4381.2578125,True
1599571942.7355459,0.0,10,0.5,0.5,1.4434163513183593,-0.15025,-0.03,-0.5,0.12964473666087342,10,1,100,0.1689287902018322,-10,-1,-100,6438.0596777776955,-0.0190011448735679,0.00575510695108902,0.9998028981941766,215.75196914501416,22.946965356651766,552.6375013890457,-30.863983847250697,-78.5535888671875,4381.2578125,True
1599571942.8137548,0.0,10,0.5,0.5,-0.7953396911621091,-0.15025,-0.03,-0.5,0.08617224098570675,10,1,100,0.19070589260526688,-10,-1,-100,6437.395610136795,-0.018831009476203253,0.005981650662461548,0.999804787414753,210.98083570341515,22.432826826459443,543.9631254467198,-31.054027144387792,-81.6083984375,4381.2578125,True
1599571942.8875537,0.0,10,0.5,0.5,4.001705545425415,-0.15025,-0.03,-0.5,0.13027830459837214,10,1,100,0.14161671752123522,-10,-1,-100,6435.552328137332,-0.018230186679784804,0.006585078163914754,0.9998121308721932,204.7112623486963,21.770167690410382,538.1554956086271,-31.624367326003785,-91.1247329711914,4381.2578125,True
1599571942.9631245,0.0,10,0.5,0.5,3.4900977764129637,-0.15025,-0.03,-0.5,0.10959773170705359,10,1,100,0.14963065113153162,-10,-1,-100,6434.2378594656475,-0.017757625833873584,0.0069417103772143685,0.9998182231694834,215.37955766921525,22.92807936231221,573.4781798745073,-32.00420448635643,-97.40962982177734,4381.2578125,True
1599571943.6592858,0.0,10,0.5,0.5,2.584064693450928,-0.15025,-0.03,-0.5,0.09216747683545715,10,1,100,0.1683082847043179,-10,-1,-100,6433.643124672701,-0.017499350543268913,0.00710359847673668,0.9998216399034604,220.55117096251183,23.494860803451836,590.9734909181476,-32.19394899903384,-100.60020446777344,4381.2578125,True
1599571943.723118,0.0,10,0.5,0.5,5.223711570739746,-0.15025,-0.03,-0.5,0.1055599080238844,10,1,100,0.13654908411079253,-10,-1,-100,6432.326699282508,-0.01697774323092235,0.00736883008990122,0.9998287136194335,229.64595731988652,24.502234851277144,623.0930849834677,-32.57308050992835,-106.86856079101562,4381.2578125,True
1599571943.794923,0.0,10,0.5,0.5,4.229958639144897,-0.15025,-0.03,-0.5,0.09225905669199021,10,1,100,0.15775787775815792,-10,-1,-100,6431.668485858827,-0.016698822824874428,0.0074854700960682845,0.9998325445061809,233.40517590957214,24.923569482210837,637.2261517498066,-32.7624769152131,-109.90731048583984,4381.2578125,True
1599571943.8677301,0.0,10,0.5,0.5,4.80655965423584,-0.15025,-0.03,-0.5,0.09219531044546847,10,1,100,0.15338240584045926,-10,-1,-100,6431.007343173493,-0.0164082084161511,0.007587454228949115,0.999836587265587,237.14231102559617,25.34260876848349,651.4217054056013,-32.95176479061795,-112.8743896484375,4381.2578125,True
1599571943.9391274,0.0,10,0.5,0.5,7.19137628364563,-0.15025,-0.03,-0.5,0.09925688240318,10,1,100,0.11845647955968841,-10,-1,-100,6429.690426750458,-0.01582944112600755,0.007741419572346272,0.9998447375551082,243.41670836289626,26.04966321262858,676.8446587050518,-33.33005063292542,-118.5876235961914,4381.2578125,True
1599571944.0270212,0.0,10,0.5,0.5,9.707165355682372,-0.15025,-0.03,-0.5,0.09612531918142796,10,1,100,0.07580408598515104,-10,-1,-100,6427.656700302614,-0.014918947962100615,0.007850050032091336,0.9998578907555802,249.44256717449963,26.7322752300878,706.1726706224747,-33.896920754776616,-126.59959411621094,4381.2578125,True
1599571944.0998266,0.0,10,0.5,0.5,7.511185550689697,-0.15025,-0.03,-0.5,0.08581323930559753,10,1,100,0.13273182307577255,-10,-1,-100,6426.939892084338,-0.014612830647174169,0.00785252914226958,0.9998623920152947,250.65197857628834,26.86857022166264,713.8079380059596,-34.08577229579893,-129.12123107910156,4381.2578125,True
1599571944.175135,0.0,10,0.5,0.5,11.030249374389648,-0.15025,-0.03,-0.5,0.07717127760738783,10,1,100,0.06452741547480295,-10,-1,-100,6424.899328536703,-0.013718491486528943,0.007774312843183187,0.9998756737970729,252.27224641338162,27.044020397911698,731.152809126275,-34.652150024875205,-136.23876953125,4381.2578125,True
1599571944.2524729,0.0,10,0.5,0.5,10.478607643127441,-0.15025,-0.03,-0.5,0.07038520297556275,10,1,100,0.08895707833939548,-10,-1,-100,6423.52772305673,-0.01313219147379292,0.0076398858362873995,0.9998845821851161,251.96146342949297,26.99792591387182,738.7502413523636,-35.029669485830816,-140.61129760742188,4381.2578125,True
1599571944.3342662,0.0,10,0.5,0.5,9.789802169799804,-0.15025,-0.03,-0.5,0.07353032982946618,10,1,100,0.1153968425283404,-10,-1,-100,6422.804079270922,-0.012844187495937845,0.007545312612624558,0.9998890413966676,251.47020607569604,26.935403784771886,741.559494739247,-35.218429278206784,-142.68588256835938,4381.2578125,True
1599571944.4170444,0.0,10,0.5,0.5,12.64445097732544,-0.15025,-0.03,-0.5,0.04603308749898923,10,1,100,0.05526589876608676,-10,-1,-100,6420.638517083717,-0.012040187516719958,0.007208813295167266,0.9999015285994104,248.94897266862046,26.625446630449918,746.7873976383875,-35.78476244489491,-148.46229553222656,4381.2578125,True
1599571944.4928703,0.0,10,0.5,0.5,11.055082206726073,-0.15025,-0.03,-0.5,0.06391412579890342,10,1,100,0.10691124632143682,-10,-1,-100,6419.9285457349615,-0.011783744479776469,0.007065364068552193,0.9999056075433391,247.8402015298789,26.49108909724559,747.6786319906158,-35.97356786931624,-150.23892211914062,4381.2578125,True
1599571944.5676425,0.0,10,0.5,0.5,12.462263298034667,-0.15025,-0.03,-0.5,0.0413295037267012,10,1,100,0.07825625643887826,-10,-1,-100,6418.476864496013,-0.011294836355214716,0.006729916812810605,0.9999135637100846,245.34715971574667,26.191299220664067,748.5313059379674,-36.3512305913077,-153.56900024414062,4381.2578125,True
1599571944.6516242,0.0,10,0.5,0.5,12.89979556274414,-0.15025,-0.03,-0.5,0.0354275881476912,10,1,100,0.0767157591804925,-10,-1,-100,6417.042762808618,-0.010841282618236579,0.006371997850766578,0.9999209289911786,242.6167836854782,25.86577140111038,748.513576020919,-36.728964620253606,-156.60104370117188,4381.2578125,True
1599571944.7287667,0.0,10,0.5,0.5,13.293417709350585,-0.15025,-0.03,-0.5,0.023190158216949044,10,1,100,0.07537285484762551,-10,-1,-100,6415.539325587568,-0.010421813659592131,0.005936472573518154,0.999928069459713,239.79432057994612,25.5317629401383,748.0527304149301,-37.106766339704315,-159.33609008789062,4381.2578125,True
1599571944.8155344,0.0,10,0.5,0.5,14.353086456298827,-0.15025,-0.03,-0.5,-0.011713613573733538,10,1,100,0.054582867623591345,-10,-1,-100,6413.312248609611,-0.009856394383757246,0.005224874347921407,0.9999377741528722,235.64619768624854,25.04496281993852,747.3238490396233,-37.67357331531405,-162.88079833984375,4381.2578125,True
1599571944.8973167,0.0,10,0.5,0.5,13.361297210693358,-0.15025,-0.03,-0.5,0.030563070317841695,10,1,100,0.09187980172479399,-10,-1,-100,6412.532455787528,-0.009686042218989504,0.004964686883378839,0.9999407644807177,234.34018385226676,24.892569852367345,747.2437073058469,-37.86252977759491,-163.913818359375,4381.2578125,True
1599571944.977137,0.0,10,0.5,0.5,15.153273937225341,-0.15025,-0.03,-0.5,-0.06735900046967218,10,1,100,0.041095713202818976,-10,-1,-100,6409.466509588296,-0.009073981981208316,0.00384057749232537,0.9999514552294677,229.78023868089306,24.362808471603486,748.695926320137,-38.618402123958774,-167.30345153808594,4381.2578125,True
1599571945.0578868,0.0,10,0.5,0.5,13.551651393890381,-0.15025,-0.03,-0.5,0.04465856510058894,10,1,100,0.10183728603040573,-10,-1,-100,6409.466509588296,-0.009073981981208316,0.00384057749232537,0.9999514552294677,229.78023868089306,24.362808471603486,748.695926320137,-38.618402123958774,-167.30345153808594,4381.2578125,True
1599571945.132686,0.0,10,0.5,0.5,14.444530433654785,-0.15025,-0.03,-0.5,-0.025056467334497096,10,1,100,0.07423102536546898,-10,-1,-100,6407.901067873696,-0.008826705256520332,0.0032102583868645535,0.9999558907848907,228.0181129175809,24.15811384756941,750.9231682024741,-38.99633434396992,-168.55343627929688,4381.2578125,True
1599571945.2194564,0.0,10,0.5,0.5,14.5168507232666,-0.15025,-0.03,-0.5,-0.03180633029928803,10,1,100,0.07014469023775688,-10,-1,-100,6406.3356274412945,-0.008568411989496979,0.002579819586061857,0.999959962621945,226.6699535634928,24.000200406801174,754.4254482098879,-39.37423942872883,-169.5064697265625,4381.2578125,True
1599571945.2932563,0.0,10,0.5,0.5,14.76574201965332,-0.15025,-0.03,-0.5,-0.12463497519165928,10,1,100,0.053913652405136056,-10,-1,-100,6403.141764411703,-0.008189201198749399,0.0011670048078643086,0.9999657869564862,225.36175075511412,23.837403152620148,765.9200855988555,-40.129893422261844,-170.52496337890625,4381.2578125,True
1599571945.373044,0.0,10,0.5,0.5,14.317353317260743,-0.15025,-0.03,-0.5,0.01605666670202679,10,1,100,0.09147527715179134,-10,-1,-100,6403.141764411703,-0.008189201198749399,0.0011670048078643086,0.9999657869564862,225.36175075511412,23.837403152620148,765.9200855988555,-40.129893422261844,-170.52496337890625,4381.2578125,True
1599571945.4488416,0.0,10,0.5,0.5,14.41078670501709,-0.15025,-0.03,-0.5,-0.06689911884015103,10,1,100,0.07311707922227667,-10,-1,-100,6401.509435183718,-0.008025131794986961,0.0004179184956671887,0.9999677107806052,225.44690975243034,23.83567699857807,774.1631093124358,-40.5076059505987,-170.59042358398438,4381.2578125,True
1599571945.5356429,0.0,10,0.5,0.5,14.270301345825196,-0.15025,-0.03,-0.5,-0.0769753843538038,10,1,100,0.06898143473417366,-10,-1,-100,6399.878572465153,-0.007840941160604945,-0.0003492586752224007,0.9999691983556762,226.03569560137885,23.887032945649466,784.1757734062496,-40.88521751511362,-170.36016845703125,4381.2578125,True
1599571945.6183882,0.0,10,0.5,0.5,14.077064331054686,-0.15025,-0.03,-0.5,-0.0914030618476277,10,1,100,0.07458752659360682,-10,-1,-100,6398.249664811068,-0.0077268058485243105,-0.0011721388702942985,0.999969460814603,227.1237712554758,23.99010144218929,795.9955380037584,-41.26270943992389,-169.8350830078125,4381.2578125,True
1599571945.69618,0.0,10,0.5,0.5,13.488442749023436,-0.15025,-0.03,-0.5,-0.1487755975163907,10,1,100,0.0618597887219567,-10,-1,-100,6395.779940258828,-0.0075092757555589446,-0.002435964814422764,0.9999688379409881,229.67278901493813,24.237634569134535,817.1593819014006,-41.82867985238296,-168.4940185546875,4381.2578125,True
1599571945.7780023,0.0,10,0.5,0.5,13.351925765991211,-0.15025,-0.03,-0.5,-0.12021008275044309,10,1,100,0.06870969804284244,-10,-1,-100,6394.086097024963,-0.007375771907110692,-0.003318483127851117,0.9999672922943552,231.94964562441427,24.459757203816004,833.5113027243541,-42.2057858799469,-167.23175048828125,4381.2578125,True
1599571945.8717551,0.0,10,0.5,0.5,12.39279016494751,-0.15025,-0.03,-0.5,-0.18253697953411352,10,1,100,0.05642179102385281,-10,-1,-100,6391.487963650725,-0.007144240353870645,-0.004680872419346463,0.9999635239663294,236.13872141718068,24.866856817342185,861.185644854896,-42.77108138737007,-164.7864532470703,4381.2578125,True
1599571945.9565597,0.0,10,0.5,0.5,12.98229402923584,-0.15025,-0.03,-0.5,-0.0985918108017171,10,1,100,0.0706682074502947,-10,-1,-100,6390.646171194036,-0.007065024310826745,-0.005148523468673472,0.9999617883387244,237.71643877839742,25.019310453566156,871.178977064234,-42.95940553835278,-163.82437133789062,4381.2578125,True
1599571946.0373173,0.0,10,0.5,0.5,12.775799308776856,-0.15025,-0.03,-0.5,-0.10460247049734876,10,1,100,0.06909080904540843,-10,-1,-100,6389.794125885353,-0.006980271268874864,-0.005620704254516915,0.9999598409419732,239.37360731040644,25.178860497056196,881.522797443821,-43.147671360518316,-162.78884887695312,4381.2578125,True
1599571946.1181037,0.0,10,0.5,0.5,10.966873611450195,-0.15025,-0.03,-0.5,-0.21536853792306618,10,1,100,0.0431975242249828,-10,-1,-100,6387.189164010808,-0.006669273314842577,-0.007049468742026041,0.9999529117833035,244.7311972195112,25.690316270558185,914.357455111378,-43.71209374844718,-159.24169921875,4381.2578125,True
1599571946.2183537,0.0,10,0.5,0.5,10.93063508605957,-0.15025,-0.03,-0.5,-0.1809935245015656,10,1,100,0.049510487064429266,-10,-1,-100,6385.436249932158,-0.006445320225975382,-0.008028375905429886,0.9999470001092587,248.5286036901152,26.04870915504395,937.4177530747287,-44.08803868455827,-156.510498046875,4381.2578125,True
1599571946.396925,0.0,10,0.5,0.5,11.294771896362304,-0.15025,-0.03,-0.5,-0.13827694971065094,10,1,100,0.05825492476512331,-10,-1,-100,6384.531962604262,-0.006322806743350399,-0.008521599573412982,0.9999437006429895,250.46311012581089,26.229982296110638,949.184092793853,-44.27590418479972,-155.0350341796875,4381.2578125,True
1599571946.5101376,0.0,10,0.5,0.5,7.6720278053283675,-0.15025,-0.03,-0.5,-0.3033271698808219,10,1,100,0.0033589472021454195,-10,-1,-100,6380.964131883229,-0.005713924076802103,-0.010462314438518186,0.9999289429995682,258.11834951866496,26.93874400489615,996.6026952911352,-45.026621288869144,-148.4009552001953,4381.2578125,True
1599571946.609871,0.0,10,0.5,0.5,9.725908508300781,-0.15025,-0.03,-0.5,-0.16343668621515806,10,1,100,0.04509704172388607,-10,-1,-100,6380.046174477087,-0.005541765254759298,-0.010945675322777522,0.9999247376825866,259.93364425226326,27.104841422677776,1008.2398738947489,-45.21411194579018,-146.5596923828125,4381.2578125,True
1599571946.7109745,0.0,10,0.5,0.5,8.039552070617676,-0.15025,-0.03,-0.5,-0.21899026417026543,10,1,100,0.01982835922348098,-10,-1,-100,6378.234186932212,-0.0051575283398019416,-0.011881241802193819,0.9999161144789407,263.3285647756781,27.413541779397356,1030.7775941506593,-45.58887141640365,-142.65786743164062,4381.2578125,True
1599571946.8276622,0.0,10,0.5,0.5,7.185966186523437,-0.15025,-0.03,-0.5,-0.22644672227598836,10,1,100,0.011585778187706966,-10,-1,-100,6376.426105851657,-0.004735427450802542,-0.012790956150817233,0.9999069792573737,266.27899602647085,27.679740644923115,1051.7915292843365,-45.96334994787302,-138.464111328125,4381.2578125,True
1599571946.930006,0.0,10,0.5,0.5,7.7620344161987305,-0.15025,-0.03,-0.5,-0.18623872667892746,10,1,100,0.029268950111447204,-10,-1,-100,6375.449068201124,-0.004514855791433734,-0.013243830623207995,0.9999021037219625,267.536438467678,27.79255611960868,1061.5105039278849,-46.15049217916574,-136.25802612304688,4381.2578125,True
1599571947.02741,0.0,10,0.5,0.5,2.567022525787353,-0.15025,-0.03,-0.5,-0.3213716568636195,10,1,100,-0.05877808129223798,-10,-1,-100,6371.7533191516995,-0.00351629889248535,-0.014876231365056924,0.9998831598654275,270.6177639343195,28.065444302227423,1092.9672478073544,-46.89854175547757,-126.70405578613281,4381.2578125,True
1599571947.1101882,0.0,10,0.5,0.5,3.842567737579345,-0.15025,-0.03,-0.5,-0.2409116159003601,10,1,100,-0.01863143150405816,-10,-1,-100,6369.852953784517,-0.0029767155509869457,-0.015619933750802334,0.9998735704248558,270.66664006422354,28.065117824541726,1102.8025577857602,-47.27235960686504,-121.49055480957031,4381.2578125,True
1599571947.2284212,0.0,10,0.5,0.5,4.559505834579468,-0.15025,-0.03,-0.5,-0.206224461091058,10,1,100,0.004297352913922643,-10,-1,-100,6368.869079455966,-0.002698268331349938,-0.015971598849126065,0.9998688050830543,270.2355842889531,28.022588323710906,1105.8685300471004,-47.45924902676806,-118.7748031616211,4381.2578125,True
1599571947.3241677,0.0,10,0.5,0.5,2.1218789596557617,-0.15025,-0.03,-0.5,-0.23781817034311775,10,1,100,-0.029772843467647338,-10,-1,-100,6366.956993694184,-0.00213901544183247,-0.016570398904341727,0.9998604135043505,268.34750738462134,27.840144721394477,1107.750215577745,-47.833042329195834,-113.12451171875,4381.2578125,True
1599571947.4238987,0.0,10,0.5,0.5,0.9541916160583495,-0.15025,-0.03,-0.5,-0.23960056374353023,10,1,100,-0.03659320315288181,-10,-1,-100,6364.985335803824,-0.0015725152767545885,-0.01712320069181525,0.9998521506671736,264.9346973159976,27.509011158886544,1103.2002482986213,-48.206931036836025,-107.18421936035156,4381.2578125,True
1599571947.5336351,0.0,10,0.5,0.5,-0.27076547241210935,-0.15025,-0.03,-0.5,-0.2356070130948814,10,1,100,-0.04160854551970222,-10,-1,-100,6363.035647973884,-0.0010162395519550521,-0.01758162312805946,0.9998449148669788,259.82917768716123,27.006660888827664,1091.3567935682004,-48.581005763999904,-100.95346069335938,4381.2578125,True
1599571947.6363297,0.0,10,0.5,0.5,-1.536637092590332,-0.15025,-0.03,-0.5,-0.23099530002560603,10,1,100,-0.04476396651754393,-10,-1,-100,6361.093769572908,-0.00048611932445222824,-0.017949974034297565,0.9998387680622165,253.96126086546573,26.42310391422264,1075.9773678889042,-48.95531939370901,-94.4345703125,4381.2578125,True
1599571947.7291944,0.0,10,0.5,0.5,-0.6211610279083253,-0.15025,-0.03,-0.5,-0.21170479448037435,10,1,100,-0.02004451069532981,-10,-1,-100,6360.060085495701,-0.00023351021231552302,-0.018103102718001446,0.9998360981405714,250.37455169549523,26.060481485229126,1065.3718710533665,-49.14258101707093,-91.0703353881836,4381.2578125,True
1599571947.821985,0.0,10,0.5,0.5,-3.5684768905639648,-0.15025,-0.03,-0.5,-0.22370979937813637,10,1,100,-0.04705285272586234,-10,-1,-100,6358.1186905383365,0.00023718843706133528,-0.018345790783242985,0.9998316736842172,241.7078868120045,25.16940886459955,1037.391751791211,-49.51734488125896,-84.18887329101562,4381.2578125,True
1599571947.908789,0.0,10,0.5,0.5,-4.683132545471191,-0.15025,-0.03,-0.5,-0.21801930083466375,10,1,100,-0.04587976729573228,-10,-1,-100,6356.112839150825,0.000649911327231966,-0.018509634642492428,0.9998284708092025,232.24374550463142,24.17695611028452,1005.3445841698215,-49.89241930711724,-77.43368530273438,4381.2578125,True
1599571947.9955583,0.0,10,0.5,0.5,-7.799287162780761,-0.15025,-0.03,-0.5,-0.21471945465994702,10,1,100,-0.06063639637400181,-10,-1,-100,6353.074271979043,0.0011545698852634754,-0.018623797909295147,0.9998258954037018,246.35282462006506,25.59786118247087,1080.040779398701,-50.45439488547053,-67.71853637695312,4381.2578125,True
1599571948.0999908,0.0,10,0.5,0.5,-5.13849641418457,-0.15025,-0.03,-0.5,-0.20421263187867966,10,1,100,-0.024579234461019644,-10,-1,-100,6352.103569959756,0.001281311767194329,-0.018628659247882245,0.9998256504485077,251.16068494641155,26.074701174595347,1105.7330744498402,-50.64142083112771,-64.6123046875,4381.2578125,True
1599571948.1897454,0.0,10,0.5,0.5,-9.52359073638916,-0.15025,-0.03,-0.5,-0.19692902893075742,10,1,100,-0.04056211596391045,-10,-1,-100,6349.001028838335,0.0015379596486866747,-0.018564128869346604,0.9998264888466605,262.85296649372225,27.211250341105934,1171.6396747879446,-51.20169406718043,-55.742523193359375,4381.2578125,True
1599571948.274799,0.0,10,0.5,0.5,-8.8768138961792,-0.15025,-0.03,-0.5,-0.19194690836031786,10,1,100,-0.022039714045499426,-10,-1,-100,6346.996141159441,0.0015990393162577646,-0.018457816038200917,0.9998283613202642,268.5413623550338,27.75100033469962,1206.7847421700958,-51.574633489081535,-50.20770263671875,4381.2578125,True
1599571948.358575,0.0,10,0.5,0.5,-9.699960891723633,-0.15025,-0.03,-0.5,-0.18645343997448072,10,1,100,-0.012573836722514116,-10,-1,-100,6344.865762733971,0.001565114624969716,-0.018309511554439172,0.9998311418448859,272.7368549419325,28.14344751916892,1235.5635206195013,-51.94721006563761,-44.976165771484375,4381.2578125,True
1599571948.43887,0.0,10,0.5,0.5,-12.003921440124511,-0.15025,-0.03,-0.5,-0.16939662761569407,10,1,100,0.009259764008809953,-10,-1,-100,6341.764185550972,0.0013329343263306127,-0.01801854890151896,0.9998367642678304,276.62406437610423,28.50463597453996,1268.274400752069,-52.505578186279614,-37.697265625,4381.2578125,True
1599571949.130056,0.0,10,0.5,0.5,-8.554239952087402,-0.15025,-0.03,-0.5,-0.19853658548506134,10,1,100,-0.014193183242928939,-10,-1,-100,6341.764185550972,0.0013329343263306127,-0.01801854890151896,0.9998367642678304,276.62406437610423,28.50463597453996,1268.274400752069,-52.505578186279614,-37.697265625,4381.2578125,True
1599571949.1998363,0.0,10,0.5,0.5,-11.63364988708496,-0.15025,-0.03,-0.5,-0.17258997843918553,10,1,100,0.015995122017220843,-10,-1,-100,6339.634290657239,0.001056841502464903,-0.017782608314858978,0.9998413183738503,277.8786396613294,28.623495813884166,1284.16357693336,-52.87760322360443,-33.223297119140625,4381.2578125,True
1599571949.2666578,0.0,10,0.5,0.5,-10.951015640258788,-0.15025,-0.03,-0.5,-0.18179200105556054,10,1,100,0.006953879939926725,-10,-1,-100,6338.599127765512,0.0008868680890034949,-0.01765206298204708,0.9998437968690261,278.1724927450512,28.653252080676612,1290.6080829861642,-53.06357405367022,-31.09979248046875,4381.2578125,True
1599571949.3394625,0.0,10,0.5,0.5,-11.380185729980468,-0.15025,-0.03,-0.5,-0.17983462309035697,10,1,100,0.012336680177521354,-10,-1,-100,6337.502441649325,0.0006828216385586798,-0.01751622172326277,0.9998463460608091,278.2730610855834,28.66600201411788,1296.1733796036776,-53.24952619388726,-29.0518798828125,4381.2578125,True
1599571949.411315,0.0,10,0.5,0.5,-14.20159659576416,-0.15025,-0.03,-0.5,-0.14334457243005688,10,1,100,0.07356131647150296,-10,-1,-100,6334.275856739725,-5.929265571037274e-05,-0.01706190503920088,0.9998544333455819,277.6257573804199,28.621468519050154,1308.491821454855,-53.80732460563981,-23.361419677734375,4381.2578125,True
1599571949.488111,0.0,10,0.5,0.5,-13.710880599975585,-0.15025,-0.03,-0.5,-0.1520217211485828,10,1,100,0.06825997328588806,-10,-1,-100,6332.14498301025,-0.0006846444737757635,-0.016729192944649484,0.9998598228578669,276.6011724791387,28.540302773436956,1313.9157101860128,-54.179182172144074,-19.94512939453125,4381.2578125,True
1599571949.5629098,0.0,10,0.5,0.5,-13.173906372070313,-0.15025,-0.03,-0.5,-0.16588099939757206,10,1,100,0.0445463928497927,-10,-1,-100,6331.047319713631,-0.0010357808896516425,-0.016554447630323783,0.9998624292479458,275.96776884768394,28.489240069536,1316.0434306910024,-54.365116906992924,-18.35009765625,4381.2578125,True
1599571949.6417358,0.0,10,0.5,0.5,-14.416219299316406,-0.15025,-0.03,-0.5,-0.14063586938816802,10,1,100,0.09310956600365433,-10,-1,-100,6328.854434915585,-0.0017941394413572398,-0.016167914054704947,0.9998676810552407,274.5398846995462,28.373136093412203,1319.4981573822747,-54.73700534898946,-15.3856201171875,4381.2578125,True
1599571949.7254755,0.0,10,0.5,0.5,-15.563027320861817,-0.15025,-0.03,-0.5,-0.11111411616374547,10,1,100,0.16495433655195302,-10,-1,-100,6325.563889164012,-0.0031336058762944847,-0.015550222049359888,0.9998741776385806,272.20604619212787,28.182248486943383,1323.6549448951666,-55.29489281072983,-11.503143310546875,4381.2578125,True
1599571949.8018847,0.0,10,0.5,0.5,-14.466022705078124,-0.15025,-0.03,-0.5,-0.14867499995597194,10,1,100,0.08612477596302517,-10,-1,-100,6324.4662288568215,-0.003630398702246032,-0.015332654887616511,0.9998758572439681,271.43359155246605,28.11924903074767,1325.0368477354334,-55.48086865043906,-10.3592529296875,4381.2578125,True
1599571949.878546,0.0,10,0.5,0.5,-15.915351844787597,-0.15025,-0.03,-0.5,-0.08922553933705574,10,1,100,0.21414163381337548,-10,-1,-100,6321.1136794139165,-0.005241306039906463,-0.014596858638599568,0.9998797229811597,269.30075195778187,27.94769173005775,1329.9981265912018,-56.03882127541708,-7.376922607421875,4381.2578125,True
1599571949.9603705,0.0,10,0.5,0.5,-15.064232719421385,-0.15025,-0.03,-0.5,-0.13287553288812196,10,1,100,0.11775260083859784,-10,-1,-100,6319.954498652252,-0.005823526737675933,-0.01432788170837833,0.9998803920180084,268.7374521501337,27.90499879205056,1332.3552833554875,-56.2248071329919,-6.532501220703125,4381.2578125,True
1599571950.0416238,0.0,10,0.5,0.5,-15.67401374053955,-0.15025,-0.03,-0.5,-0.10062049746386131,10,1,100,0.19817048010314164,-10,-1,-100,6317.6981514907675,-0.0070776350305620855,-0.013793270292144364,0.9998798191667947,267.92868723257493,27.851194202498345,1338.6292698164898,-56.59676312147775,-5.068572998046875,4381.2578125,True
1599571950.1154718,0.0,10,0.5,0.5,-15.778364791870118,-0.15025,-0.03,-0.5,-0.0835029717044134,10,1,100,0.21792993156413565,-10,-1,-100,6315.44229710428,-0.00839012439817711,-0.01315515403656387,0.999878266457901,267.3786359423753,27.822418514004397,1346.190431744182,-56.96868440912835,-3.90252685546875,4381.2578125,True
1599571950.194319,0.0,10,0.5,0.5,-16.04397370147705,-0.15025,-0.03,-0.5,-0.03677037877645267,10,1,100,0.3260498804168652,-10,-1,-100,6311.962824424962,-0.010557957043727641,-0.012154171202769869,0.9998703944339169,267.4645745792046,27.871270824628873,1362.1762905574885,-57.52644778951404,-2.713470458984375,4381.2578125,True
1599571950.268122,0.0,10,0.5,0.5,-15.672423858642578,-0.15025,-0.03,-0.5,-0.09528460927230079,10,1,100,0.19408608658372867,-10,-1,-100,6310.865667442908,-0.011319498900846867,-0.011780595934588878,0.9998665343454893,267.67002425779646,27.905506410926982,1368.4329418483503,-57.712325597438706,-2.4658203125,4381.2578125,True
