Timestamp,Input Throttle,horizon,dT,dt,Input Roll,Roll P,Roll I,Roll D,Input Pitch,Pitch P,Pitch I,Pitch D,Input Yaw,Yaw P,Yaw I,Yaw D,Altitude,Direction X,Direction Y,Direction Z,Drag X,Drag Y,Drag Z,Vertical Velocity,Roll,Mass,Has Fuel
1599565830.192832,0.0,10,0.5,0.5,-0.055246337890625004,-0.001,-0.02275,-0.37525,-0.06720367521789776,10,1,100,0.6903801163210631,-10,-1,-100,6483.617966926773,-0.0672581694315919,-0.007002813301881503,0.9977110299333021,205.07329137824112,21.498784605655295,-156.76529311530115,9.590824068783537,-35.94464111328125,4381.2578125,True
1599565830.2446935,0.0,10,0.5,0.5,-0.17829434661865234,-0.001,-0.02275,-0.37525,-0.06733645792028677,10,1,100,0.6999105006770654,-10,-1,-100,6483.997882579919,-0.06744546933539178,-0.006971977334347718,0.9976986018824414,204.6121013901039,21.45673686799029,-150.26668591695804,9.21080174758462,-35.9412841796875,4381.2578125,True
1599565830.30254,0.0,10,0.5,0.5,-0.30066124114990234,-0.001,-0.02275,-0.37525,-0.06930414225915213,10,1,100,0.6986128190096044,-10,-1,-100,6484.156591220875,-0.06754263080610985,-0.006955494514820918,0.9976921439601716,204.3811243483938,21.435605488579103,-147.02546082717575,9.020797962875925,-35.9395751953125,4381.2578125,True
1599565830.3773391,0.0,10,0.5,0.5,-0.422410334777832,-0.001,-0.02275,-0.37525,-0.03709059475902436,10,1,100,0.6998452152265058,-10,-1,-100,6484.538935565972,-0.06758076062618347,-0.00664133652478192,0.9976917026027387,203.9320848672171,21.394548291926373,-140.5687170815023,8.640801342043986,-35.941162109375,4381.2578125,True
1599565830.4381776,0.0,10,0.5,0.5,-0.5330377151489258,-0.001,-0.02275,-0.37525,-0.026918702430805026,10,1,100,0.7035514753485153,-10,-1,-100,6484.856804230018,-0.0675876803176994,-0.006257229024921943,0.9976937168060156,203.5179302086663,21.356916135993284,-134.15666629433613,8.26081290639903,-35.9755859375,4381.2578125,True
1599565830.4960222,0.0,10,0.5,0.5,-0.5985780151367188,-0.001,-0.02275,-0.37525,0.03965065468813536,10,1,100,0.6871394228715468,-10,-1,-100,6485.335757101304,-0.06738332712354354,-0.005297176024854396,0.9977130986169939,202.9561518701686,21.306110127029637,-124.61204210615152,7.690830031816294,-36.162384033203125,4381.2578125,True
1599565830.5648422,0.0,10,0.5,0.5,-0.620597402191162,-0.001,-0.02275,-0.37525,0.10333648582472534,10,1,100,0.658825321601689,-10,-1,-100,6485.750200166251,-0.06687889300174538,-0.0038406228544377585,0.9977537087312435,202.47220135730507,21.262473039560444,-115.15091238824927,7.120823826842179,-36.615692138671875,4381.2578125,True
1599565830.6466208,0.0,10,0.5,0.5,-0.8260452606201171,-0.001,-0.02275,-0.37525,0.0215051044278435,10,1,100,0.6888291500536468,-10,-1,-100,6485.909331018571,-0.06663227961058144,-0.0032569137823447976,0.9977722845552044,202.32753441065734,21.249389239337884,-112.01362270695603,6.93081185448205,-36.84454345703125,4381.2578125,True
1599565830.6984823,0.0,10,0.5,0.5,-0.8117943206787109,-0.001,-0.02275,-0.37525,0.10742721210835254,10,1,100,0.6531781272957933,-10,-1,-100,6486.1650753983995,-0.06602341061207866,-0.0019421982708171647,0.9978161840324229,202.05616770529494,21.224601124315335,-105.75780547430612,6.550766754950958,-37.43206787109375,4381.2578125,True
1599565830.7543309,0.0,10,0.5,0.5,-1.01604298248291,-0.001,-0.02275,-0.37525,0.055696676365846555,10,1,100,0.6803823688756641,-10,-1,-100,6486.261199805769,-0.06565718334542761,-0.0012155143141140828,0.9978414988364119,201.92491793566015,21.212396929877812,-102.63643976211135,6.360731301436213,-37.79302978515625,4381.2578125,True
1599565830.815169,0.0,10,0.5,0.5,-0.9441692169189453,-0.001,-0.02275,-0.37525,0.16003820028051724,10,1,100,0.6303127345380037,-10,-1,-100,6486.517884910922,-0.06480938262417936,0.00039477178603491986,0.9978975839629584,201.6555752954156,21.186669000793103,-96.39866002329094,5.980628852243502,-38.65972900390625,4381.2578125,True
1599565830.8750093,0.0,10,0.5,0.5,-0.6085269836425783,-0.001,-0.02275,-0.37525,0.298922069362161,10,1,100,0.5370476710629529,-10,-1,-100,6486.869183647796,-0.06319301665218723,0.0031145237913781233,0.9979964641159552,201.1790422885688,21.138801700755057,-87.0320910475703,5.410378988592306,-40.3997802734375,4381.2578125,True
1599565830.9358463,0.0,10,0.5,0.5,-0.6861823516845702,-0.001,-0.02275,-0.37525,0.24958944153312607,10,1,100,0.5542481480133629,-10,-1,-100,6487.061859466485,-0.06188382687963738,0.005129377633130058,0.9980701786226397,200.74001912674746,21.092946421075933,-80.75694531712871,5.030132359559492,-41.90185546875,4381.2578125,True
1599565831.0036652,0.0,10,0.5,0.5,-0.21036829376220711,-0.001,-0.02275,-0.37525,0.40199238517139263,10,1,100,0.42590728033712677,-10,-1,-100,6487.3520665054675,-0.05953206356565035,0.00833555800220883,0.9981915907682287,199.71534891919103,20.983913684883987,-71.25449797888388,4.459609297153719,-44.628509521484375,4381.2578125,True
1599565831.0635054,0.0,10,0.5,0.5,-1.2137815116882325,-0.001,-0.02275,-0.37525,0.08287203771621449,10,1,100,0.6602787420297765,-10,-1,-100,6487.3520665054675,-0.05953206356565035,0.00833555800220883,0.9981915907682287,199.71534891919103,20.983913684883987,-71.25449797888388,4.459609297153719,-44.628509521484375,4381.2578125,True
1599565831.1213498,0.0,10,0.5,0.5,-0.005833666992187458,-0.001,-0.02275,-0.37525,0.4576035422278589,10,1,100,0.34949436626250774,-10,-1,-100,6487.57877020468,-0.05671407434663159,0.011728941873199115,0.9983215642735259,198.03102326621556,20.8037284091655,-61.629163653211016,3.8888559777751825,-47.78668212890625,4381.2578125,True
1599565831.1821873,0.0,10,0.5,0.5,0.1521297309875489,-0.001,-0.02275,-0.37525,0.5155829049949034,10,1,100,0.26657847248634836,-10,-1,-100,6487.805461053504,-0.05340818443390118,0.015325443128437912,0.9984551550412224,195.50919926206458,20.534174537864345,-51.92395884921433,3.317816431083368,-51.2860107421875,4381.2578125,True
1599565831.2390356,0.0,10,0.5,0.5,-1.1276183563232423,-0.001,-0.02275,-0.37525,0.15784938606931131,10,1,100,0.5958203929026044,-10,-1,-100,6487.805461053504,-0.05340818443390118,0.015325443128437912,0.9984551550412224,195.50919926206458,20.534174537864345,-51.92395884921433,3.317816431083368,-51.2860107421875,4381.2578125,True
1599565831.2958848,0.0,10,0.5,0.5,0.3288269088745117,-0.001,-0.02275,-0.37525,0.5331877262336377,10,1,100,0.17881489039970366,-10,-1,-100,6487.968185304548,-0.04962924722494452,0.01872071680546744,0.998592245404587,191.93230574874602,20.153217903139847,-42.20574967080976,2.7464256421440094,-55.06964111328125,4381.2578125,True
1599565831.3580964,0.0,10,0.5,0.5,-0.5785904281616212,-0.001,-0.02275,-0.37525,0.3196956997548628,10,1,100,0.4055854477597313,-10,-1,-100,6488.004198966664,-0.04827030406860884,0.019847708166526982,0.9986370943569343,190.6102532398284,20.012662708226973,-39.00994218605861,2.5558744396485955,-56.3248291015625,4381.2578125,True
1599565831.4169376,0.0,10,0.5,0.5,0.5049432022094726,-0.001,-0.02275,-0.37525,0.5886028796112588,10,1,100,0.054794261072402484,-10,-1,-100,6488.167426264612,-0.04386169666503416,0.023297708109384127,0.9987659227078757,185.93740583556638,19.517397448316583,-29.54487326037834,1.983944653004571,-60.344451904296875,4381.2578125,True
1599565831.475742,0.0,10,0.5,0.5,0.07473256607055667,-0.001,-0.02275,-0.37525,0.482921279560321,10,1,100,0.14553063923021603,-10,-1,-100,6488.234103364055,-0.04069779126863652,0.02545250902395178,0.9988472653865755,182.16517862666194,19.119271529965875,-23.382289700422877,1.6024170073847412,-63.078857421875,4381.2578125,True
1599565831.53359,0.0,10,0.5,0.5,0.15996057662963858,-0.001,-0.02275,-0.37525,0.49347305127259716,10,1,100,0.09399445632058168,-10,-1,-100,6488.301771786879,-0.037373453086717946,0.027487036884368,0.9989232642238804,177.88042276783966,18.669037685797615,-17.395471014129754,1.2206863189094448,-65.8953857421875,4381.2578125,True
1599565831.5904348,0.0,10,0.5,0.5,-0.3235888465881348,-0.001,-0.02275,-0.37525,0.3951169080329233,10,1,100,0.23688597951306806,-10,-1,-100,6488.273844487965,-0.035672623471989955,0.0284221357650664,0.9989592815191107,175.5773128728618,18.427691489641873,-14.485473959238995,1.0297509619007097,-67.274169921875,4381.2578125,True
1599565831.6663356,0.0,10,0.5,0.5,0.740951461791992,-0.001,-0.02275,-0.37525,0.5978539501311464,10,1,100,-0.18266811071111788,-10,-1,-100,6488.312159092049,-0.030333977038466145,0.031097029150446195,0.9990559667080948,168.37969265249373,17.674886063408454,-6.1626396571591915,0.45673374846839465,-71.34170532226562,4381.2578125,True
1599565831.7431295,0.0,10,0.5,0.5,0.28400414123535167,-0.001,-0.02275,-0.37525,0.5058239929581922,10,1,100,-0.05963367501357658,-10,-1,-100,6488.31884618639,-0.026625700683901406,0.03267142218908439,0.9991114303395963,163.32361527338864,17.146185638828733,-0.9766136882089064,0.07461175062461356,-74.02243041992188,4381.2578125,True
1599565831.8079574,0.0,10,0.5,0.5,0.8431847007751464,-0.001,-0.02275,-0.37525,0.5637239651813988,10,1,100,-0.3094511354104115,-10,-1,-100,6488.356262142304,-0.021010825606746535,0.034610013353224736,0.9991800098996239,155.33860911178144,16.30982849858338,6.208587392396038,-0.49862121724216246,-78.02359008789062,4381.2578125,True
1599565831.8807623,0.0,10,0.5,0.5,-0.1282581954956054,-0.001,-0.02275,-0.37525,0.4345829543463986,10,1,100,0.03837723281209826,-10,-1,-100,6488.328380141873,-0.019097921937562337,0.03518082834010251,0.9991984681208088,153.11194186801217,16.076276814936172,8.465060046691848,-0.689689659921275,-79.27053833007812,4381.2578125,True
1599565831.9944592,0.0,10,0.5,0.5,0.36305797195434564,-0.001,-0.02275,-0.37525,0.4838845556837257,10,1,100,-0.18889254315473375,-10,-1,-100,6488.270679347916,-0.015324020877238538,0.036129897081047406,0.99922960570685,148.72011056082397,15.615211630257187,12.778999436193606,-1.0717945536319315,-81.65078735351562,4381.2578125,True
1599565832.0802305,0.0,10,0.5,0.5,0.7681614196777342,-0.001,-0.02275,-0.37525,0.50738751080166,10,1,100,-0.44151661002624787,-10,-1,-100,6488.184655784513,-0.00962780587479196,0.03719052354636437,0.9992618126959444,142.8610620976827,14.999690855847746,18.842310800162558,-1.6448797702075237,-84.940673828125,4381.2578125,True
1599565832.168995,0.0,10,0.5,0.5,0.4189433288574218,-0.001,-0.02275,-0.37525,0.45187467053459696,10,1,100,-0.28662186368117365,-10,-1,-100,6488.125052538002,-0.005892692201335581,0.03763430104387936,0.9992742043921474,146.79517563961724,15.41261265371686,23.86050574070498,-2.026906725671,-87.12063598632812,4381.2578125,True
1599565832.248779,0.0,10,0.5,0.5,0.44529594573974607,-0.001,-0.02275,-0.37525,0.43606308147069917,10,1,100,-0.3157703946191725,-10,-1,-100,6488.005410037702,-0.002266664948269517,0.03788096014746256,0.9992796881195568,150.3568292606497,15.786513091042151,29.049113672968833,-2.408938822635572,-89.20294189453125,4381.2578125,True
1599565832.3193598,0.0,10,0.5,0.5,0.09386043815612793,-0.001,-0.02275,-0.37525,0.41979057755996985,10,1,100,-0.1557446918456635,-10,-1,-100,6487.976112521719,-0.00045999304007805634,0.037945965250510194,0.9992796866381356,151.9412121423549,15.952908161988857,31.68496218773165,-2.599967599045235,-90.18770599365234,4381.2578125,True
1599565832.3941627,0.0,10,0.5,0.5,0.8183133749008179,-0.001,-0.02275,-0.37525,0.4051591927359022,10,1,100,-0.5551696048992392,-10,-1,-100,6487.763732054969,0.004780013849631559,0.037862540092729116,0.9992715244243298,156.03698484503235,16.38374501933949,39.72008560934963,-3.1731605011184127,-92.94842529296875,4381.2578125,True
1599565832.4769387,0.0,10,0.5,0.5,0.1685573411941528,-0.001,-0.02275,-0.37525,0.40184579572274576,10,1,100,-0.22430956259008167,-10,-1,-100,6487.734448607662,0.0064990627853555765,0.03774799506341975,0.9992661562624865,157.1986934253942,16.506344084730408,42.428669873079095,-3.3642746886445813,-93.81964111328125,4381.2578125,True
1599565832.569691,0.0,10,0.5,0.5,0.21662458248138428,-0.001,-0.02275,-0.37525,0.3967225419640037,10,1,100,-0.24151296603072603,-10,-1,-100,6487.643157330342,0.008184744540179794,0.03759124185177451,0.9992596802097309,158.43111394587666,16.63661571064089,45.19389543326026,-3.5554201279539033,-94.68038177490234,4381.2578125,True
1599565832.6604483,0.0,10,0.5,0.5,1.0886083679199217,-0.001,-0.02275,-0.37525,0.30500108296397854,10,1,100,-0.7616637570490591,-10,-1,-100,6487.340513883741,0.0144141801945284,0.03661043492331253,0.9992256539261015,162.76536382037366,17.098235498687178,56.43616475462869,-4.320355766785158,-97.73149108886719,4381.2578125,True
1599565832.7432284,0.0,10,0.5,0.5,0.513342371749878,-0.001,-0.02275,-0.37525,0.3253583907721719,10,1,100,-0.46524784501469696,-10,-1,-100,6487.15648757352,0.017350408856531774,0.035902040130630586,0.9992046871522221,164.71875609274363,17.30861027427362,62.18248393253632,-4.703037193657558,-99.12638092041016,4381.2578125,True
1599565832.8918288,0.0,10,0.5,0.5,0.4911766222000122,-0.001,-0.02275,-0.37525,0.3127646997076219,10,1,100,-0.4590759272828059,-10,-1,-100,6486.909476038651,0.019930464450977563,0.035142901116886976,0.9991835432431107,166.6079522582939,17.51346812240195,68.02682820256507,-5.085838361519358,-100.33859252929688,4381.2578125,True
1599565832.9739819,0.0,10,0.5,0.5,0.7331674074172972,-0.001,-0.02275,-0.37525,0.18356424031904117,10,1,100,-0.7249136196952936,-10,-1,-100,6486.479410989326,0.02466062629937979,0.03327912237900947,0.9991418085157908,169.69225387000895,17.85332711322431,79.75009321367588,-5.851709473175395,-102.07775115966797,4381.2578125,True
1599565833.0380597,0.0,10,0.5,0.5,0.24492102966308593,-0.001,-0.02275,-0.37525,0.31319124973394324,10,1,100,-0.36954528714739554,-10,-1,-100,6486.3871498176595,0.025698980927333494,0.032766761249408444,0.9991325746548956,170.35602572239625,17.92762032096239,82.69069839130455,-6.043224258070126,-102.41100311279297,4381.2578125,True
1599565833.107873,0.0,10,0.5,0.5,0.3640066083908081,-0.001,-0.02275,-0.37525,0.24790419059762472,10,1,100,-0.4810646144972682,-10,-1,-100,6486.1396358223865,0.02762803204399146,0.031711884721072316,0.9991151326112591,171.5316127494213,18.06090469804922,88.55787402011981,-6.426300366965457,-102.96742248535156,4381.2578125,True
1599565833.1838372,0.0,10,0.5,0.5,0.26653267192840574,-0.001,-0.02275,-0.37525,0.29479860998884827,10,1,100,-0.38265674655865856,-10,-1,-100,6485.984870714485,0.028459920898791104,0.031184827212892768,0.9991083722270255,172.04781329123918,18.120338977903227,91.48211526559295,-6.617859410257223,-103.18006896972656,4381.2578125,True
1599565833.2520876,0.0,10,0.5,0.5,0.3462248477935791,-0.001,-0.02275,-0.37525,0.21555643927520762,10,1,100,-0.4848869213208964,-10,-1,-100,6485.738320509321,0.030119257888321243,0.029991447142639734,0.9990962633312903,172.91281021060973,18.222196602709456,97.28728778506515,-7.001013706766354,-103.52539825439453,4381.2578125,True
1599565833.312925,0.0,10,0.5,0.5,0.3330944814682007,-0.001,-0.02275,-0.37525,0.20334426090846608,10,1,100,-0.4751429481292468,-10,-1,-100,6485.427795372554,0.03151612880975302,0.028802691905393953,0.9990881535499508,173.6657661718464,18.313024243543307,103.08355283499803,-7.38420992096674,-103.77095794677734,4381.2578125,True
1599565833.376266,0.0,10,0.5,0.5,0.32206649475097654,-0.001,-0.02275,-0.37525,0.1801091865661119,10,1,100,-0.4753499893394183,-10,-1,-100,6485.117747573531,0.03276515087112492,0.027518909471292773,0.9990841578715495,174.3047573205631,18.392556340702786,108.8594341577644,-7.7674406455455784,-103.92638397216797,4381.2578125,True
1599565833.44209,0.0,10,0.5,0.5,0.29487329216003416,-0.001,-0.02275,-0.37525,0.01747061341360734,10,1,100,-0.5582954429370642,-10,-1,-100,6484.435602232697,0.0346323292265953,0.024882458713796643,0.9990903187503606,175.2999640626147,18.523729293208113,120.34878275660073,-8.533979591521115,-103.95321655273438,4381.2578125,True
1599565833.4989412,0.0,10,0.5,0.5,0.2785634651184082,-0.001,-0.02275,-0.37525,0.20508420058052768,10,1,100,-0.41216645496461424,-10,-1,-100,6484.281292571337,0.03498293861451695,0.024201925159598996,0.9990948207374823,175.48426784907497,18.550079499257528,123.19789933756245,-8.725626367230593,-103.89900970458984,4381.2578125,True
1599565833.5587785,0.0,10,0.5,0.5,0.2803850074768066,-0.001,-0.02275,-0.37525,0.1962461065967374,10,1,100,-0.4120352329161793,-10,-1,-100,6484.125027315575,0.03528445192149814,0.023513548451358526,0.9991006558359499,175.64416467517955,18.573984818849738,126.03635968288884,-8.917276778929338,-103.82093048095703,4381.2578125,True
1599565833.622609,0.0,10,0.5,0.5,0.2329996786117554,-0.001,-0.02275,-0.37525,0.11940490805725351,10,1,100,-0.43167001197775323,-10,-1,-100,6483.7519406343345,0.03572309474888579,0.022199767232295088,0.9991151239153546,175.8936462048774,18.61473823558837,131.6790068303376,-9.300586157745393,-103.59606170654297,4381.2578125,True
1599565833.6844714,0.0,10,0.5,0.5,0.20473892650604247,-0.001,-0.02275,-0.37525,0.09360050597433764,10,1,100,-0.4203851957346809,-10,-1,-100,6483.316340542398,0.0360092149275289,0.02078090733707156,0.999135371373945,176.04761879035013,18.64584960609381,137.26742766916377,-9.683904335274741,-103.2874984741211,4381.2578125,True
1599565833.7522657,0.0,10,0.5,0.5,0.09020116939544678,-0.001,-0.02275,-0.37525,0.003943863159389188,10,1,100,-0.40062608604680616,-10,-1,-100,6482.724927992211,0.036080322970950866,0.018686870546652763,0.9991741645796716,176.1310467011452,18.677640754264747,145.55530951970334,-10.258892748963396,-102.67003631591797,4381.2578125,True
1599565833.8141308,0.0,10,0.5,0.5,0.1323214984893799,-0.001,-0.02275,-0.37525,0.057405343385522556,10,1,100,-0.37617104249247546,-10,-1,-100,6482.289296956616,0.035914964168179686,0.017281055115759086,0.9992054245663824,176.08756582870035,18.688741469917325,151.00628616593252,-10.642223284353356,-102.16796112060547,4381.2578125,True
1599565833.8819497,0.0,10,0.5,0.5,0.10777525882720948,-0.001,-0.02275,-0.37525,0.0427940854893156,10,1,100,-0.35789917121179027,-10,-1,-100,6481.853656057385,0.03559175275104567,0.015882851263251258,0.9992401924321588,175.97724242739451,18.69299741924675,156.4004514887058,-11.025556677093256,-101.60810089111328,4381.2578125,True
1599565833.9417548,0.0,10,0.5,0.5,0.08946525669097902,-0.001,-0.02275,-0.37525,0.027630651978114595,10,1,100,-0.33824063558899986,-10,-1,-100,6481.416054210626,0.035114235234477806,0.01448673345257812,0.9992783020949527,175.82912900441374,18.693415300892784,161.75842575941851,-11.408890896321319,-101.01265716552734,4381.2578125,True
1599565834.4635823,0.0,10,0.5,0.5,0.18932495861053467,-0.001,-0.02275,-0.37525,0.08885643071088584,10,1,100,-0.35380329694395296,-10,-1,-100,6481.198227068991,0.03481833613498412,0.013787147939039386,0.9992985529962998,175.74310341731416,18.69239558973915,164.42484176943654,-11.600557741916065,-100.70088195800781,4381.2578125,True
1599565834.5204287,0.0,10,0.5,0.5,0.054681605529785154,-0.001,-0.02275,-0.37525,0.005527315034300567,10,1,100,-0.30724504121076157,-10,-1,-100,6480.699579355773,0.03412421355126643,0.012406107112882718,0.9993405958710029,175.5644024016189,18.68968428548665,169.74746847670878,-11.98388986075182,-100.05158233642578,4381.2578125,True
1599565834.588076,0.0,10,0.5,0.5,0.03234478015899661,-0.001,-0.02275,-0.37525,-0.00969227537070444,10,1,100,-0.2848400856082575,-10,-1,-100,6480.199949874892,0.03328997352938697,0.011023597677786533,0.9993849398288184,175.47161238717993,18.696112547522795,175.15050774567882,-12.36721729240135,-99.36823272705078,4381.2578125,True
1599565834.6558948,0.0,10,0.5,0.5,0.009719534492492743,-0.001,-0.02275,-0.37525,-0.02182524990125595,10,1,100,-0.26364856446185825,-10,-1,-100,6479.700804208289,0.032340462376424864,0.009668451447859362,0.9994301454028088,175.3496544416349,18.699353194057153,180.5236899251307,-12.750537546872579,-98.65396118164062,4381.2578125,True
1599565834.724711,0.0,10,0.5,0.5,-0.008473488235473614,-0.001,-0.02275,-0.37525,-0.035955848654614014,10,1,100,-0.24068963496285545,-10,-1,-100,6479.201168752159,0.03127122923241844,0.008320626792898224,0.9994763015660085,175.25392028124983,18.705231023038372,185.9231686348706,-13.133848239793371,-97.92447662353516,4381.2578125,True
1599565834.7914867,0.0,10,0.5,0.5,0.11396731224060058,-0.001,-0.02275,-0.37525,0.0239968803399757,10,1,100,-0.2840350471475376,-10,-1,-100,6478.919856769964,0.03069729545365196,0.007652973861465638,0.9994994287356581,175.246753821181,18.712432907329294,188.66681063953808,-13.32549894002073,-97.55664825439453,4381.2578125,True
1599565834.8612995,0.0,10,0.5,0.5,-0.177509317779541,-0.001,-0.02275,-0.37525,-0.12764490782633406,10,1,100,-0.1347339191139173,-10,-1,-100,6478.1393992754165,0.02882308350853486,0.005679389425447386,0.999568394054561,175.23145997179603,18.734288456468807,196.91291581537413,-13.900428381157713,-96.44976043701172,4381.2578125,True
1599565834.9336193,0.0,10,0.5,0.5,-0.060118769836425806,-0.001,-0.02275,-0.37525,-0.07644473470677332,10,1,100,-0.16803045817474008,-10,-1,-100,6477.513790064608,0.027428547767583536,0.004362502858446077,0.9996142472654995,175.22666465619972,18.749006497155776,202.42389023223865,-14.283692625175572,-95.69542694091797,4381.2578125,True
1599565835.0124066,0.0,10,0.5,0.5,0.06664672584533693,-0.001,-0.02275,-0.37525,-0.014233898842582401,10,1,100,-0.2301965755937874,-10,-1,-100,6477.233945921995,0.026733649449074214,0.0037426304438078167,0.9996355859534489,175.21669848836896,18.75539683154387,205.17290060156364,-14.4753176434625,-95.31915283203125,4381.2578125,True
1599565835.0862098,0.0,10,0.5,0.5,-0.21291205959320064,-0.001,-0.02275,-0.37525,-0.15855790437786163,10,1,100,-0.05137391884422815,-10,-1,-100,6476.389051267412,0.024484316010253356,0.001878110217288172,0.9996984500195656,175.24874391127207,18.780490637959254,213.50370208898775,-15.050160120692482,-94.2388916015625,4381.2578125,True
1599565835.1570203,0.0,10,0.5,0.5,0.1770456504821777,-0.001,-0.02275,-0.37525,0.026633255950573854,10,1,100,-0.27524427080389147,-10,-1,-100,6476.389051267412,0.024484316010253356,0.001878110217288172,0.9996984500195656,175.24874391127207,18.780490637959254,213.50370208898775,-15.050160120692482,-94.2388916015625,4381.2578125,True
1599565835.2288284,0.0,10,0.5,0.5,-0.3537676574707031,-0.001,-0.02275,-0.37525,-0.23637199505785836,10,1,100,0.080209897109833,-10,-1,-100,6475.138849542127,0.021262309047514708,-0.0005020202121323471,0.9997738055128642,175.40775438513643,18.824588136041694,224.78954065992033,-15.81652719568765,-92.8671646118164,4381.2578125,True
1599565835.3049123,0.0,10,0.5,0.5,0.01998864326477051,-0.001,-0.02275,-0.37525,-0.06642463248993094,10,1,100,-0.14330341274223735,-10,-1,-100,6474.795541516272,0.020376843629592713,-0.0011090644634198287,0.9997917554269545,175.4803128171698,18.838779887184586,227.6611683002253,-16.00810086911141,-92.53589630126953,4381.2578125,True
1599565835.3966677,0.0,10,0.5,0.5,-0.12324431228637692,-0.001,-0.02275,-0.37525,-0.13057610037771286,10,1,100,-0.041946285158572155,-10,-1,-100,6474.169479142176,0.018662185844266484,-0.0022330883434417328,0.9998233524658067,175.61048771259559,18.86509369819514,233.3969302260748,-16.391224421754927,-91.86613464355469,4381.2578125,True
1599565835.4644852,0.0,10,0.5,0.5,-0.11675072174072267,-0.001,-0.02275,-0.37525,-0.13876749952301154,10,1,100,-0.01861310910393804,-10,-1,-100,6473.481416049763,0.01690372105395702,-0.0033185759176995416,0.9998516146250945,175.79583631721403,18.896692654690817,239.22345296904982,-16.774314869599685,-91.25645446777344,4381.2578125,True
1599565835.5422783,0.0,10,0.5,0.5,-0.12831904125213622,-0.001,-0.02275,-0.37525,-0.14952880134081653,10,1,100,0.008593220404879282,-10,-1,-100,6472.793361175107,0.015070847801939586,-0.004392631726540688,0.9998767795748863,176.03773601273764,18.933739867690676,245.14800367819836,-17.157367800489933,-90.65796661376953,4381.2578125,True
1599565835.6031156,0.0,10,0.5,0.5,-0.13820494060516356,-0.001,-0.02275,-0.37525,-0.15339715947931098,10,1,100,0.026310104308353816,-10,-1,-100,6472.105805146974,0.013257742671575526,-0.0053932624398480376,0.9998975672435197,176.29239830152017,18.971495893047887,251.1137705849046,-17.540381512109057,-90.07650756835938,4381.2578125,True
1599565835.6749225,0.0,10,0.5,0.5,-0.14142152671813962,-0.001,-0.02275,-0.37525,-0.1606378126053552,10,1,100,0.05055731548483494,-10,-1,-100,6471.355271059088,0.011403186397673787,-0.006358684796850307,0.9999147636011952,176.5950219269943,19.013734222259636,257.1733703900823,-17.923353154307414,-89.52658081054688,4381.2578125,True
1599565835.7367566,0.0,10,0.5,0.5,-0.047647691154479976,-0.001,-0.02275,-0.37525,-0.1162654129282874,10,1,100,-0.03108898289388491,-10,-1,-100,6471.011502438341,0.010474033735178669,-0.006823209499192393,0.999921866162274,176.7651101627929,19.036621952368627,260.2410004154802,-18.11482233338106,-89.2646484375,4381.2578125,True
1599565835.8095994,0.0,10,0.5,0.5,-0.23677628002166745,-0.001,-0.02275,-0.37525,-0.21522807734340899,10,1,100,0.18435175915927782,-10,-1,-100,6469.915758350398,0.007685578764894259,-0.008135559959692668,0.9999373703103563,177.36022496547395,19.11343950837084,269.6174590811215,-18.689159334776964,-88.537353515625,4381.2578125,True
1599565835.867444,0.0,10,0.5,0.5,-0.14171480846405027,-0.001,-0.02275,-0.37525,-0.1748540047758868,10,1,100,0.11335116403025007,-10,-1,-100,6469.164766521892,0.005811351236031739,-0.008952465473009097,0.9999430391571142,177.8328724651471,19.172045281694178,276.0281147082777,-19.07198816912655,-88.09912109375,4381.2578125,True
1599565835.9312372,0.0,10,0.5,0.5,-0.0708309492111206,-0.001,-0.02275,-0.37525,-0.1374346086326868,10,1,100,0.03165885942785436,-10,-1,-100,6468.759001311264,0.004867140765064155,-0.00934508454227649,0.9999444886270791,178.08677893117638,19.203017352692587,279.2754620120653,-19.263382820557112,-87.8875732421875,4381.2578125,True
1599565835.9980586,0.0,10,0.5,0.5,-0.15495029869079588,-0.001,-0.02275,-0.37525,-0.17588910015232653,10,1,100,0.1414942583186102,-10,-1,-100,6468.008024242474,0.003025168681798072,-0.010043558106034349,0.9999449861342461,178.61293012675608,19.266486634882703,285.8302115924901,-19.64613147182807,-87.48312377929688,4381.2578125,True
1599565836.062925,0.0,10,0.5,0.5,-0.15003980808258055,-0.001,-0.02275,-0.37525,-0.17994429484833735,10,1,100,0.1612640590130484,-10,-1,-100,6467.194555733702,0.0011866973951956442,-0.010707277212466488,0.9999419712983288,179.19734782876995,19.335664728347776,292.52236882660054,-20.02882420470406,-87.12335205078125,4381.2578125,True
1599565836.1230774,0.0,10,0.5,0.5,-0.26035002422332765,-0.001,-0.02275,-0.37525,-0.23991738056767825,10,1,100,0.3787928465252195,-10,-1,-100,6465.567155112862,-0.0024462877623271447,-0.011848164280426964,0.9999268156617103,180.52425329242251,19.489527201685593,306.3137806630043,-20.794030893501223,-86.50003051757812,4381.2578125,True
1599565836.1857975,0.0,10,0.5,0.5,-0.08668903903961181,-0.001,-0.02275,-0.37525,-0.15343829031624778,10,1,100,0.11443323035491279,-10,-1,-100,6465.097442780272,-0.0033281413868757243,-0.012091406623230095,0.9999213575880759,180.88917825367923,19.531281652715897,309.85078268598164,-20.985293818788954,-86.36868286132812,4381.2578125,True
1599565836.2475877,0.0,10,0.5,0.5,-0.13203566055297852,-0.001,-0.02275,-0.37525,-0.17616586656627758,10,1,100,0.21386771319291803,-10,-1,-100,6464.284488565987,-0.005017049990275558,-0.012512151469054404,0.9999091335091458,181.66495530890614,19.61944795795998,317.04708678771493,-21.367770931424417,-86.14309692382812,4381.2578125,True
1599565836.311455,0.0,10,0.5,0.5,-0.11785488204956054,-0.001,-0.02275,-0.37525,-0.1742648571398463,10,1,100,0.2285347796411994,-10,-1,-100,6463.40757313231,-0.006669144967749009,-0.012870893162264212,0.9998949257870072,182.52321593907885,19.716201758785424,324.4493851186258,-21.750180858740165,-85.97958374023438,4381.2578125,True
1599565836.363279,0.0,10,0.5,0.5,-0.11261914749145507,-0.001,-0.02275,-0.37525,-0.17100708120883618,10,1,100,0.24066007024440333,-10,-1,-100,6462.531149989925,-0.00826485001514907,-0.01316148564002266,0.9998792264818659,183.44170513109364,19.81923862867358,332.0256244319683,-22.132520240933694,-85.85186767578125,4381.2578125,True
1599565836.425114,0.0,10,0.5,0.5,-0.10666335983276366,-0.001,-0.02275,-0.37525,-0.16591767378940775,10,1,100,0.24916108057737663,-10,-1,-100,6461.655705931713,-0.009775737530584949,-0.01337363121040751,0.9998627810574715,184.4004475543213,19.9264667690878,339.7451471612556,-22.514787194232195,-85.76095581054688,4381.2578125,True
1599565836.4889424,0.0,10,0.5,0.5,-0.09084096221923828,-0.001,-0.02275,-0.37525,-0.15420587872194144,10,1,100,0.18039459194180812,-10,-1,-100,6461.186002888018,-0.01050824781493469,-0.013455258072643392,0.9998542557583372,184.89877367048425,19.982092309280368,343.66711959485156,-22.705892666311996,-85.7291259765625,4381.2578125,True
1599565836.561258,0.0,10,0.5,0.5,-0.10156932525634765,-0.001,-0.02275,-0.37525,-0.16228141934852502,10,1,100,0.33839213174104504,-10,-1,-100,6459.7783575097565,-0.012595671527017547,-0.013598784868918015,0.9998281962961799,186.45225268661312,20.1552525919981,355.656669307262,-23.27909421336329,-85.68319702148438,4381.2578125,True
1599565836.6230936,0.0,10,0.5,0.5,-0.0891772071838379,-0.001,-0.02275,-0.37525,-0.14988025143227549,10,1,100,0.20385753122494416,-10,-1,-100,6459.3081664280035,-0.013254412340317335,-0.013612658884177547,0.9998194917441927,186.98749760553756,20.214871336401167,359.72542751170124,-23.47012207181998,-85.68365478515625,4381.2578125,True
1599565836.6824477,0.0,10,0.5,0.5,-0.08527890319824218,-0.001,-0.02275,-0.37525,-0.14714972505822727,10,1,100,0.2817952931267033,-10,-1,-100,6458.369248595205,-0.01454699311422212,-0.013597204021214735,0.9998017308617445,188.07987380499534,20.336549942627823,367.9657796384038,-23.852117221449433,-85.70535278320312,4381.2578125,True
1599565836.7403314,0.0,10,0.5,0.5,-0.049053145599365224,-0.001,-0.02275,-0.37525,-0.12332643083639962,10,1,100,0.4057188566468287,-10,-1,-100,6456.428906821064,-0.01683434104021905,-0.01336395153758761,0.9997689781949841,190.33876417744534,20.5884507429733,384.84176352530784,-24.615858613665885,-85.83184814453125,4381.2578125,True
1599565836.7981374,0.0,10,0.5,0.5,-0.07999056549072264,-0.001,-0.02275,-0.37525,-0.13614524913491644,10,1,100,0.23503113699425565,-10,-1,-100,6455.8971883598715,-0.017348961654940237,-0.013267060548588413,0.9997614708688745,190.9151501201169,20.652845992548265,389.137373813426,-24.806740497993957,-85.87982177734375,4381.2578125,True
1599565836.8589752,0.0,10,0.5,0.5,-0.03309343948364257,-0.001,-0.02275,-0.37525,-0.10457693513940744,10,1,100,0.3361964395382635,-10,-1,-100,6454.424587993068,-0.018723736945752238,-0.01289092438233419,0.9997415894836801,192.66575681277936,20.848861779074227,402.19868451727154,-25.37925403986084,-86.05526733398438,4381.2578125,True
1599565836.9148264,0.0,10,0.5,0.5,-0.07370752029418945,-0.001,-0.02275,-0.37525,-0.1252815198526374,10,1,100,0.24893496309902674,-10,-1,-100,6453.893841688754,-0.019167785890719654,-0.012736861571393096,0.9997351490976791,193.2506710271401,20.914540686506918,406.5991692283773,-25.570046992436964,-86.12283325195312,4381.2578125,True
1599565836.9756975,0.0,10,0.5,0.5,-0.04243832168579103,-0.001,-0.02275,-0.37525,-0.10274870748901233,10,1,100,0.2906548244265169,-10,-1,-100,6452.8919171582675,-0.019939375815555424,-0.01239208256867812,0.9997243908106359,194.41896016896726,21.046057749977248,415.4629121995885,-25.951564430233212,-86.2724609375,4381.2578125,True
1599565837.0374987,0.0,10,0.5,0.5,-0.03627965927124024,-0.001,-0.02275,-0.37525,-0.09348211081079348,10,1,100,0.2886542694100595,-10,-1,-100,6451.826998860226,-0.020612021132710687,-0.011995104781018284,0.9997155905786993,195.57831182364527,21.177081994584693,424.395521959484,-26.332989531300534,-86.43551635742188,4381.2578125,True
1599565837.092388,0.0,10,0.5,0.5,-0.06261012344360352,-0.001,-0.02275,-0.37525,-0.10897686645559239,10,1,100,0.25659307015946686,-10,-1,-100,6451.296247717808,-0.020922200260935424,-0.011776330503943323,0.999711748243514,196.15705380907,21.24268372726932,428.89274886849205,-26.52366715468738,-86.52407836914062,4381.2578125,True
1599565837.1572127,0.0,10,0.5,0.5,0.0518473419189453,-0.001,-0.02275,-0.37525,-0.023886103254359956,10,1,100,0.33328128631086174,-10,-1,-100,6449.104379742872,-0.02189187965847423,-0.01080541870256279,0.9997019498488944,198.44902076916992,21.504015276106635,447.05016363760654,-27.286140302855294,-86.91180419921875,4381.2578125,True
1599565837.2200105,0.0,10,0.5,0.5,-0.09085169448852538,-0.001,-0.02275,-0.37525,-0.1206979467757777,10,1,100,0.23724296737012693,-10,-1,-100,6449.104379742872,-0.02189187965847423,-0.01080541870256279,0.9997019498488944,198.44902076916992,21.504015276106635,447.05016363760654,-27.286140302855294,-86.91180419921875,4381.2578125,True
1599565837.2768586,0.0,10,0.5,0.5,0.03336702041625976,-0.001,-0.02275,-0.37525,-0.029114792650343987,10,1,100,0.2923873481263032,-10,-1,-100,6447.445694403024,-0.022385339967786598,-0.009975396610678497,0.9996996489031025,200.13465935345005,21.69802588941878,460.8217776140861,-27.85774192479407,-87.23452758789062,4381.2578125,True
1599565837.3406885,0.0,10,0.5,0.5,-0.0034899909973144655,-0.001,-0.02275,-0.37525,-0.04576089539768813,10,1,100,0.26775914091304787,-10,-1,-100,6446.318738742149,-0.022602921686265008,-0.0093754518315873,0.999700559584818,201.2223537389942,21.824285728913342,470.026949373616,-28.238687303452135,-87.44918823242188,4381.2578125,True
1599565837.398534,0.0,10,0.5,0.5,0.005594090270996083,-0.001,-0.02275,-0.37525,-0.036499369153582914,10,1,100,0.260606629813846,-10,-1,-100,6445.19617264776,-0.022730456256119868,-0.008749477702654348,0.9997033424963224,202.28708112884647,21.948733022134324,479.26224579730354,-28.619533533534547,-87.67764282226562,4381.2578125,True
1599565837.4623625,0.0,10,0.5,0.5,0.009028455352783196,-0.001,-0.02275,-0.37525,-0.02798048833347601,10,1,100,0.2520300709959233,-10,-1,-100,6444.067742228508,-0.022763535789823916,-0.008107072835119723,0.9997080057738816,203.32212151622193,22.07066690406069,488.5094804712607,-29.000279885457033,-87.90374755859375,4381.2578125,True
1599565837.5182133,0.0,10,0.5,0.5,-0.02919666442871094,-0.001,-0.02275,-0.37525,-0.055051802572895804,10,1,100,0.24767525935956863,-10,-1,-100,6443.473984799697,-0.022750346352093397,-0.007773520222762257,0.9997109552886805,203.8263689658739,22.13045732328766,493.1315329072058,-29.190615437229017,-88.0164794921875,4381.2578125,True
1599565837.5785637,0.0,10,0.5,0.5,0.05928558273315428,-0.001,-0.02275,-0.37525,0.023817355910847354,10,1,100,0.23100281942856218,-10,-1,-100,6441.691239629523,-0.022583531445273437,-0.006757810353811106,0.9997221194445396,205.2799778993388,22.304465629496296,506.9714994507607,-29.761470636292756,-88.35263061523438,4381.2578125,True
1599565837.6444187,0.0,10,0.5,0.5,0.02167463836669921,-0.001,-0.02275,-0.37525,-4.923696760185392e-05,10,1,100,0.2245685928982493,-10,-1,-100,6440.498343775282,-0.022370984783679975,-0.0060565288374912945,0.9997313926741768,206.2015921453042,22.416193499072776,516.1761694686132,-30.141914115218277,-88.57534790039062,4381.2578125,True
1599565837.7137458,0.0,10,0.5,0.5,-0.014317977905273442,-0.001,-0.02275,-0.37525,-0.030168926822647643,10,1,100,0.23100432537846308,-10,-1,-100,6439.909463465912,-0.022234668146914254,-0.0056982142540132705,0.9997365402378329,206.6502211749635,22.470997326006763,520.7757405724332,-30.332097800569553,-88.68887329101562,4381.2578125,True
1599565837.769637,0.0,10,0.5,0.5,0.10983720092773436,-0.001,-0.02275,-0.37525,0.08899074307436516,10,1,100,0.1655428416540913,-10,-1,-100,6437.395730624441,-0.021514446381554784,-0.004294729557469432,0.9997593129823416,208.34648959150005,22.681275903460897,539.1023775434222,-31.092576665152535,-89.11898803710938,4381.2578125,True
1599565837.8325028,0.0,10,0.5,0.5,-0.008030585479736334,-0.001,-0.02275,-0.37525,-0.011677406297703911,10,1,100,0.21280739190917425,-10,-1,-100,6436.8014751810115,-0.021289720172889583,-0.003939918181398474,0.9997655849546352,208.74147596435583,22.73110123358618,543.6519797996754,-31.282632527662756,-89.22134399414062,4381.2578125,True
1599565837.890312,0.0,10,0.5,0.5,0.06829769134521485,-0.001,-0.02275,-0.37525,0.06652334810778462,10,1,100,0.15257718319834157,-10,-1,-100,6434.89273234061,-0.02053842368535509,-0.0029126877999396746,0.9997848215502678,209.9417316421255,22.883217973489078,557.4406417444385,-31.85264524867543,-89.5123291015625,4381.2578125,True
1599565837.954175,0.0,10,0.5,0.5,-0.035712471771240234,-0.001,-0.02275,-0.37525,-0.035493419157021436,10,1,100,0.2275221403235478,-10,-1,-100,6434.89273234061,-0.02053842368535509,-0.0029126877999396746,0.9997848215502678,209.9417316421255,22.883217973489078,557.4406417444385,-31.85264524867543,-89.5123291015625,4381.2578125,True
1599565838.0139813,0.0,10,0.5,0.5,0.03522220916748047,-0.001,-0.02275,-0.37525,0.04283357175010294,10,1,100,0.16225810353611617,-10,-1,-100,6433.581660988624,-0.019946991076379265,-0.0022064994862673144,0.9997986041733686,210.7447219245883,22.9857035654408,566.7244326926632,-32.23252307703233,-89.68838500976562,4381.2578125,True
1599565838.0724704,0.0,10,0.5,0.5,0.0360113311767578,-0.001,-0.02275,-0.37525,0.04434291406838058,10,1,100,0.1533919953817852,-10,-1,-100,6432.32674213429,-0.019331254507888907,-0.0015567369784139059,0.9998119218978795,211.50905523873274,23.084556229058396,575.970320772829,-32.61229604411176,-89.85391235351562,4381.2578125,True
1599565838.5477223,0.0,10,0.5,0.5,0.039284414291381825,-0.001,-0.02275,-0.37525,0.05574358826327053,10,1,100,0.1371414468502956,-10,-1,-100,6430.947799144778,-0.018626881987413163,-0.0008683561475542674,0.9998261274966903,212.23469450199158,23.17973800672459,585.1743994839603,-32.99196425973963,-90.01590728759766,4381.2578125,True
1599565838.5996141,0.0,10,0.5,0.5,0.04344395999908447,-0.001,-0.02275,-0.37525,0.05776493441875148,10,1,100,0.12761060474072872,-10,-1,-100,6429.63477404695,-0.017903647917225225,-0.00023045693997314023,0.999839690290826,212.93258786050905,23.272436137994315,594.3633706047626,-33.37152746707805,-90.17643737792969,4381.2578125,True
1599565838.6530728,0.0,10,0.5,0.5,0.016318151283264155,-0.001,-0.02275,-0.37525,0.0297818279296839,10,1,100,0.15746440480479296,-10,-1,-100,6428.976552720764,-0.01752181502084409,8.912559573287202e-05,0.9998464772428833,213.26992583339512,23.31771643526141,598.9479438518563,-33.56126949224378,-90.25341796875,4381.2578125,True
1599565838.715905,0.0,10,0.5,0.5,0.04613963642120361,-0.001,-0.02275,-0.37525,0.06703971055552647,10,1,100,0.10847492209025877,-10,-1,-100,6427.601517653791,-0.01673374360833169,0.0007127762389430664,0.9998597270491916,213.91898068537307,23.40586099308307,608.0885274272756,-33.94067474952623,-90.39930725097656,4381.2578125,True
1599565838.774781,0.0,10,0.5,0.5,0.04608047428131103,-0.001,-0.02275,-0.37525,0.07237579537569706,10,1,100,0.09535880788768925,-10,-1,-100,6426.2191588021815,-0.015903078490150314,0.0013224130579602882,0.9998726635518347,214.53398219854006,23.49076312088686,617.1884937931126,-34.31997481749277,-90.53430938720703,4381.2578125,True
1599565838.8286023,0.0,10,0.5,0.5,0.04676571197509766,-0.001,-0.02275,-0.37525,0.0763560663497268,10,1,100,0.08370107622968716,-10,-1,-100,6424.844126113807,-0.01504705024754123,0.0019077061362712787,0.9998849668517602,215.1174828338014,23.572671901235232,626.2518738491631,-34.69916990319368,-90.66221618652344,4381.2578125,True
1599565838.8854513,0.0,10,0.5,0.5,0.06590227012634277,-0.001,-0.02275,-0.37525,0.10936549066168053,10,1,100,0.023303141434020708,-10,-1,-100,6422.74886612792,-0.013725445774231775,0.002734560406373877,0.9999020623629509,215.93708618337135,23.690229173931773,639.7815221948101,-35.267766032057224,-90.8319320678711,4381.2578125,True
1599565838.9513097,0.0,10,0.5,0.5,0.02408093013763428,-0.001,-0.02275,-0.37525,0.0560342385478899,10,1,100,0.10545386597958005,-10,-1,-100,6422.024242073414,-0.013277005547011105,0.0029962826797905844,0.9999073674165059,216.19521106549223,23.727955405817415,644.2717716805773,-35.45724577681469,-90.88206481933594,4381.2578125,True
1599565839.0099545,0.0,10,0.5,0.5,0.04212819309234619,-0.001,-0.02275,-0.37525,0.08483716849629558,10,1,100,0.05128882698994375,-10,-1,-100,6420.648727288586,-0.012383524457030478,0.003490685045627888,0.9999172282943896,216.6910426824562,23.80142880949944,653.2271724897262,-35.8361272577738,-90.97174835205078,4381.2578125,True
1599565839.0667698,0.0,10,0.5,0.5,0.0517283332824707,-0.001,-0.02275,-0.37525,0.11228617398359801,10,1,100,-0.010884151958884175,-10,-1,-100,6418.425060388516,-0.011012935899894516,0.004184498896699191,0.9999306001977578,217.38812736545643,23.907090472949324,666.6058945451562,-36.4042549923777,-91.07894897460938,4381.2578125,True
1599565839.1256452,0.0,10,0.5,0.5,0.01428825798034668,-0.001,-0.02275,-0.37525,0.043478912463979065,10,1,100,0.12534287189391252,-10,-1,-100,6418.425060388516,-0.011012935899894516,0.004184498896699191,0.9999306001977578,217.38812736545643,23.907090472949324,666.6058945451562,-36.4042549923777,-91.07894897460938,4381.2578125,True
1599565839.182487,0.0,10,0.5,0.5,0.048345986747741695,-0.001,-0.02275,-0.37525,0.11015367190984912,10,1,100,-0.022321565233795873,-10,-1,-100,6416.2668267638655,-0.00967745369517673,0.0047860395688941425,0.9999417186592541,218.0369009067539,24.00802687727175,679.9358808731961,-36.972150709686275,-91.16304016113281,4381.2578125,True
1599565839.2390225,0.0,10,0.5,0.5,0.03438704357147217,-0.001,-0.02275,-0.37525,0.09119059784711758,10,1,100,0.010768384321087177,-10,-1,-100,6414.766810002504,-0.008771675045224995,0.005155942691674842,0.9999482356461563,218.45078663036878,24.07353994929818,688.8177862320633,-37.35061939519785,-91.20384216308594,4381.2578125,True
1599565839.2914536,0.0,10,0.5,0.5,0.028053016090393068,-0.001,-0.02275,-0.37525,0.07425505910635771,10,1,100,0.04966134529377701,-10,-1,-100,6413.977251903387,-0.008309766954089344,0.0053336526173813495,0.9999512487731219,218.65193773114132,24.105728872372453,693.2561468327989,-37.53981535108035,-91.22195434570312,4381.2578125,True
1599565839.3552833,0.0,10,0.5,0.5,0.04055510959625244,-0.001,-0.02275,-0.37525,0.12078473887454587,10,1,100,-0.09352127267381719,-10,-1,-100,6410.977226727409,-0.006595848504855388,0.005914003387390396,0.9999607589032857,219.42573906777898,24.231480527312943,711.0129265787909,-38.29634289460929,-91.26827239990234,4381.2578125,True
1599565839.422614,0.0,10,0.5,0.5,0.024844025611877443,-0.001,-0.02275,-0.37525,0.06320882090658424,10,1,100,0.0769398492510489,-10,-1,-100,6410.977226727409,-0.006595848504855388,0.005914003387390396,0.9999607589032857,219.42573906777898,24.231480527312943,711.0129265787909,-38.29634289460929,-91.26827239990234,4381.2578125,True
1599565839.4814625,0.0,10,0.5,0.5,0.030181305313110356,-0.001,-0.02275,-0.37525,0.10197402262028286,10,1,100,-0.06092889062634668,-10,-1,-100,6408.624673210434,-0.005350179234826961,0.006262772223650275,0.9999660760576979,219.98554019352403,24.32383576323722,724.3686033310393,-38.86346956302843,-91.27879333496094,4381.2578125,True
1599565839.5393057,0.0,10,0.5,0.5,0.02545583400726318,-0.001,-0.02275,-0.37525,0.08829099301600886,10,1,100,-0.025743174294923787,-10,-1,-100,6407.06314256147,-0.004545236652849876,0.006452236158559241,0.999968854251133,220.3583026628885,24.385456446210558,733.3201825642731,-39.241425559762746,-91.2740249633789,4381.2578125,True
1599565839.6011395,0.0,10,0.5,0.5,0.023561202621459956,-0.001,-0.02275,-0.37525,0.08652434505670599,10,1,100,-0.031002454833396614,-10,-1,-100,6405.493312344304,-0.003773596999697465,0.006605273887502122,0.9999710647426528,220.72773981607273,24.44676095490406,742.3001149986098,-39.6192789164476,-91.2618637084961,4381.2578125,True
1599565839.664615,0.0,10,0.5,0.5,0.025431912231445312,-0.001,-0.02275,-0.37525,0.07808368139189126,10,1,100,0.005621217643576516,-10,-1,-100,6404.714501953451,-0.003412876089765332,0.00666483434518654,0.9999719657370135,220.91252461467022,24.47743230410459,746.8050329776626,-39.80816696913024,-91.2529525756836,4381.2578125,True
1599565839.725485,0.0,10,0.5,0.5,0.02048248882293701,-0.001,-0.02275,-0.37525,0.08339842162910237,10,1,100,-0.038473034026219446,-10,-1,-100,6403.085591778392,-0.002691000301747183,0.006765041185739304,0.9999734960163351,221.2873247321097,24.539367215781553,755.8623052421257,-40.18586579699136,-91.2298583984375,4381.2578125,True
1599565839.7892816,0.0,10,0.5,0.5,0.012024542045593264,-0.001,-0.02275,-0.37525,0.08289960693595332,10,1,100,-0.07823320665158515,-10,-1,-100,6400.671525014681,-0.0016808588665893117,0.006849257686950426,0.9999751308820676,221.86270772086863,24.633731385780877,769.5687771336377,-40.752220534198976,-91.18343353271484,4381.2578125,True
1599565839.863727,0.0,10,0.5,0.5,0.014955353546142578,-0.001,-0.02275,-0.37525,0.07621284746955634,10,1,100,-0.04689391998477531,-10,-1,-100,6399.039687214419,-0.0010547207087155067,0.0068631537673405135,0.9999758920516997,222.25419924433854,24.69749436061941,778.7849528598592,-41.12966082622044,-91.1447982788086,4381.2578125,True
1599565839.9155886,0.0,10,0.5,0.5,0.012942364692687988,-0.001,-0.02275,-0.37525,0.07281867766142427,10,1,100,-0.048264084831764545,-10,-1,-100,6397.352673956426,-0.00048006357052715414,0.006843378468461514,0.9999764685781889,222.65437208983346,24.76218445539773,788.0732164283851,-41.5069974668441,-91.10127258300781,4381.2578125,True
1599565839.9749804,0.0,10,0.5,0.5,0.020374799156188964,-0.001,-0.02275,-0.37525,0.0725220822313846,10,1,100,-0.02116160379534088,-10,-1,-100,6396.504041144159,-0.00021115209376301432,0.006821332123888354,0.9999767121502625,222.86053855873234,24.7951882866868,792.7547629152871,-41.69562667510193,-91.0783462524414,4381.2578125,True
1599565840.0348186,0.0,10,0.5,0.5,0.010504355049133298,-0.001,-0.02275,-0.37525,0.0674312368764491,10,1,100,-0.05091470277730777,-10,-1,-100,6394.813610512763,0.00029799133366672777,0.0067541847358347055,0.999977145833703,223.2881611798418,24.8628604577032,802.2051394094119,-42.07280665107696,-91.0303955078125,4381.2578125,True
1599565840.0941012,0.0,10,0.5,0.5,-0.011768973541259768,-0.001,-0.02275,-0.37525,0.04937083724262227,10,1,100,-0.09758714000301727,-10,-1,-100,6391.432260619127,0.0011788767517106505,0.006528192403343468,0.9999779962346919,224.20046559366443,25.004398056376825,821.448365125672,-42.82685132076468,-90.92481231689453,4381.2578125,True
1599565840.152944,0.0,10,0.5,0.5,0.027045812034606934,-0.001,-0.02275,-0.37525,0.07199661250971531,10,1,100,-0.01015150379727876,-10,-1,-100,6391.432260619127,0.0011788767517106505,0.006528192403343468,0.9999779962346919,224.20046559366443,25.004398056376825,821.448365125672,-42.82685132076468,-90.92481231689453,4381.2578125,True
1599565840.217317,0.0,10,0.5,0.5,0.004423617362976074,-0.001,-0.02275,-0.37525,0.05485445512346268,10,1,100,-0.05054218722489979,-10,-1,-100,6389.73841197521,0.0015408610434121503,0.006372285557791368,0.9999785096310895,224.68088650668423,25.07777860607767,831.2299256162784,-43.203715136893024,-90.8667984008789,4381.2578125,True
1599565840.2736468,0.0,10,0.5,0.5,0.0038600965499877953,-0.001,-0.02275,-0.37525,0.05105229925382479,10,1,100,-0.047660467458366135,-10,-1,-100,6387.9888986604055,0.0018389088943149264,0.006196198816047033,0.9999791125490123,225.18290001016473,25.153500242570196,841.1409545198437,-43.58047281196032,-90.80982971191406,4381.2578125,True
1599565840.3334863,0.0,10,0.5,0.5,0.0021635002136230486,-0.001,-0.02275,-0.37525,0.045135047882684534,10,1,100,-0.049750203643326094,-10,-1,-100,6386.229131392087,0.0021240847377406494,0.005982752797931944,0.9999798472634265,225.71279140759393,25.23227561230561,851.2077593457542,-43.957123311394724,-90.75118255615234,4381.2578125,True
1599565840.3953211,0.0,10,0.5,0.5,-0.011692102241516109,-0.001,-0.02275,-0.37525,0.027533430056267162,10,1,100,-0.05487679988872572,-10,-1,-100,6383.572389368317,0.0024255635748681326,0.00562940742703062,0.9999812130302072,226.54256686698415,25.354223757312738,866.5409153056371,-44.521897086172494,-90.65876007080078,4381.2578125,True
1599565840.4561598,0.0,10,0.5,0.5,0.010126978111267093,-0.001,-0.02275,-0.37525,0.048411120526481666,10,1,100,-0.033825276172084986,-10,-1,-100,6382.6646732511,0.002504524645340513,0.005499090503449476,0.9999817435133183,226.8306232135793,25.396122914254175,871.7234891333171,-44.71010081835347,-90.62774658203125,4381.2578125,True
1599565840.512013,0.0,10,0.5,0.5,-0.002694612503051759,-0.001,-0.02275,-0.37525,0.03101937920099262,10,1,100,-0.03949769215604296,-10,-1,-100,6380.853146816604,0.0026246391771204258,0.005223753891111164,0.9999829116862324,227.4247807422643,25.481894920155856,882.2013091034651,-45.08642656306151,-90.56586456298828,4381.2578125,True
1599565840.5748813,0.0,10,0.5,0.5,-0.025093255424499507,-0.001,-0.02275,-0.37525,-0.008185858377441964,10,1,100,-0.03831442548461386,-10,-1,-100,6377.2086090478115,0.002720254779227675,0.0046185090151608845,0.9999856346910255,228.69186249328294,25.662104312463,903.6440124180041,-45.8387482414036,-90.4478530883789,4381.2578125,True
1599565840.6336832,0.0,10,0.5,0.5,-0.004137580299377438,-0.001,-0.02275,-0.37525,0.016353933223941193,10,1,100,-0.02623891938054436,-10,-1,-100,6375.40391741402,0.002694735810312733,0.004293377981681138,0.9999871525696813,229.3637423991372,25.756445663420223,914.6111772957166,-46.21474252713535,-90.38966369628906,4381.2578125,True
1599565840.691471,0.0,10,0.5,0.5,0.0058431570053100595,-0.001,-0.02275,-0.37525,0.0309384448319044,10,1,100,-0.02576058099760843,-10,-1,-100,6374.42344613024,0.0026650093582936897,0.004132627881093902,0.999987909482868,229.70878746974003,25.804625089448017,920.1556756503692,-46.40269757054923,-90.36203002929688,4381.2578125,True
1599565840.7592862,0.0,10,0.5,0.5,0.005224127960205079,-0.001,-0.02275,-0.37525,0.028666189484900198,10,1,100,-0.024321991011209708,-10,-1,-100,6373.512799922144,0.0026235561905758593,0.003968012345152966,0.9999886858514668,230.06110800022913,25.853615142779258,925.7461475465858,-46.59062450493626,-90.33622741699219,4381.2578125,True
1599565840.8370788,0.0,10,0.5,0.5,-0.022569948387145995,-0.001,-0.02275,-0.37525,-0.03305223525659073,10,1,100,0.0012474979155123953,-10,-1,-100,6369.757420330192,0.0023521082483722987,0.003259612705791462,0.9999919212232647,231.53641850195197,26.05698218460524,948.5492140560083,-47.34204794988879,-90.24018096923828,4381.2578125,True
1599565840.971686,0.0,10,0.5,0.5,-0.005958223915100097,-0.001,-0.02275,-0.37525,-0.003125239412571368,10,1,100,-0.003820338552188784,-10,-1,-100,6367.794037632295,0.002150671134980018,0.0028905063348193616,0.9999935097723373,232.30996413918177,26.16271072907095,960.2058955050082,-47.717587643405984,-90.19232940673828,4381.2578125,True
1599565841.04852,0.0,10,0.5,0.5,-0.02022219657897949,-0.001,-0.02275,-0.37525,-0.04703601617139033,10,1,100,0.031707743135689095,-10,-1,-100,6363.909752995125,0.0016442805054239045,0.002158771383838396,0.9999963180170873,233.922608049608,26.381601778604598,984.0188687773931,-48.46831842296701,-90.11042785644531,4381.2578125,True
1599565841.1203234,0.0,10,0.5,0.5,0.0027929525375366207,-0.001,-0.02275,-0.37525,0.005171955158973708,10,1,100,-0.002287702259314857,-10,-1,-100,6362.925375824096,0.001493411076902307,0.0019716520599627305,0.9999969411510767,234.3408510036688,26.43804924597387,990.0843194199031,-48.65592780384015,-90.09378814697266,4381.2578125,True
1599565841.1960852,0.0,10,0.5,0.5,-0.003687487983703612,-0.001,-0.02275,-0.37525,-0.01656325178790821,10,1,100,0.01781543059774854,-10,-1,-100,6360.979084161925,0.0011743487090893384,0.0016072760254378063,0.9999980187824811,235.19496448079707,26.55297950687268,1002.3506257491548,-49.031057459189014,-90.06338500976562,4381.2578125,True
1599565841.264927,0.0,10,0.5,0.5,-0.00668396167755127,-0.001,-0.02275,-0.37525,-0.0403395499619818,10,1,100,0.04527180460021232,-10,-1,-100,6358.003495703684,0.0006358978619062882,0.0010634149329035805,0.9999992323910001,236.50796820690962,26.729116753681172,1021.0416050183287,-49.593527284117215,-90.02851104736328,4381.2578125,True
1599565841.3247712,0.0,10,0.5,0.5,0.005180013465881347,-0.001,-0.02275,-0.37525,0.013630525395620027,10,1,100,-0.008374405986571293,-10,-1,-100,6358.003495703684,0.0006358978619062882,0.0010634149329035805,0.9999992323910001,236.50796820690962,26.729116753681172,1021.0416050183287,-49.593527284117215,-90.02851104736328,4381.2578125,True
1599565841.387603,0.0,10,0.5,0.5,-0.00658451747894287,-0.001,-0.02275,-0.37525,-0.04487880395817254,10,1,100,0.05724823246065016,-10,-1,-100,6354.965408061049,4.1223291401839875e-05,0.0005347438424893365,0.9999998561748212,237.85927570233113,26.90981159428259,1040.090036722969,-50.1557250504264,-89.9997787475586,4381.2578125,True
1599565841.452433,0.0,10,0.5,0.5,0.0001670269012451174,-0.001,-0.02275,-0.37525,-0.011271604897100607,10,1,100,0.021034548891119595,-10,-1,-100,6353.993728136062,-0.00016776236522564358,0.00036307069188539756,0.9999999200177276,238.31662402628766,26.970882861477374,1046.5133584920088,-50.34306339974355,-89.99142456054688,4381.2578125,True
1599565841.5311923,0.0,10,0.5,0.5,-0.0035923316955566403,-0.001,-0.02275,-0.37525,-0.03454717280286901,10,1,100,0.05128506552477699,-10,-1,-100,6351.988845815882,-0.0006301787754443145,-1.1650103622519497e-06,0.9999998014366572,239.24018730658597,27.094123405494525,1059.465654105279,-50.71764773850212,-89.975341796875,4381.2578125,True
1599565841.5910761,0.0,10,0.5,0.5,-0.006599572372436522,-0.001,-0.02275,-0.37525,-0.05452090802575182,10,1,100,0.0832176195990154,-10,-1,-100,6348.887285443838,-0.0013378953354398007,-0.0005102594441085814,0.9999989748351601,240.65612610617566,27.282700763996456,1079.1997005913745,-51.27929209007892,-89.9534912109375,4381.2578125,True
1599565841.6548953,0.0,10,0.5,0.5,-0.0014980760574340819,-0.001,-0.02275,-0.37525,-0.023123999660606853,10,1,100,0.04091527584195877,-10,-1,-100,6347.8526192056015,-0.0015933527162044442,-0.0006842189695131085,0.9999984965346315,241.1335566293406,27.346249257017682,1085.8482232897377,-51.466444459810646,-89.94699096679688,4381.2578125,True
1599565841.7159972,0.0,10,0.5,0.5,-0.004106559753417969,-0.001,-0.02275,-0.37525,-0.04266863371393798,10,1,100,0.0721987141185176,-10,-1,-100,6345.785240000463,-0.002106577934094487,-0.0010167927337253865,0.9999972642272299,242.09934484830725,27.47469984703048,1099.2649154335284,-51.84065493889839,-89.93505859375,4381.2578125,True
1599565841.7883172,0.0,10,0.5,0.5,-0.0036792537689208983,-0.001,-0.02275,-0.37525,-0.04499140322791098,10,1,100,0.07881401009357374,-10,-1,-100,6343.71786132839,-0.0026298754970045654,-0.0013373617293930631,0.9999956475997659,243.0732878656605,27.60423690721161,1112.813661468249,-52.214739127123515,-89.92535400390625,4381.2578125,True
1599565841.8471577,0.0,10,0.5,0.5,-0.00551890811920166,-0.001,-0.02275,-0.37525,-0.08254819158071496,10,1,100,0.14979429092269758,-10,-1,-100,6339.519631656818,-0.0037471273921203924,-0.0019672052433988454,0.9999910445298185,245.04094014469163,27.866080442192388,1140.291476815299,-52.9625252757754,-89.91180419921875,4381.2578125,True
1599565841.9045134,0.0,10,0.5,0.5,-0.0007791902542114258,-0.001,-0.02275,-0.37525,-0.01992128830702039,10,1,100,0.038561249021235845,-10,-1,-100,6339.519631656818,-0.0037471273921203924,-0.0019672052433988454,0.9999910445298185,245.04094014469163,27.866080442192388,1140.291476815299,-52.9625252757754,-89.91180419921875,4381.2578125,True
1599565841.9703686,0.0,10,0.5,0.5,-0.003042607879638672,-0.001,-0.02275,-0.37525,-0.06783227519591545,10,1,100,0.13223164122900344,-10,-1,-100,6336.291616403847,-0.004594691843778255,-0.002400004560410344,0.9999865643022264,246.53333889967723,28.064856503099733,1161.2350568960323,-53.52302689827009,-89.906494140625,4381.2578125,True
1599565842.0292175,0.0,10,0.5,0.5,-0.001649099540710449,-0.001,-0.02275,-0.37525,-0.05532413057668762,10,1,100,0.1120342692936572,-10,-1,-100,6334.1617431805935,-0.005176837427958906,-0.0026765995161611676,0.9999830179404421,247.52405299771323,28.1971494241536,1175.3018795561863,-53.896532419970434,-89.9056396484375,4381.2578125,True
1599565842.5588164,0.0,10,0.5,0.5,-0.001473724365234375,-0.001,-0.02275,-0.37525,-0.04319601838158695,10,1,100,0.0875661129902936,-10,-1,-100,6333.064580826205,-0.005478879210165865,-0.002814874507471319,0.9999810290021044,248.01911642667642,28.263342450290573,1182.3712858053618,-54.08323624790309,-89.90582275390625,4381.2578125,True
1599565842.6126735,0.0,10,0.5,0.5,-0.001312335968017578,-0.001,-0.02275,-0.37525,-0.056338286818509026,10,1,100,0.11965037452848533,-10,-1,-100,6330.87269732228,-0.006040309465387624,-0.0030571651715440603,0.999977083938765,249.01549300775505,28.39660865740471,1196.6153524233746,-54.45654535679068,-89.90695190429688,4381.2578125,True
1599565842.6695197,0.0,10,0.5,0.5,-0.00011188964843750009,-0.001,-0.02275,-0.37525,-0.07138923327766711,10,1,100,0.16058645427272253,-10,-1,-100,6327.582187694847,-0.006917928485364159,-0.0034114780156378243,0.9999702515991264,250.49804442756496,28.595570302571456,1218.1130639159248,-55.01626182196766,-89.91168212890625,4381.2578125,True
1599565842.730864,0.0,10,0.5,0.5,0.0008770553588867188,-0.001,-0.02275,-0.37525,-0.07122068334295859,10,1,100,0.16922086433673003,-10,-1,-100,6324.292169368942,-0.0077891858376066,-0.003729410857615233,0.9999627093440246,251.9783805879818,28.794824511014678,1239.8282590510853,-55.57567941885157,-89.91928100585938,4381.2578125,True
1599565842.7867155,0.0,10,0.5,0.5,-0.0008892395019531251,-0.001,-0.02275,-0.37525,-0.05019285751234891,10,1,100,0.11360536688132414,-10,-1,-100,6323.134461552487,-0.008070009969031127,-0.003824510304690878,0.9999601232349362,252.46951065085594,28.861104399032865,1247.1062859406238,-55.762085161520076,-89.92233276367188,4381.2578125,True
1599565842.851542,0.0,10,0.5,0.5,-0.0008232810974121093,-0.001,-0.02275,-0.37525,-0.051024155442359234,10,1,100,0.11699015841922145,-10,-1,-100,6322.03681277018,-0.008350654164275276,-0.0039159691308770445,0.9999574649757831,252.95843415035878,28.927196634093956,1254.398936978839,-55.94845739103792,-89.92562866210938,4381.2578125,True
1599565842.910911,0.0,10,0.5,0.5,0.0020971282958984374,-0.001,-0.02275,-0.37525,-0.0699336013556928,10,1,100,0.18120510614485696,-10,-1,-100,6318.685272283619,-0.009184356795032761,-0.004168673383529788,0.9999491335825453,254.4012436785998,29.12312448459072,1276.3101244508066,-56.507372781554366,-89.93667602539062,4381.2578125,True
1599565842.9657955,0.0,10,0.5,0.5,-0.00041874465942382823,-0.001,-0.02275,-0.37525,-0.05335205222832118,10,1,100,0.12891303897154244,-10,-1,-100,6317.526100701769,-0.009461942912870423,-0.004245661831928785,0.9999462215499004,254.87624952482494,29.187887521675098,1283.6346949806166,-56.693610536127835,-89.94085693359375,4381.2578125,True
1599565843.025637,0.0,10,0.5,0.5,0.003348812103271484,-0.001,-0.02275,-0.37525,-0.0679982315700296,10,1,100,0.18976329720084484,-10,-1,-100,6314.111085046083,-0.010262282807970364,-0.004446727091226559,0.9999374541288796,256.29319520756695,29.381664269756993,1305.7190480998697,-57.252120924003854,-89.95486450195312,4381.2578125,True
1599565843.084133,0.0,10,0.5,0.5,0.002026100158691406,-0.001,-0.02275,-0.37525,-0.060679868008697485,10,1,100,0.16783941322306317,-10,-1,-100,6311.79176535341,-0.010785404139204847,-0.0045611224559116825,0.9999314332590491,257.22362887462214,29.509573019437134,1320.4957297713731,-57.62429133846825,-89.96502685546875,4381.2578125,True
1599565843.1409442,0.0,10,0.5,0.5,0.0003916213989257813,-0.001,-0.02275,-0.37525,-0.05519142421374895,10,1,100,0.14492226100544064,-10,-1,-100,6310.632594450144,-0.011047532541338495,-0.004613510095726126,0.9999283312064643,257.68416289537925,29.573097097575275,1327.897676896313,-57.81032540653881,-89.970458984375,4381.2578125,True
