Timestamp,Input Throttle,horizon,dT,dt,Input Roll,Roll P,Roll I,Roll D,Input Pitch,Pitch P,Pitch I,Pitch D,Input Yaw,Yaw P,Yaw I,Yaw D,Altitude,Direction X,Direction Y,Direction Z,Drag X,Drag Y,Drag Z,Vertical Velocity,Roll,Mass,Has Fuel
1599565287.5046318,0.0,10,0.5,0.5,-0.05405859375,-0.001,-0.0155,-0.001,-0.06719428643071199,10,1,100,0.690344430609977,-10,-1,-100,6483.617967199767,-0.06725736171695477,-0.007002754297972303,0.9977110847971555,205.0732266076461,21.498778305037177,-156.76523634075838,9.590823539634965,-35.944610595703125,4381.2578125,True
1599565287.5684738,0.0,10,0.5,0.5,-0.13784453887939455,-0.001,-0.0155,-0.001,-0.06905399848134236,10,1,100,0.6894958427983291,-10,-1,-100,6483.776675134082,-0.06735005707565556,-0.006987537753170686,0.9977049384101764,204.84287480404532,21.477801938201193,-153.51333584146406,9.400809677517659,-35.942962646484375,4381.2578125,True
1599565287.6253176,0.0,10,0.5,0.5,-0.22164002685546874,-0.001,-0.0155,-0.001,-0.050417695305720864,10,1,100,0.7099697336333006,-10,-1,-100,6484.316760188551,-0.06755922453926905,-0.006797931285615229,0.9976921064686685,204.14978183785865,21.41438934830213,-143.78956884965763,8.83079761456246,-35.9385986328125,4381.2578125,True
1599565287.6792135,0.0,10,0.5,0.5,-0.3054141723632812,-0.001,-0.0155,-0.001,-0.03420904290278121,10,1,100,0.6997846734211287,-10,-1,-100,6484.69714046712,-0.0675953678455895,-0.006472030446642075,0.997691825699558,203.72153818079016,21.3754019214802,-137.3578896324439,8.450805992969634,-35.946929931640625,4381.2578125,True
1599565287.7320726,0.0,10,0.5,0.5,-0.38917857818603513,-0.001,-0.0155,-0.001,-0.044209865090011895,10,1,100,0.7023136817481574,-10,-1,-100,6484.856804862618,-0.06758976604717601,-0.00626078985796254,0.9976935531695303,203.51632357150623,21.35675179547439,-134.15560035223953,8.260812392942242,-35.96002197265625,4381.2578125,True
1599565287.7888854,0.0,10,0.5,0.5,-0.4728233871459961,-0.001,-0.0155,-0.001,-0.0015993765495687373,10,1,100,0.697447696320374,-10,-1,-100,6485.175624492578,-0.067478992030141,-0.005675693254378967,0.9977045515284966,203.12729559827002,21.32147770065411,-127.77909830076828,7.880825216135376,-36.025146484375,4381.2578125,True
1599565287.8446338,0.0,10,0.5,0.5,-0.5562732284545899,-0.001,-0.0155,-0.001,0.02734982708689747,10,1,100,0.689140711328254,-10,-1,-100,6485.49392963096,-0.06724142579469887,-0.004875452951467501,0.9977248220905472,202.76692929984873,21.288859657081833,-121.43803369488062,7.500831753297117,-36.163299560546875,4381.2578125,True
1599565287.9074981,0.0,10,0.5,0.5,-0.6386666778564452,-0.001,-0.0155,-0.001,0.19580819887200582,10,1,100,0.6221380057613042,-10,-1,-100,6486.005468226387,-0.06635521241569312,-0.002612089793545667,0.9977926451784352,202.1299337340397,21.231031204870476,-108.85098854176049,6.740794481578369,-36.75909423828125,4381.2578125,True
1599565287.9588366,0.0,10,0.5,0.5,-0.7217858764648437,-0.001,-0.0155,-0.001,-0.030789325899532163,10,1,100,0.717394864903449,-10,-1,-100,6486.005468226387,-0.06635521241569312,-0.002612089793545667,0.9977926451784352,202.1299337340397,21.231031204870476,-108.85098854176049,6.740794481578369,-36.75909423828125,4381.2578125,True
1599565288.0116951,0.0,10,0.5,0.5,-0.801932388305664,-0.001,-0.0155,-0.001,0.30083671480808966,10,1,100,0.5554996871234471,-10,-1,-100,6486.517890532734,-0.06482311515186065,0.0004050670217904819,0.997896687870401,201.56939902569226,21.17884367988383,-96.35758665620753,5.980632922862725,-37.947540283203125,4381.2578125,True
1599565288.069052,0.0,10,0.5,0.5,-0.8838021469116211,-0.001,-0.0155,-0.001,-0.0008384600233461957,10,1,100,0.7151917250218798,-10,-1,-100,6486.517890532734,-0.06482311515186065,0.0004050670217904819,0.997896687870401,201.56939902569226,21.17884367988383,-96.35758665620753,5.980632922862725,-37.947540283203125,4381.2578125,True
1599565288.120914,0.0,10,0.5,0.5,-0.8789433944702149,-0.001,-0.0155,-0.001,0.20411310039867828,10,1,100,0.6072054895722463,-10,-1,-100,6486.7721181373345,-0.06384363505374134,0.002261528642609102,0.9979573516695608,201.28124095022199,21.150829086304984,-90.12548959349901,5.600482895813139,-38.82464599609375,4381.2578125,True
1599565288.1763113,0.0,10,0.5,0.5,-0.8731525970458984,-0.001,-0.0155,-0.001,0.22440802458343342,10,1,100,0.5688209765479245,-10,-1,-100,6486.965291125118,-0.06260743613888624,0.004125312093764003,0.9980297043376236,200.95538779468285,21.118034048658654,-83.89032254574893,5.220274072708889,-39.92529296875,4381.2578125,True
1599565288.2401075,0.0,10,0.5,0.5,-0.8621786041259765,-0.001,-0.0155,-0.001,0.5209761859000401,10,1,100,0.36655104424788304,-10,-1,-100,6487.352086388739,-0.059649303003017934,0.008505804658256358,0.9981831555072294,199.97847016933648,21.015713500173,-71.34896680945627,4.45963356020477,-42.8729248046875,4381.2578125,True
1599565288.2974656,0.0,10,0.5,0.5,-0.85066993560791,-0.001,-0.0155,-0.001,0.34164098534605725,10,1,100,0.46486434256138187,-10,-1,-100,6487.5442492045695,-0.05786107201402635,0.010844134407208746,0.9982657467299706,199.19087801629811,20.93190721029566,-65.01798091229946,4.079174843075069,-44.733428955078125,4381.2578125,True
1599565288.36631,0.0,10,0.5,0.5,-0.8389316589355469,-0.001,-0.0155,-0.001,0.1095185028773356,10,1,100,0.6427145720572254,-10,-1,-100,6487.5442492045695,-0.05786107201402635,0.010844134407208746,0.9982657467299706,199.19087801629811,20.93190721029566,-65.01798091229946,4.079174843075069,-44.733428955078125,4381.2578125,True
1599565288.430111,0.0,10,0.5,0.5,-0.8164572586059571,-0.001,-0.0155,-0.001,0.6266635484246276,10,1,100,0.1741131418155586,-10,-1,-100,6487.805502412375,-0.05360980257548039,0.01553043497794632,0.998441182372409,196.5955130569991,20.655048271211555,-52.21421988125404,3.317903007976544,-49.221710205078125,4381.2578125,True
1599565288.499948,0.0,10,0.5,0.5,-0.8007050033569336,-0.001,-0.0155,-0.001,0.1600740801438115,10,1,100,0.5978769233482325,-10,-1,-100,6487.805502412375,-0.05360980257548039,0.01553043497794632,0.998441182372409,196.5955130569991,20.655048271211555,-52.21421988125404,3.317903007976544,-49.221710205078125,4381.2578125,True
1599565288.5657477,0.0,10,0.5,0.5,-0.7733383880615234,-0.001,-0.0155,-0.001,0.5588098122103052,10,1,100,0.1839689165968914,-10,-1,-100,6487.968724573613,-0.04985858925032294,0.01913881206512218,0.9985728951612414,193.409925276572,20.315998714206515,-42.53329523357626,2.7465656292768372,-53.246490478515625,4381.2578125,True
1599565288.6365583,0.0,10,0.5,0.5,-0.7426672012329101,-0.001,-0.0155,-0.001,0.5981291811598886,10,1,100,0.09059833520682403,-10,-1,-100,6488.132445422118,-0.04561456878132952,0.02275683013313402,0.9986998737344394,188.99235609137867,19.84745603509604,-32.917672048454385,2.174826258134459,-57.816741943359375,4381.2578125,True
1599565288.7153854,0.0,10,0.5,0.5,-0.7164401901245117,-0.001,-0.0155,-0.001,0.23856255066983884,10,1,100,0.5130795274691125,-10,-1,-100,6488.132445422118,-0.04561456878132952,0.02275683013313402,0.9986998737344394,188.99235609137867,19.84745603509604,-32.917672048454385,2.174826258134459,-57.816741943359375,4381.2578125,True
1599565288.7981272,0.0,10,0.5,0.5,-0.6789574417114257,-0.001,-0.0155,-0.001,0.477844708878678,10,1,100,0.17700585655956846,-10,-1,-100,6488.2010760681005,-0.04257681590612506,0.024911802695840427,0.998782567345736,185.08880650751888,19.43483396047175,-26.587970358146624,1.7934219319377167,-61.15948486328125,4381.2578125,True
1599565288.8639512,0.0,10,0.5,0.5,-0.6368149734497071,-0.001,-0.0155,-0.001,0.6140701812990107,10,1,100,-0.06262445288300095,-10,-1,-100,6488.301845712704,-0.03765609849659548,0.02808869088934634,0.9988959123402885,177.49639171379295,18.636104881778607,-17.361302006998812,1.22090671981202,-66.59259033203125,4381.2578125,True
1599565288.919804,0.0,10,0.5,0.5,-0.5890796615600585,-0.001,-0.0155,-0.001,0.6157318086616955,10,1,100,-0.16262776277637003,-10,-1,-100,6488.341613188153,-0.032296281068576405,0.030970091878743774,0.9989984002180192,167.78286179228851,17.618203568501837,-8.711081186052676,0.6479360690499858,-72.5096435546875,4381.2578125,True
1599565288.977647,0.0,10,0.5,0.5,-0.5449103866577149,-0.001,-0.0155,-0.001,0.42132785023269564,10,1,100,0.173432433689139,-10,-1,-100,6488.312234425102,-0.030503678849095002,0.03180181653136827,0.9990286132248549,164.06384294420536,17.22850973232635,-6.006623717005001,0.4568768169646491,-74.5843505859375,4381.2578125,True
1599565289.040513,0.0,10,0.5,0.5,-0.48770621643066403,-0.001,-0.0155,-0.001,0.5875750475922144,10,1,100,-0.26046653203539283,-10,-1,-100,6488.351082853158,-0.02495437477312974,0.034050215571455114,0.9991085336434774,151.37971647545035,15.897743811629242,1.412050521393207,-0.1163830634018872,-81.08932495117188,4381.2578125,True
1599565289.0993218,0.0,10,0.5,0.5,-0.43785955200195315,-0.001,-0.0155,-0.001,0.3650557516999548,10,1,100,0.2911732058370438,-10,-1,-100,6488.351082853158,-0.02495437477312974,0.034050215571455114,0.9991085336434774,151.37971647545035,15.897743811629242,1.412050521393207,-0.1163830634018872,-81.08932495117188,4381.2578125,True
1599565289.1597793,0.0,10,0.5,0.5,-0.37935921936035155,-0.001,-0.0155,-0.001,0.5101454430344761,10,1,100,-0.13776697806710472,-10,-1,-100,6488.356336009689,-0.021080968944730525,0.03535237660122939,0.9991525420159808,141.72506829027876,14.883669416213525,5.6637050268311295,-0.4985574478182304,-85.64208984375,4381.2578125,True
1599565289.227563,0.0,10,0.5,0.5,-0.31803839874267575,-0.001,-0.0155,-0.001,0.48902008878843367,10,1,100,-0.15837273955133246,-10,-1,-100,6488.299110881519,-0.017401937481448033,0.03632609073367536,0.9991884645570628,148.6652635297811,15.611961171704884,10.495928388491722,-0.8806950706334584,-90.35308837890625,4381.2578125,True
1599565289.2953827,0.0,10,0.5,0.5,-0.2505859466552734,-0.001,-0.0155,-0.001,0.5227260953373922,10,1,100,-0.43100948647965076,-10,-1,-100,6488.212088264758,-0.01160835358981458,0.03750207884209991,0.9992291229790367,159.46246254739634,16.743109333703718,18.588762404853835,-1.4538878182468546,-97.67720031738281,4381.2578125,True
1599565289.351136,0.0,10,0.5,0.5,-0.18095371017456055,-0.001,-0.0155,-0.001,0.48275169019066533,10,1,100,-0.4672166836703493,-10,-1,-100,6488.126088500721,-0.006043217545861011,0.038194350485962016,0.9992520558460958,169.80462814301092,17.826567363045058,27.60598876422558,-2.0272612365399816,-105.26351928710938,4381.2578125,True
1599565289.409599,0.0,10,0.5,0.5,-0.10984034347534179,-0.001,-0.0155,-0.001,0.431165953290646,10,1,100,-0.10844531363161997,-10,-1,-100,6488.0967806368135,-0.004281534825560278,0.03834069299006118,0.9992555527594427,173.0557900458775,18.168008324418246,30.790193028904625,-2.2184635619215296,-107.84210968017578,4381.2578125,True
1599565289.4794126,0.0,10,0.5,0.5,-0.03486120414733886,-0.001,-0.0155,-0.001,0.4293121220819672,10,1,100,-0.12703803035586625,-10,-1,-100,6488.005466417526,-0.0025457942742306136,0.03844467053707769,0.9992574874569662,176.444593389396,18.524357352211627,34.10186026374923,-2.409708886493325,-110.44194030761719,4381.2578125,True
1599565289.536261,0.0,10,0.5,0.5,0.04100136833190918,-0.001,-0.0155,-0.001,0.4321422205744524,10,1,100,-0.3249189575573314,-10,-1,-100,6487.8853511333,0.0007991507431529785,0.038555509220980985,0.9992561403698257,182.37928859752662,19.149070569498043,40.85179715617123,-2.792316766017724,-115.68989562988281,4381.2578125,True
1599565289.5961041,0.0,10,0.5,0.5,0.11858995399475099,-0.001,-0.0155,-0.001,0.4038373703128623,10,1,100,-0.525115757423874,-10,-1,-100,6487.735475587775,0.005629894001550514,0.038392059006385676,0.999246893464664,188.77587544289042,19.82363675441115,50.992350436214004,-3.3665125314706823,-123.64347076416016,4381.2578125,True
1599565289.6669223,0.0,10,0.5,0.5,0.1973250946044922,-0.001,-0.0155,-0.001,0.39565307558468066,10,1,100,-0.3697546012441811,-10,-1,-100,6487.552889142535,0.008576255932232296,0.03816307409333827,0.9992347209789758,191.25179190351926,20.085003127917574,57.54791277782467,-3.7494629161125084,-128.96701049804688,4381.2578125,True
1599565289.7297533,0.0,10,0.5,0.5,0.2821301803588867,-0.001,-0.0155,-0.001,0.3728616732722506,10,1,100,-0.5213544187565077,-10,-1,-100,6487.3390887113055,0.012602464545959284,0.03774397246179865,0.999207971560561,192.32579637772733,20.197654796867546,66.75799964866191,-4.324037615656348,-136.92611694335938,4381.2578125,True
1599565289.786117,0.0,10,0.5,0.5,0.36598686981201173,-0.001,-0.0155,-0.001,0.39542207153920855,10,1,100,-0.2613490495408263,-10,-1,-100,6487.247318396461,0.013864826438914814,0.03756470754747102,0.9991980080718195,192.0214485143399,20.16480573460582,69.61163385246907,-4.5155850648025915,-139.5605010986328,4381.2578125,True
1599565289.8444812,0.0,10,0.5,0.5,0.4625354286193848,-0.001,-0.0155,-0.001,0.36384432869964484,10,1,100,-0.5125622849619503,-10,-1,-100,6486.909521280788,0.01726441594053584,0.03711265784413511,0.999161944116156,188.99954963540353,19.841569225265992,77.25822782374631,-5.0902396202594105,-147.36520385742188,4381.2578125,True
1599565289.9013202,0.0,10,0.5,0.5,0.543099504852295,-0.001,-0.0155,-0.001,0.4091279557442822,10,1,100,-0.1760699701420463,-10,-1,-100,6486.909521280788,0.01726441594053584,0.03711265784413511,0.999161944116156,188.99954963540353,19.841569225265992,77.25822782374631,-5.0902396202594105,-147.36520385742188,4381.2578125,True
1599565289.9586792,0.0,10,0.5,0.5,0.6302972457885743,-0.001,-0.0155,-0.001,0.37089857822305783,10,1,100,-0.40310942565342356,-10,-1,-100,6486.725019382429,0.01930216301833895,0.036765472067576674,0.9991374913226215,185.3091439353988,19.447632538773245,81.46675785748121,-5.473328661475847,-152.45587158203125,4381.2578125,True
1599565290.0135298,0.0,10,0.5,0.5,0.7179298583984375,-0.001,-0.0155,-0.001,0.355204088737058,10,1,100,-0.5786663422659633,-10,-1,-100,6486.2315148380585,0.022727591075942865,0.03630847043757663,0.9990821545690666,174.38925600835648,18.285849336809342,87.43314091212608,-6.2394995095579695,-162.24343872070312,4381.2578125,True
1599565290.0723732,0.0,10,0.5,0.5,0.7924643512725831,-0.001,-0.0155,-0.001,0.40070102948181385,10,1,100,-0.23882444909572192,-10,-1,-100,6486.2315148380585,0.022727591075942865,0.03630847043757663,0.9990821545690666,174.38925600835648,18.285849336809342,87.43314091212608,-6.2394995095579695,-162.24343872070312,4381.2578125,True
1599565290.130219,0.0,10,0.5,0.5,0.8909374599456787,-0.001,-0.0155,-0.001,0.39527160444750004,10,1,100,-0.5374219843689186,-10,-1,-100,6485.737042577937,0.025419138319017223,0.03626105402826423,0.9990190205235724,159.91204514306284,16.7553980824775,90.05937261540518,-7.005855764318525,-171.33383178710938,4381.2578125,True
1599565290.1980379,0.0,10,0.5,0.5,0.9723770282745361,-0.001,-0.0155,-0.001,0.39808143924885153,10,1,100,-0.33334550186675305,-10,-1,-100,6485.5822985456325,0.025988376892177985,0.03624557802271317,0.9990049360940662,155.92544398059115,16.336277076622462,90.22608300046376,-7.197504991415705,-173.47476196289062,4381.2578125,True
1599565290.776491,0.0,10,0.5,0.5,1.055674733734131,-0.001,-0.0155,-0.001,0.41781870734233595,10,1,100,-0.38906798925072794,-10,-1,-100,6485.271836328553,0.026993926859550606,0.036412889983047224,0.9989721864775734,151.1938606552976,15.841054975152494,92.16866267297958,-7.5808805397060866,-177.5748291015625,4381.2578125,True
1599565290.8413184,0.0,10,0.5,0.5,0.41821204299926773,-0.001,-0.0155,-0.001,0.45609019184573696,10,1,100,-0.42500054283951494,-10,-1,-100,6484.806154868216,0.028217979434398945,0.036914505428027544,0.9989199492079652,160.74996536233178,16.8514264507144,105.46713077533302,-8.15601099129709,176.7775421142578,4381.2578125,True
1599565290.924099,0.0,10,0.5,0.5,0.2931261413574219,-0.001,-0.0155,-0.001,0.4646959272659841,10,1,100,-0.37290266851062814,-10,-1,-100,6484.43369468546,0.028842941540463518,0.03744950748822442,0.9988821848006815,165.91826124166442,17.403793603497256,114.00603689467158,-8.539449023572374,173.3763427734375,4381.2578125,True
1599565290.9884996,0.0,10,0.5,0.5,-0.19532716598510744,-0.001,-0.0155,-0.001,0.41118420124037186,10,1,100,-0.31190426941432564,-10,-1,-100,6484.43369468546,0.028842941540463518,0.03744950748822442,0.9988821848006815,165.91826124166442,17.403793603497256,114.00603689467158,-8.539449023572374,173.3763427734375,4381.2578125,True
1599565291.0543232,0.0,10,0.5,0.5,-0.6860959785461427,-0.001,-0.0155,-0.001,0.48886763801882716,10,1,100,-0.3653198588977791,-10,-1,-100,6484.124229822424,0.029318011876131343,0.03815541432289757,0.9988416383679042,170.77173588648645,17.92630772380828,122.64426324642031,-8.922883617282084,170.18605041503906,4381.2578125,True
1599565291.1281264,0.0,10,0.5,0.5,-1.1692573776245117,-0.001,-0.0155,-0.001,0.6235628050397326,10,1,100,-0.37962386041868995,-10,-1,-100,6483.31636095827,0.02986897256244165,0.040020701366900696,0.9987523156119165,179.09009287077208,18.833012580838332,139.7556414118879,-9.689674643600064,164.0693817138672,4381.2578125,True
1599565291.204922,0.0,10,0.5,0.5,-1.6659881889343264,-0.001,-0.0155,-0.001,0.4373596235693522,10,1,100,-0.32558447274206953,-10,-1,-100,6483.31636095827,0.02986897256244165,0.040020701366900696,0.9987523156119165,179.09009287077208,18.833012580838332,139.7556414118879,-9.689674643600064,164.0693817138672,4381.2578125,True
1599565291.3066576,0.0,10,0.5,0.5,-2.1621169021606446,-0.001,-0.0155,-0.001,0.6480648739055626,10,1,100,-0.3297231850066557,-10,-1,-100,6482.724282983225,0.029900105054404706,0.04193282888729413,0.9986729302325383,185.15890804707152,19.499985236552913,153.1396360355545,-10.26463487486308,159.24130249023438,4381.2578125,True
1599565291.3879519,0.0,10,0.5,0.5,-2.661780754089355,-0.001,-0.0155,-0.001,0.538667414233317,10,1,100,-0.3204023393155033,-10,-1,-100,6482.506098501501,0.029837151891743862,0.04267149121931346,0.9986435240886055,187.0640215210522,19.71048673624266,157.62983291409367,-10.456252223853403,157.50851440429688,4381.2578125,True
1599565291.4852064,0.0,10,0.5,0.5,-3.1579142471313477,-0.001,-0.0155,-0.001,0.8415332425724757,10,1,100,-0.27126870542394993,-10,-1,-100,6481.633899420616,0.02932923596888104,0.046090500472240614,0.9985066157435813,193.85059757488332,20.464408312753246,175.43972880190117,-11.222491074214389,149.85604858398438,4381.2578125,True
1599565291.6088097,0.0,10,0.5,0.5,-3.6582020034790035,-0.001,-0.0155,-0.001,0.7234569100180581,10,1,100,-0.27758656166353024,-10,-1,-100,6481.19905985205,0.0289218921329322,0.04811631956763466,0.9984229283959359,196.45487891864303,20.755894357605897,183.92913573743826,-11.605458954131146,145.59231567382812,4381.2578125,True
1599565291.6736374,0.0,10,0.5,0.5,-4.154266107177734,-0.001,-0.0155,-0.001,0.7779976554139744,10,1,100,-0.24866322219517142,-10,-1,-100,6480.700777768972,0.028286887409381466,0.05044315876742431,0.9983262691796972,198.7009151883671,21.00632722175345,192.23821338675504,-11.988326078290896,141.0379638671875,4381.2578125,True
1599565291.7514281,0.0,10,0.5,0.5,-4.093731943511963,-0.001,-0.0155,-0.001,0.8286837433950129,10,1,100,-0.23497556521319082,-10,-1,-100,6480.201561338967,0.027585114499067354,0.05300695097311581,0.9982130657362721,200.080553890275,21.160628785417593,199.8261844431733,-12.371105051651348,136.19187927246094,4381.2578125,True
1599565291.8172526,0.0,10,0.5,0.5,-4.040942109680175,-0.001,-0.0155,-0.001,0.5738602671743527,10,1,100,-0.30502707354046243,-10,-1,-100,6480.201561338967,0.027585114499067354,0.05300695097311581,0.9982130657362721,200.080553890275,21.160628785417593,199.8261844431733,-12.371105051651348,136.19187927246094,4381.2578125,True
1599565291.88507,0.0,10,0.5,0.5,-3.9621776817321774,-0.001,-0.0155,-0.001,1.2348446064847372,10,1,100,-0.11021522277536894,-10,-1,-100,6479.203293917584,0.025815241153058683,0.05900175638186031,0.9979240282045849,199.16697257335386,21.06390422980914,211.37752580084435,-13.136529104268222,125.62762451171875,4381.2578125,True
1599565291.9498973,0.0,10,0.5,0.5,-3.892238327026367,-0.001,-0.0155,-0.001,1.007867318505509,10,1,100,-0.18676418865060804,-10,-1,-100,6478.6432276018895,0.024905349410755766,0.06236919836994509,0.9977423548519019,196.4981603604999,20.77366530047672,214.70331069300744,-13.51927289043336,119.90859985351562,4381.2578125,True
1599565292.010735,0.0,10,0.5,0.5,-3.8295081398010256,-0.001,-0.0155,-0.001,0.6733579693973354,10,1,100,-0.2772570005657311,-10,-1,-100,6478.6432276018895,0.024905349410755766,0.06236919836994509,0.9977423548519019,196.4981603604999,20.77366530047672,214.70331069300744,-13.51927289043336,119.90859985351562,4381.2578125,True
1599565292.0765584,0.0,10,0.5,0.5,-3.736451048278809,-0.001,-0.0155,-0.001,1.5454348473576731,10,1,100,-0.04112791076899469,-10,-1,-100,6477.518487023772,0.022763233706377877,0.07027685317230903,0.9972677670011333,185.90264778241013,19.630558364177062,214.80552546201153,-14.285101878860374,107.60466003417969,4381.2578125,True
1599565292.137398,0.0,10,0.5,0.5,-3.66871819229126,-0.001,-0.0155,-0.001,0.7575037695497807,10,1,100,-0.25462579407198094,-10,-1,-100,6477.518487023772,0.022763233706377877,0.07027685317230903,0.9972677670011333,185.90264778241013,19.630558364177062,214.80552546201153,-14.285101878860374,107.60466003417969,4381.2578125,True
1599565292.213194,0.0,10,0.5,0.5,-3.5644400329589843,-0.001,-0.0155,-0.001,1.7652851622434804,10,1,100,-0.033091979813825445,-10,-1,-100,6476.333170161,0.020755720775108615,0.07941340641320357,0.99662566239133,168.9305323653032,17.826285871650732,205.84790394474547,-15.051598830606352,94.14106750488281,4381.2578125,True
1599565292.2750287,0.0,10,0.5,0.5,-3.484450922393799,-0.001,-0.0155,-0.001,1.1259489605452309,10,1,100,-0.18706507579102427,-10,-1,-100,6476.05242777383,0.02033825854210543,0.08187692306590456,0.996434907411786,163.5879717299148,17.264531071381146,201.9225904529662,-15.243309803906051,90.59382629394531,4381.2578125,True
1599565292.3378954,0.0,10,0.5,0.5,-3.3806025253295897,-0.001,-0.0155,-0.001,1.7633560134174213,10,1,100,-0.09795178320497572,-10,-1,-100,6475.085923277191,0.019156429882766484,0.08988040177310877,0.995768318722408,173.44758040953414,18.329517360045596,222.32241562134604,-15.818208436344067,79.51983642578125,4381.2578125,True
1599565292.3983145,0.0,10,0.5,0.5,-3.296323417663574,-0.001,-0.0155,-0.001,0.9669518669975694,10,1,100,-0.21522160338620897,-10,-1,-100,6475.085923277191,0.019156429882766484,0.08988040177310877,0.995768318722408,173.44758040953414,18.329517360045596,222.32241562134604,-15.818208436344067,79.51983642578125,4381.2578125,True
1599565292.4581258,0.0,10,0.5,0.5,-3.1929925544738773,-0.001,-0.0155,-0.001,1.6021081974962899,10,1,100,-0.15854627843809446,-10,-1,-100,6474.461336897919,0.018648862096525717,0.09562102891327896,0.9952431053627403,185.02235329923954,19.58133029966412,243.01363720962047,-16.20104324469317,71.77523803710938,4381.2578125,True
1599565292.5175781,0.0,10,0.5,0.5,-3.0681753555297853,-0.001,-0.0155,-0.001,2.396340460123424,10,1,100,-0.17519607019945255,-10,-1,-100,6473.15268868464,0.018346922445412403,0.10802133408464384,0.9939792662924896,202.4025206132936,21.48759378894899,278.6463018349983,-16.965621172020413,55.417236328125,4381.2578125,True
1599565292.576386,0.0,10,0.5,0.5,-2.9757072555541995,-0.001,-0.0155,-0.001,1.1612119007572141,10,1,100,-0.20464320344001927,-10,-1,-100,6473.15268868464,0.018346922445412403,0.10802133408464384,0.9939792662924896,202.4025206132936,21.48759378894899,278.6463018349983,-16.965621172020413,55.417236328125,4381.2578125,True
1599565292.633234,0.0,10,0.5,0.5,-2.858518377685547,-0.001,-0.0155,-0.001,1.8918344828268097,10,1,100,-0.2419226764854776,-10,-1,-100,6472.467661570292,0.01869178895215779,0.11462185561644499,0.9932333297069781,207.79311193088904,22.085877600888615,292.63905419672204,-17.347472418388868,46.80360412597656,4381.2578125,True
1599565292.6901233,0.0,10,0.5,0.5,-2.7176199562072756,-0.001,-0.0155,-0.001,2.7418816905758705,10,1,100,-0.4186701427348623,-10,-1,-100,6471.034247864736,0.02061774779733764,0.1283025292092134,0.991520735776254,209.08435820074902,22.243794040515198,307.7023876448463,-18.110998460439873,28.703948974609375,4381.2578125,True
1599565292.7509587,0.0,10,0.5,0.5,-2.6134235092163087,-0.001,-0.0155,-0.001,1.3796168989027198,10,1,100,-0.22585970962597346,-10,-1,-100,6471.034247864736,0.02061774779733764,0.1283025292092134,0.991520735776254,209.08435820074902,22.243794040515198,307.7023876448463,-18.110998460439873,28.703948974609375,4381.2578125,True
1599565292.8098352,0.0,10,0.5,0.5,-2.4525912132263183,-0.001,-0.0155,-0.001,2.9043743480238264,10,1,100,-0.639350669061552,-10,-1,-100,6469.539541100268,0.024378706961214754,0.14211120995028081,0.9895504447239496,196.9568026665459,20.949242352479395,302.3987891814074,-18.875317823502705,9.43585205078125,4381.2578125,True
1599565292.8776274,0.0,10,0.5,0.5,-2.320420108032227,-0.001,-0.0155,-0.001,2.2816642411366534,10,1,100,-0.5478066628627254,-10,-1,-100,6468.730388178257,0.026962248884580882,0.14894655710360682,0.9884775972484495,185.8075452567036,19.768778169956505,291.22741338549747,-19.257920729458807,-0.63720703125,4381.2578125,True
1599565292.9314823,0.0,10,0.5,0.5,-2.17878745803833,-0.001,-0.0155,-0.001,1.9621390543611144,10,1,100,-0.45085398348226036,-10,-1,-100,6468.38810053526,0.028423513556598157,0.15219476224136402,0.9879417281517128,178.86722896490375,19.038498010996932,283.21653042918484,-19.449290561835504,-5.7860107421875,4381.2578125,True
1599565292.9858475,0.0,10,0.5,0.5,-2.0412670082092284,-0.001,-0.0155,-0.001,1.9954194100393292,10,1,100,-0.4770645142951015,-10,-1,-100,6467.984302578843,0.029981788917027116,0.15539357527233774,0.9873975537226204,172.92108816617923,18.41822011366269,276.5741793314186,-19.640652906574086,-11.00860595703125,4381.2578125,True
1599565293.0467181,0.0,10,0.5,0.5,-1.8629072731018066,-0.001,-0.0155,-0.001,3.0105191094011836,10,1,100,-1.1159193383153099,-10,-1,-100,6466.367204120732,0.03719633277302419,0.1674702087733314,0.9851751935578034,199.79882894966178,21.376275544278563,332.3561643771231,-20.404608790813526,-32.640228271484375,4381.2578125,True
1599565293.1030498,0.0,10,0.5,0.5,-1.7115056526184083,-0.001,-0.0155,-0.001,2.1134176880057653,10,1,100,-0.6165010730897973,-10,-1,-100,6465.960965843522,0.03919798162126551,0.17022818159803998,0.9846247429486239,204.28558788535148,21.88229389922251,343.0811554487413,-20.595226715436148,-38.23486328125,4381.2578125,True
1599565293.1559477,0.0,10,0.5,0.5,-1.5374686470031738,-0.001,-0.0155,-0.001,2.6648574654047876,10,1,100,-1.0938121776651237,-10,-1,-100,6464.686449410045,0.045337898743827994,0.17769196682639035,0.9830412198188149,212.0619278790761,22.779789871057652,366.2861337238298,-21.16654882188667,-55.470306396484375,4381.2578125,True
1599565293.2142677,0.0,10,0.5,0.5,-1.3591004936218263,-0.001,-0.0155,-0.001,2.4118095028900917,10,1,100,-0.9551858173844565,-10,-1,-100,6463.813648542971,0.049634864692425625,0.18211345316317368,0.9820239662981495,210.5506025121706,22.642302894430962,370.39845560582387,-21.54735730063191,-67.33425903320312,4381.2578125,True
1599565293.2741046,0.0,10,0.5,0.5,-1.1940507583618165,-0.001,-0.0155,-0.001,1.976410028966432,10,1,100,-0.5285835300987202,-10,-1,-100,6463.813648542971,0.049634864692425625,0.18211345316317368,0.9820239662981495,210.5506025121706,22.642302894430962,370.39845560582387,-21.54735730063191,-67.33425903320312,4381.2578125,True
1599565293.3369358,0.0,10,0.5,0.5,-1.008469856262207,-0.001,-0.0155,-0.001,2.5979279815931378,10,1,100,-1.1947171356655566,-10,-1,-100,6462.536567886942,0.055664245545855875,0.18771469734709467,0.9806450347438155,199.0214028608631,21.422461560726987,359.6914733940722,-22.119122933813436,-85.69509887695312,4381.2578125,True
1599565293.3928158,0.0,10,0.5,0.5,-0.8242830307006836,-0.001,-0.0155,-0.001,2.3939336283399046,10,1,100,-1.0202395130431399,-10,-1,-100,6461.6032317335485,0.05952748020899912,0.19089823233186812,0.9798032169739674,185.0469421415468,19.936183835873877,340.4004223317593,-22.500765219513482,-98.3096694946289,4381.2578125,True
1599565293.448638,0.0,10,0.5,0.5,-0.6440661457061767,-0.001,-0.0155,-0.001,2.3900132159792373,10,1,100,-1.0228792148318666,-10,-1,-100,6460.7297724316595,0.06303155557971069,0.1937123630944001,0.9790314312551895,172.8784072732838,18.65894726094941,323.59457846356923,-22.882510891489385,-111.22261810302734,4381.2578125,True
1599565293.5134642,0.0,10,0.5,0.5,-0.4591702331542968,-0.001,-0.0155,-0.001,2.399799270805867,10,1,100,-1.0168087429145118,-10,-1,-100,6459.7926834225655,0.06612910225684059,0.19631893173513418,0.9783076299799978,191.74525076248705,20.74879999227102,365.0806233618966,-23.26358432505475,-124.42335510253906,4381.2578125,True
1599565293.5822797,0.0,10,0.5,0.5,-0.2750909049987793,-0.001,-0.0155,-0.001,2.2799942872667636,10,1,100,-0.8656892447285751,-10,-1,-100,6459.326779331546,0.06753696235372267,0.19755929049499715,0.9779616993804743,198.84831007050812,21.545906818251016,381.79659677967675,-23.453852086407927,-131.11944580078125,4381.2578125,True
1599565293.664061,0.0,10,0.5,0.5,-0.06852077255249023,-0.001,-0.0155,-0.001,2.4294613673277086,10,1,100,-1.0013964946118203,-10,-1,-100,6458.389542841585,0.07001639637397525,0.2000073485361333,0.9772894989563471,207.78197124736883,22.565574769433514,405.6111005881596,-23.834054827661422,-144.66665649414062,4381.2578125,True
1599565293.7428524,0.0,10,0.5,0.5,0.14661839065551757,-0.001,-0.0155,-0.001,2.753780874814451,10,1,100,-1.163805139826825,-10,-1,-100,6456.392993538058,0.0737170331092495,0.20515163578726128,0.975950103931231,208.50639412690998,22.704834298867052,420.4369399020403,-24.594467705732825,-172.18936157226562,4381.2578125,True
1599565293.8206427,0.0,10,0.5,0.5,0.3267251579284668,-0.001,-0.0155,-0.001,2.2428444951205755,10,1,100,-0.7971933714481982,-10,-1,-100,6456.392993538058,0.0737170331092495,0.20515163578726128,0.975950103931231,208.50639412690998,22.704834298867052,420.4369399020403,-24.594467705732825,-172.18936157226562,4381.2578125,True
1599565293.9054172,0.0,10,0.5,0.5,-0.17079676895141604,-0.001,-0.0155,-0.001,2.748554273978556,10,1,100,-1.008805997152384,-10,-1,-100,6454.925152280135,0.07561498503895535,0.20972403407782395,0.974832397680587,191.32105522124274,20.87125039835787,395.0975488565345,-25.165763176041594,167.02886962890625,4381.2578125,True
1599565293.967252,0.0,10,0.5,0.5,-0.15349370040893556,-0.001,-0.0155,-0.001,2.884548064063683,10,1,100,-0.9823572631080036,-10,-1,-100,6453.395321983262,0.07707633455615127,0.21509196645100512,0.9735474742505513,189.30301658867685,20.729992734047595,400.1586086027288,-25.737142712389097,146.3550262451172,4381.2578125,True
1599565294.036067,0.0,10,0.5,0.5,-0.4780354110717773,-0.001,-0.0155,-0.001,2.8080328126022875,10,1,100,-0.9433261236122868,-10,-1,-100,6452.332998362253,0.07802505878558312,0.21924633131035,0.972544670649353,205.10777617494514,22.53191715379238,440.1995985957538,-26.117115001771445,132.6797637939453,4381.2578125,True
1599565294.1043963,0.0,10,0.5,0.5,-0.8165171195983886,-0.001,-0.0155,-0.001,2.6424148520929336,10,1,100,-0.9079919442768225,-10,-1,-100,6451.80270486034,0.07854598753361719,0.2214887436924301,0.9719944774842693,210.32256665597316,23.138769121170995,454.78368392788923,-26.30688250707788,125.84246826171875,4381.2578125,True
1599565294.1542642,0.0,10,0.5,0.5,-1.1295936038970948,-0.001,-0.0155,-0.001,3.2283288415145375,10,1,100,-1.063641554689181,-10,-1,-100,6450.212417611154,0.08041726602891995,0.22882598166055335,0.9701400586727249,217.97963053315763,24.06387222313583,481.8928408706313,-26.87590429750864,105.24415588378906,4381.2578125,True
1599565294.2163284,0.0,10,0.5,0.5,-1.4857154159545898,-0.001,-0.0155,-0.001,2.4981164065588284,10,1,100,-0.878252276203826,-10,-1,-100,6450.212417611154,0.08041726602891995,0.22882598166055335,0.9701400586727249,217.97963053315763,24.06387222313583,481.8928408706313,-26.87590429750864,105.24415588378906,4381.2578125,True
1599565294.7096517,0.0,10,0.5,0.5,-1.8139224700927736,-0.001,-0.0155,-0.001,3.0903008228405335,10,1,100,-1.063795030590064,-10,-1,-100,6449.151755727828,0.08209102910172932,0.23417992449045483,0.9687212322988816,215.05268871266793,23.77923962613032,482.3992710343878,-27.255466132175123,91.35536193847656,4381.2578125,True
1599565294.7564914,0.0,10,0.5,0.5,-2.158590605926514,-0.001,-0.0155,-0.001,2.8646569074672774,10,1,100,-1.0105094303499724,-10,-1,-100,6448.558097427129,0.08311498637778426,0.23696254543788525,0.9679569469243035,210.9521689340948,23.34405531847428,476.6395208605001,-27.445404196004485,84.32705688476562,4381.2578125,True
1599565294.8208501,0.0,10,0.5,0.5,-2.5063686759948727,-0.001,-0.0155,-0.001,2.9017921831877924,10,1,100,-1.0358681337434152,-10,-1,-100,6448.03826579405,0.08426448248686205,0.23979619862673418,0.9671593871308849,205.1389999055282,22.72072819551976,466.8581766239793,-27.635452316212003,77.2318115234375,4381.2578125,True
1599565294.8790889,0.0,10,0.5,0.5,-2.856654019927978,-0.001,-0.0155,-0.001,3.5770086555153515,10,1,100,-1.3916573310347378,-10,-1,-100,6446.377724389778,0.08853433760741969,0.2484790834897206,0.9645827160656175,183.54846435974787,20.410486450085692,426.7356668108487,-28.20589909635126,55.52545166015625,4381.2578125,True
1599565294.9399283,0.0,10,0.5,0.5,-3.201660472869873,-0.001,-0.0155,-0.001,3.3464484881381917,10,1,100,-1.3638845995341087,-10,-1,-100,6445.2005707125645,0.09215007442655894,0.25423722507291363,0.9627418123102394,204.14099013974777,22.783139193285997,481.2563720834547,-28.585405636212236,40.69651794433594,4381.2578125,True
1599565294.9967763,0.0,10,0.5,0.5,-3.005628210449219,-0.001,-0.0155,-0.001,3.0850901987899153,10,1,100,-1.2282717104943333,-10,-1,-100,6444.664069075603,0.0941892315532443,0.2570554482535638,0.961795656666513,212.0725696036463,23.71091900077465,503.39292837866026,-28.774854632151335,33.173492431640625,4381.2578125,True
1599565295.0536225,0.0,10,0.5,0.5,-2.8071902565002445,-0.001,-0.0155,-0.001,3.404068582390602,10,1,100,-1.5235081821315544,-10,-1,-100,6443.486651483923,0.09871142150420836,0.2624791241943406,0.9598753901558214,222.32315657280066,24.935665371379056,534.9261570898544,-29.153445337139473,17.90869140625,4381.2578125,True
1599565295.1114683,0.0,10,0.5,0.5,-2.6134431961059565,-0.001,-0.0155,-0.001,3.419561680292899,10,1,100,-1.6297207213501022,-10,-1,-100,6442.301922623999,0.10376926603187284,0.2675112824915368,0.9579507571722773,226.24254184797624,25.438940148868905,551.7113469925376,-29.532027724703674,2.350341796875,4381.2578125,True
1599565295.166322,0.0,10,0.5,0.5,-2.389803593444824,-0.001,-0.0155,-0.001,3.6449212846768053,10,1,100,-2.0474594287016403,-10,-1,-100,6440.522407446988,0.11214200087067429,0.27409285685720597,0.9551425430063185,215.45225496793566,24.312119261259465,536.0028855217184,-30.100626698807726,-21.542236328125,4381.2578125,True
1599565295.2260787,0.0,10,0.5,0.5,-2.200951006317139,-0.001,-0.0155,-0.001,3.200257957104047,10,1,100,-1.536426065838254,-10,-1,-100,6439.87443513691,0.11507897948460687,0.2759925606887923,0.9542457413712805,207.52401883671973,23.452980953871307,519.7011143721957,-30.290359128524074,-29.655364990234375,4381.2578125,True
1599565295.2839217,0.0,10,0.5,0.5,-1.9503922409057617,-0.001,-0.0155,-0.001,3.5387847341739422,10,1,100,-2.235670988563287,-10,-1,-100,6438.038428668282,0.12407422141890434,0.280754201619026,0.9517261506612897,204.9909454524817,23.307143250187217,523.4435556852035,-30.859116527118548,-54.444183349609375,4381.2578125,True
1599565295.3487473,0.0,10,0.5,0.5,-1.6982645790100097,-0.001,-0.0155,-0.001,3.441880423134273,10,1,100,-2.3162642454642484,-10,-1,-100,6436.192262521363,0.13294621351980426,0.2841596775669427,0.949514919290791,225.82499927171966,25.83016695974603,587.6338677651933,-31.42597767507022,-79.90777587890625,4381.2578125,True
1599565295.4115803,0.0,10,0.5,0.5,-1.4344669456481933,-0.001,-0.0155,-0.001,3.2849600256841356,10,1,100,-2.0514434634170575,-10,-1,-100,6434.886087191175,0.13855889811370062,0.28578610924083936,0.9482234607509458,228.43998012358185,26.209034594196876,601.8684900961416,-31.80372914683661,-97.25639343261719,4381.2578125,True
1599565295.472417,0.0,10,0.5,0.5,-1.1637883346557616,-0.001,-0.0155,-0.001,3.1996368331933382,10,1,100,-1.789630227006139,-10,-1,-100,6434.291443337221,0.14123185976293728,0.28644720909390714,0.9476294413905751,226.00615234743435,25.96562712334807,599.1553383582016,-31.992756102325572,-106.0416488647461,4381.2578125,True
1599565295.5292654,0.0,10,0.5,0.5,-0.9044271923065187,-0.001,-0.0155,-0.001,3.2013821432583605,10,1,100,-1.810351205797029,-10,-1,-100,6433.635185585474,0.14380229059474642,0.287029558937647,0.9470664884345577,220.83840608683943,25.408314113108652,589.0860293917738,-32.181920851253075,-114.90034484863281,4381.2578125,True
1599565295.585117,0.0,10,0.5,0.5,-0.6362388942718507,-0.001,-0.0155,-0.001,3.256918453167624,10,1,100,-2.087510938256931,-10,-1,-100,6432.328299707966,0.14861172326769184,0.28803403221852675,0.9460184733879903,203.1072642642297,23.44878986622061,548.4850328679469,-32.5605708882177,-132.83627319335938,4381.2578125,True
1599565295.6459544,0.0,10,0.5,0.5,-0.36041119956970213,-0.001,-0.0155,-0.001,3.261106183146689,10,1,100,-2.091627878658857,-10,-1,-100,6431.01729866548,0.15297188652701024,0.28895709767007716,0.9450414793216501,202.52859318287915,23.48286613521464,553.5533669529328,-32.93898294914956,-151.06051635742188,4381.2578125,True
1599565295.7147696,0.0,10,0.5,0.5,-0.061083268356323245,-0.001,-0.0155,-0.001,3.342577796018424,10,1,100,-2.296882020628237,-10,-1,-100,6428.984291634639,0.1587522903579097,0.29051282822170627,0.9436100926467157,228.1699558511517,26.614821943422903,634.7407519066767,-33.50487339499047,-178.88546752929688,4381.2578125,True
1599565295.784584,0.0,10,0.5,0.5,-0.4715560695648193,-0.001,-0.0155,-0.001,3.422650904928532,10,1,100,-2.2913823629030685,-10,-1,-100,6426.95452273509,0.1639072214754749,0.2926341555807972,0.9420720109077135,228.79682391879948,26.814868726269793,647.719870949768,-34.07085683773268,152.89620971679688,4381.2578125,True
1599565295.8684828,0.0,10,0.5,0.5,-0.3723129497528076,-0.001,-0.0155,-0.001,3.4156194141815037,10,1,100,-2.1467021809822504,-10,-1,-100,6425.582531331573,0.16723118881888602,0.29448185662888543,0.9409113484290784,214.42980468880933,25.225695163601358,614.1401014521898,-34.44876028201364,133.97569274902344,4381.2578125,True
1599565295.9379416,0.0,10,0.5,0.5,-0.6068683811187744,-0.001,-0.0155,-0.001,3.475049628149752,10,1,100,-2.1966744581883497,-10,-1,-100,6424.203649483039,0.17065985964264768,0.2966850510760042,0.9396026781436825,206.87112439140438,24.451479947640635,599.2887915897902,-34.82654978835959,114.97908020019531,4381.2578125,True
1599565296.012709,0.0,10,0.5,0.5,-0.8693924999237062,-0.001,-0.0155,-0.001,3.3904598388498135,10,1,100,-2.0569170817646674,-10,-1,-100,6423.485336195561,0.1724639609347396,0.2979044744438791,0.9388871637662413,219.41423556440265,25.996824117385206,639.1928673199135,-35.01500010511223,105.43980407714844,4381.2578125,True
1599565296.1114428,0.0,10,0.5,0.5,-1.1086761829376222,-0.001,-0.0155,-0.001,3.7071807006997086,10,1,100,-2.5381130031260604,-10,-1,-100,6421.392154095927,0.1784426361695495,0.3018798264343308,0.9364970880834813,238.3876427404724,28.418359437810274,706.0656793585757,-35.57951257527405,76.66763305664062,4381.2578125,True
1599565296.2391038,0.0,10,0.5,0.5,-1.3682925579071046,-0.001,-0.0155,-0.001,3.6124485784335683,10,1,100,-2.4485271298671702,-10,-1,-100,6419.959471323062,0.18302712050060874,0.3046179510257825,0.9347240111787593,236.80192536614055,28.32858202829528,709.1382552721712,-35.9561113811546,57.298614501953125,4381.2578125,True
1599565296.3109105,0.0,10,0.5,0.5,-1.6213039810180665,-0.001,-0.0155,-0.001,3.487245760166946,10,1,100,-2.2685422608569867,-10,-1,-100,6419.241298811743,0.18552061175535395,0.3059524289047403,0.9337961307808087,230.94844046753695,27.681907613178538,695.4279090128704,-36.14461523745078,47.53111267089844,4381.2578125,True
1599565296.3913636,0.0,10,0.5,0.5,-1.8234198013305662,-0.001,-0.0155,-0.001,3.752169412362763,10,1,100,-2.9339168262426982,-10,-1,-100,6417.028952098568,0.1937983559257555,0.3095567848419665,0.9309225500538584,211.11908822189068,25.48829605161478,646.1412777089348,-36.7102811262073,17.820892333984375,4381.2578125,True
1599565296.4782205,0.0,10,0.5,0.5,-2.0665554275512696,-0.001,-0.0155,-0.001,3.503978311061296,10,1,100,-2.440689790329704,-10,-1,-100,6416.31430966605,0.19679861699722237,0.3105576231797739,0.9299592824596731,225.23891245254276,27.26164604118641,693.0071180553102,-36.898344389937925,7.7742919921875,4381.2578125,True
1599565296.5531,0.0,10,0.5,0.5,-2.2821693939208982,-0.001,-0.0155,-0.001,3.581807333838495,10,1,100,-2.8355570856098797,-10,-1,-100,6414.816554392804,0.20307598726431184,0.31215537594347365,0.9280728229326694,243.5809808002399,29.613062876588188,757.3153295581623,-37.27391093401584,-12.53900146484375,4381.2578125,True
1599565296.643444,0.0,10,0.5,0.5,-2.4982682571411132,-0.001,-0.0155,-0.001,3.560052450450161,10,1,100,-3.291163863168283,-10,-1,-100,6412.5409856578335,0.21288427303319102,0.31339043174537784,0.9254548738785567,245.45233058257386,30.019343914868525,775.1920324357181,-37.83753585512176,-43.564727783203125,4381.2578125,True
1599565296.7401838,0.0,10,0.5,0.5,-2.203797596740723,-0.001,-0.0155,-0.001,3.4483368702520387,10,1,100,-2.676633337544132,-10,-1,-100,6411.825354789267,0.2161697307250819,0.31347874422152183,0.9246630329149875,238.67173361843703,29.25796906978198,757.727172539987,-38.02565203067205,-54.055694580078125,4381.2578125,True
1599565296.8109958,0.0,10,0.5,0.5,-1.8804285972595214,-0.001,-0.0155,-0.001,3.410565772912956,10,1,100,-3.063635881973509,-10,-1,-100,6410.267198441201,0.22263022581078956,0.3131983847807587,0.923224000081324,216.42526161760594,26.6743863922617,694.2150878086954,-38.401992567665836,-75.2613525390625,4381.2578125,True
1599565296.9097326,0.0,10,0.5,0.5,-1.5420323364257815,-0.001,-0.0155,-0.001,3.2889025406907937,10,1,100,-3.426034158812807,-10,-1,-100,6407.912487406633,0.23175068716345548,0.31182247105649546,0.9214436312349699,248.07624628211832,30.80832047079662,807.7171649530196,-38.96456751412266,-107.6259765625,4381.2578125,True
1599565296.9735613,0.0,10,0.5,0.5,-1.200262554168701,-0.001,-0.0155,-0.001,3.280524185558397,10,1,100,-3.1281036140475234,-10,-1,-100,6406.360219566268,0.23727965914416854,0.3104828208090411,0.9204883385132524,252.7295179590251,31.51384634234056,831.052964861959,-39.33934360922255,-129.56719970703125,4381.2578125,True
1599565297.0414097,0.0,10,0.5,0.5,-0.9025397865295409,-0.001,-0.0155,-0.001,3.4153495097413042,10,1,100,-2.5810901182736794,-10,-1,-100,6406.360219566268,0.23727965914416854,0.3104828208090411,0.9204883385132524,252.7295179590251,31.51384634234056,831.052964861959,-39.33934360922255,-129.56719970703125,4381.2578125,True
1599565297.1082306,0.0,10,0.5,0.5,-0.5234353111267089,-0.001,-0.0155,-0.001,3.0975847222584134,10,1,100,-3.644790198091232,-10,-1,-100,6403.170161070302,0.2469003393801067,0.30758871831393914,0.9189283991584852,215.9572722092876,27.193108039928063,724.278330539127,-40.090375575192446,-174.29843139648438,4381.2578125,True
1599565297.1710668,0.0,10,0.5,0.5,-0.9216286010742187,-0.001,-0.0155,-0.001,3.3157559065832647,10,1,100,-2.9254991374899486,-10,-1,-100,6402.380507007008,0.24905160292765266,0.30693960291279127,0.9185648475980913,231.3731291478097,29.210217122700573,779.6922834100781,-40.27778549894332,174.35049438476562,4381.2578125,True
1599565297.235894,0.0,10,0.5,0.5,-0.7927748748779296,-0.001,-0.0155,-0.001,3.3156845654758484,10,1,100,-2.944555327647884,-10,-1,-100,6401.543023837847,0.25113030492958305,0.3063512287034341,0.9181952377451492,244.8947369583789,30.98995850731872,829.1684746258095,-40.46490693122629,162.93765258789062,4381.2578125,True
1599565297.302682,0.0,10,0.5,0.5,-0.9757051773071289,-0.001,-0.0155,-0.001,3.228347528408904,10,1,100,-3.4033720949771125,-10,-1,-100,6399.128112883074,0.25714170309984696,0.30502619398929753,0.9169717364822721,257.3457237349038,32.76947788750206,883.8023236982657,-41.02622378358497,128.4447784423828,4381.2578125,True
1599565297.3804736,0.0,10,0.5,0.5,-1.1822152198791502,-0.001,-0.0155,-0.001,3.3025271426472687,10,1,100,-3.253378789396554,-10,-1,-100,6397.447051543742,0.26119388437132224,0.30450245818038957,0.9160000042189523,243.0208895080706,31.102744323870294,842.5818317079154,-41.401010208351735,105.19093322753906,4381.2578125,True
1599565297.4363587,0.0,10,0.5,0.5,-1.3654343215942382,-0.001,-0.0155,-0.001,3.3019455460487617,10,1,100,-3.575722430727505,-10,-1,-100,6394.975196280517,0.2677641644380919,0.3040291274519095,0.9142585202794672,250.95587663857904,32.38132143771879,882.1612224620951,-41.9623673685805,69.88792419433594,4381.2578125,True
1599565297.4955277,0.0,10,0.5,0.5,-1.5928499397277833,-0.001,-0.0155,-0.001,3.348333657219805,10,1,100,-2.9238538674218377,-10,-1,-100,6394.975196280517,0.2677641644380919,0.3040291274519095,0.9142585202794672,250.95587663857904,32.38132143771879,882.1612224620951,-41.9623673685805,69.88792419433594,4381.2578125,True
1599565297.552372,0.0,10,0.5,0.5,-1.7460421646118163,-0.001,-0.0155,-0.001,3.2814527299162446,10,1,100,-3.7469637478318587,-10,-1,-100,6392.448567835381,0.27520595067943093,0.3034294547103579,0.9122457183921476,265.56942088853936,34.48814951975995,946.305538609073,-42.522435710294886,33.99334716796875,4381.2578125,True
1599565297.6137934,0.0,10,0.5,0.5,-1.9283910903930663,-0.001,-0.0155,-0.001,3.1911448552748336,10,1,100,-3.9197761522786205,-10,-1,-100,6389.849475284223,0.28350272797242243,0.3020709470088856,0.9101534739841131,235.88350486988335,30.879505030826987,852.0293269273275,-43.08357801070665,-2.534454345703125,4381.2578125,True
1599565297.672675,0.0,10,0.5,0.5,-2.112388983154297,-0.001,-0.0155,-0.001,3.1518702017775624,10,1,100,-3.7354654520958555,-10,-1,-100,6388.100235148915,0.2893276799927275,0.3004865448610266,0.9088439524734201,257.6693959858321,33.906023632285994,938.8624159241504,-43.456780866079136,-27.249786376953125,4381.2578125,True
1599565297.7294436,0.0,10,0.5,0.5,-2.2956963058471676,-0.001,-0.0155,-0.001,3.30931078896866,10,1,100,-3.1581750521502028,-10,-1,-100,6388.100235148915,0.2893276799927275,0.3004865448610266,0.9088439524734201,257.6693959858321,33.906023632285994,938.8624159241504,-43.456780866079136,-27.249786376953125,4381.2578125,True
1599565297.7903163,0.0,10,0.5,0.5,-2.4736006484985347,-0.001,-0.0155,-0.001,3.0658308209369247,10,1,100,-3.804574766551517,-10,-1,-100,6386.353941556648,0.2951654707230916,0.2982795471275135,0.9076930409880982,274.278499415857,36.245778115119975,1008.0903425744453,-43.82934866807916,-52.26031494140625,4381.2578125,True
1599565297.8704696,0.0,10,0.5,0.5,-2.0455564697265625,-0.001,-0.0155,-0.001,2.616389749134979,10,1,100,-4.427516691855949,-10,-1,-100,6382.783640297595,0.30609373991910344,0.29219523040410683,0.9060510855969586,241.12426423226418,32.21161441778622,901.7703016263836,-44.57567366236498,-103.16429138183594,4381.2578125,True
1599565297.9263191,0.0,10,0.5,0.5,-1.6322307350158691,-0.001,-0.0155,-0.001,2.8269602586862366,10,1,100,-3.8669018587639323,-10,-1,-100,6381.035269763786,0.3108820648555599,0.288591179831748,0.9055757685994381,269.95028040026614,36.23932593192325,1017.9836134162362,-44.94780759855345,-129.05014038085938,4381.2578125,True
1599565297.989153,0.0,10,0.5,0.5,-1.2066685272216797,-0.001,-0.0155,-0.001,2.77667211557341,10,1,100,-3.859743753602598,-10,-1,-100,6379.220407954417,0.31512115896745757,0.28487254620508473,0.9052879583809995,279.3232690007419,37.651140796757545,1062.1500763063646,-45.319701299387674,-155.21560668945312,4381.2578125,True
1599565298.0499907,0.0,10,0.5,0.5,-1.4963316947937013,-0.001,-0.0155,-0.001,2.746578715859025,10,1,100,-3.8519856235884666,-10,-1,-100,6377.398843300063,0.3188553276376032,0.28123623919432855,0.90511737238932,264.1963111784056,35.79211696756022,1013.1183683896954,-45.692219859022885,178.3483123779297,4381.2578125,True
1599565298.1088061,0.0,10,0.5,0.5,-1.2774818412780762,-0.001,-0.0155,-0.001,2.732505950083355,10,1,100,-3.8530115893014703,-10,-1,-100,6375.521039490588,0.32221290687767246,0.2778232921213692,0.9049823539695594,250.47414251869864,34.11471904698778,968.3611402568441,-46.06478780557163,151.64854431152344,4381.2578125,True
1599565298.1616657,0.0,10,0.5,0.5,-1.4040161003112792,-0.001,-0.0155,-0.001,2.8954455860723964,10,1,100,-3.69759773484107,-10,-1,-100,6374.613926712191,0.32380289956224123,0.27622570586887973,0.904903885311763,269.01226143184084,36.717867041044634,1044.1857970199542,-46.25053835786245,138.20130920410156,4381.2578125,True
1599565298.6970713,0.0,10,0.5,0.5,-1.5248109939575196,-0.001,-0.0155,-0.001,2.7256102777463953,10,1,100,-3.886696158881924,-10,-1,-100,6372.736457493389,0.32692324499505443,0.27325412806259974,0.9046841290630957,284.3415283529304,38.96304527004975,1112.6121309779512,-46.621911114063415,111.11396789550781,4381.2578125,True
1599565298.7579052,0.0,10,0.5,0.5,-1.6458235008239746,-0.001,-0.0155,-0.001,2.5725042352877976,10,1,100,-4.116210550012646,-10,-1,-100,6369.942545610364,0.3318069439287797,0.2691870176881273,0.9041252686817328,256.9434985701432,35.4907336892992,1017.6499399611963,-47.179808346116936,69.9990234375,4381.2578125,True
1599565298.8266895,0.0,10,0.5,0.5,-1.810001035308838,-0.001,-0.0155,-0.001,2.8293325661934734,10,1,100,-3.824814166094871,-10,-1,-100,6368.961823518854,0.333558994683881,0.26785290174427023,0.9038767726259221,259.8279531042498,35.97954338450997,1033.0651033561403,-47.36555384949438,56.16249084472656,4381.2578125,True
1599565298.892512,0.0,10,0.5,0.5,-1.8973747970581056,-0.001,-0.0155,-0.001,2.652893186936903,10,1,100,-4.063041870584046,-10,-1,-100,6367.054819278303,0.33727726421597365,0.2650657416594466,0.9033184375631418,288.9479241535368,40.168942807878096,1157.715960259698,-47.73618281989693,28.286590576171875,4381.2578125,True
1599565298.975292,0.0,10,0.5,0.5,-1.9654300659179686,-0.001,-0.0155,-0.001,2.397256398994728,10,1,100,-4.355149981204807,-10,-1,-100,6364.101916513988,0.34327475407488944,0.26023818333328536,0.9024624818518582,274.49894358507663,38.430098625949846,1112.819671811064,-48.292839475837894,-14.047576904296875,4381.2578125,True
1599565299.0391233,0.0,10,0.5,0.5,-2.117387999725342,-0.001,-0.0155,-0.001,2.6726190015570817,10,1,100,-3.9840149716413666,-10,-1,-100,6363.114901832538,0.34531926202864,0.25838184219377003,0.902215844959813,256.12616345439193,35.95454062018273,1042.3013748619449,-48.47864549918403,-28.3011474609375,4381.2578125,True
1599565299.109446,0.0,10,0.5,0.5,-2.201416706085205,-0.001,-0.0155,-0.001,2.1534772871498538,10,1,100,-4.432391518576981,-10,-1,-100,6360.202854634961,0.35122274950676147,0.25200225224290673,0.9017413404593432,296.66004178842655,41.88916844785955,1220.8265021260447,-49.034059317354945,-71.49404907226562,4381.2578125,True
1599565299.18428,0.0,10,0.5,0.5,-2.316074341583252,-0.001,-0.0155,-0.001,2.2583048858369565,10,1,100,-4.228909324035858,-10,-1,-100,6358.198077441193,0.3547068985450987,0.2471854852701521,0.901710791770996,290.6445933801314,41.23084909480305,1205.1907498562362,-49.40444023787905,-100.64588928222656,4381.2578125,True
1599565299.2496207,0.0,10,0.5,0.5,-1.9127851692199707,-0.001,-0.0155,-0.001,2.7365765077200015,10,1,100,-3.884079577292886,-10,-1,-100,6358.198077441193,0.3547068985450987,0.2471854852701521,0.901710791770996,290.6445933801314,41.23084909480305,1205.1907498562362,-49.40444023787905,-100.64588928222656,4381.2578125,True
1599565299.3105273,0.0,10,0.5,0.5,-1.4332364265441895,-0.001,-0.0155,-0.001,1.8922011798539007,10,1,100,-4.351099022059111,-10,-1,-100,6355.218786730082,0.35892298986873034,0.23953719847759775,0.9021065446438106,284.4347216908977,40.63813166860613,1192.3860299299342,-49.95996197224385,-144.89207458496094,4381.2578125,True
1599565299.37198,0.0,10,0.5,0.5,-0.9790303047180176,-0.001,-0.0155,-0.001,2.096589164375593,10,1,100,-4.162544226967491,-10,-1,-100,6353.211842582095,0.36100973830728394,0.23447563625946488,0.9026035369130933,301.6332419023154,43.23794235550877,1273.6725940371305,-50.32942463765558,-174.72085571289062,4381.2578125,True
1599565299.4557555,0.0,10,0.5,0.5,-1.1953844146728516,-0.001,-0.0155,-0.001,1.8196784738834602,10,1,100,-4.210229069747624,-10,-1,-100,6350.1680489536375,0.3633092931918682,0.22739209932196391,0.903492772879991,263.2047639575234,37.99387173106605,1123.5613223401783,-50.88479584092844,140.0637969970703,4381.2578125,True
1599565299.5205839,0.0,10,0.5,0.5,-0.9283041343688966,-0.001,-0.0155,-0.001,2.0521101371953927,10,1,100,-4.120871698136736,-10,-1,-100,6348.158550602617,0.36455881939115214,0.22310353078922257,0.9040584504076667,296.3163727643019,42.91309321621905,1273.7459357849332,-51.25419478099725,109.61578369140625,4381.2578125,True
1599565299.5824165,0.0,10,0.5,0.5,-1.041604751586914,-0.001,-0.0155,-0.001,2.476492053374022,10,1,100,-3.999019060679071,-10,-1,-100,6348.158550602617,0.36455881939115214,0.22310353078922257,0.9040584504076667,296.3163727643019,42.91309321621905,1273.7459357849332,-51.25419478099725,109.61578369140625,4381.2578125,True
1599565299.6457694,0.0,10,0.5,0.5,-1.0754139633178712,-0.001,-0.0155,-0.001,1.821791799488564,10,1,100,-4.213117393179679,-10,-1,-100,6345.052269913373,0.3664803664546348,0.21718985776378225,0.9047213420096957,291.8284526329476,42.519295272229805,1267.9139427107493,-51.80827118525797,63.490264892578125,4381.2578125,True
1599565299.7076037,0.0,10,0.5,0.5,-1.2107349472045899,-0.001,-0.0155,-0.001,2.197722537005243,10,1,100,-4.103102798161654,-10,-1,-100,6344.017715287046,0.3672059987282008,0.21527047837768767,0.904885835692584,273.39784531063447,39.92880317939516,1191.945346271353,-51.993212236037465,47.99617004394531,4381.2578125,True
1599565299.7724304,0.0,10,0.5,0.5,-1.2507555397033692,-0.001,-0.0155,-0.001,1.7282354885084872,10,1,100,-4.3024461767828335,-10,-1,-100,6340.8500120228855,0.36965797993099925,0.20929671609837308,0.9052888282221151,309.25455362144544,45.37145951230822,1362.057644599333,-52.54633753983925,1.128997802734375,4381.2578125,True
1599565299.8317811,0.0,10,0.5,0.5,-1.3786775703430176,-0.001,-0.0155,-0.001,2.0865496649971886,10,1,100,-4.154626763889135,-10,-1,-100,6339.814639060292,0.37052648160685125,0.2071622479362976,0.9054247232420969,305.9667604809218,44.97272926792412,1352.2693859255548,-52.73078702765475,-14.626434326171875,4381.2578125,True
1599565299.8944106,0.0,10,0.5,0.5,-1.4324117782592771,-0.001,-0.0155,-0.001,1.5241497591273254,10,1,100,-4.340161626065212,-10,-1,-100,6336.584488470107,0.37298832771098855,0.20014548067862462,0.9059919944211883,285.08063134311584,42.15616205410135,1272.7243065207624,-53.284575976399324,-62.3021240234375,4381.2578125,True
1599565299.9547584,0.0,10,0.5,0.5,-1.5074632972717283,-0.001,-0.0155,-0.001,1.9423622088145622,10,1,100,-4.170382658859584,-10,-1,-100,6335.549157348461,0.37366630498636594,0.19761129635479818,0.9062688718425742,304.90907926240834,45.142865699128194,1365.7376130752752,-53.46866627701992,-78.33062744140625,4381.2578125,True
1599565300.0181043,0.0,10,0.5,0.5,-1.5296948043823242,-0.001,-0.0155,-0.001,1.3196356119583041,10,1,100,-4.246252335118816,-10,-1,-100,6332.315578724607,0.3749589692798678,0.18968445600001071,0.9074280018318585,299.330888714354,44.5616216080596,1354.3243139593178,-54.021242165465154,-126.81424713134766,4381.2578125,True
1599565300.0779433,0.0,10,0.5,0.5,-1.619873990249634,-0.001,-0.0155,-0.001,1.8145808921580808,10,1,100,-4.134783962645862,-10,-1,-100,6331.21750227781,0.3751080886778676,0.1870184592977105,0.9079196097069098,278.45520141570984,41.537595605955744,1263.953854028859,-54.205741982046284,-143.09408569335938,4381.2578125,True
1599565300.1382978,0.0,10,0.5,0.5,-1.786321976852417,-0.001,-0.0155,-0.001,0.9725123239338409,10,1,100,-4.040182872310141,-10,-1,-100,6326.8812024487415,0.37437291567710085,0.17697636043905743,0.9102330953405129,308.07833137955686,46.20195530884893,1416.6413168053086,-54.94167473286505,151.43734741210938,4381.2578125,True
1599565300.207114,0.0,10,0.5,0.5,-1.5566139675140382,-0.001,-0.0155,-0.001,1.9721094927641307,10,1,100,-4.114681582015412,-10,-1,-100,6326.8812024487415,0.37437291567710085,0.17697636043905743,0.9102330953405129,308.07833137955686,46.20195530884893,1416.6413168053086,-54.94167473286505,151.43734741210938,4381.2578125,True
1599565300.257014,0.0,10,0.5,0.5,-1.5228481578826905,-0.001,-0.0155,-0.001,1.2588504221371433,10,1,100,-3.965481903517804,-10,-1,-100,6323.520140515058,0.37300763305777174,0.1705341208609486,0.9120216112038257,298.76478750785753,45.009314538083686,1386.931521287509,-55.49437565982329,102.14273071289062,4381.2578125,True
1599565300.3128316,0.0,10,0.5,0.5,-1.5991557506561278,-0.001,-0.0155,-0.001,1.684526934700949,10,1,100,-4.049967909202477,-10,-1,-100,6322.420471363352,0.3725285877586031,0.1685897402104323,0.9125787367665102,313.2242827760526,47.232149678502545,1458.6803733366673,-55.67815545815888,85.69355773925781,4381.2578125,True
1599565300.3736722,0.0,10,0.5,0.5,-1.6082064983367923,-0.001,-0.0155,-0.001,1.4703879768156782,10,1,100,-4.00363097215983,-10,-1,-100,6320.158012833679,0.3716670084325799,0.16491784067297616,0.9136004272495385,306.88736133898885,46.42579792746747,1438.38721029636,-56.04595677823908,52.77886962890625,4381.2578125,True
1599565300.4382324,0.0,10,0.5,0.5,-1.589393575668335,-0.001,-0.0155,-0.001,1.0321351773812577,10,1,100,-3.959627510035467,-10,-1,-100,6315.63569029083,0.3704818966364268,0.15763597825808984,0.9153655349767607,318.46331045895494,48.40883913055691,1511.1804030326996,-56.781279299070604,-13.11358642578125,4381.2578125,True
1599565300.5080476,0.0,10,0.5,0.5,-1.5916734874725342,-0.001,-0.0155,-0.001,1.3217177796290782,10,1,100,-4.0211539123968505,-10,-1,-100,6313.374342290685,0.3699638937386369,0.15369369632833538,0.9162450354783267,302.533433351816,46.13309920963423,1444.6125022468673,-57.14889390763983,-46.092315673828125,4381.2578125,True
1599565300.5609019,0.0,10,0.5,0.5,-1.616782607650757,-0.001,-0.0155,-0.001,1.4823142687123103,10,1,100,-4.037648375641991,-10,-1,-100,6312.212052007671,0.3696456811646677,0.15161200064236097,0.9167201708577868,280.5731963509723,42.848667329742646,1343.809881615613,-57.333066669129394,-62.5897216796875,4381.2578125,True
1599565300.6257293,0.0,10,0.5,0.5,-1.6246742671966554,-0.001,-0.0155,-0.001,1.4497810635483108,10,1,100,-4.025586382033713,-10,-1,-100,6311.112627994968,0.3692503976317311,0.14946561114972282,0.9172318000006586,297.92820066207014,45.5387518912522,1431.1937909210335,-57.51679980427865,-79.091796875,4381.2578125,True
1599565300.688561,0.0,10,0.5,0.5,-1.5830865699768069,-0.001,-0.0155,-0.001,0.6953356936754841,10,1,100,-3.7641217155279607,-10,-1,-100,6306.461438074708,0.36651928706232567,0.1406923162892536,0.9197115223527913,300.37893036547115,46.140063195398355,1460.6533566310072,-58.25105230399206,-145.12158203125,4381.2578125,True
1599565300.7653608,0.0,10,0.5,0.5,-1.612961528778076,-0.001,-0.0155,-0.001,1.336006498407712,10,1,100,-3.926092729038344,-10,-1,-100,6305.298773467774,0.36551673103261106,0.13858298840730954,0.9204304833388198,285.13763313332413,43.84848109131194,1390.5969737932235,-58.43495351849832,-161.627685546875,4381.2578125,True
1599565300.8251956,0.0,10,0.5,0.5,-1.765224826812744,-0.001,-0.0155,-0.001,0.9096865434156223,10,1,100,-3.6363038543933905,-10,-1,-100,6301.746447799611,0.36197892322213865,0.13282468471655207,0.9226748410317089,318.35102126806726,49.06507689674773,1566.5009109231023,-58.98513971473467,148.87631225585938,4381.2578125,True
1599565300.8850362,0.0,10,0.5,0.5,-1.4507512245178225,-0.001,-0.0155,-0.001,1.4811017449191188,10,1,100,-3.988845236195136,-10,-1,-100,6301.746447799611,0.36197892322213865,0.13282468471655207,0.9226748410317089,318.35102126806726,49.06507689674773,1566.5009109231023,-58.98513971473467,148.87631225585938,4381.2578125,True
