Timestamp,Input Throttle,horizon,dT,dt,Input Roll,Roll P,Roll I,Roll D,Input Pitch,Pitch P,Pitch I,Pitch D,Input Yaw,Yaw P,Yaw I,Yaw D,Altitude,Direction X,Direction Y,Direction Z,Drag X,Drag Y,Drag Z,Vertical Velocity,Roll,Mass,Has Fuel
1599571198.3307676,0.0,10,0.5,0.5,-8.122030235290527,-0.15025,-0.02275,-0.12575,-0.06861067724274181,10,1,100,0.6815682249014203,-10,-1,-100,6483.617967219325,-0.06725781591294447,-0.007002961588823031,0.9977110527239867,205.07330203975235,21.49878582429097,-156.76530668095708,9.590824426401891,-35.944580078125,4381.2578125,True
1599571198.4035735,0.0,10,0.5,0.5,-8.245721014404298,-0.15025,-0.02275,-0.12575,-0.06729711742641964,10,1,100,0.6999487753271797,-10,-1,-100,6483.997882717755,-0.06744549622754847,-0.00697175436499855,0.9976986016226013,204.61200677443648,21.456727080827395,-150.26662183156947,9.210802097013145,-35.941253662109375,4381.2578125,True
1599571198.4763775,0.0,10,0.5,0.5,-8.368758045196534,-0.15025,-0.02275,-0.12575,-0.06931014085711007,10,1,100,0.6985833275257702,-10,-1,-100,6484.156591733219,-0.06754238744605971,-0.00695534641601439,0.9976921614678144,204.38121117539998,21.43561475982495,-147.02552853241667,9.020798300705472,-35.939544677734375,4381.2578125,True
1599571198.548186,0.0,10,0.5,0.5,-8.40402567138672,-0.15025,-0.02275,-0.12575,-0.01866367019551223,10,1,100,0.7016235150839679,-10,-1,-100,6484.69714103872,-0.0675967062702844,-0.006473684595999706,0.9976917242861948,203.75617859808895,21.378925475558937,-137.38123498252813,8.4508060000761,-36.256591796875,4381.2578125,True
1599571198.6179986,0.0,10,0.5,0.5,-8.49873567352295,-0.15025,-0.02275,-0.12575,-0.044232402251970275,10,1,100,0.7020247674643514,-10,-1,-100,6484.85680469533,-0.06758828321733734,-0.0062623680650487025,0.9976936437193289,203.59147776111223,21.364353226200468,-134.2051033682618,8.260811539632162,-36.500885009765625,4381.2578125,True
1599571198.6918023,0.0,10,0.5,0.5,-8.455966446685792,-0.15025,-0.02275,-0.12575,-0.002008552904832775,10,1,100,0.6980681251720069,-10,-1,-100,6485.175624677562,-0.06748321252725749,-0.005680715890060133,0.9977042374842243,203.3168446671471,21.3403592160319,-127.89819287313294,7.880820861343721,-37.2081298828125,4381.2578125,True
1599571198.7756085,0.0,10,0.5,0.5,-8.220378505706787,-0.15025,-0.02275,-0.12575,0.0790116489626996,10,1,100,0.6683854297239891,-10,-1,-100,6485.590083103511,-0.06705650265717814,-0.004410229608647447,0.9977394325805645,202.97149377920655,21.30940650352741,-118.49791604448372,7.3108160686092845,-38.819091796875,4381.2578125,True
1599571198.8514066,0.0,10,0.5,0.5,-8.14161594467163,-0.15025,-0.02275,-0.12575,0.07394361046787112,10,1,100,0.6664185080187222,-10,-1,-100,6485.909325472778,-0.06658974303009704,-0.0032973058576719495,0.9977749916174823,202.7080821246028,21.283703003716095,-112.22359244594855,6.930788546388859,-40.26031494140625,4381.2578125,True
1599571198.9282002,0.0,10,0.5,0.5,-7.957058930206299,-0.15025,-0.02275,-0.12575,0.10478021671742735,10,1,100,0.649452991131175,-10,-1,-100,6486.1650644817855,-0.06595064799465462,-0.002002226658282193,0.9978208772708127,202.33662980000628,21.24520654924818,-105.90351473959119,6.550731230782583,-41.995635986328125,4381.2578125,True
1599571199.000234,0.0,10,0.5,0.5,-7.724357427978514,-0.15025,-0.02275,-0.12575,0.1370430673726024,10,1,100,0.630340895334901,-10,-1,-100,6486.420288836118,-0.06513595104792752,-0.0005297630831914748,0.9978762584770507,201.76758283260278,21.18440514153972,-99.50336104559986,6.170633665775197,-44.02508544921875,4381.2578125,True
1599571199.0815263,0.0,10,0.5,0.5,-7.442795596313477,-0.15025,-0.02275,-0.12575,0.16914129739823355,10,1,100,0.6078508813842338,-10,-1,-100,6486.675488743233,-0.06413164828676234,0.0011011238608359983,0.9979408395362251,200.89434382145637,21.090087411523232,-92.99171894922831,5.790481821391879,-46.348846435546875,4381.2578125,True
1599571199.1553607,0.0,10,0.5,0.5,-6.988691861724853,-0.15025,-0.02275,-0.12575,0.2006415169665751,10,1,100,0.5751071239158586,-10,-1,-100,6486.869141510921,-0.06292381722474165,0.002862746637437116,0.9980142273071849,199.5961663557768,20.94965842472582,-86.34394481994728,5.410258049239342,-48.967132568359375,4381.2578125,True
1599571199.2281504,0.0,10,0.5,0.5,-6.484321018218994,-0.15025,-0.02275,-0.12575,0.23118211932306099,10,1,100,0.5393095705385833,-10,-1,-100,6487.061796279857,-0.06150446730038653,0.004732923273040335,0.9980955865744457,197.7401945535383,20.74928834163994,-79.54520080810254,5.029942947926081,-51.880126953125,4381.2578125,True
1599571199.3059437,0.0,10,0.5,0.5,-5.92896350402832,-0.15025,-0.02275,-0.12575,0.2599782821676324,10,1,100,0.5005911812599144,-10,-1,-100,6487.254432034213,-0.05986765284857186,0.006684241449731134,0.9981839434987143,195.17774728413542,20.473619137257447,-72.59091382848912,4.649513537249447,-55.088104248046875,4381.2578125,True
1599571199.4006891,0.0,10,0.5,0.5,-5.816287042999267,-0.15025,-0.02275,-0.12575,0.17608036452177944,10,1,100,0.5643025182762649,-10,-1,-100,6487.351964679081,-0.058965860095635994,0.007683496971718896,0.9982304299195991,193.58302920763848,20.302598962903193,-69.05819843862695,4.459246731992819,-56.802734375,4381.2578125,True
1599571199.467514,0.0,10,0.5,0.5,-3.888787217712402,-0.15025,-0.02275,-0.12575,0.5213571094513593,10,1,100,0.19651368430362354,-10,-1,-100,6487.675168174319,-0.05481035221423547,0.011718112522852344,0.9984280200039727,184.63410643883597,19.34889575380887,-54.63701199750745,3.6977345790181806,-64.40029907226562,4381.2578125,True
1599571199.5453017,0.0,10,0.5,0.5,-4.782318793487549,-0.15025,-0.02275,-0.12575,0.11963543717930572,10,1,100,0.6107971864123738,-10,-1,-100,6487.675168174319,-0.05481035221423547,0.011718112522852344,0.9984280200039727,184.63410643883597,19.34889575380887,-54.63701199750745,3.6977345790181806,-64.40029907226562,4381.2578125,True
1599571199.61711,0.0,10,0.5,0.5,-3.5532946426391603,-0.15025,-0.02275,-0.12575,0.344678430482503,10,1,100,0.3436429264095725,-10,-1,-100,6487.805262028007,-0.05239280998733995,0.01374929578730732,0.9985318975010181,178.38465770452243,18.687214121525496,-47.35482192013451,3.3166542785165034,-68.64242553710938,4381.2578125,True
1599571199.6988914,0.0,10,0.5,0.5,-2.112122695159912,-0.15025,-0.02275,-0.12575,0.45222679851426606,10,1,100,0.15022037124001864,-10,-1,-100,6487.969393352978,-0.048449563764114224,0.01655804155378698,0.9986883753358553,166.40024476150893,17.425148238176217,-36.560077495245885,2.7444638301126036,-75.56289672851562,4381.2578125,True
1599571199.7736917,0.0,10,0.5,0.5,-2.228615438079834,-0.15025,-0.02275,-0.12575,0.2784572415031765,10,1,100,0.3827897860022227,-10,-1,-100,6488.003921097028,-0.046994971953775,0.017514850579383977,0.9987415594738439,161.69336654677795,16.93085320646666,-33.05703302875267,2.553579045556588,-78.0172119140625,4381.2578125,True
1599571199.8514833,0.0,10,0.5,0.5,-1.0431477378845213,-0.15025,-0.02275,-0.12575,0.3704256161006454,10,1,100,0.2032797486093782,-10,-1,-100,6488.133526944905,-0.044057198130889985,0.019204348904755895,0.9988444104443894,151.17164125555956,15.827360144585663,-26.28630380877245,2.1716372958793433,-83.15042114257812,4381.2578125,True
1599571199.926284,0.0,10,0.5,0.5,-0.10609562606811529,-0.15025,-0.02275,-0.12575,0.37416489054573704,10,1,100,0.16026959802579466,-10,-1,-100,6488.200643109856,-0.041013742786740005,0.020757792400009453,0.9989429347852166,148.00146966890546,15.495081951390448,-21.209552258420796,1.7895634587722236,-88.58096313476562,4381.2578125,True
1599571200.0046616,0.0,10,0.5,0.5,1.7031429344177245,-0.15025,-0.02275,-0.12575,0.45409515955079205,10,1,100,-0.07735150433091109,-10,-1,-100,6488.301336619072,-0.03610669161103179,0.022880384345047213,0.99908597970001,160.30601560687447,16.78234383149024,-15.618283854142303,1.2164419962893023,-97.28388977050781,4381.2578125,True
1599571200.0940063,0.0,10,0.5,0.5,2.405320905685425,-0.15025,-0.02275,-0.12575,0.3730277702836894,10,1,100,0.0449307855787387,-10,-1,-100,6488.306961745024,-0.032780482064738735,0.02405653942804242,0.9991730195048054,168.86035775018203,17.675781938501263,-11.287165770538863,0.8344738845088933,-103.41895294189453,4381.2578125,True
1599571200.1758242,0.0,10,0.5,0.5,2.600435510826111,-0.15025,-0.02275,-0.12575,0.3148563941414164,10,1,100,0.18911832491599023,-10,-1,-100,6488.3410315982765,-0.031092075717341728,0.024581147631309842,0.9992142162763273,172.70735779534556,18.07756225709843,-8.903205814273548,0.6435228102516208,-106.52274322509766,4381.2578125,True
1599571200.2546139,0.0,10,0.5,0.5,4.8116246799469,-0.15025,-0.02275,-0.12575,0.4086918666949063,10,1,100,-0.19076303487140267,-10,-1,-100,6488.318275454338,-0.02612903375289387,0.025895752429621416,0.9993231127124219,182.8487442618309,19.137828129893826,-1.035164385476737,0.07065787948487623,-115.53860473632812,4381.2578125,True
1599571200.3463717,0.0,10,0.5,0.5,5.357936872863769,-0.15025,-0.02275,-0.12575,0.35084853035395525,10,1,100,-0.06428777960069904,-10,-1,-100,6488.322012637625,-0.022793026395367073,0.026552110425071683,0.9993875441387665,187.15950743381316,19.588309091615248,4.669999502936099,-0.31137895159871354,-121.2042465209961,4381.2578125,True
1599571200.4211764,0.0,10,0.5,0.5,6.25748913936615,-0.15025,-0.02275,-0.12575,0.34345751711796413,10,1,100,-0.08777169557870615,-10,-1,-100,6488.327723521623,-0.0195759089485598,0.02706812302978817,0.9994418945113729,190.14627313845529,19.900251019672037,10.569261175874875,-0.6935545642008809,-126.57662963867188,4381.2578125,True
1599571200.5069485,0.0,10,0.5,0.5,7.114996822547912,-0.15025,-0.02275,-0.12575,0.3378723901945183,10,1,100,-0.11030264514120947,-10,-1,-100,6488.268518870347,-0.016476263456383866,0.027474343491824125,0.9994867148652897,191.77897233691408,20.070403295623965,16.538339772088563,-1.0758525129006324,-131.65374755859375,4381.2578125,True
1599571200.5882454,0.0,10,0.5,0.5,7.923974655342102,-0.15025,-0.02275,-0.12575,0.3287299146557797,10,1,100,-0.13888005398483538,-10,-1,-100,6488.211290275911,-0.013427675928834355,0.027750597496106425,0.9995246879681158,192.0054843815597,20.093218303900215,22.446645382312685,-1.4582643660098542,-136.43569946289062,4381.2578125,True
1599571200.6854942,0.0,10,0.5,0.5,8.693701230812072,-0.15025,-0.02275,-0.12575,0.3238143054971907,10,1,100,-0.15623596960928743,-10,-1,-100,6488.153595369426,-0.010528967394498817,0.027947744919542505,0.9995539327117461,191.03808780895963,19.99080492646191,28.195862134151202,-1.8407691387685072,-140.92176818847656,4381.2578125,True
1599571200.7787538,0.0,10,0.5,0.5,8.849462004661559,-0.15025,-0.02275,-0.12575,0.31278147697912617,10,1,100,-0.023917034048767494,-10,-1,-100,6488.124267307459,-0.009127157441777048,0.028018722867034003,0.9995657287872236,190.1884358302046,19.901193081691563,30.989647327320284,-2.0320471757116056,-143.05384826660156,4381.2578125,True
1599571200.8764918,0.0,10,0.5,0.5,10.347987488746643,-0.15025,-0.02275,-0.12575,0.3219992522708274,10,1,100,-0.32756040759295446,-10,-1,-100,6487.974786761333,-0.0051213782573964325,0.028160445385162627,0.9995902964717365,186.49614321560784,19.512005037954975,38.97908347790278,-2.6059374360124843,-149.0056915283203,4381.2578125,True
1599571200.9752586,0.0,10,0.5,0.5,10.710243439674377,-0.15025,-0.02275,-0.12575,0.31044445682514055,10,1,100,-0.2071877359894338,-10,-1,-100,6487.85269349243,-0.002602226298313003,0.028179440387555026,0.9995994935761706,183.33257951503464,19.17834919473647,43.95052855872572,-2.988546777015047,-152.6036376953125,4381.2578125,True
1599571201.080946,0.0,10,0.5,0.5,11.280746183395387,-0.15025,-0.02275,-0.12575,0.31230757862104763,10,1,100,-0.21839525913809837,-10,-1,-100,6487.732567441068,-0.00023763635758241181,0.028209897950638625,0.9996019933886567,179.91149346581028,18.817372441723187,48.65945027170123,-3.3711419770954336,-155.904541015625,4381.2578125,True
1599571201.1836708,0.0,10,0.5,0.5,11.402723470878598,-0.15025,-0.02275,-0.12575,0.313369469148012,10,1,100,-0.10848835224696798,-10,-1,-100,6487.640773052233,0.0008847876719262497,0.028243941330669455,0.9996006687317117,178.14462467688492,18.630890834208206,50.91946448990502,-3.5624302820152685,-157.44338989257812,4381.2578125,True
1599571201.2804165,0.0,10,0.5,0.5,12.456127299308775,-0.15025,-0.02275,-0.12575,0.31447142115761934,10,1,100,-0.3506378107090467,-10,-1,-100,6487.426931133261,0.004081973847112275,0.028282772886329324,0.9995916277397345,172.70349111167687,18.05611231416685,57.329270182858075,-4.136278304619017,-161.61578369140625,4381.2578125,True
1599571201.378151,0.0,10,0.5,0.5,12.366211930465697,-0.15025,-0.02275,-0.12575,0.31443909113180274,10,1,100,-0.1425378399895332,-10,-1,-100,6487.335148926941,0.005072256999610831,0.02831620706172973,0.9995861466759965,170.887675431577,17.86408403785112,59.354541387320246,-4.327566999771589,-162.85791015625,4381.2578125,True
1599571201.465917,0.0,10,0.5,0.5,12.916898312759399,-0.15025,-0.02275,-0.12575,0.3158929956897544,10,1,100,-0.25382057758652093,-10,-1,-100,6487.151102632284,0.006961768238265616,0.028358684458955164,0.9995735684774554,167.35653908629354,17.4903420789783,63.277319228111025,-4.7101789091987225,-165.12002563476562,4381.2578125,True
1599571201.5596666,0.0,10,0.5,0.5,13.250423537826538,-0.15025,-0.02275,-0.12575,0.3315960123375779,10,1,100,-0.2570475697807939,-10,-1,-100,6486.905054675532,0.008687534719086402,0.02853925102507929,0.9995549198975674,164.08596053438046,17.14382273548063,67.09215214646638,-5.092863147948081,-167.083251953125,4381.2578125,True
1599571201.6584048,0.0,10,0.5,0.5,13.533525099563597,-0.15025,-0.02275,-0.12575,0.32694356329030283,10,1,100,-0.2641216694394326,-10,-1,-100,6486.719560670317,0.01030061859795845,0.02866039049973602,0.9995361320497134,161.14549458042592,16.832098720200833,70.85403350506188,-5.475644963688637,-168.75083923339844,4381.2578125,True
1599571201.7306306,0.0,10,0.5,0.5,14.060784169387816,-0.15025,-0.02275,-0.12575,0.3728474819188413,10,1,100,-0.4109313600792239,-10,-1,-100,6486.227010157891,0.013082756051847088,0.029187177786428677,0.9994883441776353,156.61259766465798,16.351247874478986,78.52091517606158,-6.24153900332392,-171.19158935546875,4381.2578125,True
1599571201.813923,0.0,10,0.5,0.5,13.817873202514647,-0.15025,-0.02275,-0.12575,0.32028559874151513,10,1,100,-0.13493860603972238,-10,-1,-100,6486.227010157891,0.013082756051847088,0.029187177786428677,0.9994883441776353,156.61259766465798,16.351247874478986,78.52091517606158,-6.24153900332392,-171.19158935546875,4381.2578125,True
1599571201.8942628,0.0,10,0.5,0.5,14.081966481399535,-0.15025,-0.02275,-0.12575,0.35954797969271823,10,1,100,-0.26698077163835376,-10,-1,-100,6485.980010574451,0.014266590162462607,0.029543175129256645,0.9994616877141506,155.1699001662233,16.19786029538901,82.5886833838133,-6.624639427549253,-171.965576171875,4381.2578125,True
1599571201.9775429,0.0,10,0.5,0.5,14.194839430618288,-0.15025,-0.02275,-0.12575,0.40270953093443895,10,1,100,-0.3138372054514641,-10,-1,-100,6485.577783199726,0.015753435282722467,0.030257947056987075,0.9994179735809685,154.1216215678862,16.085199965700824,89.1762026844709,-7.199466350721379,-172.5675811767578,4381.2578125,True
1599571202.0547254,0.0,10,0.5,0.5,14.17146985092163,-0.15025,-0.02275,-0.12575,0.35865534382715375,10,1,100,-0.21436749565933721,-10,-1,-100,6485.422061672551,0.016186305237902727,0.03050538524567001,0.9994035346113994,154.08754320139508,16.08069665859308,91.53982176577587,-7.391119407828672,-172.61984252929688,4381.2578125,True
1599571202.1345108,0.0,10,0.5,0.5,14.166305763244628,-0.15025,-0.02275,-0.12575,0.4025747946636866,10,1,100,-0.2527013837729365,-10,-1,-100,6485.11159632518,0.01691440280040298,0.031127540930336615,0.9993722925784644,154.48203677717524,16.11995827202745,96.55623006554224,-7.774485705157358,-172.49984741210938,4381.2578125,True
1599571202.2083557,0.0,10,0.5,0.5,14.090872824859618,-0.15025,-0.02275,-0.12575,0.41723365524393213,10,1,100,-0.24313048949488217,-10,-1,-100,6484.8025975675555,0.01747763570109972,0.0318238132234503,0.9993406712238918,155.50513644262455,16.224512516089515,102.01376656630103,-8.157923979160351,-172.0821533203125,4381.2578125,True
1599571202.2891307,0.0,10,0.5,0.5,13.837626906585694,-0.15025,-0.02275,-0.12575,0.47304760164777737,10,1,100,-0.2511692108312048,-10,-1,-100,6484.273915351718,0.01805146727869834,0.03296099881525977,0.9992936090490053,158.19063520932212,16.500039111541415,111.13587576640744,-8.733190542704875,-170.89825439453125,4381.2578125,True
1599571203.013082,0.0,10,0.5,0.5,13.849628257751464,-0.15025,-0.02275,-0.12575,0.4060866988936854,10,1,100,-0.20612707034607936,-10,-1,-100,6484.119172421517,0.018153576800250096,0.03338188449699817,0.9992777879232513,159.37770705976973,16.62177305957773,114.44402167425991,-8.924968511636298,-170.35470581054688,4381.2578125,True
1599571203.0829263,0.0,10,0.5,0.5,13.563862723541261,-0.15025,-0.02275,-0.12575,0.46135844611919197,10,1,100,-0.20521466057545829,-10,-1,-100,6483.746209474746,0.01822950351094499,0.03426257587929049,0.9992465967396937,162.16555645907943,16.907266968884034,121.48431811553364,-9.308546127936573,-169.04470825195312,4381.2578125,True
1599571203.1577275,0.0,10,0.5,0.5,13.285665568161011,-0.15025,-0.02275,-0.12575,0.47701052053885545,10,1,100,-0.18469017916854735,-10,-1,-100,6483.309767566971,0.018104733521592985,0.035200403098480854,0.9992162680049883,165.45976012656607,17.243781870212608,129.0976667068487,-9.692137602971588,-167.43746948242188,4381.2578125,True
1599571203.2275472,0.0,10,0.5,0.5,12.953699820327758,-0.15025,-0.02275,-0.12575,0.4909956674610967,10,1,100,-0.1672959075183943,-10,-1,-100,6482.9367999236565,0.017828611082208186,0.03617464442857242,0.9991864369212313,169.19778444417176,17.624515616976172,137.28075748902566,-10.07572302710082,-165.53335571289062,4381.2578125,True
1599571203.3003428,0.0,10,0.5,0.5,12.572847282028198,-0.15025,-0.02275,-0.12575,0.5050528788781583,10,1,100,-0.14092834675585586,-10,-1,-100,6482.50084162422,0.017333571171262236,0.037181758953681546,0.9991581777234079,173.30326254227947,18.04133350426535,146.01085252726926,-10.459280739102514,-163.33255004882812,4381.2578125,True
1599571203.3761475,0.0,10,0.5,0.5,11.765550073623658,-0.15025,-0.02275,-0.12575,0.5729257074053891,10,1,100,-0.0694437270998813,-10,-1,-100,6481.847139394376,0.016230886545339968,0.03870739915964246,0.9991187594937092,179.9353039356462,18.711779895097745,160.01573533751395,-11.03451823864711,-159.4759979248047,4381.2578125,True
1599571203.4469569,0.0,10,0.5,0.5,11.409089540481567,-0.15025,-0.02275,-0.12575,0.5315774587477916,10,1,100,-0.07118692836003745,-10,-1,-100,6481.4101921315305,0.015243859213900582,0.03971077031171727,0.9990949301630536,184.50783488717764,19.17206754423211,169.841848344745,-11.41791351519016,-156.5352783203125,4381.2578125,True
1599571203.5307329,0.0,10,0.5,0.5,11.305913130569458,-0.15025,-0.02275,-0.12575,0.4861600216200569,10,1,100,-0.10708100861264663,-10,-1,-100,6481.191472630133,0.01467372822945577,0.04020167158056401,0.9990838339708918,186.79125782258322,19.401374069567215,174.86091629751957,-11.609574553167914,-154.95419311523438,4381.2578125,True
1599571203.6025045,0.0,10,0.5,0.5,10.033813653945922,-0.15025,-0.02275,-0.12575,0.586291082725012,10,1,100,0.058846161573252204,-10,-1,-100,6480.474752328591,0.012649035491516815,0.041549978625333155,0.9990563553560773,193.40325924397703,20.063578879512963,190.11796170382058,-12.184379290351101,-149.76939392089844,4381.2578125,True
1599571203.6832895,0.0,10,0.5,0.5,10.117401647949219,-0.15025,-0.02275,-0.12575,0.4982630156954276,10,1,100,-0.05829379512645941,-10,-1,-100,6480.192547393031,0.011877704063578399,0.041966615179034446,0.9990484089155004,195.45828950396546,20.268953005468106,195.19456511880975,-12.37591394157248,-147.89389038085938,4381.2578125,True
1599571203.7611156,0.0,10,0.5,0.5,9.204694004821777,-0.15025,-0.02275,-0.12575,0.5436920981962253,10,1,100,0.050478254205088696,-10,-1,-100,6479.6950263235485,0.010193269374452238,0.04275018041753035,0.9990337928887735,199.21121963342097,20.643790228327095,205.17551736655503,-12.758874168486948,-143.92208862304688,4381.2578125,True
1599571203.8398771,0.0,10,0.5,0.5,7.848202958679199,-0.15025,-0.02275,-0.12575,0.5627021493871438,10,1,100,0.19690936835789263,-10,-1,-100,6478.9138140596915,0.007338009807880963,0.043626814467061764,0.9990209480644118,203.57175164786148,21.08044948551745,219.22810256632746,-13.33304442575523,-137.41552734375,4381.2578125,True
1599571203.9133074,0.0,10,0.5,0.5,7.955308042144774,-0.15025,-0.02275,-0.12575,0.503068809125087,10,1,100,0.026526423972811533,-10,-1,-100,6478.632573278039,0.006301156508774236,0.043873120292810014,0.9990172394620749,204.5802038285209,21.182334572847143,223.51914779233343,-13.524366926003266,-135.0998077392578,4381.2578125,True
1599571203.9880738,0.0,10,0.5,0.5,6.834348340225219,-0.15025,-0.02275,-0.12575,0.5142923110724291,10,1,100,0.1621612268211542,-10,-1,-100,6478.070571761113,0.0041362494627948405,0.044191182227380325,0.9990145298511569,205.7697014046792,21.30520628140933,231.26977692990673,-13.906928035379963,-130.2498321533203,4381.2578125,True
1599571204.0629077,0.0,10,0.5,0.5,5.944838608551025,-0.15025,-0.02275,-0.12575,0.4953314927162279,10,1,100,0.19445524013891435,-10,-1,-100,6477.507093862863,0.0018870178104879462,0.04430067060302532,0.9990164611996667,205.89685030922334,21.325227492816413,237.87362800301872,-14.289409422851696,-125.10807800292969,4381.2578125,True
1599571204.1516364,0.0,10,0.5,0.5,4.22440023536682,-0.15025,-0.02275,-0.12575,0.4697902617832465,10,1,100,0.3660902216727097,-10,-1,-100,6476.662835957599,-0.0017040139297703023,0.04416154074363062,0.9990229500145007,203.982313665061,21.15073444318892,245.2778141314674,-14.863088363161443,-116.84701538085938,4381.2578125,True
1599571204.2224472,0.0,10,0.5,0.5,3.5456470642089846,-0.15025,-0.02275,-0.12575,0.4425745850563967,10,1,100,0.27594047958475076,-10,-1,-100,6476.0387877234025,-0.004132740674228074,0.04378268549976955,0.9990325304538125,200.50348216569293,20.81315424289559,247.40880776549412,-15.245609209766942,-110.97527313232422,4381.2578125,True
1599571204.30127,0.0,10,0.5,0.5,2.4792231557846067,-0.15025,-0.02275,-0.12575,0.4153727855297331,10,1,100,0.2997572451966309,-10,-1,-100,6475.412777160876,-0.006539575038490296,0.043187280814027944,0.9990455909187559,195.2862945758396,20.297578597541566,247.13315248255608,-15.628262454704988,-104.81169891357422,4381.2578125,True
1599571204.3760724,0.0,10,0.5,0.5,1.358452631378174,-0.15025,-0.02275,-0.12575,0.3869978248250284,10,1,100,0.3214085493119525,-10,-1,-100,6474.787733357749,-0.008905151494988016,0.042385335448553295,0.9990616505580449,188.8754744849391,19.65664744301544,244.99323872500045,-16.01109487545695,-98.35602569580078,4381.2578125,True
1599571204.4508572,0.0,10,0.5,0.5,1.132173501777649,-0.15025,-0.02275,-0.12575,0.4146660547258737,10,1,100,0.21506575950520773,-10,-1,-100,6474.442982076318,-0.010069328196300532,0.041907064154653825,0.999070771569068,184.7565008771861,19.239183874531633,242.57680854515633,-16.20259148206844,-95.0186538696289,4381.2578125,True
1599571204.5276399,0.0,10,0.5,0.5,-1.4528002403259277,-0.15025,-0.02275,-0.12575,0.2739845601914579,10,1,100,0.4644129446777166,-10,-1,-100,6473.47365704109,-0.013374511397007556,0.040193403528999964,0.9991024035391198,169.60319858072356,17.68006865014463,230.7567821892003,-16.77740420737563,-84.56808471679688,4381.2578125,True
1599571204.6034708,0.0,10,0.5,0.5,-1.2754686473846435,-0.15025,-0.02275,-0.12575,0.372890622917891,10,1,100,0.25050476637379215,-10,-1,-100,6473.128899410949,-0.014413178339640573,0.03953700060036269,0.9991141505722339,171.4330618653534,17.87101911222037,235.97138530181357,-16.969042246607803,-80.93838500976562,4381.2578125,True
1599571204.679268,0.0,10,0.5,0.5,-4.049478758621216,-0.15025,-0.02275,-0.12575,0.19801492916469404,10,1,100,0.4693656654314098,-10,-1,-100,6472.0975466222735,-0.017327291744242093,0.03735420964372402,0.9991518543158006,192.0181885413734,20.000213842114583,273.46637646411386,-17.54349290800208,-69.69940185546875,4381.2578125,True
1599571204.7690272,0.0,10,0.5,0.5,-3.8087264663696287,-0.15025,-0.02275,-0.12575,0.33202689476493313,10,1,100,0.27602405008386677,-10,-1,-100,6471.753273412818,-0.018197354292308524,0.03659407110737202,0.9991645161116105,197.75818857425242,20.589060244333414,284.78539436979156,-17.734787223870534,-65.9901123046875,4381.2578125,True
1599571204.8436382,0.0,10,0.5,0.5,-6.4458047344207765,-0.15025,-0.02275,-0.12575,0.13553769285429326,10,1,100,0.4577003190836364,-10,-1,-100,6470.658437233884,-0.020619619414407635,0.034123677067064394,0.9992048868768746,211.63389986105884,22.00623440574272,314.85847668643703,-18.308083612557432,-55.275146484375,4381.2578125,True
1599571204.921014,0.0,10,0.5,0.5,-6.202699098205566,-0.15025,-0.02275,-0.12575,0.2925439745060341,10,1,100,0.2949382430355145,-10,-1,-100,6470.252151926747,-0.021321562800219452,0.03331444594865143,0.9992174631434795,214.88811440869216,22.338058762345373,323.1148020890305,-18.499009551129447,-51.84967041015625,4381.2578125,True
1599571204.9967525,0.0,10,0.5,0.5,-8.632267444610596,-0.15025,-0.02275,-0.12575,0.09313994024889566,10,1,100,0.43330119622369434,-10,-1,-100,6469.156830808264,-0.02319970404460415,0.030775878343024737,0.999257033522636,221.07795051600928,22.975837649205765,342.96632337231324,-19.07142826758879,-42.021942138671875,4381.2578125,True
1599571205.0705583,0.0,10,0.5,0.5,-9.25880896396637,-0.15025,-0.02275,-0.12575,0.16487789334118685,10,1,100,0.3614819296132157,-10,-1,-100,6468.344264865271,-0.02423686914906736,0.029132077190709246,0.9992816901416766,222.76234943772053,23.161236836250477,352.6725978855182,-19.452872924331622,-35.842559814453125,4381.2578125,True
1599571205.151378,0.0,10,0.5,0.5,-9.46048247795105,-0.15025,-0.02275,-0.12575,0.23695192553433891,10,1,100,0.30939365766356663,-10,-1,-100,6467.999506035005,-0.024690128322572946,0.028305708439108655,0.9992943432408568,222.8181503726781,23.17638886596689,356.31339636753495,-19.64358508145036,-32.86492919921875,4381.2578125,True
1599571205.2241828,0.0,10,0.5,0.5,-11.577904371833803,-0.15025,-0.02275,-0.12575,0.07174239515783287,10,1,100,0.39795312850319364,-10,-1,-100,6466.779692034121,-0.02589291823627683,0.02606535895878483,0.9993248490093495,220.29461834904,22.95501997222877,362.8406789490223,-20.215816624717462,-24.37628173828125,4381.2578125,True
1599571205.301424,0.0,10,0.5,0.5,-12.130410537719726,-0.15025,-0.02275,-0.12575,0.13741052908837892,10,1,100,0.34827243550562537,-10,-1,-100,6465.966652737232,-0.026520335866902486,0.024640062198946197,0.9993445547559354,216.73817692664005,22.618968881946135,363.93586726542367,-20.597459930562074,-19.08917236328125,4381.2578125,True
1599571205.376762,0.0,10,0.5,0.5,-12.99197735824585,-0.15025,-0.02275,-0.12575,0.13581931548423895,10,1,100,0.3467298413615265,-10,-1,-100,6465.090629562736,-0.027064741198461372,0.023344011694809853,0.9993610743379255,212.21806650214123,22.183323689802624,363.1748357079593,-20.979269278837183,-14.098388671875,4381.2578125,True
1599571205.4625354,0.0,10,0.5,0.5,-13.174524693298338,-0.15025,-0.02275,-0.12575,0.19801319674540196,10,1,100,0.3211374071198898,-10,-1,-100,6464.68338266795,-0.027315495222355643,0.02274590378333789,0.9993680441067928,209.96464985113494,21.965414602282824,362.7045486167305,-21.170237085047116,-11.71405029296875,4381.2578125,True
1599571205.537337,0.0,10,0.5,0.5,-14.858020973205566,-0.15025,-0.02275,-0.12575,0.07345052592535734,10,1,100,0.3632345617401412,-10,-1,-100,6463.4011038003955,-0.027917074646554435,0.021083061679872412,0.9993878833833144,202.04552526153302,21.182628367019895,358.82845177296167,-21.743383921662286,-5.00604248046875,4381.2578125,True
1599571205.6111355,0.0,10,0.5,0.5,-15.28532638244629,-0.15025,-0.02275,-0.12575,0.13323793065446954,10,1,100,0.33950681163756097,-10,-1,-100,6462.5255877653835,-0.028239422103662384,0.020129009819193452,0.9993984980992067,196.82612400457307,20.657658172936763,355.9470184030084,-22.125651820760986,-0.90423583984375,4381.2578125,True
1599571205.6859381,0.0,10,0.5,0.5,-15.428608155822754,-0.15025,-0.02275,-0.12575,0.17966544779792176,10,1,100,0.3230718950848873,-10,-1,-100,6462.056337464368,-0.02837612982083689,0.019696480708287483,0.999403243893124,194.2113339536694,20.391277427274076,354.37528775656,-22.316821994302572,1.03558349609375,4381.2578125,True
1599571205.7697139,0.0,10,0.5,0.5,-16.78867512969971,-0.15025,-0.02275,-0.12575,0.10121425095248794,10,1,100,0.3556859113313342,-10,-1,-100,6460.710118837655,-0.028790487377762672,0.01860245969545117,0.999412355501887,188.39598640008631,19.79103535813551,352.9677807752093,-22.890402194642245,6.4112548828125,4381.2578125,True
1599571205.8454778,0.0,10,0.5,0.5,-17.109838359832764,-0.15025,-0.02275,-0.12575,0.14569932535268026,10,1,100,0.33852337249806486,-10,-1,-100,6459.77260844456,-0.029006070455271697,0.018023371649826793,0.9994167328752886,195.64155363967146,20.54825930770986,372.9252203629853,-23.272624282733283,9.624908447265625,4381.2578125,True
1599571205.9203122,0.0,10,0.5,0.5,-17.61447717514038,-0.15025,-0.02275,-0.12575,0.15330665062681448,10,1,100,0.3408613186659854,-10,-1,-100,6458.833638027543,-0.029218973489709903,0.017576184297697563,0.999418495593183,201.9241326917832,21.19697341451978,391.4948959404749,-23.654621170352208,12.542724609375,4381.2578125,True
1599571205.9940822,0.0,10,0.5,0.5,-17.7229015586853,-0.15025,-0.02275,-0.12575,0.17772995956102744,10,1,100,0.3319859581148866,-10,-1,-100,6458.364399898448,-0.02932771947494634,0.01740143453529239,0.9994183683255541,204.73430103502477,21.484198452938546,400.2882883736232,-23.84553283052094,13.89068603515625,4381.2578125,True
1599571206.0688803,0.0,10,0.5,0.5,-18.323289125823976,-0.15025,-0.02275,-0.12575,0.16614809521451565,10,1,100,0.3421995924058883,-10,-1,-100,6457.362938806065,-0.0295163081357716,0.01714515773397712,0.9994172457589029,209.7520984540666,21.99150738695698,416.95662426643173,-24.227183740909037,16.364730834960938,4381.2578125,True
1599571206.1476696,0.0,10,0.5,0.5,-18.96407854194641,-0.15025,-0.02275,-0.12575,0.17611632772915872,10,1,100,0.3545168069063096,-10,-1,-100,6455.891763372812,-0.029797003439008513,0.017009612668791783,0.9994112325078768,215.95297444050317,22.605980425092884,439.8832475920145,-24.799243122391047,19.521408081054688,4381.2578125,True
1599571206.2205117,0.0,10,0.5,0.5,-19.122467372894285,-0.15025,-0.02275,-0.12575,0.19733302447694567,10,1,100,0.34715701405307103,-10,-1,-100,6454.89080485981,-0.029982789904884857,0.017085027488172283,0.9994043896968073,219.32757877695926,22.932669903135714,453.94108641198176,-25.180356043916102,21.256393432617188,4381.2578125,True
1599571206.2953134,0.0,10,0.5,0.5,-19.37661926689148,-0.15025,-0.02275,-0.12575,0.21256733594064914,10,1,100,0.3495328445296922,-10,-1,-100,6453.888876171433,-0.03017086033757579,0.017297226406638375,0.9993950796082237,222.1860380310478,23.20360975633719,467.14093124716345,-25.56127790156247,22.695953369140625,4381.2578125,True
1599571206.3691168,0.0,10,0.5,0.5,-19.574423041915892,-0.15025,-0.02275,-0.12575,0.22956441922137116,10,1,100,0.35133765739793926,-10,-1,-100,6452.888419021037,-0.030356191951832503,0.01764809512168069,0.999383333035307,224.59784140885702,23.42674911472395,479.5814122469828,-25.942024738193442,23.840179443359375,4381.2578125,True
1599571206.4559238,0.0,10,0.5,0.5,-19.721170734024046,-0.15025,-0.02275,-0.12575,0.24835330904219027,10,1,100,0.3532673880142418,-10,-1,-100,6451.8240042940015,-0.030540293906897564,0.018140130147087978,0.9993689139283485,226.62070998061748,23.608618799278155,491.34484226297735,-26.32261242246962,24.689239501953125,4381.2578125,True
1599571206.5296826,0.0,10,0.5,0.5,-19.82112615776062,-0.15025,-0.02275,-0.12575,0.26907923432442776,10,1,100,0.3549512032165523,-10,-1,-100,6450.759597238735,-0.03072099930962675,0.0187772670823524,0.9993516070144361,228.40098643320982,23.764807687274455,502.7162465897638,-26.703055728296718,25.243270874023438,4381.2578125,True
1599571206.602488,0.0,10,0.5,0.5,-19.840233570098878,-0.15025,-0.02275,-0.12575,0.2464491452394541,10,1,100,0.34684675620827043,-10,-1,-100,6450.227397310664,-0.030809845146639935,0.019150595479650385,0.999341787445524,229.19741482574358,23.8330561084742,508.2417987574813,-26.893227471489254,25.409698486328125,4381.2578125,True
1599571206.6772904,0.0,10,0.5,0.5,-19.88606860046387,-0.15025,-0.02275,-0.12575,0.30391029944184056,10,1,100,0.3564411756276423,-10,-1,-100,6449.100502137793,-0.030976196288926786,0.020011334311915863,0.9993197795313202,230.55053203207981,23.94452505496862,518.8402647017645,-27.27348040406001,25.521484375,4381.2578125,True
1599571206.758289,0.0,10,0.5,0.5,-19.8510853225708,-0.15025,-0.02275,-0.12575,0.3296532805216097,10,1,100,0.3564375731298638,-10,-1,-100,6448.036605297821,-0.03112579437484483,0.02102563748741491,0.9992943047434938,231.59498753303376,24.023882721961524,528.835124230063,-27.653625424821257,25.33868408203125,4381.2578125,True
1599571206.8284082,0.0,10,0.5,0.5,-19.555432511901856,-0.15025,-0.02275,-0.12575,0.5019884400355729,10,1,100,0.36814839889017204,-10,-1,-100,6445.7857957899105,-0.0313666200735914,0.023511119821675416,0.9992313858110592,232.76242137590518,24.087262339312986,546.9080237437886,-28.413652542194622,24.089828491210938,4381.2578125,True
1599571207.515652,0.0,10,0.5,0.5,-19.73005069961548,-0.15025,-0.02275,-0.12575,0.25407680281829215,10,1,100,0.3442508602092969,-10,-1,-100,6445.7857957899105,-0.0313666200735914,0.023511119821675416,0.9992313858110592,232.76242137590518,24.087262339312986,546.9080237437886,-28.413652542194622,24.089828491210938,4381.2578125,True
1599571207.5794835,0.0,10,0.5,0.5,-19.60353882675171,-0.15025,-0.02275,-0.12575,0.33418348671280584,10,1,100,0.3483434081214928,-10,-1,-100,6445.191606094362,-0.03140239813039811,0.024233451941486555,0.9992130049187008,232.8539013600844,24.082497772144333,550.9858762891819,-28.6036159216837,23.593795776367188,4381.2578125,True
1599571207.6479425,0.0,10,0.5,0.5,-19.336630541229248,-0.15025,-0.02275,-0.12575,0.4364828968474797,10,1,100,0.34579118197389147,-10,-1,-100,6444.063783392077,-0.03141043102776645,0.02581361357485434,0.9991731792721711,232.77442071250266,24.0461929957087,558.5337847667935,-28.983504359229002,22.3814697265625,4381.2578125,True
1599571207.7237105,0.0,10,0.5,0.5,-19.07257944717407,-0.15025,-0.02275,-0.12575,0.4677890618118842,10,1,100,0.34589519295581406,-10,-1,-100,6442.876404083567,-0.03141755233367316,0.027526983480166717,0.9991272204208248,232.31231635824687,23.9711504702333,565.1639058411381,-29.363355564526564,20.875,4381.2578125,True
1599571207.8054876,0.0,10,0.5,0.5,-18.75854298400879,-0.15025,-0.02275,-0.12575,0.5059334601323293,10,1,100,0.3338215222724997,-10,-1,-100,6441.682203589706,-0.03131330073248382,0.02942237893485612,0.9990764739573497,231.4236030625387,23.853399495277795,570.7309596877609,-29.74318631008333,19.07525634765625,4381.2578125,True
1599571207.8873203,0.0,10,0.5,0.5,-18.69335572128296,-0.15025,-0.02275,-0.12575,0.42847393419645613,10,1,100,0.3347919980603401,-10,-1,-100,6441.088039057911,-0.031226646323268797,0.030431031613531483,0.9990489722102404,230.8035358101441,23.777115823543244,573.0638446667195,-29.933099485622638,18.065353393554688,4381.2578125,True
1599571207.95564,0.0,10,0.5,0.5,-17.84643147277832,-0.15025,-0.02275,-0.12575,0.6880605923241911,10,1,100,0.29690138005941186,-10,-1,-100,6439.245509717963,-0.030802949744870665,0.03369727297300561,0.9989572924210512,228.14578985348905,23.470366161497616,577.9509362608079,-30.50285530748696,14.5958251953125,4381.2578125,True
1599571208.0310223,0.0,10,0.5,0.5,-17.89848416595459,-0.15025,-0.02275,-0.12575,0.4912954499420292,10,1,100,0.316685285448008,-10,-1,-100,6438.6547796487575,-0.030597630991133936,0.03486458502587756,0.9989235434650161,226.96494628245927,23.339654836854518,578.7799009822396,-30.692785983821206,13.29278564453125,4381.2578125,True
1599571208.1078174,0.0,10,0.5,0.5,-16.83431528930664,-0.15025,-0.02275,-0.12575,0.7857326236929326,10,1,100,0.24329861504692435,-10,-1,-100,6436.804002981284,-0.02974417017981596,0.03858897642557486,0.9988123824015902,222.41404381185131,22.851919587485263,578.4407275218908,-31.262638531651817,8.9442138671875,4381.2578125,True
1599571208.1836894,0.0,10,0.5,0.5,-16.90336932525635,-0.15025,-0.02275,-0.12575,0.5592832892299336,10,1,100,0.28501303294072905,-10,-1,-100,6436.147860839032,-0.02934877471782969,0.03990018980387408,0.9987725588321782,220.5274956190262,22.654698297781785,577.2692507663036,-31.452613922295008,7.3482666015625,4381.2578125,True
1599571208.257499,0.0,10,0.5,0.5,-15.623256087875365,-0.15025,-0.02275,-0.12575,0.8820083088535096,10,1,100,0.17015400533182273,-10,-1,-100,6434.235616890015,-0.02794698572444826,0.044011166626194795,0.9986400668915297,213.63324082160264,21.949034627322913,570.107875141293,-32.022622606362624,2.12103271484375,4381.2578125,True
1599571208.3313022,0.0,10,0.5,0.5,-15.167738945770264,-0.15025,-0.02275,-0.12575,0.7883397282546404,10,1,100,0.1749309921426199,-10,-1,-100,6432.922398193623,-0.026719168005426154,0.04687824932576525,0.9985431967627887,208.01813933359568,21.386463400198448,562.2111311625587,-32.40269242497488,-1.72991943359375,4381.2578125,True
1599571208.4070997,0.0,10,0.5,0.5,-14.450595175552367,-0.15025,-0.02275,-0.12575,0.8258660956705284,10,1,100,0.13232210224386948,-10,-1,-100,6431.668770435615,-0.02521987401644012,0.049805250758806215,0.9984404814266334,211.86066428233198,21.80830970759091,579.8270443667187,-32.78262085896648,-5.87408447265625,4381.2578125,True
1599571208.4878829,0.0,10,0.5,0.5,-13.68260831489563,-0.15025,-0.02275,-0.12575,0.8598718879972469,10,1,100,0.08468351672717439,-10,-1,-100,6430.286737682996,-0.023429429209947703,0.05275349413982821,0.9983326753657495,218.0276338608291,22.482552971179874,604.1521788524901,-33.16223314722403,-10.3118896484375,4381.2578125,True
1599571208.5632637,0.0,10,0.5,0.5,-13.52692222480774,-0.15025,-0.02275,-0.12575,0.7306809899337577,10,1,100,0.15398390319835517,-10,-1,-100,6429.632104068412,-0.022439017556623263,0.054236319494125884,0.9982759699295705,220.9842485935152,22.811394514637136,616.1191133577029,-33.35191025374568,-12.640838623046875,4381.2578125,True
1599571208.6363292,0.0,10,0.5,0.5,-11.697368183517456,-0.15025,-0.02275,-0.12575,1.0638165646140028,10,1,100,-0.12821495344757453,-10,-1,-100,6427.599371375865,-0.018981266705161558,0.05859028964007212,0.9981016428571591,230.45841625373518,23.876836237857425,654.3319032778112,-33.92035712340661,-20.0693359375,4381.2578125,True
1599571208.71425,0.0,10,0.5,0.5,-11.076381166839598,-0.15025,-0.02275,-0.12575,0.942077022419902,10,1,100,-0.07642516810366945,-10,-1,-100,6426.286709678941,-0.016319805233884696,0.06141612188187092,0.9979788193795094,235.9188915910566,24.508399548880842,677.8719002145393,-34.29882668612815,-25.389495849609375,4381.2578125,True
1599571208.7950222,0.0,10,0.5,0.5,-10.889789782714843,-0.15025,-0.02275,-0.12575,0.8144901961088964,10,1,100,0.030442231261499142,-10,-1,-100,6425.563246091944,-0.014884983112871796,0.06279998109076172,0.9979151264775625,238.63151505853892,24.82381964483372,689.7243362686978,-34.48791323602294,-28.159912109375,4381.2578125,True
1599571208.869338,0.0,10,0.5,0.5,-9.552847039794923,-0.15025,-0.02275,-0.12575,0.9526365227487574,10,1,100,-0.17048167436916561,-10,-1,-100,6424.1915095687145,-0.011768302631561537,0.06528851479914766,0.9977970319100439,243.52431888125392,25.399257739419767,712.1360491931356,-34.86580368881678,-33.924468994140625,4381.2578125,True
1599571208.9493096,0.0,10,0.5,0.5,-7.641094673919676,-0.15025,-0.02275,-0.12575,1.085699704547154,10,1,100,-0.42448726837881234,-10,-1,-100,6422.096295471652,-0.006642156673508381,0.06873621115187159,0.9976127580535495,248.43792208818945,25.999526796634182,739.1320585683235,-35.43204298879356,-43.124176025390625,4381.2578125,True
1599571209.0229976,0.0,10,0.5,0.5,-7.795937225341795,-0.15025,-0.02275,-0.12575,0.8571015478365875,10,1,100,-0.11541279294231005,-10,-1,-100,6421.372335429536,-0.004812434322923097,0.06976610093757184,0.997551768900169,249.3022944435166,26.113734301350963,745.9229769874084,-35.62067059048283,-46.338653564453125,4381.2578125,True
1599571209.1027834,0.0,10,0.5,0.5,-5.304719240570067,-0.15025,-0.02275,-0.12575,1.025983750405433,10,1,100,-0.5612887385849795,-10,-1,-100,6419.214587629307,0.0008833359094500432,0.07221424355309668,0.9973887520649735,249.16077048663868,26.149745573340205,758.1552895324662,-36.186379062737274,-56.429931640625,4381.2578125,True
1599571209.1755915,0.0,10,0.5,0.5,-4.4901249259948735,-0.15025,-0.02275,-0.12575,0.9194866361790133,10,1,100,-0.42948883151385736,-10,-1,-100,6417.71485560236,0.004838034689220081,0.07344863944312696,0.9972872659290799,246.53033211086571,25.890849520282476,758.519762715523,-36.563519083676525,-63.528228759765625,4381.2578125,True
1599571209.2519042,0.0,10,0.5,0.5,-4.24129367980957,-0.15025,-0.02275,-0.12575,0.8521431308273157,10,1,100,-0.259794651068007,-10,-1,-100,6416.998183541116,0.006863215658861784,0.07393710985024422,0.9972392892670308,244.38230860702205,25.669839863101927,756.0695477359677,-36.752133723733394,-67.18865966796875,4381.2578125,True
1599571209.326705,0.0,10,0.5,0.5,-2.48939548034668,-0.15025,-0.02275,-0.12575,0.864810080454763,10,1,100,-0.4870993098811173,-10,-1,-100,6415.4876556250965,0.010743156488774509,0.0744770701117727,0.9971648562881786,238.32716270619463,25.03821816252197,745.4754987868768,-37.12951710950154,-74.73504638671875,4381.2578125,True
1599571209.4025009,0.0,10,0.5,0.5,-1.1324753959655762,-0.15025,-0.02275,-0.12575,0.8361031367265706,10,1,100,-0.5299137443746906,-10,-1,-100,6413.99563737819,0.014629431944050019,0.07468857017870806,0.9970995924207645,229.84422663029764,24.15104018386292,726.8309502372946,-37.5071727784649,-82.57785034179688,4381.2578125,True
1599571209.4882724,0.0,10,0.5,0.5,1.4243031066894531,-0.15025,-0.02275,-0.12575,0.7705948874240012,10,1,100,-0.7594188914126134,-10,-1,-100,6411.767781511066,0.020218264877691405,0.07427067862722718,0.9970331429102981,212.46220749010217,22.3459114416365,682.8640067440532,-38.074248965166746,-94.89960479736328,4381.2578125,True
1599571209.5660636,0.0,10,0.5,0.5,1.2075467378616331,-0.15025,-0.02275,-0.12575,0.7785878022949726,10,1,100,-0.39529343052369326,-10,-1,-100,6410.98900766822,0.02195557420009196,0.0739517541185758,0.9970201055266288,205.44052984468328,21.621863408384502,663.849431535805,-38.26342528999581,-99.15528869628906,4381.2578125,True
1599571209.6398675,0.0,10,0.5,0.5,4.4553603242874145,-0.15025,-0.02275,-0.12575,0.6624594747064616,10,1,100,-0.7509001091541226,-10,-1,-100,6408.6360175726,0.02673424288317549,0.07259597270260824,0.9970030616827741,216.58011767518315,22.866461948434935,711.0644656341399,-38.830382963424974,-112.2764892578125,4381.2578125,True
1599571209.7216504,0.0,10,0.5,0.5,5.360022482490539,-0.15025,-0.02275,-0.12575,0.6662589989043148,10,1,100,-0.585671265733841,-10,-1,-100,6407.07056110946,0.029541404431690014,0.07139134212816053,0.9970108232578738,226.0042096429555,23.921598287577325,749.7721544645603,-39.20760299987162,-120.88664245605469,4381.2578125,True
1599571209.795451,0.0,10,0.5,0.5,6.753167914390564,-0.15025,-0.02275,-0.12575,0.639225080205845,10,1,100,-0.5747663834073207,-10,-1,-100,6405.511903232778,0.0319613400354574,0.07004804677142536,0.9970314658458109,232.40252432834947,24.6564540335572,778.9527385098684,-39.58434227172586,-129.21621704101562,4381.2578125,True
1599571209.8742435,0.0,10,0.5,0.5,7.012942974662781,-0.15025,-0.02275,-0.12575,0.6989684865676823,10,1,100,-0.4520221717642121,-10,-1,-100,6404.725729275844,0.03301199431998278,0.06936973473601567,0.9970446570408331,235.12096486335383,24.970070282846677,792.0789173108005,-39.77256922523291,-133.26937866210938,4381.2578125,True
1599571209.9500368,0.0,10,0.5,0.5,9.910231644248961,-0.15025,-0.02275,-0.12575,0.525997888286367,10,1,100,-0.6441776690790862,-10,-1,-100,6402.311016944586,0.03568479486476786,0.06718321336382861,0.9971023073173433,239.08661478639738,25.446659827026444,817.6778950475264,-40.336918093473706,-144.98011779785156,4381.2578125,True
1599571210.022843,0.0,10,0.5,0.5,10.673654606819152,-0.15025,-0.02275,-0.12575,0.5842832178127015,10,1,100,-0.5243094500096348,-10,-1,-100,6400.689302486135,0.03699685995014515,0.06573102913578824,0.9971512744626964,238.6198346952373,25.416385018942584,824.2433424197623,-40.71306998522379,-152.4103546142578,4381.2578125,True
1599571210.107616,0.0,10,0.5,0.5,11.90024180278778,-0.15025,-0.02275,-0.12575,0.5792574599751391,10,1,100,-0.5032807394913792,-10,-1,-100,6399.054387550801,0.03797108207369374,0.06437263302151411,0.9972032696717507,236.05871345293525,25.15274052808365,823.5038408489299,-41.08930353199382,-159.53738403320312,4381.2578125,True
1599571210.1893976,0.0,10,0.5,0.5,13.08029278087616,-0.15025,-0.02275,-0.12575,0.576012512772252,10,1,100,-0.48154067869695005,-10,-1,-100,6397.370152564021,0.03863434897371136,0.06311741379495707,0.9972580303789053,231.75512784080598,24.698397208204955,816.4910788702487,-41.46570097839095,-166.36111450195312,4381.2578125,True
1599571210.2701821,0.0,10,0.5,0.5,14.212408373832702,-0.15025,-0.02275,-0.12575,0.5753021804593922,10,1,100,-0.456554482685701,-10,-1,-100,6395.738649591687,0.03898834899450724,0.06198036707377354,0.9973155682832204,226.05752038148083,24.096127573588674,804.263623302186,-41.842305153323856,-172.88137817382812,4381.2578125,True
1599571210.3559592,0.0,10,0.5,0.5,14.43819709625244,-0.15025,-0.02275,-0.12575,0.6324341956827016,10,1,100,-0.43112035135413185,-10,-1,-100,6394.889451340772,0.03906188410665576,0.06147724320341264,0.9973438312729199,222.7882503702685,23.751956361276036,796.512567242895,-42.030689006798404,-176.02740478515625,4381.2578125,True
1599571210.437252,0.0,10,0.5,0.5,-83.46888581199646,-0.15025,-0.02275,-0.12575,0.5849013108109591,10,1,100,-0.42019494242906563,-10,-1,-100,6393.206194209284,0.039013861118466026,0.06059908119599159,0.9973994535785704,215.60519429953126,23.000688761706353,778.3643272605973,-42.40761394549364,177.90866088867188,4381.2578125,True
1599571210.5315173,0.0,10,0.5,0.5,-37.26853842048645,-0.15025,-0.02275,-0.12575,0.56581684878356,10,1,100,-0.3667656478881053,-10,-1,-100,6390.597092924989,0.038473319707707274,0.05963816325400211,0.9974783672613444,207.8006602001753,22.209108639363432,761.1109955408072,-42.97327587604935,169.38308715820312,4381.2578125,True
1599571210.633247,0.0,10,0.5,0.5,-36.75348135528564,-0.15025,-0.02275,-0.12575,0.6080402056102125,10,1,100,-0.3081681469503762,-10,-1,-100,6387.995344736497,0.037441093948241765,0.05915913489504866,0.9975461699803315,218.91806855434163,23.4647498240722,813.3423289801599,-43.5383320766874,161.23992919921875,4381.2578125,True
1599571210.725997,0.0,10,0.5,0.5,-38.43827120132446,-0.15025,-0.02275,-0.12575,0.6548541503179198,10,1,100,-0.41193869828820556,-10,-1,-100,6387.995344736497,0.037441093948241765,0.05915913489504866,0.9975461699803315,218.91806855434163,23.4647498240722,813.3423289801599,-43.5383320766874,161.23992919921875,4381.2578125,True
1599571210.8177524,0.0,10,0.5,0.5,-36.72142904663086,-0.15025,-0.02275,-0.12575,0.6546301672167241,10,1,100,-0.25092048411017953,-10,-1,-100,6385.390220140107,0.03597326554696129,0.05916638104852958,0.9975997511625131,229.31741018173037,24.664437655955478,864.0152395987961,-44.10246775517246,152.5919189453125,4381.2578125,True
1599571210.9254644,0.0,10,0.5,0.5,-37.651365009689336,-0.15025,-0.02275,-0.12575,0.666490599962269,10,1,100,-0.3341936568041616,-10,-1,-100,6384.49321062176,0.035395642687849616,0.059288078606031094,0.9976131876704112,232.40724594153866,25.026561693459712,879.7152285894251,-44.29031278783203,149.56826782226562,4381.2578125,True
1599571211.016224,0.0,10,0.5,0.5,-36.99047404937744,-0.15025,-0.02275,-0.12575,0.706466092579796,10,1,100,-0.25436067498371134,-10,-1,-100,6382.740232543205,0.03414623226961881,0.05976798354621886,0.997628098523998,238.26951477624164,25.717471266452282,910.2132713078718,-44.665720517665804,143.30697631835938,4381.2578125,True
1599571211.1139605,0.0,10,0.5,0.5,-36.65933002471923,-0.15025,-0.02275,-0.12575,0.7334429940173455,10,1,100,-0.22292231089921616,-10,-1,-100,6380.917951638112,0.03272807844300819,0.06045369136807209,0.9976343138051149,243.52733069908115,26.340454093537762,938.7756125696011,-45.04077792708203,136.75816345214844,4381.2578125,True
1599571211.205714,0.0,10,0.5,0.5,-35.313551111221315,-0.15025,-0.02275,-0.12575,0.8414011907621854,10,1,100,-0.111678403459473,-10,-1,-100,6378.19193725707,0.030432908778937878,0.06206092183327983,0.9976082798596132,248.8672563906989,26.985046571468438,972.3496559297292,-45.60288024860856,126.39987182617188,4381.2578125,True
1599571211.3273892,0.0,10,0.5,0.5,-36.30461181297302,-0.15025,-0.02275,-0.12575,0.7551057073214139,10,1,100,-0.25073421650044836,-10,-1,-100,6377.274014725583,0.02961831233035152,0.06273746281149849,0.9975904802746856,249.8488563117254,27.10812084944203,980.5380219960117,-45.79016899990177,122.80436706542969,4381.2578125,True
1599571211.433107,0.0,10,0.5,0.5,-34.341734142303466,-0.15025,-0.02275,-0.12575,0.9626266189495709,10,1,100,-0.049493323753024954,-10,-1,-100,6374.495919695124,0.027056892508274897,0.06523790815230952,0.9975028520799861,250.0154966729225,27.159816336780413,994.3127794915138,-46.35200135668354,111.59112548828125,4381.2578125,True
1599571211.5338485,0.0,10,0.5,0.5,-33.43970318374634,-0.15025,-0.02275,-0.12575,0.9399521375374644,10,1,100,-0.11354968988594627,-10,-1,-100,6372.61480792833,0.02532152960633197,0.06730069151570375,0.9974113680221937,247.56892987266133,26.90718805484402,993.3105510973976,-46.726672974073225,103.76060485839844,4381.2578125,True
1599571211.6126356,0.0,10,0.5,0.5,-30.886860564804074,-0.15025,-0.02275,-0.12575,1.1480709863654694,10,1,100,0.004767379751810186,-10,-1,-100,6369.779871247127,0.022680273417041864,0.0710609727188061,0.9972140910326053,239.62211555877315,26.06493051708157,974.2205671458207,-47.289105739611614,91.484375,4381.2578125,True
1599571212.3880494,0.0,10,0.5,0.5,-31.10350146064758,-0.15025,-0.02275,-0.12575,0.9308225684239617,10,1,100,-0.16334019458594828,-10,-1,-100,6368.790832243743,0.02182080103033157,0.07249360470595474,0.9971301469312477,235.77978698811546,25.65867537986207,962.8268509292337,-47.4767310422439,87.25103759765625,4381.2578125,True
1599571212.4558716,0.0,10,0.5,0.5,-29.072304188919066,-0.15025,-0.02275,-0.12575,1.1340901110300976,10,1,100,-0.06543523011109115,-10,-1,-100,6366.876801754697,0.020163617631657978,0.07563176192722665,0.9969319260169109,226.25940025302333,24.657890709872778,932.0959680668678,-47.85222468540727,78.57272338867188,4381.2578125,True
1599571212.5316658,0.0,10,0.5,0.5,-27.522132969284055,-0.15025,-0.02275,-0.12575,1.2060344439603625,10,1,100,-0.06171936301945152,-10,-1,-100,6364.932617970975,0.01863767906649917,0.07912370299058652,0.9966905620823704,227.98395742050317,24.903390131037433,947.423459397474,-48.227755260057954,69.6123046875,4381.2578125,True
1599571212.6045673,0.0,10,0.5,0.5,-27.201207037734985,-0.15025,-0.02275,-0.12575,1.0636371123093993,10,1,100,-0.1367560794832582,-10,-1,-100,6363.959351445315,0.01794784866931791,0.08098564128373714,0.9965536616931397,234.81601802624283,25.68674812465925,980.044417195134,-48.41525966936488,65.02607727050781,4381.2578125,True
1599571212.679367,0.0,10,0.5,0.5,-23.68595175170898,-0.15025,-0.02275,-0.12575,1.553980649878612,10,1,100,-0.01012993077895119,-10,-1,-100,6361.046093836776,0.016184309123296062,0.08711669220292372,0.9960666393760124,252.34553876358308,27.73902388133743,1066.7855480695264,-48.97673456273333,50.8453369140625,4381.2578125,True
1599571212.7501779,0.0,10,0.5,0.5,-23.93012752418518,-0.15025,-0.02275,-0.12575,1.1836213280673094,10,1,100,-0.13589696134841084,-10,-1,-100,6360.012900458067,0.01573946778601648,0.08929923283950435,0.9958804728320007,256.99991435749536,28.296591233285618,1091.0509112328966,-49.16358468905586,45.97721862792969,4381.2578125,True
1599571212.8319592,0.0,10,0.5,0.5,-21.613595961761476,-0.15025,-0.02275,-0.12575,1.4653759798235069,10,1,100,-0.1101310860243048,-10,-1,-100,6358.072096413234,0.015114189013718554,0.09382000451508288,0.9954744436916739,265.2463178396075,29.291669218042326,1135.5130164708469,-49.536911092331806,36.028900146484375,4381.2578125,True
1599571212.9038043,0.0,10,0.5,0.5,-19.843691368484492,-0.15025,-0.02275,-0.12575,1.5400251875289748,10,1,100,-0.13864179569415327,-10,-1,-100,6356.066965196165,0.014818127602552364,0.09858016925229163,0.9950187803878598,270.64141396831474,29.96030348731305,1168.2612603183234,-49.909899773812995,25.798858642578125,4381.2578125,True
1599571212.983592,0.0,10,0.5,0.5,-18.033134551620485,-0.15025,-0.02275,-0.12575,1.5984890710967514,10,1,100,-0.18050275791132323,-10,-1,-100,6354.062434022664,0.01494066121701712,0.10340877044482484,0.9945267230383946,272.3994195274774,30.211753571147142,1185.6195610593206,-50.282792064225944,15.285064697265625,4381.2578125,True
1599571213.0773404,0.0,10,0.5,0.5,-14.654693975830078,-0.15025,-0.02275,-0.12575,1.926016844396038,10,1,100,-0.26969079869368723,-10,-1,-100,6351.026024493156,0.01587229293581504,0.1107431075780948,0.9937223125405337,267.45169577078076,29.734686198904214,1178.660797517155,-50.84244971837169,-1.016632080078125,4381.2578125,True
1599571213.158126,0.0,10,0.5,0.5,-13.396528858184814,-0.15025,-0.02275,-0.12575,1.7243370147097095,10,1,100,-0.2998006823278946,-10,-1,-100,6348.960166508565,0.01699914615001615,0.11554115912495606,0.9931572229905153,258.7960629068607,28.831805722016263,1150.0502282071773,-51.21600729548487,-12.24005126953125,4381.2578125,True
1599571213.2339227,0.0,10,0.5,0.5,-11.405038430023192,-0.15025,-0.02275,-0.12575,1.7573425591311467,10,1,100,-0.35126446589877164,-10,-1,-100,6346.894340321771,0.01849579406346178,0.12016394043100755,0.992581751304171,245.80109899862572,27.467623417043797,1101.4116651109166,-51.590003337133325,-23.74908447265625,4381.2578125,True
1599571213.3097003,0.0,10,0.5,0.5,-11.001639068603515,-0.15025,-0.02275,-0.12575,1.5441444790956345,10,1,100,-0.29740399043944254,-10,-1,-100,6345.860452012159,0.019368258592934996,0.12238782072845535,0.9922933497189311,240.20855807201815,26.89636197220695,1080.7958845852893,-51.77710706488184,-29.6109619140625,4381.2578125,True
1599571213.3874917,0.0,10,0.5,0.5,-8.21785765991211,-0.15025,-0.02275,-0.12575,1.7913160557630445,10,1,100,-0.4257300282531248,-10,-1,-100,6343.79558698996,0.02132734434573827,0.12661721340698628,0.991722353107062,256.1472279743659,28.815957738405025,1161.922971137841,-52.15056213421415,-41.550018310546875,4381.2578125,True
1599571213.4712677,0.0,10,0.5,0.5,-4.385094346237182,-0.15025,-0.02275,-0.12575,1.9986842455234783,10,1,100,-0.5965317367761622,-10,-1,-100,6340.632755571976,0.024658001929699386,0.13230579795608813,0.9909021943501981,273.25266764546103,30.963472037350154,1254.3777601702243,-52.70910588863245,-59.99798583984375,4381.2578125,True
1599571213.5420773,0.0,10,0.5,0.5,-4.71587306022644,-0.15025,-0.02275,-0.12575,1.6221004044927292,10,1,100,-0.39446694757254547,-10,-1,-100,6339.600736711291,0.02584121647435261,0.13401266798612557,0.9906426380639822,276.94498471851443,31.448774463376118,1276.3136413621032,-52.894986623864064,-66.29104614257812,4381.2578125,True
1599571213.6218638,0.0,10,0.5,0.5,0.0778705780029294,-0.15025,-0.02275,-0.12575,1.950840067253951,10,1,100,-0.658162968648427,-10,-1,-100,6336.376093872706,0.029304919207737794,0.1385122618247647,0.9899270554108599,280.864417517815,32.0584218151562,1309.5925954818438,-53.452336628065545,-85.60150146484375,4381.2578125,True
1599571213.696182,0.0,10,0.5,0.5,-0.25764635543823267,-0.15025,-0.02275,-0.12575,1.6498037062542505,10,1,100,-0.43407565655934466,-10,-1,-100,6335.342979017063,0.030403681828010832,0.13982547816233964,0.9897092763978591,279.08660976061117,31.900725328273133,1306.3941641437261,-53.6381907796402,-92.18144226074219,4381.2578125,True
1599571213.780465,0.0,10,0.5,0.5,4.736412023544311,-0.15025,-0.02275,-0.12575,1.8982781419149255,10,1,100,-0.6625209282344153,-10,-1,-100,6332.056432334008,0.03346516344873655,0.14324067396713205,0.9891219298735578,264.02128839772286,30.315861294072317,1250.514745301776,-54.196491867984136,-112.30130004882812,4381.2578125,True
1599571213.8612475,0.0,10,0.5,0.5,6.2254879245758055,-0.15025,-0.02275,-0.12575,1.774636572748971,10,1,100,-0.5417232216532735,-10,-1,-100,6329.926943285973,0.035133327132993435,0.1451851723395053,0.9887805191534238,246.33728381399942,28.402633168323142,1175.9270882181386,-54.56944935090732,-125.811767578125,4381.2578125,True
1599571213.9360466,0.0,10,0.5,0.5,8.53858233604431,-0.15025,-0.02275,-0.12575,1.7793509004065515,10,1,100,-0.5199078611507855,-10,-1,-100,6327.733399688732,0.0364340080830251,0.14696444468876677,0.9884705433407353,257.01826464991564,29.788107806707185,1236.3866384491298,-54.94202656668948,-139.31947326660156,4381.2578125,True
1599571214.0158343,0.0,10,0.5,0.5,8.969925085449217,-0.15025,-0.02275,-0.12575,1.701370223462122,10,1,100,-0.4461596313928553,-10,-1,-100,6326.57557257486,0.036928338801679055,0.147844483138088,0.9883209532327949,265.5672605588257,30.86162559973591,1282.354310968796,-55.12787649437844,-145.98915100097656,4381.2578125,True
1599571214.0976486,0.0,10,0.5,0.5,12.030432125473022,-0.15025,-0.02275,-0.12575,1.804221352627489,10,1,100,-0.4783767289678643,-10,-1,-100,6324.38245252159,0.03765385621046617,0.1495543642274224,0.9880362742597122,277.9805184605874,32.465954929432364,1352.3636402109578,-55.49894961552728,-159.10916137695312,4381.2578125,True
1599571214.173412,0.0,10,0.5,0.5,15.946362920761107,-0.15025,-0.02275,-0.12575,1.9376860856312452,10,1,100,-0.4447353314379999,-10,-1,-100,6321.031017237925,0.03799096333398521,0.15229742047821604,0.987604264075767,287.2608733659104,33.75175284750254,1413.1556252871333,-56.05478159623995,-178.20758056640625,4381.2578125,True
1599571214.255276,0.0,10,0.5,0.5,-82.09903372001648,-0.15025,-0.02275,-0.12575,1.893067621657204,10,1,100,-0.38800085679704865,-10,-1,-100,6318.776442665374,0.03776650765955001,0.15436213993638148,0.9872922670888605,286.0682422144725,33.725507699175346,1417.8487700327405,-56.42539806227564,169.45425415039062,4381.2578125,True
1599571214.3250475,0.0,10,0.5,0.5,-35.584724814224245,-0.15025,-0.02275,-0.12575,1.9460229663369344,10,1,100,-0.35366504209767424,-10,-1,-100,6316.5200130468,0.037238396453042014,0.1567005186300019,0.9869438936893498,279.15564139740115,33.030580656342885,1394.0626051018817,-56.79639671566864,157.43310546875,4381.2578125,True
1599571214.4068294,0.0,10,0.5,0.5,-34.350669999313354,-0.15025,-0.02275,-0.12575,2.0069741277659863,10,1,100,-0.3215329417048014,-10,-1,-100,6314.202195372782,0.03645582427993709,0.15935979359115376,0.9865472259667326,267.20304588633536,31.759697921637656,1344.4969640801605,-57.16788401257004,145.64076232910156,4381.2578125,True
1599571214.4886458,0.0,10,0.5,0.5,-34.71866808929443,-0.15025,-0.02275,-0.12575,1.904793739883507,10,1,100,-0.3494359746441452,-10,-1,-100,6313.105116232182,0.0359915581446792,0.16082945136439075,0.9863257551722692,259.43693063521226,30.920306767160877,1310.331260270773,-57.35381215183965,139.6952362060547,4381.2578125,True
1599571214.5684311,0.0,10,0.5,0.5,-32.6616310218811,-0.15025,-0.02275,-0.12575,2.1158978663744654,10,1,100,-0.28297603160400486,-10,-1,-100,6310.788543855189,0.03496023683379196,0.1640655377870676,0.9858297424764407,269.6304200759728,32.33511021445676,1371.9286350629563,-57.725158327824126,127.62202453613281,4381.2578125,True
1599571214.6441944,0.0,10,0.5,0.5,-29.589702869796753,-0.15025,-0.02275,-0.12575,2.4148328457490216,10,1,100,-0.20571463323937741,-10,-1,-100,6307.310440869303,0.03331893649932053,0.16970609356216074,0.9849313124672326,293.58495887664924,35.54624360748201,1510.0568932810934,-58.28001213589201,109.01347351074219,4381.2578125,True
