Timestamp,Input Throttle,horizon,dT,dt,Input Roll,Roll P,Roll I,Roll D,Input Pitch,Pitch P,Pitch I,Pitch D,Input Yaw,Yaw P,Yaw I,Yaw D,Altitude,Direction X,Direction Y,Direction Z,Drag X,Drag Y,Drag Z,Vertical Velocity,Roll,Mass,Has Fuel
1599571105.2594917,0.0,10,0.5,0.5,-8.121819290161133,-0.15025,-0.02275,-0.001,-0.06854757103636415,10,1,100,0.6815833518590948,-10,-1,-100,6483.617967528873,-0.06725786979807254,-0.007002307050339447,0.9977110536854836,205.0733428089181,21.498789704848285,-156.76533257315768,9.590824062229789,-35.94464111328125,4381.2578125,True
1599571105.3602576,0.0,10,0.5,0.5,-8.24529673461914,-0.15025,-0.02275,-0.001,-0.06737061717628567,10,1,100,0.6998947084962002,-10,-1,-100,6483.997883086093,-0.06744505364839679,-0.006971828104592695,0.9976986310260453,204.6121421618483,21.4567408481965,-150.26671574109287,9.210801710535303,-35.941314697265625,4381.2578125,True
1599571105.4506059,0.0,10,0.5,0.5,-8.368535401153563,-0.15025,-0.02275,-0.001,-0.06930256662042325,10,1,100,0.6985759227615549,-10,-1,-100,6484.156592020299,-0.06754191813869624,-0.006955345123310905,0.9976921932481787,204.38127150227777,21.435620629687826,-147.02556539510573,9.020797847498969,-35.939605712890625,4381.2578125,True
1599571105.5463464,0.0,10,0.5,0.5,-8.469669969177245,-0.15025,-0.02275,-0.001,-0.03745293013048014,10,1,100,0.7001258615294876,-10,-1,-100,6484.538936192752,-0.0675826653749145,-0.006644495403943148,0.9976915525460006,203.94226639830464,21.395589737968372,-140.57572621364275,8.640800896500583,-36.084075927734375,4381.2578125,True
1599571105.6680212,0.0,10,0.5,0.5,-8.481468184661866,-0.15025,-0.02275,-0.001,0.0018152221457704565,10,1,100,0.6993338455055365,-10,-1,-100,6485.016950387275,-0.06755106938455435,-0.0059988810970938704,0.9976977831240211,203.44627070128988,21.351637997549926,-131.04515235254394,8.070816393942234,-36.8179931640625,4381.2578125,True
1599571105.7488418,0.0,10,0.5,0.5,-8.392840673065185,-0.15025,-0.02275,-0.001,0.05908524825268759,10,1,100,0.6746887455714223,-10,-1,-100,6485.493930330151,-0.06723688933083995,-0.004885868870716104,0.9977250768616026,203.08541066850754,21.31989296293486,-121.62844561887279,7.500821030360974,-38.208740234375,4381.2578125,True
1599571105.8346128,0.0,10,0.5,0.5,-8.419722399139404,-0.15025,-0.02275,-0.001,-0.0005989649073683684,10,1,100,0.6928992875989508,-10,-1,-100,6485.59008415509,-0.06705569703741271,-0.004412181631036174,0.9977394780943979,202.97103500135492,21.30935683742972,-118.49764333639831,7.3108157374058695,-38.8192138671875,4381.2578125,True
1599571106.5693555,0.0,10,0.5,0.5,-8.433329448699952,-0.15025,-0.02275,-0.001,0.009612810551446263,10,1,100,0.693850855624853,-10,-1,-100,6485.750196525245,-0.0668386676644985,-0.00388471147112789,0.9977562335167948,202.84831339929076,21.297619903433333,-115.3642535803483,7.120805198880673,-39.50311279296875,4381.2578125,True
1599571106.6341007,0.0,10,0.5,0.5,-8.434316167449952,-0.15025,-0.02275,-0.001,0.018782580451760254,10,1,100,0.6934334187823155,-10,-1,-100,6485.909324917244,-0.06657681092904025,-0.0033183000435073884,0.9977757849994858,202.70798749401644,21.28369209994472,-112.22353632650518,6.93078829213338,-40.260650634765625,4381.2578125,True
1599571106.712728,0.0,10,0.5,0.5,-8.422542935180665,-0.15025,-0.02275,-0.001,0.029668661759578434,10,1,100,0.6930648411240933,-10,-1,-100,6486.005458551226,-0.06627488427179523,-0.0027013995519235786,0.9977977461165268,202.54117847372208,21.266620746423953,-109.07151664185795,6.740763933425141,-41.091644287109375,4381.2578125,True
1599571106.8890963,0.0,10,0.5,0.5,-8.24995274734497,-0.15025,-0.02275,-0.001,0.12132394988094578,10,1,100,0.6505320547772031,-10,-1,-100,6486.261182835093,-0.0655534939036264,-0.001304895213424118,0.9978482032280807,202.08356029679337,21.218309258732294,-102.71575448934003,6.36068791802901,-42.973876953125,4381.2578125,True
1599571106.976187,0.0,10,0.5,0.5,-7.532988854217529,-0.15025,-0.02275,-0.001,0.3458007855248186,10,1,100,0.5016292260241044,-10,-1,-100,6486.772072151187,-0.06354557183107606,0.0020001732257588583,0.9979769334046396,200.30939908085585,21.026792778597365,-89.68736828677764,5.600379741728232,-47.620849609375,4381.2578125,True
1599571107.06139,0.0,10,0.5,0.5,-7.307550366210937,-0.15025,-0.02275,-0.001,0.11859697170457985,10,1,100,0.6334742225057965,-10,-1,-100,6486.868652383564,-0.06292232398933416,0.0029311353163499827,0.9980141229409224,199.59887378340153,20.94994846776772,-86.34510792478959,5.4102575483399375,-48.966400146484375,4381.2578125,True
1599571107.14417,0.0,10,0.5,0.5,-6.60161675567627,-0.15025,-0.02275,-0.001,0.33705565265658455,10,1,100,0.4525105191732331,-10,-1,-100,6487.157875413774,-0.06071481009759036,0.005754464788778629,0.9981385665175995,196.55881607769237,20.622047202092546,-76.08793992449503,4.839743706299679,-53.446685791015625,4381.2578125,True
1599571107.22595,0.0,10,0.5,0.5,-6.566597103881836,-0.15025,-0.02275,-0.001,0.05596260143299213,10,1,100,0.6725751228198804,-10,-1,-100,6487.157875413774,-0.06071481009759036,0.005754464788778629,0.9981385665175995,196.55881607769237,20.622047202092546,-76.08793992449503,4.839743706299679,-53.446685791015625,4381.2578125,True
1599571107.3057356,0.0,10,0.5,0.5,-6.021422963714599,-0.15025,-0.02275,-0.001,0.28599120591469196,10,1,100,0.48080349660514565,-10,-1,-100,6487.351969739422,-0.058977646458626375,0.007834949060534198,0.9982285563894774,193.57904802594825,20.302170910757155,-69.05676378133765,4.459245954592294,-56.801025390625,4381.2578125,True
1599571107.3855224,0.0,10,0.5,0.5,-5.4301921043396,-0.15025,-0.02275,-0.001,0.29609057244430104,10,1,100,0.438692527114492,-10,-1,-100,6487.54409637698,-0.05702308819408246,0.009806546441552752,0.9983246962084529,189.6587702690853,19.883261734047547,-61.89400319435132,4.078586976192614,-60.4525146484375,4381.2578125,True
1599571107.4653115,0.0,10,0.5,0.5,-4.7879639396667475,-0.15025,-0.02275,-0.001,0.33805075348326197,10,1,100,0.39013617889453256,-10,-1,-100,6487.675176492659,-0.05481391625053684,0.01196743777185782,0.998424866987224,184.62803788936114,19.348234982481568,-54.63519656916219,3.697733462532556,-64.39739990234375,4381.2578125,True
1599571107.5540724,0.0,10,0.5,0.5,-4.093615767669678,-0.15025,-0.02275,-0.001,0.3449462607587153,10,1,100,0.34538628018091105,-10,-1,-100,6487.805273358244,-0.05240969245120241,0.013980159820782016,0.9985278059566273,178.38072614190654,18.68677101877322,-47.35375601743807,3.3166529536577958,-68.6397705078125,4381.2578125,True
1599571107.630867,0.0,10,0.5,0.5,-2.9869205566406247,-0.15025,-0.02275,-0.001,0.47372158030711453,10,1,100,0.14488603359617835,-10,-1,-100,6487.969407297322,-0.04841418413601703,0.016964865988549196,0.9986832631502514,166.39607264656604,17.424676242849216,-36.5591297456273,2.7444617415348955,-75.55795288085938,4381.2578125,True
1599571107.7106612,0.0,10,0.5,0.5,-2.1617350311279298,-0.15025,-0.02275,-0.001,0.38310902782789125,10,1,100,0.2240428187350808,-10,-1,-100,6488.100479857181,-0.04551774798723469,0.018836606331671446,0.9987859214466712,156.61118174553528,16.39759765506954,-29.625524552255495,2.362629307560187,-80.54104614257812,4381.2578125,True
1599571107.787456,0.0,10,0.5,0.5,-1.2825560676574705,-0.15025,-0.02275,-0.001,0.38658228873829126,10,1,100,0.17944681844266042,-10,-1,-100,6488.1671071053715,-0.04249742034560727,0.02055145310501795,0.9988851821101566,145.36412658806128,15.218951616785581,-23.05423076168238,1.9806078367010471,-85.82168579101562,4381.2578125,True
1599571107.8682396,0.0,10,0.5,0.5,-0.35721762771606447,-0.15025,-0.02275,-0.001,0.3887775265144032,10,1,100,0.13411288167601693,-10,-1,-100,6488.234722888563,-0.03935867592941784,0.022113496624316463,0.998980424180639,152.04990763370623,15.918867349655512,-19.464483216402716,1.5985065462462038,-91.39994812011719,4381.2578125,True
1599571107.9473052,0.0,10,0.5,0.5,0.17248567276000978,-0.15025,-0.02275,-0.001,0.31381561550601067,10,1,100,0.26796451655125275,-10,-1,-100,6488.269268238102,-0.03774352645725678,0.022834625758777028,0.9990265292158297,155.9641373427551,16.32838474918543,-17.580382610600076,1.4074621706286412,-94.30074310302734,4381.2578125,True
1599571108.0201104,0.0,10,0.5,0.5,1.1738624204635622,-0.15025,-0.02275,-0.001,0.3856781616251546,10,1,100,0.0687547037265897,-10,-1,-100,6488.273428911809,-0.03448509344201373,0.024127966153942488,0.999113917218437,164.7769804105919,17.249377216040667,-13.533966181489133,1.0254409711960122,-100.32609558105469,4381.2578125,True
1599571108.093913,0.0,10,0.5,0.5,2.6906840143203734,-0.15025,-0.02275,-0.001,0.43426538954139277,10,1,100,-0.15692937570156534,-10,-1,-100,6488.311683268286,-0.02949505335758735,0.025728729038454013,0.9992337435903067,176.37645190380917,18.461004143949356,-6.394872529989888,0.45257638489717156,-109.68937683105469,4381.2578125,True
1599571108.1816807,0.0,10,0.5,0.5,3.7421145833969116,-0.15025,-0.02275,-0.001,0.3681157146287371,10,1,100,-0.02916860187288367,-10,-1,-100,6488.318327927147,-0.026146917218461414,0.02656634027064224,0.9993050426594451,183.14017683874573,19.168269248078975,-1.0367932753785276,0.07065644435969798,-115.90737915039062,4381.2578125,True
1599571108.2575061,0.0,10,0.5,0.5,4.766065711402893,-0.15025,-0.02275,-0.001,0.3613158739636956,10,1,100,-0.0570762919345747,-10,-1,-100,6488.322064421605,-0.022877520065036665,0.027250752117650167,0.9993668073258668,187.58105973152988,19.63236028022652,4.680517908667812,-0.3113788340265371,-121.8843002319336,4381.2578125,True
1599571108.335298,0.0,10,0.5,0.5,5.326734172821044,-0.15025,-0.02275,-0.001,0.3263211059687042,10,1,100,0.09010424846031476,-10,-1,-100,6488.355681002024,-0.021272378834772707,0.027540916529206733,0.9993943084766099,189.11774266019887,19.7928540780292,7.615041119164413,-0.5024513679502847,-124.76603698730469,4381.2578125,True
1599571108.4061086,0.0,10,0.5,0.5,6.2900706523895265,-0.15025,-0.02275,-0.001,0.34902720565698764,10,1,100,-0.10584873240889087,-10,-1,-100,6488.298907145392,-0.018060075448100357,0.0279987934853258,0.9994447964936207,191.44288124880813,20.03547139796319,13.574916758274178,-0.8846890390888675,-130.31004333496094,4381.2578125,True
1599571108.4918795,0.0,10,0.5,0.5,7.583271478271484,-0.15025,-0.02275,-0.001,0.3538637619116991,10,1,100,-0.2944769335822468,-10,-1,-100,6488.211346683209,-0.013452592457447636,0.028448983113661626,0.9995047189063054,191.80219985071898,20.071702891631276,22.422890978697488,-1.458264172505275,-138.0732421875,4381.2578125,True
1599571108.5676768,0.0,10,0.5,0.5,8.433322259521484,-0.15025,-0.02275,-0.001,0.32831272966502073,10,1,100,-0.15974389113023899,-10,-1,-100,6488.1536470530555,-0.010517967538717768,0.028617225776468035,0.9995351053103203,190.34088439724215,19.91755414223986,28.092840614481812,-1.840761194238309,-142.87937927246094,4381.2578125,True
1599571108.6394875,0.0,10,0.5,0.5,8.904990809249878,-0.15025,-0.02275,-0.001,0.3189469371714976,10,1,100,-0.025237860178305566,-10,-1,-100,6488.124316995381,-0.009101981032896273,0.028677697563013242,0.999547269319346,189.1889620808243,19.796283941100377,30.826536401592257,-2.032031241974755,-145.17140197753906,4381.2578125,True
1599571108.7158017,0.0,10,0.5,0.5,9.684672799301147,-0.15025,-0.02275,-0.001,0.327380452692122,10,1,100,-0.1845293796156403,-10,-1,-100,6488.003173087724,-0.006394121937170526,0.028803372781933928,0.9995646456938329,186.20975167663022,19.48272883366719,36.058694321001965,-2.41459236702027,-149.53268432617188,4381.2578125,True
1599571108.7975826,0.0,10,0.5,0.5,10.420897349739075,-0.15025,-0.02275,-0.001,0.31948308843826234,10,1,100,-0.2039565904944866,-10,-1,-100,6487.883025481598,-0.003784320300812232,0.028840402626805685,0.999576865526701,182.5302913482957,19.095462974975877,40.95250032245665,-2.7971540630462535,-153.59835815429688,4381.2578125,True
1599571108.8733804,0.0,10,0.5,0.5,11.376363170433045,-0.15025,-0.02275,-0.001,0.31640151890351176,10,1,100,-0.34721099727016175,-10,-1,-100,6487.732617328758,-0.00013737036356328312,0.028841767820488765,0.999583980242967,176.26589432360174,18.436498649315876,47.66983274171507,-3.3709217294667226,-159.14108276367188,4381.2578125,True
1599571108.9511728,0.0,10,0.5,0.5,11.740292986488342,-0.15025,-0.02275,-0.001,0.3178000239213983,10,1,100,-0.11081617795146029,-10,-1,-100,6487.640822075773,0.0010023060555893624,0.02885289255237959,0.9995831661117207,174.0459998169109,18.20293937007128,49.743437522020116,-3.562154691260906,-160.84005737304688,4381.2578125,True
1599571109.688497,0.0,10,0.5,0.5,12.321111226844787,-0.15025,-0.02275,-0.001,0.3189410010588949,10,1,100,-0.23982497138594064,-10,-1,-100,6487.518764687586,0.0031865016285197246,0.028871299780546915,0.9995780581106977,169.476422847509,17.721933032432673,53.64585234733294,-3.944605191261803,-164.01556396484375,4381.2578125,True
1599571109.7548342,0.0,10,0.5,0.5,13.239476502990723,-0.15025,-0.02275,-0.001,0.33294330907148506,10,1,100,-0.4578601977606015,-10,-1,-100,6487.151155363186,0.0071305778239591925,0.02901385410839267,0.9995535759176061,160.2268839055982,16.748051856281197,60.5720633386146,-4.709598894184726,-169.4746856689453,4381.2578125,True
1599571109.8273816,0.0,10,0.5,0.5,13.335729557037354,-0.15025,-0.02275,-0.001,0.3188351700448283,10,1,100,-0.06629287388252796,-10,-1,-100,6487.151155363186,0.0071305778239591925,0.02901385410839267,0.9995535759176061,160.2268839055982,16.748051856281197,60.5720633386146,-4.709598894184726,-169.4746856689453,4381.2578125,True
1599571109.9001863,0.0,10,0.5,0.5,13.770207440948484,-0.15025,-0.02275,-0.001,0.3339571445461256,10,1,100,-0.2629910426794322,-10,-1,-100,6486.905108603183,0.00889584240095645,0.0291504038214744,0.9995354510696569,155.87577123085225,16.290533109274143,63.724547297951226,-5.092229295381699,-171.7581787109375,4381.2578125,True
1599571109.9919412,0.0,10,0.5,0.5,14.278092353820801,-0.15025,-0.02275,-0.001,0.3613287411841863,10,1,100,-0.351070088727383,-10,-1,-100,6486.628344737226,0.011281030221518596,0.029522734965796698,0.9995004484627711,150.047020003202,15.679575341175468,68.27514766189758,-5.666422426281854,-174.62452697753906,4381.2578125,True
1599571110.065744,0.0,10,0.5,0.5,14.580264038085936,-0.15025,-0.02275,-0.001,0.3569041338918451,10,1,100,-0.27144293575743,-10,-1,-100,6486.381344072521,0.012705682306157123,0.02982017093144175,0.9994745234585796,150.74495863417727,15.753206751004248,73.24131949481571,-6.049380106936018,-176.163818359375,4381.2578125,True
1599571110.1461124,0.0,10,0.5,0.5,14.836864101028443,-0.15025,-0.02275,-0.001,0.37417402929168286,10,1,100,-0.2720004873032541,-10,-1,-100,6486.134350384469,0.013986064066845955,0.03024652770078266,0.9994446145604887,153.02081425999597,15.993192522743188,79.0697289309193,-6.432435165884256,-177.40435791015625,4381.2578125,True
1599571110.2182379,0.0,10,0.5,0.5,15.041627024459837,-0.15025,-0.02275,-0.001,0.3863803165017831,10,1,100,-0.2718329020012651,-10,-1,-100,6485.823888626532,0.015129996541086797,0.030743779052167262,0.9994127792130028,154.99541109870862,16.202970257073883,84.87759453002526,-6.815574946071244,-178.34713745117188,4381.2578125,True
1599571110.3060386,0.0,10,0.5,0.5,15.194484608840943,-0.15025,-0.02275,-0.001,0.40174524603686107,10,1,100,-0.2694304899053819,-10,-1,-100,6485.577885485836,0.016130900210577805,0.03133377657063092,0.9993788013082018,156.5640287189444,16.371376459802324,90.57670605220949,-7.198795196441648,-178.9917449951172,4381.2578125,True
1599571110.3837945,0.0,10,0.5,0.5,15.291373247528075,-0.15025,-0.02275,-0.001,0.4195806113047346,10,1,100,-0.264666026193673,-10,-1,-100,6485.26792318665,0.01698270999403215,0.03203001217280569,0.9993426168644408,157.67075881989166,16.492315715461153,96.09558235584356,-7.582091516467304,-179.3380126953125,4381.2578125,True
1599571110.4627013,0.0,10,0.5,0.5,15.34238293762207,-0.15025,-0.02275,-0.001,0.3926968247376634,10,1,100,-0.22183070659820092,-10,-1,-100,6485.112700017169,0.01735314288817868,0.03241566727906354,0.999323817862236,158.05582238665113,16.535411069775616,98.77716655592674,-7.773766771554577,-179.39932250976562,4381.2578125,True
1599571110.539501,0.0,10,0.5,0.5,15.33749008102417,-0.15025,-0.02275,-0.001,0.4978205389723905,10,1,100,-0.2820221963534553,-10,-1,-100,6484.585023666732,0.018224216661305418,0.03371871080734227,0.9992651932638167,158.54944003384227,16.59593737322455,106.456029416036,-8.3488947152361,-179.135986328125,4381.2578125,True
1599571110.621247,0.0,10,0.5,0.5,15.276838016891478,-0.15025,-0.02275,-0.001,0.4758526718343216,10,1,100,-0.23850650618038882,-10,-1,-100,6484.274097239017,0.01861041959999517,0.03469931080752326,0.9992245043591529,158.32027961738447,16.577805140560148,111.21440593929704,-8.732394611283777,-178.58792114257812,4381.2578125,True
1599571110.7090113,0.0,10,0.5,0.5,15.089245249176026,-0.15025,-0.02275,-0.001,0.5605365946640531,10,1,100,-0.22653402870818456,-10,-1,-100,6483.7464338130085,0.018842236256533057,0.036355450600049785,0.9991612739415596,157.1008100432561,16.457781842089364,117.67823939764273,-9.307761235690387,-177.20693969726562,4381.2578125,True
1599571110.786803,0.0,10,0.5,0.5,15.010895735168456,-0.15025,-0.02275,-0.001,0.46020929099623886,10,1,100,-0.2033945371561912,-10,-1,-100,6483.529205790721,0.018833577481226126,0.036942415790113245,0.9991399072576618,156.44352727134037,16.39096031464327,119.6182397448868,-9.49958039693191,-176.59783935546875,4381.2578125,True
1599571110.870614,0.0,10,0.5,0.5,14.912605182266237,-0.15025,-0.02275,-0.001,0.46926283151109094,10,1,100,-0.1988002987021968,-10,-1,-100,6483.310025249724,0.018777074111129232,0.037551580257738394,0.9991182614225262,155.6538333645896,16.30987924745731,121.43570797731401,-9.691414373951261,-175.91427612304688,4381.2578125,True
1599571110.9513936,0.0,10,0.5,0.5,14.535071462631226,-0.15025,-0.02275,-0.001,0.6214645161780336,10,1,100,-0.14986895566029287,-10,-1,-100,6482.7188910164405,0.018275357572655682,0.03948198926225501,0.9990531436462661,155.61338812986074,16.307615034914072,128.67335989387965,-10.266988885682977,-173.41741943359375,4381.2578125,True
1599571111.025169,0.0,10,0.5,0.5,14.380137514877319,-0.15025,-0.02275,-0.001,0.5034749166199308,10,1,100,-0.17216878050650913,-10,-1,-100,6482.501664683223,0.018018077951276412,0.04015587794168603,0.9990309576452945,157.73902160106303,16.529815575261537,132.88960714554298,-10.45885251581093,-172.4365234375,4381.2578125,True
1599571111.1229055,0.0,10,0.5,0.5,13.85526900062561,-0.15025,-0.02275,-0.001,0.6651995606349398,10,1,100,-0.0742742889362596,-10,-1,-100,6481.847546110628,0.016891611934465544,0.0422301715968602,0.9989651075253606,164.72667801098294,17.256121029899575,146.48646432544234,-11.034412097389257,-169.04873657226562,4381.2578125,True
1599571111.1967082,0.0,10,0.5,0.5,13.438393601989747,-0.15025,-0.02275,-0.001,0.6140859705354078,10,1,100,-0.07488963334742171,-10,-1,-100,6481.410651517799,0.015872454403171785,0.043641318286998944,0.9989211683258054,169.77202627614508,17.77696549611818,156.27666782475188,-11.418062242946535,-166.41969299316406,4381.2578125,True
1599571111.2794871,0.0,10,0.5,0.5,13.196004825210572,-0.15025,-0.02275,-0.001,0.552719787000946,10,1,100,-0.11253964586794313,-10,-1,-100,6481.1934255212545,0.015289229720901163,0.044355748785798885,0.998898797178269,172.4696737855982,18.05449982547036,161.45553224830266,-11.609861091787234,-164.99404907226562,4381.2578125,True
1599571111.3573184,0.0,10,0.5,0.5,12.450935995101927,-0.15025,-0.02275,-0.001,0.7062763878689632,10,1,100,0.06857966715291827,-10,-1,-100,6480.475332885166,0.013114362539708473,0.04639034553668377,0.9988372987309616,180.8909147936038,18.916870570092968,177.82765663283556,-12.185113418463306,-160.2752227783203,4381.2578125,True
1599571111.4381368,0.0,10,0.5,0.5,12.15251562347412,-0.15025,-0.02275,-0.001,0.5769704991125928,10,1,100,-0.05669450244387961,-10,-1,-100,6480.194137657178,0.01228071196597837,0.047052951199039995,0.9988169020882003,183.69713039275456,19.202899713435766,183.46193646179242,-12.37680528585871,-158.5546875,4381.2578125,True
1599571111.5172632,0.0,10,0.5,0.5,11.554741122436521,-0.15025,-0.02275,-0.001,0.6545050977793004,10,1,100,0.06223127758034212,-10,-1,-100,6479.695221846458,0.010447458632943548,0.04834894938870525,0.9987758655980437,189.19480682862388,19.761555346189613,194.87878086312034,-12.760081674697723,-154.8924102783203,4381.2578125,True
1599571111.6000714,0.0,10,0.5,0.5,10.59366651649475,-0.15025,-0.02275,-0.001,0.7094345161616378,10,1,100,0.23209598211146382,-10,-1,-100,6478.914608672378,0.007244271723195867,0.05001558472934159,0.9987221644738753,196.8072673581238,20.532070873384146,211.9736062444815,-13.334689898268277,-148.84962463378906,4381.2578125,True
1599571111.6761444,0.0,10,0.5,0.5,9.871798483276368,-0.15025,-0.02275,-0.001,0.6504213671373982,10,1,100,0.17643251557379966,-10,-1,-100,6478.35268953233,0.004848850869911313,0.05098233989430042,0.9986877838764943,201.1610294724956,20.971849155352764,222.9725297680199,-13.71754028320451,-144.45436096191406,4381.2578125,True
1599571111.76416,0.0,10,0.5,0.5,9.095744227981568,-0.15025,-0.02275,-0.001,0.636898815527812,10,1,100,0.22211594448418182,-10,-1,-100,6477.790273968247,0.0022685536706866247,0.05172606615723352,0.9986587343753324,204.6910541981524,21.32909211378617,233.30900433636916,-14.100213816618782,-139.76756286621094,4381.2578125,True
1599571111.8402202,0.0,10,0.5,0.5,8.652904759216307,-0.15025,-0.02275,-0.001,0.5954849842156553,10,1,100,0.11417516810103427,-10,-1,-100,6477.508084485307,0.0009186603693309481,0.05201456058715766,0.9986459039870191,206.07182348301086,21.46960807967723,238.11771245843144,-14.2914884985686,-137.31484985351562,4381.2578125,True
1599571111.919516,0.0,10,0.5,0.5,7.39634448928833,-0.15025,-0.02275,-0.001,0.6297811273428912,10,1,100,0.450005714562645,-10,-1,-100,6476.663937788457,-0.003345975401932541,0.05257783074947677,0.9986112237313823,208.30715791749665,21.702991731497296,250.51771699991707,-14.865113033897742,-129.51907348632812,4381.2578125,True
1599571112.0098586,0.0,10,0.5,0.5,6.8991797836303705,-0.15025,-0.02275,-0.001,0.580509545413765,10,1,100,0.1879044256290702,-10,-1,-100,6476.319723924156,-0.004821780215197398,0.05263256409845426,0.9986023050403892,208.57786152795228,21.735372670962608,254.12292890869,-15.056273874938224,-126.77507019042969,4381.2578125,True
1599571112.7079942,0.0,10,0.5,0.5,5.948591105270385,-0.15025,-0.02275,-0.001,0.5710306034357338,10,1,100,0.3777492793511473,-10,-1,-100,6475.756289575831,-0.00787047032053127,0.05258797562880491,0.9985852795411104,208.1034155610879,21.700559958061344,260.0954200449123,-15.438567499122534,-121.06835174560547,4381.2578125,True
1599571112.7748141,0.0,10,0.5,0.5,5.4064073629379275,-0.15025,-0.02275,-0.001,0.5575835730243043,10,1,100,0.2387680010296228,-10,-1,-100,6475.413043555804,-0.009357486340601448,0.05241771108279887,0.9985814043002332,207.18105988617592,21.614646594394145,262.20708173398464,-15.629719206076834,-118.10663604736328,4381.2578125,True
1599571112.8486173,0.0,10,0.5,0.5,4.384378680038452,-0.15025,-0.02275,-0.001,0.5222347957233312,10,1,100,0.4285861299602684,-10,-1,-100,6474.787087745266,-0.012414509486507196,0.05193609318774261,0.9985732432719212,203.8347238380358,21.290578933673004,264.40446493206366,-16.012084630630866,-111.964111328125,4381.2578125,True
1599571112.928843,0.0,10,0.5,0.5,3.3114546669006346,-0.15025,-0.02275,-0.001,0.4882277097011586,10,1,100,0.458968198987849,-10,-1,-100,6474.1616080489475,-0.015447371863533623,0.051184664190227436,0.998569731593264,198.57862328266035,20.7701122971469,263.86676014198105,-16.394593861278537,-105.53057098388672,4381.2578125,True
1599571113.003644,0.0,10,0.5,0.5,2.188462852287292,-0.15025,-0.02275,-0.001,0.4519240069208682,10,1,100,0.48424411519074073,-10,-1,-100,6473.473128257785,-0.01841075978040532,0.050168935335573255,0.998571039962407,191.95917341177105,20.105807818507948,261.1567224273269,-16.777301093019382,-98.8057632446289,4381.2578125,True
1599571113.083466,0.0,10,0.5,0.5,1.0200953521728515,-0.15025,-0.02275,-0.001,0.4155796498604967,10,1,100,0.5024808409633825,-10,-1,-100,6472.785124616348,-0.021247214455945785,0.04891500281206041,0.9985769266199572,182.6599426383051,19.154089339859663,254.31074227057792,-17.160250148051766,-91.7892837524414,4381.2578125,True
1599571113.1564212,0.0,10,0.5,0.5,0.36012416515350343,-0.15025,-0.02275,-0.001,0.4626035552466814,10,1,100,0.3720067376394666,-10,-1,-100,6472.439897519653,-0.02261595770774165,0.04820443360063427,0.9985814193335484,177.3945631573463,18.609303778903442,249.80378520742664,-17.35181499341015,-88.17160034179688,4381.2578125,True
1599571113.239138,0.0,10,0.5,0.5,-1.4614420057296753,-0.15025,-0.02275,-0.001,0.2684200767678373,10,1,100,0.6571321001867949,-10,-1,-100,6471.345603988739,-0.026429696222187757,0.04579635872458156,0.9986011038874192,183.57849772215118,19.259262573476256,267.2910576071068,-17.92652230716864,-76.88034057617188,4381.2578125,True
1599571113.3219159,0.0,10,0.5,0.5,-2.7770897855758663,-0.15025,-0.02275,-0.001,0.30825224859540634,10,1,100,0.5310876834509646,-10,-1,-100,6470.657565896632,-0.028726010759002562,0.04397496331011388,0.9986195566419414,197.25743065757516,20.680275737338583,293.4993301041166,-18.3092578518555,-69.01620483398438,4381.2578125,True
1599571113.404166,0.0,10,0.5,0.5,-4.108468949699401,-0.15025,-0.02275,-0.001,0.28135765294725645,10,1,100,0.5278812785545877,-10,-1,-100,6469.9065298654605,-0.030761347533997077,0.04208247376146859,0.998640478300378,208.61125970887497,21.851880298000232,317.04356881836594,-18.691567737784357,-61.071746826171875,4381.2578125,True
1599571113.483952,0.0,10,0.5,0.5,-5.419177561378478,-0.15025,-0.02275,-0.001,0.25713984339062546,10,1,100,0.5249680657341975,-10,-1,-100,6469.155977957882,-0.03256158851533509,0.040151457803400764,0.9986629077870169,217.4446135519932,22.761361707602067,337.3974368326362,-19.073463058473866,-53.341644287109375,4381.2578125,True
1599571113.5675116,0.0,10,0.5,0.5,-6.134065642929078,-0.15025,-0.02275,-0.001,0.34066588581808127,10,1,100,0.4369412712904134,-10,-1,-100,6468.748718206654,-0.033375481168703605,0.03916662233433907,0.9986751488605676,220.58276385536234,23.085094999645428,345.78089235565625,-19.264281241186385,-49.58270263671875,4381.2578125,True
1599571113.6459503,0.0,10,0.5,0.5,-7.924843402290343,-0.15025,-0.02275,-0.001,0.12180726156489213,10,1,100,0.5869825276601933,-10,-1,-100,6467.591389049194,-0.035457560461647435,0.03629373994993441,0.9987119333654499,226.1147683257655,23.66823345557767,365.2669057420753,-19.836408628770574,-38.748687744140625,4381.2578125,True
1599571113.7247684,0.0,10,0.5,0.5,-9.116725599098205,-0.15025,-0.02275,-0.001,0.20330316957439545,10,1,100,0.5032136236351246,-10,-1,-100,6466.778331961483,-0.03656787609957289,0.03443712090350548,0.9987376407953411,226.51025133363905,23.72928309314765,373.14267600845346,-20.217726556860036,-31.898101806640625,4381.2578125,True
1599571113.8015883,0.0,10,0.5,0.5,-9.77856605796814,-0.15025,-0.02275,-0.001,0.28778756658901306,10,1,100,0.4464934163842431,-10,-1,-100,6466.370094234473,-0.03704241524610071,0.033532550418963636,0.998750933684237,225.75597304913347,23.66449684025304,375.51346849083734,-20.40840626113797,-28.58453369140625,4381.2578125,True
1599571113.8853102,0.0,10,0.5,0.5,-11.82771250553131,-0.15025,-0.02275,-0.001,0.026881615470755016,10,1,100,0.5720187716604941,-10,-1,-100,6464.681982413051,-0.0385980161950322,0.03035346531822926,0.9987937025677439,217.4784438457298,22.86949357550252,375.7251536081112,-21.171533288193448,-16.070770263671875,4381.2578125,True
1599571113.9611413,0.0,10,0.5,0.5,-11.987458360290526,-0.15025,-0.02275,-0.001,0.34293397179480967,10,1,100,0.41819375694125405,-10,-1,-100,6464.681982413051,-0.0385980161950322,0.03035346531822926,0.9987937025677439,217.4784438457298,22.86949357550252,375.7251536081112,-21.171533288193448,-16.070770263671875,4381.2578125,True
1599571114.0429177,0.0,10,0.5,0.5,-13.030499131774901,-0.15025,-0.02275,-0.001,0.18559596389561223,10,1,100,0.4781612681440246,-10,-1,-100,6463.805462216726,-0.0391286462437053,0.028939347944856923,0.9988150295143047,211.84562896653006,22.315167859135716,372.83880800774676,-21.553418117878287,-10.259124755859375,4381.2578125,True
1599571114.1176891,0.0,10,0.5,0.5,-14.410945195007324,-0.15025,-0.02275,-0.001,0.13271929541447774,10,1,100,0.5016697985016846,-10,-1,-100,6462.523171305424,-0.03981320660936729,0.02718841426539878,0.9988371732716064,201.08232751232526,21.22573292907164,363.6824139078687,-22.126661562639697,-2.095855712890625,4381.2578125,True
1599571114.2263985,0.0,10,0.5,0.5,-15.32216435394287,-0.15025,-0.02275,-0.001,0.19885858813634164,10,1,100,0.4691899995430091,-10,-1,-100,6461.5856355333235,-0.04013018404593535,0.026213183171585337,0.9988505580698508,193.81451131234277,20.475091513984577,356.84739720636065,-22.509042820893093,2.97613525390625,4381.2578125,True
1599571114.3021975,0.0,10,0.5,0.5,-16.529628916168214,-0.15025,-0.02275,-0.001,0.17181034846237078,10,1,100,0.48554392988974016,-10,-1,-100,6460.2384321353165,-0.04055850032186575,0.025095142989800548,0.9988619733726791,198.23147423033848,20.943085436247582,374.68006787737414,-23.08258747649476,10.029541015625,4381.2578125,True
1599571114.3939507,0.0,10,0.5,0.5,-16.9999768447876,-0.15025,-0.02275,-0.001,0.2508161944177144,10,1,100,0.457281228798993,-10,-1,-100,6459.769187369384,-0.040683675188426104,0.0248106653466935,0.9988639894691453,202.79213271208272,21.419696131817364,386.61100467106127,-23.273635754591595,12.23272705078125,4381.2578125,True
1599571114.4837117,0.0,10,0.5,0.5,-17.77132002105713,-0.15025,-0.02275,-0.001,0.2299459705348186,10,1,100,0.46994156669945475,-10,-1,-100,6458.831195493694,-0.04090592068983088,0.024375370869467717,0.9988656300761846,210.88905779866738,22.25783920216558,408.93523310727824,-23.655500901483663,16.41729736328125,4381.2578125,True
1599571114.578458,0.0,10,0.5,0.5,-18.192322438812255,-0.15025,-0.02275,-0.001,0.25613610432519873,10,1,100,0.46121580538822926,-10,-1,-100,6458.361960205715,-0.04102368389716209,0.024228575623793613,0.9988643719158011,214.45623346591591,22.62330774889804,419.3550402348813,-23.846315000334805,18.398681640625,4381.2578125,True
1599571114.668218,0.0,10,0.5,0.5,-18.870594388580322,-0.15025,-0.02275,-0.001,0.252608740871789,10,1,100,0.47202136237251247,-10,-1,-100,6457.360508996644,-0.0412249229602316,0.024072338955676804,0.9988598641571929,220.70653027213422,23.257079552538663,438.78685900724247,-24.22770759442711,22.139694213867188,4381.2578125,True
1599571114.7560062,0.0,10,0.5,0.5,-19.747150973129276,-0.15025,-0.02275,-0.001,0.2801346709090857,10,1,100,0.48856864771697567,-10,-1,-100,6455.889359692344,-0.04155449515004979,0.0241891415408763,0.9988433858039707,228.12034507515457,23.995958043961352,464.7045227925793,-24.799236607208577,27.196884155273438,4381.2578125,True
1599571114.8558788,0.0,10,0.5,0.5,-20.294580030822754,-0.15025,-0.02275,-0.001,0.3024001089957053,10,1,100,0.48081591771459226,-10,-1,-100,6454.887939528911,-0.04178093915990373,0.024503342713460885,0.9988262808510714,231.95310345785202,24.371489248371667,480.09078798360434,-25.17991645997621,30.198883056640625,4381.2578125,True
1599571114.9436507,0.0,10,0.5,0.5,-20.607104287719725,-0.15025,-0.02275,-0.001,0.29553555048672875,10,1,100,0.47184442254075987,-10,-1,-100,6454.419705994776,-0.0419023447373135,0.024731893359005965,0.9988155620315464,233.7334050489134,24.545487533189043,487.5947514626235,-25.370163077449888,31.58905029296875,4381.2578125,True
1599571115.0364096,0.0,10,0.5,0.5,-21.2647136177063,-0.15025,-0.02275,-0.001,0.38144304630931614,10,1,100,0.5025736324241615,-10,-1,-100,6452.886123398785,-0.04228954835345003,0.02572446886660306,0.9987741715731301,238.29668181607593,24.989692953541173,508.8006312377857,-25.940563061965612,35.316619873046875,4381.2578125,True
1599571115.1291611,0.0,10,0.5,0.5,-21.666130176544186,-0.15025,-0.02275,-0.001,0.38189545005820913,10,1,100,0.4962334011967229,-10,-1,-100,6451.822253695107,-0.042581661955375535,0.026632253857952898,0.9987379661951196,240.6889772009438,25.22184140752225,521.7839007677352,-26.320576832565393,37.432525634765625,4381.2578125,True
1599571115.9218125,0.0,10,0.5,0.5,-21.885671868896484,-0.15025,-0.02275,-0.001,0.3492782910003555,10,1,100,0.4847375429506764,-10,-1,-100,6451.290082839434,-0.04274048335678972,0.027160612339848293,0.9987169530050807,241.72985828906232,25.323071168788257,527.997516826393,-26.510516206281245,38.3797607421875,4381.2578125,True
1599571115.9945316,0.0,10,0.5,0.5,-22.202355577087403,-0.15025,-0.02275,-0.001,0.4335930188166125,10,1,100,0.5045873180562336,-10,-1,-100,6450.225757302251,-0.0430633353290032,0.02840555805867367,0.9986684501984215,243.55946452613333,25.502066955753772,539.9736762989209,-26.890272137579377,40.053375244140625,4381.2578125,True
1599571116.073322,0.0,10,0.5,0.5,-22.26397393722534,-0.15025,-0.02275,-0.001,0.3094579362052726,10,1,100,0.472540086848943,-10,-1,-100,6450.225757302251,-0.0430633353290032,0.02840555805867367,0.9986684501984215,243.55946452613333,25.502066955753772,539.9736762989209,-26.890272137579377,40.053375244140625,4381.2578125,True
1599571116.1481206,0.0,10,0.5,0.5,-22.613806996154782,-0.15025,-0.02275,-0.001,0.5588922090084399,10,1,100,0.5324933450588858,-10,-1,-100,6448.567304269876,-0.04360640366305798,0.03066947855034864,0.9985779211684106,245.8309125823215,25.728306055073983,557.1076510406135,-27.459628845805334,42.01080322265625,4381.2578125,True
1599571116.2388804,0.0,10,0.5,0.5,-22.80722093048096,-0.15025,-0.02275,-0.001,0.5292199559938201,10,1,100,0.5229055809124987,-10,-1,-100,6447.44054713496,-0.04401059272926253,0.03245198496725975,0.9985038489656931,247.1322902167704,25.86136301650436,568.177805496212,-27.839033844215397,42.947357177734375,4381.2578125,True
1599571116.315677,0.0,10,0.5,0.5,-22.950793288040163,-0.15025,-0.02275,-0.001,0.5761642153662936,10,1,100,0.5283283997887109,-10,-1,-100,6446.315775352181,-0.044424803261260394,0.03449159348055453,0.9984171306795424,248.3344973628548,25.98725295097241,579.1135648986639,-28.218316946017723,43.589813232421875,4381.2578125,True
1599571116.3944623,0.0,10,0.5,0.5,-23.01937442932129,-0.15025,-0.02275,-0.001,0.49720284353943,10,1,100,0.5097149489706858,-10,-1,-100,6445.782212799997,-0.044629535730084394,0.03561858651972404,0.9983684294061257,248.9124306105815,26.048836603408287,584.5612012538209,-28.40791488452045,43.80091857910156,4381.2578125,True
1599571116.47026,0.0,10,0.5,0.5,-23.079171236801148,-0.15025,-0.02275,-0.001,0.7965657734642934,10,1,100,0.5609428142716304,-10,-1,-100,6444.06098010065,-0.04527877438941463,0.0393545020602803,0.9981989059087271,250.6007209285646,26.232417156338258,600.9281883457112,-28.976540923697378,43.993072509765625,4381.2578125,True
1599571116.5440645,0.0,10,0.5,0.5,-23.094694075393676,-0.15025,-0.02275,-0.001,0.5770249594016517,10,1,100,0.5197216981682613,-10,-1,-100,6443.472285673255,-0.04549118445181868,0.04074167005230627,0.9981335924907646,251.1573907366895,26.29397170707746,606.4128220503393,-29.166028357156275,43.910400390625,4381.2578125,True
1599571116.6238492,0.0,10,0.5,0.5,-23.01028783378601,-0.15025,-0.02275,-0.001,0.9444521141652982,10,1,100,0.5663981334167045,-10,-1,-100,6441.685773031204,-0.04610570515980968,0.045329326723648755,0.9979075689113183,252.83414492079024,26.4814866147771,623.0142730944988,-29.73433057003098,43.2225341796875,4381.2578125,True
1599571116.6986501,0.0,10,0.5,0.5,-22.89941333885193,-0.15025,-0.02275,-0.001,0.8653062975638188,10,1,100,0.5460013968463724,-10,-1,-100,6440.496305407374,-0.04647573179533991,0.04876341893497784,0.9977284877800471,253.95551949549025,26.60801844356115,634.201054348761,-30.11306815152868,42.39784240722656,4381.2578125,True
1599571116.771962,0.0,10,0.5,0.5,-22.830375412750243,-0.15025,-0.02275,-0.001,0.7235218725191722,10,1,100,0.5295678556627113,-10,-1,-100,6439.899399781367,-0.04665932813648088,0.05057673271160283,0.997629641302859,254.512593531943,26.671076721571108,639.8187844136337,-30.302398474791303,41.87550354003906,4381.2578125,True
1599571116.8507595,0.0,10,0.5,0.5,-22.532051512527467,-0.15025,-0.02275,-0.001,1.2137818938083165,10,1,100,0.5444084710883875,-10,-1,-100,6438.060456789914,-0.04695787950247202,0.05666195345238784,0.9972885142142122,256.135802703693,26.85512573557511,656.6832266898077,-30.870241345612587,39.87225341796875,4381.2578125,True
1599571116.9295452,0.0,10,0.5,0.5,-22.41053975944519,-0.15025,-0.02275,-0.001,0.84802377053251,10,1,100,0.5219271327941828,-10,-1,-100,6437.3928307171445,-0.0470213735378135,0.05884321082750895,0.9971591984082213,256.64429105858665,26.912847126239196,662.2647615164063,-31.059474987577193,39.058349609375,4381.2578125,True
1599571117.0053418,0.0,10,0.5,0.5,-21.96917687416077,-0.15025,-0.02275,-0.001,1.4085399616863792,10,1,100,0.5167125670852739,-10,-1,-100,6435.549762199167,-0.04702858572724771,0.06589616133149317,0.9967176170040682,258.0068069351606,27.06757136167876,678.708850218791,-31.627046264195045,36.17927551269531,4381.2578125,True
1599571117.0791442,0.0,10,0.5,0.5,-21.789514111328124,-0.15025,-0.02275,-0.001,0.9862278496681909,10,1,100,0.5057028970692631,-10,-1,-100,6434.892489452031,-0.046932310723862364,0.06843832970189145,0.9965508282259034,258.38765650384477,27.110855815673286,684.0358968325853,-31.81619764294137,35.074188232421875,4381.2578125,True
1599571117.1563654,0.0,10,0.5,0.5,-21.20364784698486,-0.15025,-0.02275,-0.001,1.6231777323359058,10,1,100,0.4616815958645072,-10,-1,-100,6432.988224596833,-0.04644231479395736,0.07650898466630426,0.9959866900023867,259.202538774902,27.20415983175816,699.2412204924752,-32.38355653618946,31.32147216796875,4381.2578125,True
1599571117.2326896,0.0,10,0.5,0.5,-20.745666202163694,-0.15025,-0.02275,-0.001,1.4594103664191334,10,1,100,0.4428963857406517,-10,-1,-100,6431.665648379014,-0.045824441330132415,0.08231997640003018,0.9955518781370862,259.3883751690702,27.227021090091483,708.4767733754949,-32.76173691283626,28.456390380859375,4381.2578125,True
1599571117.3074772,0.0,10,0.5,0.5,-20.480021326828002,-0.15025,-0.02275,-0.001,1.2151307457317617,10,1,100,0.46125923913832473,-10,-1,-100,6431.011979585164,-0.04542917715123339,0.08534291281140513,0.9953154158839431,259.34594221554914,27.223773023923833,712.7370547873029,-32.95081645289043,26.914810180664062,4381.2578125,True
1599571117.3837836,0.0,10,0.5,0.5,-19.943601693725583,-0.15025,-0.02275,-0.001,1.6062860849862035,10,1,100,0.39013801865495046,-10,-1,-100,6429.637852506363,-0.0444233458999314,0.09160644786700538,0.9948039128633567,258.93874970971194,27.182845047649224,720.3780556322902,-33.3289683055403,23.613677978515625,4381.2578125,True
1599571117.4675615,0.0,10,0.5,0.5,-19.071006190490724,-0.15025,-0.02275,-0.001,2.075838092742771,10,1,100,0.26347054862677144,-10,-1,-100,6427.666052771034,-0.04235896081600059,0.10152715515066225,0.9939305585430009,257.3598308830493,27.020038478631573,729.1045515434936,-33.896221152863944,18.117568969726562,4381.2578125,True
1599571117.541364,0.0,10,0.5,0.5,-18.722224207305906,-0.15025,-0.02275,-0.001,1.4670374648960145,10,1,100,0.37604569148807515,-10,-1,-100,6426.949621290783,-0.04150940001205655,0.1049634617588201,0.993609400824209,256.53138384809864,26.93476889587676,731.1337656340572,-34.08532418088409,16.14044189453125,4381.2578125,True
1599571117.6181595,0.0,10,0.5,0.5,-18.034593354415893,-0.15025,-0.02275,-0.001,1.8999443017934963,10,1,100,0.24417430074415794,-10,-1,-100,6425.569125121459,-0.03954292293636675,0.11197345107526141,0.9929241176947735,254.35395323468146,26.711997300122224,733.6336943393167,-34.463575466516616,11.9681396484375,4381.2578125,True
1599571117.693954,0.0,10,0.5,0.5,-17.30023466453552,-0.15025,-0.02275,-0.001,1.9909594984966916,10,1,100,0.18298474258230205,-10,-1,-100,6424.195622631931,-0.0372056886629647,0.1191232963351254,0.9921821289467819,251.4001730056843,26.412777661623597,733.756520105199,-34.841903640606475,7.5050048828125,4381.2578125,True
1599571117.7667594,0.0,10,0.5,0.5,-16.51405178794861,-0.15025,-0.02275,-0.001,2.089413545747269,10,1,100,0.11668336215020358,-10,-1,-100,6422.753436886822,-0.034487113760375436,0.12646339237772736,0.9913716000434932,247.56953443302586,26.02903101758211,731.1241450559787,-35.22032331001233,2.752197265625,4381.2578125,True
1599571117.841559,0.0,10,0.5,0.5,-15.281846852111816,-0.15025,-0.02275,-0.001,2.5777396100186527,10,1,100,-0.14489641397372593,-10,-1,-100,6420.6646749501815,-0.02964908540413754,0.1375204736997906,0.9900550747549771,239.99887555330247,25.28150272649118,721.258452311807,-35.78813348965425,-4.923248291015625,4381.2578125,True
1599571117.9257786,0.0,10,0.5,0.5,-14.369556457519533,-0.15025,-0.02275,-0.001,2.2903154731217272,10,1,100,-0.07389700554379214,-10,-1,-100,6419.223360949545,-0.02591203899812042,0.1448966171626052,0.9891074444011598,233.6030876280281,24.65775559739249,710.1746668252821,-36.16678040340195,-10.404052734375,4381.2578125,True
1599571117.9985514,0.0,10,0.5,0.5,-13.40691619720459,-0.15025,-0.02275,-0.001,2.3575185011974695,10,1,100,-0.15665513773890632,-10,-1,-100,6417.725533041288,-0.021781041314327308,0.15215096817267407,0.9881172345037718,226.03710901147969,23.92537555158877,695.0586352017616,-36.54548233849763,-16.17724609375,4381.2578125,True
1599571118.07637,0.0,10,0.5,0.5,-12.857942530059816,-0.15025,-0.02275,-0.001,2.0308697533055184,10,1,100,0.011358342409875655,-10,-1,-100,6417.006197497831,-0.019574841784973228,0.1557128159357438,0.9876083963406014,223.22456623850002,23.667718921129328,690.3032761730371,-36.73482128572225,-19.17364501953125,4381.2578125,True
1599571118.1481502,0.0,10,0.5,0.5,-11.330078248214722,-0.15025,-0.02275,-0.001,2.827687153272411,10,1,100,-0.5618900848476241,-10,-1,-100,6414.789720572531,-0.012381360451734302,0.1661306812626659,0.9860260131743821,232.18762466570539,24.771424792195603,730.143746096151,-37.30220845538639,-28.601806640625,4381.2578125,True
1599571118.8481023,0.0,10,0.5,0.5,-10.214539958572388,-0.15025,-0.02275,-0.001,2.5220643673905174,10,1,100,-0.4219840883536543,-10,-1,-100,6413.297011735151,-0.007142833740051547,0.17275532965785453,0.9849388691695378,240.53224601884284,25.785766247516886,764.7202703901986,-37.67977230814415,-35.25421142578125,4381.2578125,True
1599571118.916917,0.0,10,0.5,0.5,-9.580025087738036,-0.15025,-0.02275,-0.001,2.2197809562493442,10,1,100,-0.2043001099340525,-10,-1,-100,6412.5113733954495,-0.004391496648769013,0.17596495339355428,0.9843866364058321,244.36020170077438,26.262275988687694,781.1106219772815,-37.86834398058291,-38.6905517578125,4381.2578125,True
1599571118.996745,0.0,10,0.5,0.5,-8.38537580947876,-0.15025,-0.02275,-0.001,2.5642337504136217,10,1,100,-0.541675737049588,-10,-1,-100,6411.010886122589,0.0011430264958442618,0.18194963538056136,0.9833071868319232,251.1620802289836,27.131329941274135,811.4986209771563,-38.245093276853474,-45.78704833984375,4381.2578125,True
1599571119.0685542,0.0,10,0.5,0.5,-7.143256453704834,-0.15025,-0.02275,-0.001,2.5963424092475647,10,1,100,-0.6314073633414194,-10,-1,-100,6409.45861385914,0.006953166003207331,0.1876185375542352,0.9822173577414226,257.50658632876826,27.955200514331636,840.8245250723252,-38.62136204713568,-53.1776123046875,4381.2578125,True
1599571119.138364,0.0,10,0.5,0.5,-5.251917221832276,-0.15025,-0.02275,-0.001,2.8794689113310636,10,1,100,-1.0421274019082318,-10,-1,-100,6407.103994000005,0.015928785128993716,0.19528369387540764,0.9806174344313335,264.3739069118229,28.89472772288937,876.7993138730977,-39.18507494051666,-64.81845092773438,4381.2578125,True
1599571119.2161582,0.0,10,0.5,0.5,-4.500509846496582,-0.15025,-0.02275,-0.001,2.3742749278799584,10,1,100,-0.4779584330038269,-10,-1,-100,6406.325592706446,0.018913797436132775,0.19759678131646558,0.9801009031114694,265.7042946411317,29.098004818296385,885.7500378158651,-39.37286445718408,-68.8470458984375,4381.2578125,True
1599571119.2899623,0.0,10,0.5,0.5,-3.1068819969177244,-0.15025,-0.02275,-0.001,2.620239030419755,10,1,100,-0.8379575870393088,-10,-1,-100,6404.766753591946,0.024856016494908782,0.20188101055177396,0.9790946001396388,266.73752414540536,29.31609385659602,898.3229273387853,-39.74838685899573,-77.12625122070312,4381.2578125,True
1599571119.3607728,0.0,10,0.5,0.5,-1.001012768173218,-0.15025,-0.02275,-0.001,2.8098877673396014,10,1,100,-1.1901089413921104,-10,-1,-100,6402.365735686617,0.033413256992009685,0.20744803983460822,0.9776752349456156,263.7592823897505,29.123057502564908,901.9159429292231,-40.31180763083014,-90.10050201416016,4381.2578125,True
1599571119.434576,0.0,10,0.5,0.5,-0.16932119998931877,-0.15025,-0.02275,-0.001,2.4382565327204886,10,1,100,-0.6481298817374015,-10,-1,-100,6401.525611611782,0.03621530753950739,0.20908023971186385,0.9772276627592202,261.4440650738863,28.90938461569848,898.5308874656372,-40.49971475267941,-94.57316589355469,4381.2578125,True
1599571119.5063837,0.0,10,0.5,0.5,2.093967053031921,-0.15025,-0.02275,-0.001,2.764190633948947,10,1,100,-1.2159713149552542,-10,-1,-100,6399.0518961899215,0.04387410274891808,0.21347857922619484,0.9759620685864501,250.18138605894706,27.793307244685813,872.922724417833,-41.06386839180631,-108.4325180053711,4381.2578125,True
1599571119.5951462,0.0,10,0.5,0.5,4.438834261703492,-0.15025,-0.02275,-0.001,2.7385712507065803,10,1,100,-1.2169414962702638,-10,-1,-100,6396.58814167988,0.050794322348336376,0.21720112266614375,0.9748043953172042,232.25918739035484,25.957483203177816,822.6196816196573,-41.62866483099577,-122.82664489746094,4381.2578125,True
1599571119.6699436,0.0,10,0.5,0.5,5.347694635009765,-0.15025,-0.02275,-0.001,2.5010355969106395,10,1,100,-0.7538830128287127,-10,-1,-100,6395.733634939883,0.052823138356440376,0.21838543276521757,0.9744318954191334,224.9024193629824,25.196345223923238,800.5025631947968,-41.81703369130334,-127.61360168457031,4381.2578125,True
1599571119.744743,0.0,10,0.5,0.5,6.964600336074828,-0.15025,-0.02275,-0.001,2.6390186474502717,10,1,100,-0.9697323083603179,-10,-1,-100,6394.045084533747,0.05657776956409023,0.2206779056062162,0.9737043791461588,229.97422685107705,25.904398904259182,826.5626542927689,-42.19342435207119,-136.99801635742188,4381.2578125,True
1599571119.827522,0.0,10,0.5,0.5,8.538210566329955,-0.15025,-0.02275,-0.001,2.6591072552914197,10,1,100,-0.9651225733619679,-10,-1,-100,6392.366759683704,0.059898768759179426,0.2229093880145657,0.9729971953896405,242.85120798676223,27.511659780260757,881.2297169948299,-42.56898191174492,-146.0921630859375,4381.2578125,True
1599571119.9028344,0.0,10,0.5,0.5,9.41116577720642,-0.15025,-0.02275,-0.001,2.56271107874125,10,1,100,-0.8018698020408542,-10,-1,-100,6391.519047528389,0.06138561046747223,0.22402959691673613,0.9726471850228429,248.2215826872305,28.19958156659744,904.9800520080328,-42.75650077283424,-150.52633666992188,4381.2578125,True
1599571119.978666,0.0,10,0.5,0.5,10.908196154403685,-0.15025,-0.02275,-0.001,2.7203563712746197,10,1,100,-0.942863780531943,-10,-1,-100,6389.7645738623105,0.06397772380189515,0.22645497502988413,0.9719182039355694,257.03822086386987,29.358993283530957,945.9244093181147,-43.13114097210026,-159.16421508789062,4381.2578125,True
1599571120.064044,0.0,10,0.5,0.5,12.365189557266236,-0.15025,-0.02275,-0.001,2.7660325434967676,10,1,100,-0.9280206760152474,-10,-1,-100,6388.072685144492,0.06615828594997715,0.22904886743138964,0.9711640940276565,264.6205866256022,30.37421824388354,982.8786148834214,-43.50538390409873,-167.495849609375,4381.2578125,True
1599571120.135851,0.0,10,0.5,0.5,14.36543848991394,-0.15025,-0.02275,-0.001,2.986689873108446,10,1,100,-0.9936142278910396,-10,-1,-100,6385.418628998683,0.06869937267487247,0.23338822910479207,0.9699537776148964,271.5094648715456,31.369565925989264,1022.4570167284522,-44.06639177282413,-179.41644287109375,4381.2578125,True
1599571120.2156355,0.0,10,0.5,0.5,-38.74991025180817,-0.15025,-0.02275,-0.001,2.922512229638812,10,1,100,-0.883104690900792,-10,-1,-100,6383.668047111249,0.06997274107424518,0.2367260882406429,0.9690534426195698,273.46016222055346,31.72216718376072,1039.2801321007248,-44.440367598397806,173.02403259277344,4381.2578125,True
1599571120.2904384,0.0,10,0.5,0.5,-37.3793719751358,-0.15025,-0.02275,-0.001,3.2259274039023107,10,1,100,-0.9144258350405989,-10,-1,-100,6380.949396193144,0.07138439780809613,0.2424936928133311,0.9675231659734714,273.0921927251751,31.87234031056266,1052.2358052163738,-45.0014984041319,162.26779174804688,4381.2578125,True
1599571120.370789,0.0,10,0.5,0.5,-37.47373925056458,-0.15025,-0.02275,-0.001,2.8856508567006616,10,1,100,-0.8154460644288859,-10,-1,-100,6380.03974933573,0.07174289665598217,0.2446171691652262,0.9669619420271928,272.23313677375654,31.8404923876273,1053.7370597975514,-45.1886038981812,158.7489013671875,4381.2578125,True
1599571120.4465835,0.0,10,0.5,0.5,-37.57860588684082,-0.15025,-0.02275,-0.001,2.9229251316929927,10,1,100,-0.816689719635824,-10,-1,-100,6379.13018604042,0.07206106649748015,0.24686153557915283,0.9663677275999795,270.97109019120774,31.764634733460003,1053.6598257983433,-45.3757433969673,155.18370056152344,4381.2578125,True
1599571120.5243778,0.0,10,0.5,0.5,-36.55004932022094,-0.15025,-0.02275,-0.001,3.5213358684559357,10,1,100,-0.8743534797778546,-10,-1,-100,6376.409375646384,0.07285703878364128,0.25431607892346386,0.9643729485529309,264.32622435377493,31.22558677129245,1041.9772275539092,-45.93736631495718,144.10610961914062,4381.2578125,True
1599571120.5987003,0.0,10,0.5,0.5,-36.03171234893799,-0.15025,-0.02275,-0.001,3.390284561422334,10,1,100,-0.8470524117370486,-10,-1,-100,6374.518367685378,0.07331765908958084,0.25987098083315274,0.9628559571329656,257.1514441597494,30.564837272530898,1022.9031127997548,-46.3119228359849,136.37767028808594,4381.2578125,True
1599571120.685468,0.0,10,0.5,0.5,-35.47107418937683,-0.15025,-0.02275,-0.001,3.502857469042646,10,1,100,-0.858162368110899,-10,-1,-100,6372.608766538091,0.07382520543444235,0.2659106802814013,0.9611666604470034,247.5367884893364,29.629179774473464,993.4858821115711,-46.6865320340458,128.37115478515625,4381.2578125,True
1599571120.7652552,0.0,10,0.5,0.5,-34.218126311874386,-0.15025,-0.02275,-0.001,3.9950452154501055,10,1,100,-0.9185759544862236,-10,-1,-100,6369.778995496803,0.07482451690139488,0.2758376764895454,0.9582874662121601,267.2736666872011,32.371111855069664,1086.8090245926307,-47.24716607741918,115.83927917480469,4381.2578125,True
1599571120.834068,0.0,10,0.5,0.5,-34.20343007583618,-0.15025,-0.02275,-0.001,3.395857793513139,10,1,100,-0.8680840347867107,-10,-1,-100,6368.809636553284,0.07526410369853843,0.2793701667507406,0.9572291390383596,275.0969431320261,33.45420357459716,1123.4057634069288,-47.43354523468614,111.52284240722656,4381.2578125,True
1599571120.9058788,0.0,10,0.5,0.5,-32.82080539588927,-0.15025,-0.02275,-0.001,4.280278047990391,10,1,100,-1.0219893877401862,-10,-1,-100,6365.9673379649175,0.0770545896157473,0.2905759590295119,0.9537443065377786,296.168196370861,36.44673899996028,1224.78217545388,-47.9914286034888,98.15617370605469,4381.2578125,True
1599571120.9816759,0.0,10,0.5,0.5,-33.46564976730346,-0.15025,-0.02275,-0.001,3.165417593105736,10,1,100,-0.8437763177133878,-10,-1,-100,6365.9673379649175,0.0770545896157473,0.2905759590295119,0.9537443065377786,296.168196370861,36.44673899996028,1224.78217545388,-47.9914286034888,98.15617370605469,4381.2578125,True
1599571121.0604658,0.0,10,0.5,0.5,-31.178891634368895,-0.15025,-0.02275,-0.001,4.48773886521124,10,1,100,-1.1417642792450597,-10,-1,-100,6363.065276947571,0.0797571330400884,0.3025481070752084,0.9497912626648204,313.77347645461873,39.03361141839625,1313.8049692298018,-48.54795412177391,84.16322326660156,4381.2578125,True
1599571121.7162783,0.0,10,0.5,0.5,-30.288642335891723,-0.15025,-0.02275,-0.001,3.74943541241686,10,1,100,-0.9999251795424673,-10,-1,-100,6362.035376651329,0.08091693276016403,0.30666543353292736,0.9483716370014176,317.985687509959,39.691459832841545,1336.965957546407,-48.733317113567175,79.35955810546875,4381.2578125,True
1599571121.7781122,0.0,10,0.5,0.5,-28.628140726089477,-0.15025,-0.02275,-0.001,4.267276912070191,10,1,100,-1.1775681114786158,-10,-1,-100,6360.099996045814,0.08357789185410305,0.31505970006918604,0.9453846420296547,323.3783790848683,40.632608555564275,1371.0045092115163,-49.10403271241053,69.54339599609375,4381.2578125,True
1599571121.8509164,0.0,10,0.5,0.5,-27.684904255676265,-0.15025,-0.02275,-0.001,3.8997065851949593,10,1,100,-1.0870213561356534,-10,-1,-100,6359.133469667751,0.08516332341333285,0.3192873047082918,0.9438235139035849,324.39060426184403,40.89679129663504,1381.073812391021,-49.289442841339635,64.53036499023438,4381.2578125,True
1599571121.918746,0.0,10,0.5,0.5,-26.740075228118894,-0.15025,-0.02275,-0.001,3.9498621193902816,10,1,100,-1.119921835710683,-10,-1,-100,6358.10455963749,0.08689253256819686,0.3235274763039956,0.9422206004223493,324.1684382298853,41.01111577448172,1385.9557284363125,-49.474916806394795,59.44734191894531,4381.2578125,True
1599571121.9901412,0.0,10,0.5,0.5,-25.000719909667968,-0.15025,-0.02275,-0.001,4.464222678307015,10,1,100,-1.378545503675035,-10,-1,-100,6356.109063101932,0.09080332435095041,0.3320003132943595,0.938898582520638,319.7285103251629,40.75766871615063,1378.6063098874683,-49.84609847461652,49.07099914550781,4381.2578125,True
1599571122.0644658,0.0,10,0.5,0.5,-22.396681802749633,-0.15025,-0.02275,-0.001,4.995847156133795,10,1,100,-1.765133041841189,-10,-1,-100,6353.148437160067,0.09785758711958549,0.3444757606903765,0.9336810713192806,302.212252827392,39.057727822197485,1319.682765148209,-50.4034113024923,32.9783935546875,4381.2578125,True
1599571122.1641893,0.0,10,0.5,0.5,-20.548020967102048,-0.15025,-0.02275,-0.001,4.636048564362277,10,1,100,-1.664697661428207,-10,-1,-100,6351.091158533585,0.103336565205301,0.35248378195774105,0.9300950154410775,286.2200746087601,37.39066979708703,1260.1325567369768,-50.77506185422929,21.895782470703125,4381.2578125,True
1599571122.2335184,0.0,10,0.5,0.5,-19.500908155441284,-0.15025,-0.02275,-0.001,4.268779073293501,10,1,100,-1.4451154272068991,-10,-1,-100,6350.062816045131,0.10629573182529707,0.3563585208136227,0.9282832660558151,298.14580708550386,39.16801786725619,1317.8607712906967,-50.960401710045915,16.24755859375,4381.2578125,True
1599571122.3098927,0.0,10,0.5,0.5,-17.579094513702394,-0.15025,-0.02275,-0.001,4.705280138374286,10,1,100,-1.8477014356000632,-10,-1,-100,6348.006163217477,0.11261917324504085,0.36378939985444575,0.9246481462541013,324.18314849717865,43.062178378588236,1444.0598625583248,-51.32975781967917,4.73602294921875,4381.2578125,True
1599571122.384694,0.0,10,0.5,0.5,-14.684673106765747,-0.15025,-0.02275,-0.001,5.092076454063924,10,1,100,-2.3574444720940755,-10,-1,-100,6344.92154253996,0.12296945251872686,0.37399451690616803,0.9192424136599477,355.3106447657436,47.91134652050575,1600.6999121195367,-51.88150987905874,-13.07159423828125,4381.2578125,True
1599571122.4664745,0.0,10,0.5,0.5,-12.63098846359253,-0.15025,-0.02275,-0.001,4.7482861461561185,10,1,100,-2.1336497074918572,-10,-1,-100,6342.865040299832,0.13030501552616794,0.38008157832690737,0.9157284514228288,368.8876888588962,50.19564262613556,1674.5155942354293,-52.248687451558126,-25.30487060546875,4381.2578125,True
1599571122.53928,0.0,10,0.5,0.5,-11.46352721786499,-0.15025,-0.02275,-0.001,4.456518065390914,10,1,100,-1.8181770720075965,-10,-1,-100,6341.774907956715,0.13406087786237927,0.3828960914799013,0.9140121794353637,372.5274663839155,50.91988630563959,1697.5687845115428,-52.4322989412255,-31.53021240234375,4381.2578125,True
1599571122.6130807,0.0,10,0.5,0.5,-8.349267879486083,-0.15025,-0.02275,-0.001,5.008639436815946,10,1,100,-2.705745748658263,-10,-1,-100,6338.625997119234,0.14549821069575175,0.39041235554884085,0.9090701091330305,369.08131670166006,51.20290415582864,1701.8702700407214,-52.98373866273635,-50.6412353515625,4381.2578125,True
1599571122.6858876,0.0,10,0.5,0.5,-6.124562936401367,-0.15025,-0.02275,-0.001,4.733184471202164,10,1,100,-2.405766847944582,-10,-1,-100,6336.5067977552535,0.15311385518570925,0.3946765276960783,0.9059727290795989,353.8360627042234,49.67525903844633,1644.5649721822906,-53.351944471173674,-63.744049072265625,4381.2578125,True
1599571122.762683,0.0,10,0.5,0.5,-3.8318932888031005,-0.15025,-0.02275,-0.001,4.723231312855939,10,1,100,-2.4736005756440376,-10,-1,-100,6334.325109514175,0.16059363740783156,0.3983978836164266,0.903044190476897,327.90630494474107,46.65409481511234,1535.7641445369004,-53.72040193127839,-77.1358642578125,4381.2578125,True
1599571122.8404746,0.0,10,0.5,0.5,-1.4890425186157226,-0.15025,-0.02275,-0.001,4.7152222298874324,10,1,100,-2.529964344471619,-10,-1,-100,6332.202524345834,0.1678423915872327,0.4016477631803731,0.90028218127345,345.780369869668,49.85873241372601,1631.076412203713,-54.087537100179,-90.81600952148438,4381.2578125,True
1599571122.9142773,0.0,10,0.5,0.5,0.8914441738128661,-0.15025,-0.02275,-0.001,4.711471333376281,10,1,100,-2.5747045235623323,-10,-1,-100,6330.018956674263,0.1747752744652696,0.4045161255406867,0.897674945407936,374.78777770206756,54.68790281145588,1779.948260703858,-54.452565996119255,-104.7831802368164,4381.2578125,True
1599571122.9920697,0.0,10,0.5,0.5,3.3211883916854856,-0.15025,-0.02275,-0.001,4.715047087822743,10,1,100,-2.6098581622346027,-10,-1,-100,6327.833061479381,0.18133252951572384,0.40710893241450063,0.8951987661339545,395.58925625892175,58.320684966730596,1891.5101463775125,-54.81665241298353,-119.03453063964844,4381.2578125,True
1599571123.0678635,0.0,10,0.5,0.5,4.708402200508118,-0.15025,-0.02275,-0.001,4.596071074579186,10,1,100,-2.3054301754072,-10,-1,-100,6326.740489611519,0.1844579280470782,0.40833829271429833,0.8939995030668366,401.44457381755814,59.472831294353284,1926.1834621224268,-54.99867487079124,-126.26559448242188,4381.2578125,True
1599571123.141668,0.0,10,0.5,0.5,7.174904848670959,-0.15025,-0.02275,-0.001,4.741979448169958,10,1,100,-2.6525698015634958,-10,-1,-100,6324.493666898576,0.19038970626354662,0.41074183375324885,0.8916517850337646,402.0515788350915,60.16848198696329,1942.9982161823764,-55.36317307993851,-140.65042114257812,4381.2578125,True
1599571123.217051,0.0,10,0.5,0.5,10.638417454719542,-0.15025,-0.02275,-0.001,4.91101781013822,10,1,100,-2.9604727157026565,-10,-1,-100,6321.151148626697,0.19852005817637863,0.41443017679123617,0.8881651958202552,375.68207133518723,57.254438552756206,1835.7572964993076,-55.91143949385309,-161.725830078125,4381.2578125,True
1599571123.294883,0.0,10,0.5,0.5,12.993202925300599,-0.15025,-0.02275,-0.001,4.839712451887925,10,1,100,-2.7020624406526927,-10,-1,-100,6318.902451560949,0.2035000891942715,0.4171037593885271,0.8857833638096174,342.45513586787615,52.917514323208835,1685.2303395736535,-56.27764711256112,-175.38204956054688,4381.2578125,True
1599571123.3676884,0.0,10,0.5,0.5,-39.126577548789975,-0.15025,-0.02275,-0.001,4.899934399927114,10,1,100,-2.7303903963107548,-10,-1,-100,6316.653582051629,0.20822179043349115,0.42005066339741276,0.8832899445641079,369.6528162647808,57.87668617998128,1830.8671644494218,-56.64217467812987,171.28497314453125,4381.2578125,True
1599571123.4494693,0.0,10,0.5,0.5,-38.29492168254852,-0.15025,-0.02275,-0.001,4.783745936176915,10,1,100,-2.51667494337469,-10,-1,-100,6315.4978167840745,0.21051435691541956,0.42164646436426284,0.8819852405917029,387.22779491787315,60.98974672481069,1923.8674731086035,-56.823538518695834,164.74037170410156,4381.2578125,True
1599571123.5282593,0.0,10,0.5,0.5,-35.912412998390195,-0.15025,-0.02275,-0.001,5.2133689318771435,10,1,100,-3.037526510369148,-10,-1,-100,6312.094834428281,0.21728134023373163,0.4269783379889757,0.8777689434437774,425.4114440074537,68.07034537737093,2133.411878530474,-57.365979269442086,145.50827026367188,4381.2578125,True
