Timestamp,Input Throttle,horizon,dT,dt,Input Roll,Roll P,Roll I,Roll D,Input Pitch,Pitch P,Pitch I,Pitch D,Input Yaw,Yaw P,Yaw I,Yaw D,Altitude,Direction X,Direction Y,Direction Z,Drag X,Drag Y,Drag Z,Vertical Velocity,Roll,Mass,Has Fuel
1599571566.268762,0.0,10,0.5,0.5,-8.121819290161133,-0.15025,-0.03,-0.001,-0.06859102974829023,10,1,100,0.6815874823831367,-10,-1,-100,6483.617966993363,-0.06725825585808078,-0.007002337063467845,0.997711027449621,205.0731819924394,21.49877227186916,-156.76521269343823,9.590824285058892,-35.94464111328125,4381.2578125,True
1599571566.3375778,0.0,10,0.5,0.5,-8.284486869812012,-0.15025,-0.03,-0.001,-0.06733163870649389,10,1,100,0.6998950407743152,-10,-1,-100,6483.9978830156615,-0.06744540728178713,-0.0069715010122448325,0.9976986094057814,204.61204805962413,21.456730303724566,-150.26664952837987,9.21080193866596,-35.941314697265625,4381.2578125,True
1599571566.423349,0.0,10,0.5,0.5,-8.440700622558593,-0.15025,-0.03,-0.001,-0.05214438237895107,10,1,100,0.7007189985378653,-10,-1,-100,6484.316760077141,-0.06756172145820538,-0.006799064543598755,0.9976919296631279,204.1495188441779,21.41436018924727,-143.78939183971767,8.830798211958681,-35.980712890625,4381.2578125,True
1599571566.4951565,0.0,10,0.5,0.5,-8.587164222717284,-0.15025,-0.03,-0.001,-0.05300805188238231,10,1,100,0.6982093632035435,-10,-1,-100,6484.5389362131245,-0.06758322700512977,-0.0066439746907302425,0.997691517969298,203.94213438511701,21.395575180594445,-140.57563944670463,8.640801210926188,-36.084075927734375,4381.2578125,True
1599571566.5719523,0.0,10,0.5,0.5,-8.685963752746583,-0.15025,-0.03,-0.001,-0.027160626901660524,10,1,100,0.7034083068369121,-10,-1,-100,6484.8568047017325,-0.06758860132899608,-0.006261967347669824,0.9976936246841146,203.59145155269385,21.364348943584915,-134.2050824990452,8.260811304746714,-36.500946044921875,4381.2578125,True
1599571566.6477492,0.0,10,0.5,0.5,-8.739902381896973,-0.15025,-0.03,-0.001,-0.002425181355846802,10,1,100,0.6973096128024971,-10,-1,-100,6485.175624349969,-0.06747660022189896,-0.005684127560518709,0.9977046652774407,203.3169396521598,21.340368031312558,-127.8982485922087,7.880820595674935,-37.208221435546875,4381.2578125,True
1599571566.7295299,0.0,10,0.5,0.5,-8.747656524658204,-0.15025,-0.03,-0.001,0.02692110786544706,10,1,100,0.6886960703565728,-10,-1,-100,6485.493928956334,-0.06723513373846417,-0.004886866826950917,0.9977251902822674,203.08576459513137,21.319929841096496,-121.62866238573321,7.500821349805243,-38.208740234375,4381.2578125,True
1599571566.803929,0.0,10,0.5,0.5,-8.593716300964354,-0.15025,-0.03,-0.001,0.12150235248701025,10,1,100,0.6484095644290742,-10,-1,-100,6485.909325249959,-0.06658825494169304,-0.003297812239123303,0.9977750892552166,202.70831992172867,21.283725867257434,-112.2237237843133,6.9307885074645625,-40.260406494140625,4381.2578125,True
1599571566.8827198,0.0,10,0.5,0.5,-8.482542518615723,-0.15025,-0.03,-0.001,0.10617958758951285,10,1,100,0.6503565613158099,-10,-1,-100,6486.1650648599025,-0.06595734850274262,-0.0019895170108580637,0.9978204598025395,202.33646713414697,21.245186822332748,-105.90342772348038,6.550731090544218,-41.995574951171875,4381.2578125,True
1599571566.957526,0.0,10,0.5,0.5,-8.32133673095703,-0.15025,-0.03,-0.001,0.1372860704107363,10,1,100,0.6305255571746853,-10,-1,-100,6486.4202905200655,-0.06514355411286589,-0.0005155628531413984,0.9978757695988458,201.76710166761933,21.184350963597332,-99.50311928542354,6.170633349661632,-44.0250244140625,4381.2578125,True
1599571567.0472856,0.0,10,0.5,0.5,-8.109822257995605,-0.15025,-0.03,-0.001,0.16930627885114324,10,1,100,0.6080596077449884,-10,-1,-100,6486.67500233592,-0.06414028371442355,0.0011159569695621254,0.9979402680747358,200.89399529336328,21.090046104909497,-92.99155322900293,5.790481513128199,-46.348785400390625,4381.2578125,True
1599571567.1216598,0.0,10,0.5,0.5,-7.684931655883789,-0.15025,-0.03,-0.001,0.2014461243768399,10,1,100,0.5755711343711164,-10,-1,-100,6486.868655581959,-0.06293570447802592,0.0028839569549507257,0.9980134166904455,199.59486849289138,20.94951633199477,-86.34337901059159,5.410257765009334,-48.96697998046875,4381.2578125,True
1599571567.1964586,0.0,10,0.5,0.5,-7.4337558288574215,-0.15025,-0.03,-0.001,0.1275536179995287,10,1,100,0.6206024706715979,-10,-1,-100,6486.965229961905,-0.062254107959308594,0.003810520103721901,0.9980530576971998,198.74573210426502,20.85777208537846,-82.96353582287367,5.220112868791689,-50.3865966796875,4381.2578125,True
1599571567.2802353,0.0,10,0.5,0.5,-6.680877853393554,-0.15025,-0.03,-0.001,0.35476379962987287,10,1,100,0.4272633835097125,-10,-1,-100,6487.254434958217,-0.05988167179854743,0.0067087522677467155,0.998182938155938,195.1765375632543,20.47348295368463,-72.59046186179907,4.649513433095889,-55.08795166015625,4381.2578125,True
1599571567.3525565,0.0,10,0.5,0.5,-5.817140502929687,-0.15025,-0.03,-0.001,0.4048444354600408,10,1,100,0.3472124136752482,-10,-1,-100,6487.544092593482,-0.05700417697682086,0.009786648445354004,0.9983259714739481,189.66029019125583,19.88342443658814,-61.894514508497686,4.078587835398661,-60.4527587890625,4381.2578125,True
1599571567.4276447,0.0,10,0.5,0.5,-5.457852249145508,-0.15025,-0.03,-0.001,0.21438339077066224,10,1,100,0.5155490885340582,-10,-1,-100,6487.578627286828,-0.05592822820519695,0.010838682186190803,0.9983759593751717,187.2942978635184,19.63148721028687,-58.274037248700274,3.8881873582540574,-62.38861083984375,4381.2578125,True
1599571567.508429,0.0,10,0.5,0.5,-4.764887229919434,-0.15025,-0.03,-0.001,0.3286719696925476,10,1,100,0.37123435006211747,-10,-1,-100,6487.770737550221,-0.05364863931035458,0.012819042841017115,0.9984775889526953,181.6642568837442,19.03405970947054,-50.99257246403961,3.5072262239038543,-66.48355102539062,4381.2578125,True
1599571567.580234,0.0,10,0.5,0.5,-4.020154174804687,-0.15025,-0.03,-0.001,0.3544781483654183,10,1,100,0.3220242623470505,-10,-1,-100,6487.83979719691,-0.05114127269438646,0.014837876051823524,0.9985811973302267,174.7559090734516,18.30428940791082,-43.72796520953786,3.1260048044653748,-70.8736572265625,4381.2578125,True
1599571567.6670027,0.0,10,0.5,0.5,-3.2238401641845704,-0.15025,-0.03,-0.001,0.36754079176289506,10,1,100,0.2735686474364052,-10,-1,-100,6487.9694010420935,-0.048435385619088944,0.01677544328499646,0.9986854349205869,166.39970210382978,17.425064773504975,-36.55994514739777,2.744462964114952,-75.56036376953125,4381.2578125,True
1599571567.741805,0.0,10,0.5,0.5,-2.3740242538452145,-0.15025,-0.03,-0.001,0.37511994658568637,10,1,100,0.22703420686492637,-10,-1,-100,6488.100472769351,-0.04556837696624472,0.018588710395091912,0.9987882572730367,156.6146842752154,16.39797339138692,-29.626209393265928,2.362630951181471,-80.54421997070312,4381.2578125,True
1599571567.816603,0.0,10,0.5,0.5,-1.4707076187133787,-0.15025,-0.03,-0.001,0.3820450278584466,10,1,100,0.17927342161584442,-10,-1,-100,6488.1670985480305,-0.04254561212243706,0.020282722803796293,0.9988886234434705,145.35850507696708,15.218371996018462,-23.053364184902428,1.9806098448232081,-85.82516479492188,4381.2578125,True
1599571567.891402,0.0,10,0.5,0.5,-0.941317283630371,-0.15025,-0.03,-0.001,0.30169180890820646,10,1,100,0.3076235253124986,-10,-1,-100,6488.200659482507,-0.04098409472675603,0.021074825943221517,0.9989375134065648,148.0081019811335,15.495751654979228,-21.210486931318094,1.789562234623559,-88.57717895507812,4381.2578125,True
1599571567.9681983,0.0,10,0.5,0.5,0.49107664489746095,-0.15025,-0.03,-0.001,0.4580195825384823,10,1,100,-0.06849681892529191,-10,-1,-100,6488.301360495738,-0.0361652136101127,0.02319954413116671,0.999076502814795,160.30510426314206,16.78221910734273,-15.618177958154094,1.2164407452524002,-97.28009033203125,4381.2578125,True
1599571568.0469866,0.0,10,0.5,0.5,1.5565376148223877,-0.15025,-0.03,-0.001,0.380258405171248,10,1,100,0.04361016038317228,-10,-1,-100,6488.306990316836,-0.03282728412901316,0.024406559940480712,0.9991629943350507,168.86332886472584,17.676060971556108,-11.287347602031682,0.8344727074934921,-103.4518814086914,4381.2578125,True
1599571568.1227832,0.0,10,0.5,0.5,2.662318899154663,-0.15025,-0.03,-0.001,0.3732679538821879,10,1,100,0.008764824060496446,-10,-1,-100,6488.311660350417,-0.02950062189568883,0.025424208566617684,0.9992413737063376,176.52823148337137,18.476923763220324,-6.40043184519202,0.452580293845108,-109.84435272216797,4381.2578125,True
1599571568.1965868,0.0,10,0.5,0.5,3.758424873352051,-0.15025,-0.03,-0.001,0.366879964848137,10,1,100,-0.025848026257906442,-10,-1,-100,6488.3183063580655,-0.026186724458027714,0.026277055089958774,0.9993116490054336,183.35208910894437,19.190482046470247,-1.038072818935616,0.070661859938697,-116.1539306640625,4381.2578125,True
1599571568.2913337,0.0,10,0.5,0.5,4.829639701843262,-0.15025,-0.03,-0.001,0.35835543316184754,10,1,100,-0.06056288383072728,-10,-1,-100,6488.322045384208,-0.02288553854017121,0.026960839484117344,0.9993744869967605,187.79037177593213,19.65430299300786,4.685649941104798,-0.31137266600806646,-122.21163940429688,4381.2578125,True
1599571568.3571568,0.0,10,0.5,0.5,5.863413629531861,-0.15025,-0.03,-0.001,0.35000173922840794,10,1,100,-0.08756391440020114,-10,-1,-100,6488.327759848442,-0.01966696297400661,0.027493662809736502,0.9994284912252019,190.65639670061512,19.953559947554226,10.597532552701717,-0.6935482623879876,-127.98120880126953,4381.2578125,True
1599571568.433952,0.0,10,0.5,0.5,6.857117931365966,-0.15025,-0.03,-0.001,0.34216791998678353,10,1,100,-0.11322854203870927,-10,-1,-100,6488.26855544094,-0.016536283398707247,0.02789532585195923,0.9994740627584944,191.99106506447905,20.092450318822603,16.55656830194025,-1.075847047600388,-133.4565887451172,4381.2578125,True
1599571568.5127416,0.0,10,0.5,0.5,7.422662502288818,-0.15025,-0.03,-0.001,0.3203656939561085,10,1,100,0.028585821557864988,-10,-1,-100,6488.24164734513,-0.015008431728604301,0.02805216303318561,0.9994937834354986,192.03388533293798,20.096459906184723,19.504656212326292,-1.2670394938340785,-136.0835723876953,4381.2578125,True
1599571568.5902047,0.0,10,0.5,0.5,8.347775535583496,-0.15025,-0.03,-0.001,0.33240460497721686,10,1,100,-0.14825865153503304,-10,-1,-100,6488.181987705524,-0.01203958040515495,0.028295583795730488,0.9995270923998641,191.03581026689895,19.990878177671494,25.26387686399734,-1.6494955683361867,-141.11578369140625,4381.2578125,True
1599571568.6665127,0.0,10,0.5,0.5,9.224982501983643,-0.15025,-0.03,-0.001,0.32711706196356516,10,1,100,-0.16740640821272185,-10,-1,-100,6488.1243021741975,-0.009194286897419536,0.02846152240610906,0.9995526033334986,188.8153793457822,19.757131035211813,30.765463919600997,-2.0320177031766393,-145.8520965576172,4381.2578125,True
1599571568.7433066,0.0,10,0.5,0.5,10.382779674530028,-0.15025,-0.03,-0.001,0.32036535291155366,10,1,100,-0.3333965952107797,-10,-1,-100,6487.9748169439845,-0.005127554561158938,0.028544281336468667,0.9995793776320151,183.7462672944817,19.223798005799907,38.40282306944362,-2.60584487561583,-152.40223693847656,4381.2578125,True
1599571568.8165836,0.0,10,0.5,0.5,10.849397201538086,-0.15025,-0.03,-0.001,0.3146618143721239,10,1,100,-0.07075259402962013,-10,-1,-100,6487.883005837677,-0.003846413956249804,0.0285628075253414,0.9995845992840964,181.71947825042002,19.0106502929005,40.769927332203046,-2.797112431110645,-154.43728637695312,4381.2578125,True
1599571568.8957434,0.0,10,0.5,0.5,11.856407768249511,-0.15025,-0.03,-0.001,0.3177539607309051,10,1,100,-0.3463858722316892,-10,-1,-100,6487.732595933834,-0.00020232985010702094,0.028603981529773843,0.999590801930108,175.09194811732672,18.31398307448635,47.35098251097192,-3.3708355314060703,-160.09738159179688,4381.2578125,True
1599571568.9825115,0.0,10,0.5,0.5,12.264373332977295,-0.15025,-0.03,-0.001,0.3176310119083948,10,1,100,-0.11022878010063734,-10,-1,-100,6487.640802246053,0.0009369564160626908,0.02863740402363219,0.9995894263163561,172.74027605082105,18.066713085967088,49.36862373079191,-3.562051761321347,-161.83534240722656,4381.2578125,True
1599571569.0573146,0.0,10,0.5,0.5,13.121094287872314,-0.15025,-0.03,-0.001,0.31905441787904376,10,1,100,-0.35505859072851315,-10,-1,-100,6487.426961392164,0.00417373886294849,0.028678582391478705,0.9995799711958613,165.42148690176546,17.296768357983655,54.90244917747684,-4.135684307363822,-166.6050262451172,4381.2578125,True
1599571569.1366105,0.0,10,0.5,0.5,13.467399757385252,-0.15025,-0.03,-0.001,0.322933853889746,10,1,100,-0.14402722847045524,-10,-1,-100,6487.336646092706,0.005173202087404945,0.028749723286975226,0.9995732546397412,162.93910397732066,17.03560268296696,56.5831897367032,-4.326910005444512,-168.045654296875,4381.2578125,True
1599571569.211412,0.0,10,0.5,0.5,13.988484943389894,-0.15025,-0.03,-0.001,0.32252514557727063,10,1,100,-0.25773099613690864,-10,-1,-100,6487.151138491929,0.007092893665640925,0.028809539425061162,0.9995597537403972,158.04140427355878,16.52063549126968,59.74300141569638,-4.709420640140876,-170.70570373535156,4381.2578125,True
1599571569.2917094,0.0,10,0.5,0.5,14.616374786376953,-0.15025,-0.03,-0.001,0.3520025169916347,10,1,100,-0.35440013597173975,-10,-1,-100,6486.812840156956,0.009695397119749963,0.029131062732930684,0.9995285791105426,151.1845121677817,15.801387625674945,64.13138200581064,-5.283407269138772,-174.13580322265625,4381.2578125,True
1599571569.3625224,0.0,10,0.5,0.5,15.016760269165038,-0.15025,-0.03,-0.001,0.34901164534835305,10,1,100,-0.26949602337736245,-10,-1,-100,6486.628334077541,0.01126699575549261,0.029395186089055194,0.9995043660942334,150.17098241581365,15.695740196892707,68.328438689188,-5.666238319801882,-176.0509033203125,4381.2578125,True
1599571569.4462957,0.0,10,0.5,0.5,15.247553894042968,-0.15025,-0.03,-0.001,0.3415973409787071,10,1,100,-0.1956502128670344,-10,-1,-100,6486.47309637873,0.012003208441382354,0.029566895825541308,0.9994907311517972,151.64365362938221,15.850445905318534,71.33617054791924,-5.857698622521862,-176.89654541015625,4381.2578125,True
1599571569.5171063,0.0,10,0.5,0.5,15.738698390960693,-0.15025,-0.03,-0.001,0.4263667551843605,10,1,100,-0.409422093174518,-10,-1,-100,6485.980097178603,0.014596602981042152,0.030492621739289686,0.9994284062407265,156.52378414316027,16.367504575017616,83.29348947653867,-6.623785743088931,-179.5336151123047,4381.2578125,True
1599571569.5968938,0.0,10,0.5,0.5,-38.561016052246096,-0.15025,-0.03,-0.001,0.36585508151759916,10,1,100,-0.2141566278445635,-10,-1,-100,6485.823892668006,0.015161162734513109,0.030782313408996908,0.9994111207734924,157.5164965216142,16.473852712867604,86.25500591785446,-6.815360293240751,179.99346923828125,4381.2578125,True
1599571569.6746879,0.0,10,0.5,0.5,-39.14449448394775,-0.15025,-0.03,-0.001,0.3700160479949781,10,1,100,-0.2181553035816281,-10,-1,-100,6485.733120130724,0.015693470856468418,0.031081478707721776,0.9993936444934092,158.39037416705665,16.568064629715284,89.18132714956168,-7.006954406715672,179.59487915039062,4381.2578125,True
1599571569.75148,0.0,10,0.5,0.5,-40.037585083007805,-0.15025,-0.03,-0.001,0.4669499170485932,10,1,100,-0.3150190217202191,-10,-1,-100,6485.267941975035,0.01704351585886355,0.03223241188234275,0.9993350740324366,160.3326797058986,16.781114321057185,97.71484257393807,-7.581847941963344,178.75927734375,4381.2578125,True
1599571569.8272774,0.0,10,0.5,0.5,-40.88795272827148,-0.15025,-0.03,-0.001,0.4986949802113624,10,1,100,-0.2965449352916173,-10,-1,-100,6484.802777112229,0.018088240930378377,0.033564038062697255,0.9992728710862566,162.28249091962468,16.9970169962475,106.44364281752192,-8.15688762356903,177.62042236328125,4381.2578125,True
1599571569.9110537,0.0,10,0.5,0.5,-41.843211906433105,-0.15025,-0.03,-0.001,0.42313822482029834,10,1,100,-0.2215226562066787,-10,-1,-100,6484.58506098378,0.018343320729103843,0.034083286399763296,0.9992506453201924,163.11748977364542,17.088934884405383,109.52007193406872,-8.348593376528278,177.10104370117188,4381.2578125,True
1599571569.985853,0.0,10,0.5,0.5,-42.68882569122315,-0.15025,-0.03,-0.001,0.4933249520918665,10,1,100,-0.24121704606683325,-10,-1,-100,6484.275122979307,0.018742278527908673,0.035188542805825965,0.999204930657763,165.06525955172765,17.3029488264423,115.94926778871502,-8.732033119905713,175.84255981445312,4381.2578125,True
1599571570.0636456,0.0,10,0.5,0.5,-43.61787929534912,-0.15025,-0.03,-0.001,0.4487866273724842,10,1,100,-0.2176490623152436,-10,-1,-100,6484.119424379547,0.01888012268829655,0.03578262840172422,0.9991812370495851,166.17101603730745,17.4243870244705,119.30566472856476,-8.923763148369886,175.10305786132812,4381.2578125,True
1599571570.142022,0.0,10,0.5,0.5,-44.40918776321411,-0.15025,-0.03,-0.001,0.5272513145572523,10,1,100,-0.2246821450530673,-10,-1,-100,6483.746507886215,0.019061022926657976,0.037029974676339804,0.9991323527843842,168.62763769159133,17.694350459571233,126.3086844981916,-9.307232990808707,173.4029083251953,4381.2578125,True
1599571570.2208123,0.0,10,0.5,0.5,-45.15763327026367,-0.15025,-0.03,-0.001,0.5557648331177698,10,1,100,-0.20554454066517983,-10,-1,-100,6483.31012128829,0.019044413987850145,0.03841619892327933,0.9990803300816938,171.42743380085804,18.002352501510487,133.73695813666288,-9.690700642599616,171.40875244140625,4381.2578125,True
1599571570.3001194,0.0,10,0.5,0.5,-45.66860467529297,-0.15025,-0.03,-0.001,0.6692125176019693,10,1,100,-0.1744491305976476,-10,-1,-100,6482.720012254547,0.01874022831055049,0.04069970054935549,0.9989956647643979,176.65180073208228,18.5761173948228,146.06228098672798,-10.265852855858661,167.8653564453125,4381.2578125,True
1599571571.0331213,0.0,10,0.5,0.5,-46.51345684814453,-0.15025,-0.03,-0.001,0.5328733219473786,10,1,100,-0.18440884826523396,-10,-1,-100,6482.50134281849,0.018550471832411125,0.04152688472273748,0.9989651634766946,178.47219319665552,18.776789355167846,150.34806363789448,-10.457547639684108,166.53717041015625,4381.2578125,True
1599571571.1019363,0.0,10,0.5,0.5,-45.80503057098389,-0.15025,-0.03,-0.001,0.7455790807179334,10,1,100,-0.11009684333911479,-10,-1,-100,6481.847795877722,0.017699321071957985,0.04420279125889548,0.9988657804122205,184.53458592666016,19.445234527151822,164.08750535070413,-11.032531576721443,162.11148071289062,4381.2578125,True
1599571571.1777356,0.0,10,0.5,0.5,-45.25519190979004,-0.15025,-0.03,-0.001,0.695078583144263,10,1,100,-0.10977042413272911,-10,-1,-100,6481.410981414258,0.016920756705837543,0.046164409666050135,0.9987905362350441,188.66847068271574,19.90276411079622,173.65292681910768,-11.415746161523998,158.793701171875,4381.2578125,True
1599571571.2495415,0.0,10,0.5,0.5,-44.65237650299072,-0.15025,-0.03,-0.001,0.7329234186764724,10,1,100,-0.07920286143843905,-10,-1,-100,6480.9756554540945,0.015935195584100892,0.0482790776339529,0.9987067638724146,192.63583964180194,20.34371306898961,183.322202709273,-11.798853068681947,155.18222045898438,4381.2578125,True
1599571571.3243427,0.0,10,0.5,0.5,-44.29892678833008,-0.15025,-0.03,-0.001,0.6465218429943558,10,1,100,-0.11377163483970701,-10,-1,-100,6480.695014607045,0.015355449818302988,0.049402656880780486,0.9986608972288828,194.50552821892268,20.552199183464875,188.14099803269025,-11.990361875251939,153.26654052734375,4381.2578125,True
1599571571.397184,0.0,10,0.5,0.5,-43.29352574157715,-0.15025,-0.03,-0.001,0.933867535100053,10,1,100,0.04628402741061227,-10,-1,-100,6479.976676048012,0.01337607298431181,0.053022399423874614,0.9985037335087203,199.41460537119065,21.101932309765193,202.24378007318447,-12.56470397532535,147.079345703125,4381.2578125,True
1599571571.4749782,0.0,10,0.5,0.5,-42.534148410797116,-0.15025,-0.03,-0.001,0.8649181234721028,10,1,100,0.018829795091750756,-10,-1,-100,6479.477490643971,0.01183110179771275,0.05567004903314423,0.9983791217122379,201.89135056388247,21.380953577670795,211.074030385844,-12.947450205884618,142.58827209472656,4381.2578125,True
1599571571.558752,0.0,10,0.5,0.5,-41.71757564926147,-0.15025,-0.03,-0.001,0.9171356121061205,10,1,100,0.05984799527701712,-10,-1,-100,6478.916834144737,0.010060098009020805,0.05853362819221548,0.9982347463391085,203.9576107702562,21.612178026519196,219.62125483807506,-13.33009039027948,137.80467224121094,4381.2578125,True
1599571571.6340594,0.0,10,0.5,0.5,-41.23724798583984,-0.15025,-0.03,-0.001,0.8007655913636295,10,1,100,-0.009112303170946856,-10,-1,-100,6478.635796689778,0.009085189027843834,0.060059423917788624,0.998153457610097,204.6269059875915,21.687202452348505,223.54759739031297,-13.521378949082282,135.30340576171875,4381.2578125,True
1599571571.7118518,0.0,10,0.5,0.5,-39.930210124969484,-0.15025,-0.03,-0.001,1.1925559257935558,10,1,100,0.23968620320439016,-10,-1,-100,6477.793280936661,0.005946157373325347,0.06498856559495035,0.9978682926891717,204.7619839654242,21.70445917183859,233.32693348076796,-14.095183434614455,127.36143493652344,4381.2578125,True
1599571571.7866518,0.0,10,0.5,0.5,-39.39419688415527,-0.15025,-0.03,-0.001,0.8980641155033495,10,1,100,0.0531938264144253,-10,-1,-100,6477.511346733314,0.004799508449978426,0.0667703244215086,0.9977568283380901,204.10608183707626,21.632828555598056,235.7833551808877,-14.286453930813826,124.56842041015625,4381.2578125,True
1599571571.8664384,0.0,10,0.5,0.5,-37.93763912963867,-0.15025,-0.03,-0.001,1.3553634646923252,10,1,100,0.3420085090102664,-10,-1,-100,6476.667647452559,0.0011440131900485177,0.07252442340218972,0.997365980592882,199.70369270930854,21.152847398631952,240.1158780084867,-14.860380437994973,115.75225830078125,4381.2578125,True
1599571571.9432333,0.0,10,0.5,0.5,-36.863489093780515,-0.15025,-0.03,-0.001,1.249316473391115,10,1,100,0.2660821716480216,-10,-1,-100,6476.04396976647,-0.001473874608520165,0.07676561197994038,0.9970480773317721,194.52413221971548,20.592171038007383,240.01801024041623,-15.243164272803005,109.51167297363281,4381.2578125,True
1599571572.0220222,0.0,10,0.5,0.5,-35.73404818725586,-0.15025,-0.03,-0.001,1.3304396407090862,10,1,100,0.3090980070855733,-10,-1,-100,6475.419943585992,-0.004228103264547293,0.08133090202413717,0.9966781865370208,187.57387761414654,19.845603520066895,237.36576429363927,-15.626131122849522,102.98052978515625,4381.2578125,True
1599571572.0971568,0.0,10,0.5,0.5,-34.55231429290772,-0.15025,-0.03,-0.001,1.4208603604721102,10,1,100,0.3513674905170865,-10,-1,-100,6474.794613770908,-0.007097885256814214,0.08627312513089795,0.9962462385901538,179.25880265896228,18.96039164295104,232.51696925023347,-16.009284536981244,96.15963745117188,4381.2578125,True
1599571572.1809728,0.0,10,0.5,0.5,-33.312313796997074,-0.15025,-0.03,-0.001,1.5154758735707248,10,1,100,0.38803413334094383,-10,-1,-100,6474.1079442567425,-0.01001969897084183,0.09159267764862232,0.9957461458794049,168.89985977068832,17.868816193510256,224.436584540799,-16.392583373921276,89.04888916015625,4381.2578125,True
1599571572.2555168,0.0,10,0.5,0.5,-32.026021785736084,-0.15025,-0.03,-0.001,1.6169154123804634,10,1,100,0.4246299532694827,-10,-1,-100,6473.482515324606,-0.012987313644803511,0.09731574821916505,0.9951688172530506,174.75639559394472,18.505926291428665,237.76777506736443,-16.775789971727786,81.64848327636719,4381.2578125,True
1599571572.3323123,0.0,10,0.5,0.5,-30.687489955902098,-0.15025,-0.03,-0.001,1.7242984932775476,10,1,100,0.45561342615335243,-10,-1,-100,6472.796279707691,-0.015944250906037932,0.10345688974673556,0.9945061351379272,188.1225021720774,19.951658473576934,261.929365844861,-17.158631832796317,73.95848083496094,4381.2578125,True
1599571572.404629,0.0,10,0.5,0.5,-29.90565737533569,-0.15025,-0.03,-0.001,1.469888697443392,10,1,100,0.3228582903031525,-10,-1,-100,6472.45300977421,-0.017401870500417353,0.10668609002643958,0.9941404594411984,194.10637863556514,20.604588159505624,273.3439771781397,-17.349901880590323,70.00486755371094,4381.2578125,True
1599571572.4884057,0.0,10,0.5,0.5,-28.48490143966675,-0.15025,-0.03,-0.001,1.897641978106949,10,1,100,0.49314537091951516,-10,-1,-100,6471.7036784680095,-0.02025096444679443,0.11346800495392226,0.9933352456702377,204.36785835000438,21.734016884612085,294.2851736674551,-17.732147206978425,61.88047790527344,4381.2578125,True
1599571572.5671942,0.0,10,0.5,0.5,-27.023992931365967,-0.15025,-0.03,-0.001,2.0173165745532007,10,1,100,0.5086330154219575,-10,-1,-100,6471.018101938069,-0.022958031055504778,0.12067726081990973,0.9924262831722355,213.45650990867347,22.739603587534663,314.15037218262097,-18.11403401931245,53.46665954589844,4381.2578125,True
1599571572.644986,0.0,10,0.5,0.5,-24.828037014007567,-0.15025,-0.03,-0.001,2.570726490170112,10,1,100,0.6376742510613184,-10,-1,-100,6469.926553549129,-0.026566868715139753,0.13221312271605354,0.9908652237657464,221.54881979443846,23.644951493784074,336.6158279338723,-18.686430015211673,40.30259704589844,4381.2578125,True
1599571572.718789,0.0,10,0.5,0.5,-23.23278260040283,-0.15025,-0.03,-0.001,2.3234471363607945,10,1,100,0.5054921832344327,-10,-1,-100,6469.116712087416,-0.028620783351013326,0.14039801331490515,0.9896813874260758,222.96034837246938,23.8087799016158,345.8555610495764,-19.067990214722187,31.164947509765625,4381.2578125,True
1599571572.8015676,0.0,10,0.5,0.5,-22.299414291381837,-0.15025,-0.03,-0.001,1.9753022520310928,10,1,100,0.4007500991818746,-10,-1,-100,6468.7731863732915,-0.02951109870247287,0.14461602181874117,0.9890476739200664,222.49256566146184,23.76116415195122,348.67746136146116,-19.258827765038355,26.48748779296875,4381.2578125,True
1599571572.87936,0.0,10,0.5,0.5,-19.886597297668455,-0.15025,-0.03,-0.001,3.0079697507827614,10,1,100,0.5425331937525661,-10,-1,-100,6467.558512201766,-0.03158642897677154,0.15778092942924854,0.9869688322398726,214.84985156922926,22.944091640632735,347.0171098015848,-19.831791157997074,12.021270751953125,4381.2578125,True
1599571572.9561546,0.0,10,0.5,0.5,-18.897360382080077,-0.15025,-0.03,-0.001,2.194488881551664,10,1,100,0.38850413958294877,-10,-1,-100,6467.153772755875,-0.03205056642121021,0.16228873953279221,0.9862226554956731,210.70226013662696,22.501977486402147,343.70505512673463,-20.022954511756943,7.0540771484375,4381.2578125,True
1599571573.03199,0.0,10,0.5,0.5,-17.12075498962402,-0.15025,-0.03,-0.001,2.7554215780032307,10,1,100,0.4059310468914269,-10,-1,-100,6466.344004857354,-0.03261090792127665,0.1714218677202242,0.9846578451177138,199.27609384570457,21.29276320106109,331.49092004655796,-20.405508036243084,-3.09857177734375,4381.2578125,True
1599571573.1067543,0.0,10,0.5,0.5,-15.297191452026366,-0.15025,-0.03,-0.001,2.875508699227302,10,1,100,0.35449616991782384,-10,-1,-100,6465.5369356611045,-0.03263487986314386,0.18074904342947112,0.9829876641726737,187.49215776126786,20.064683695067753,317.94549186435455,-20.788172145212975,-13.5413818359375,4381.2578125,True
1599571573.196512,0.0,10,0.5,0.5,-13.421320434570312,-0.15025,-0.03,-0.001,2.973340372123049,10,1,100,0.2979807882312917,-10,-1,-100,6464.664652610663,-0.03212772304136639,0.19004740732449082,0.9812490980283326,204.88786048668726,21.984070564924743,354.05835119899524,-21.17029975972645,-24.27734375,4381.2578125,True
1599571573.2693515,0.0,10,0.5,0.5,-10.630431991577147,-0.15025,-0.03,-0.001,3.5759926708885827,10,1,100,0.15303280548710588,-10,-1,-100,6463.39022463758,-0.030335575312493417,0.20390333965665172,0.9785209149258508,225.11137763295838,24.265886789710297,399.8746598924874,-21.742186686435428,-40.930419921875,4381.2578125,True
1599571573.3481417,0.0,10,0.5,0.5,-9.476830169677735,-0.15025,-0.03,-0.001,2.6983737344521823,10,1,100,0.2387797551420145,-10,-1,-100,6462.985979149467,-0.02947670000050288,0.2084390738685555,0.9775910579797153,230.14345353408874,24.84338864708232,412.51017383008866,-21.932543341627994,-46.62841796875,4381.2578125,True
1599571573.4239042,0.0,10,0.5,0.5,-7.425189483642578,-0.15025,-0.03,-0.001,3.2301478985813925,10,1,100,0.09773358773687829,-10,-1,-100,6462.053502421826,-0.027407740314151156,0.21731699572323482,0.975716218549584,236.0145834955997,25.53629583497727,430.6147701386638,-22.313052759444922,-58.24530029296875,4381.2578125,True
1599571573.5016963,0.0,10,0.5,0.5,-4.421916801452636,-0.15025,-0.03,-0.001,3.747379553351833,10,1,100,-0.1171376186857444,-10,-1,-100,6460.716789664119,-0.023572728839444827,0.23001257256812258,0.9729021240164173,233.36843319850485,25.303475718780398,437.06877108364966,-22.88399273911322,-76.22378540039062,4381.2578125,True
1599571573.58647,0.0,10,0.5,0.5,-2.2490706024169924,-0.15025,-0.03,-0.001,3.3644345973051375,10,1,100,-0.058330874184786996,-10,-1,-100,6459.7837451780215,-0.020625550680185567,0.2379912205000931,0.9710482818191973,224.5386330156312,24.370387253034586,427.8172034394662,-23.265128825940053,-88.57855224609375,4381.2578125,True
1599571573.6545224,0.0,10,0.5,0.5,0.970508104324341,-0.15025,-0.03,-0.001,3.8095521528255687,10,1,100,-0.27633956912872604,-10,-1,-100,6458.384245762019,-0.015972478352297963,0.24920617348963264,0.9683187300831997,199.9253399704555,21.75523052067899,390.7078681054765,-23.83758881549098,-107.6644058227539,4381.2578125,True
1599571573.7263315,0.0,10,0.5,0.5,2.295057098388672,-0.15025,-0.03,-0.001,3.0870703080464015,10,1,100,0.01343930827136669,-10,-1,-100,6457.855848306557,-0.014390960531150507,0.25275045466934853,0.9674244714288699,194.15349884710815,21.15908137873291,382.59648373968116,-24.028404635153294,-114.17401123046875,4381.2578125,True
1599571573.8096292,0.0,10,0.5,0.5,4.6416102962493895,-0.15025,-0.03,-0.001,3.493430354359396,10,1,100,-0.17176900341748275,-10,-1,-100,6456.921548191458,-0.011285559320108787,0.2595844727854479,0.965654460787881,216.88862954648172,23.725328380780454,434.4530668849552,-24.409262196031523,-127.3269271850586,4381.2578125,True
1599571573.884462,0.0,10,0.5,0.5,6.963968688964844,-0.15025,-0.03,-0.001,3.535823554326127,10,1,100,-0.19316248803837455,-10,-1,-100,6455.926645719679,-0.008287367766791088,0.2661024614315401,0.9639091241167778,232.7554209266171,25.55786260438488,473.77618279842926,-24.789278520185515,-140.30429077148438,4381.2578125,True
1599571573.9602277,0.0,10,0.5,0.5,8.297220489501951,-0.15025,-0.03,-0.001,3.2380563422239588,10,1,100,-0.05444560742425214,-10,-1,-100,6455.39816688525,-0.006844935734900067,0.2692433369834205,0.9630478556877728,238.3065678675439,26.211359597168908,488.9306279208588,-24.97910052182313,-146.690673828125,4381.2578125,True
1599571574.0489879,0.0,10,0.5,0.5,11.488684982299805,-0.15025,-0.03,-0.001,3.952240005463604,10,1,100,-0.34664686665944777,-10,-1,-100,6453.871826018905,-0.0029002431558668752,0.278519260851255,0.960426264699434,245.31726410685647,27.08546467551859,515.2496374340645,-25.54849185985018,-165.40545654296875,4381.2578125,True
1599571574.1257832,0.0,10,0.5,0.5,13.67384895324707,-0.15025,-0.03,-0.001,3.69569462019955,10,1,100,-0.2130855599776765,-10,-1,-100,6452.875501580536,-0.0005532939012679184,0.2845518554821635,0.9586604901671482,241.2979776565488,26.691341797297383,514.6948359161746,-25.928496286526578,-177.50762939453125,4381.2578125,True
1599571574.2085638,0.0,10,0.5,0.5,-39.497483318328854,-0.15025,-0.03,-0.001,3.430297409010737,10,1,100,-0.09966941823296965,-10,-1,-100,6452.346127513796,0.00052294649059813,0.2875541370616242,0.9577642427997157,237.9262278792618,26.342942125789296,511.4136862282252,-26.11867932429273,176.55430603027344,4381.2578125,True
1599571574.285356,0.0,10,0.5,0.5,-37.22257476425171,-0.15025,-0.03,-0.001,4.156001232209999,10,1,100,-0.3166472871443857,-10,-1,-100,6450.7588171289535,0.0034484813943940025,0.2968169394890014,0.9549281713346062,219.30881669561018,24.37431609395321,482.27002282839845,-26.689787608287105,159.1973114013672,4381.2578125,True
1599571574.3651805,0.0,10,0.5,0.5,-37.09407060623169,-0.15025,-0.03,-0.001,3.581859349353484,10,1,100,-0.12254201298540726,-10,-1,-100,6450.22919244424,0.004318900441641502,0.2999574660634479,0.9539427999894808,210.72727851811112,23.463491417437414,466.8857436119234,-26.880221599973183,153.5634307861328,4381.2578125,True
1599571574.440427,0.0,10,0.5,0.5,-36.11072289276123,-0.15025,-0.03,-0.001,3.979982888827765,10,1,100,-0.21500316843901343,-10,-1,-100,6449.1125483820215,0.005928069669515805,0.30637546217583517,0.951892291263322,218.60639194835682,24.452157028011438,491.550377364631,-27.260593090010726,142.22189331054688,4381.2578125,True
1599571574.5162246,0.0,10,0.5,0.5,-35.12012573242187,-0.15025,-0.03,-0.001,4.084296530955448,10,1,100,-0.2306057813625555,-10,-1,-100,6448.051447467646,0.007512883132322996,0.3131063378530878,0.9496883582435176,237.08416756228644,26.654449766952773,540.8680132760704,-27.63994662158648,130.64108276367188,4381.2578125,True
1599571574.5940173,0.0,10,0.5,0.5,-33.15927163696289,-0.15025,-0.03,-0.001,4.578413098850403,10,1,100,-0.32463518270932495,-10,-1,-100,6446.339227066841,0.00978852279833337,0.3236624155558318,0.9461219929681324,255.66592083780978,28.94522244929549,595.7696416178532,-28.20772681630929,112.74435424804688,4381.2578125,True
1599571574.6887634,0.0,10,0.5,0.5,-32.03914385604858,-0.15025,-0.03,-0.001,4.345661269980052,10,1,100,-0.28223678312898137,-10,-1,-100,6445.223542987485,0.011452687878413822,0.33108467143880466,0.9435315449303318,261.2436464398137,29.686083512069356,617.3080462531696,-28.586019943497412,100.45848083496094,4381.2578125,True
1599571574.7630749,0.0,10,0.5,0.5,-30.872527515411377,-0.15025,-0.03,-0.001,4.457363784644464,10,1,100,-0.32493589418750973,-10,-1,-100,6444.040466331877,0.013335793455705213,0.33878857945663166,0.9407680134032324,259.64782624825506,29.595932290891113,622.0893424830241,-28.96462802654907,87.88862609863281,4381.2578125,True
1599571574.8458543,0.0,10,0.5,0.5,-30.622137844085692,-0.15025,-0.03,-0.001,4.128031392232523,10,1,100,-0.25482434502028717,-10,-1,-100,6443.445690328372,0.014391983779731178,0.3427349784122993,0.9393218859238853,256.48426626350266,29.2787642522846,618.7650291334786,-29.15413293292312,81.49723815917969,4381.2578125,True
1599571574.9371223,0.0,10,0.5,0.5,-28.404775627136228,-0.15025,-0.03,-0.001,5.077030484868823,10,1,100,-0.5608704291432755,-10,-1,-100,6441.670839898754,0.018118673723658676,0.3548915003799989,0.934731906281437,237.15958695208013,27.219044884759022,584.0401625961548,-29.723381772441865,61.897491455078125,4381.2578125,True
1599571575.0169115,0.0,10,0.5,0.5,-28.13294575119018,-0.15025,-0.03,-0.001,4.322463357541764,10,1,100,-0.3519354160274637,-10,-1,-100,6441.085785525967,0.01959018994651727,0.3590192376977545,0.933124542288318,226.8983527882947,26.104240361835508,562.5691591674465,-29.913242934451134,55.22215270996094,4381.2578125,True
1599571575.0950181,0.0,10,0.5,0.5,-25.724056484222412,-0.15025,-0.03,-0.001,4.833830285314213,10,1,100,-0.5702104251378134,-10,-1,-100,6439.904738478945,0.022894916374250156,0.3673555481476127,0.9297987545965972,234.12043028862797,27.092838832140735,588.2584009730032,-30.292361541227834,41.65806579589844,4381.2578125,True
1599571575.7859025,0.0,10,0.5,0.5,-23.289887077331542,-0.15025,-0.03,-0.001,4.911655664782943,10,1,100,-0.67251976792865,-10,-1,-100,6438.66049280914,0.026811619483942332,0.37557738963478254,0.926403131177659,258.08246074036424,30.05130854448128,656.9595385379896,-30.67016067277357,27.806060791015625,4381.2578125,True
1599571575.8537211,0.0,10,0.5,0.5,-20.788117477416993,-0.15025,-0.03,-0.001,4.997612117517143,10,1,100,-0.7706606626847321,-10,-1,-100,6437.418878838886,0.03124400070049751,0.38376446789927393,0.9229022947193352,274.3733484132871,32.12574166395127,707.4273895047153,-31.047244728030197,13.668212890625,4381.2578125,True
1599571575.9215393,0.0,10,0.5,0.5,-20.416594284057616,-0.15025,-0.03,-0.001,4.186643191640347,10,1,100,-0.32995413413231234,-10,-1,-100,6437.418878838886,0.03124400070049751,0.38376446789927393,0.9229022947193352,274.3733484132871,32.12574166395127,707.4273895047153,-31.047244728030197,13.668212890625,4381.2578125,True
1599571575.99634,0.0,10,0.5,0.5,-17.883379302978515,-0.15025,-0.03,-0.001,5.053755971196381,10,1,100,-0.8831721951465581,-10,-1,-100,6436.178278078558,0.036251682057383224,0.391583076686105,0.9194283602331693,282.52122475215435,33.23328442207365,737.7571499088255,-31.42429286530415,-0.76019287109375,4381.2578125,True
1599571576.068148,0.0,10,0.5,0.5,-14.201693176269531,-0.15025,-0.03,-0.001,5.494094283252396,10,1,100,-1.3095804197164815,-10,-1,-100,6434.2829083368415,0.04465650064222495,0.402632232364524,0.9142718864821071,275.68768693388694,32.641846637424216,733.7851800892709,-31.990910091797893,-22.94598388671875,4381.2578125,True
1599571576.145984,0.0,10,0.5,0.5,-10.398645317077637,-0.15025,-0.03,-0.001,5.4834424427748525,10,1,100,-1.4822666100300328,-10,-1,-100,6432.331774134305,0.05383693398332806,0.4125150411942675,0.9093585240859443,246.34102702245397,29.427390563729883,668.2016416909951,-32.558562385381485,-45.789093017578125,4381.2578125,True
1599571576.231713,0.0,10,0.5,0.5,-8.846578392028809,-0.15025,-0.03,-0.001,4.834364328481033,10,1,100,-0.912418274952734,-10,-1,-100,6431.67434309097,0.05696552384678488,0.4155316786716018,0.907793122420093,243.9444195655991,29.250533178969985,665.7855900045372,-32.74751915678748,-53.550262451171875,4381.2578125,True
1599571576.30651,0.0,10,0.5,0.5,-7.264219223022461,-0.15025,-0.03,-0.001,4.857302143993625,10,1,100,-0.9505991449051521,-10,-1,-100,6431.0236257323995,0.06011809204943393,0.41841642315542077,0.9062634891918353,260.31226306230315,31.33481189730869,714.7724163911295,-32.93598254159294,-61.38482666015625,4381.2578125,True
1599571576.386297,0.0,10,0.5,0.5,-4.498832885742187,-0.15025,-0.03,-0.001,5.1643377480905475,10,1,100,-1.3303040809313986,-10,-1,-100,6429.652962490101,0.06639774490814823,0.4237724009754324,0.9033317727405751,284.29385088532007,34.47445956523968,789.9547181744821,-33.31189726186377,-77.27490234375,4381.2578125,True
1599571576.4680822,0.0,10,0.5,0.5,-1.6694297771453857,-0.15025,-0.03,-0.001,5.1687832971337295,10,1,100,-1.384516511811154,-10,-1,-100,6428.347250567866,0.0725568081922848,0.42862301929103763,0.9005652763230342,297.26638232156165,36.27015377583983,835.7640540253705,-33.687366964263944,-93.4587173461914,4381.2578125,True
1599571576.5872693,0.0,10,0.5,0.5,2.47404673576355,-0.15025,-0.03,-0.001,5.410801491718388,10,1,100,-1.7300397667195482,-10,-1,-100,6426.2651380646275,0.08125192995719614,0.4351771400094998,0.896671054897716,290.8756157294306,35.77591434388051,832.4070863834053,-34.25163890825863,-118.28060150146484,4381.2578125,True
1599571576.7468438,0.0,10,0.5,0.5,5.444826328277587,-0.15025,-0.03,-0.001,5.209872372768351,10,1,100,-1.457438194994406,-10,-1,-100,6424.896610309952,0.08662889880918402,0.43925462162639717,0.894176051608943,270.4949966704251,33.47999467938528,783.2943808503345,-34.6287891042137,-135.1886444091797,4381.2578125,True
1599571576.8780434,0.0,10,0.5,0.5,9.745564315795898,-0.15025,-0.03,-0.001,5.469938096602266,10,1,100,-1.741464077175993,-10,-1,-100,6422.810097580426,0.09404875587799771,0.44527521135504206,0.890440799643931,273.4503798536157,34.253656269138474,805.5555067273298,-35.19345170384673,-160.78253173828125,4381.2578125,True
1599571577.1964555,0.0,10,0.5,0.5,11.517098945617676,-0.15025,-0.03,-0.001,5.099152929092087,10,1,100,-1.2609213130943013,-10,-1,-100,6422.097100457526,0.09636841467146978,0.44732178163693964,0.8891660994026155,288.81686725078464,36.31984740758933,855.5508441048854,-35.3808097026213,-169.20419311523438,4381.2578125,True
1599571577.3272796,0.0,10,0.5,0.5,-36.2406512260437,-0.15025,-0.03,-0.001,6.118623558564725,10,1,100,-2.239092406178459,-10,-1,-100,6418.515619954327,0.10731500830028756,0.45839954333846067,0.882243360791454,311.23860369304725,39.771825681393636,947.8530447666271,-36.31747913555286,149.8348846435547,4381.2578125,True
1599571577.4629178,0.0,10,0.5,0.5,-34.04528617477416,-0.15025,-0.03,-0.001,5.560846303447778,10,1,100,-1.6311264204873597,-10,-1,-100,6417.01316014328,0.1116825312677864,0.46334883591971304,0.8791102709338952,296.4450396383236,38.15600529305992,912.9826811327899,-36.69333710918036,134.0023651123047,4381.2578125,True
1599571577.5975575,0.0,10,0.5,0.5,-33.421190338134764,-0.15025,-0.03,-0.001,5.356187722083494,10,1,100,-1.4478616865416847,-10,-1,-100,6416.304675546591,0.11393437675029335,0.46594144771324403,0.8774494430435342,284.09468793709556,36.72211383960739,879.816717713862,-36.88136168502817,126.205322265625,4381.2578125,True
1599571577.7092588,0.0,10,0.5,0.5,-31.599990146636962,-0.15025,-0.03,-0.001,5.694791745847837,10,1,100,-1.749600023650316,-10,-1,-100,6414.816968461382,0.11867279493273857,0.47133075886063747,0.8739359721940205,279.0903354831293,36.4164759884913,873.6875874707099,-37.256714301718134,110.54737854003906,4381.2578125,True
1599571577.8319314,0.0,10,0.5,0.5,-29.728585418701172,-0.15025,-0.03,-0.001,5.777407409536852,10,1,100,-1.8486238175553185,-10,-1,-100,6413.313863208285,0.12382743258602215,0.4769330801775269,0.870173318351885,311.9721177053504,41.08089727022826,986.8113766067089,-37.63005186830902,94.66070556640625,4381.2578125,True
1599571577.932665,0.0,10,0.5,0.5,-27.816784576416012,-0.15025,-0.03,-0.001,5.850405421884754,10,1,100,-1.9637627100931743,-10,-1,-100,6411.820668897359,0.12950797521418966,0.4826413899604054,0.8661899174274708,332.10228271436984,44.07611927179248,1061.3051716421603,-38.00259681317046,78.50537109375,4381.2578125,True
1599571578.109448,0.0,10,0.5,0.5,-25.86357653427124,-0.15025,-0.03,-0.001,5.909984052672344,10,1,100,-2.092847198147233,-10,-1,-100,6410.26645003038,0.1357938264339044,0.48832327879684634,0.8620327210074662,337.34226560766587,45.086583536112194,1089.2756873758287,-38.37552993786639,62.07392883300781,4381.2578125,True
1599571578.2371097,0.0,10,0.5,0.5,-23.89361843109131,-0.15025,-0.03,-0.001,5.953098852903015,10,1,100,-2.2318867461852983,-10,-1,-100,6408.7223149662605,0.14272264898264864,0.4938322703422648,0.857764498120539,326.5517356801687,43.97629094271807,1065.5939176580528,-38.749436607850846,45.363494873046875,4381.2578125,True
1599571578.368757,0.0,10,0.5,0.5,-20.580732116699217,-0.15025,-0.03,-0.001,6.2457203942691155,10,1,100,-2.818685693662834,-10,-1,-100,6406.391117587569,0.15430512014023604,0.5014510242607771,0.8513147480023617,281.497661229786,38.45659376549298,932.9698169945052,-39.311067868435714,19.7684326171875,4381.2578125,True
1599571578.4969335,0.0,10,0.5,0.5,-19.83592509460449,-0.15025,-0.03,-0.001,5.742494962953632,10,1,100,-2.1232057500948445,-10,-1,-100,6405.547737336368,0.15845731591991355,0.5037513186175515,0.8491913141468974,301.59398279754976,41.413879876600994,1004.5145437431288,-39.49747060501148,11.09368896484375,4381.2578125,True
1599571578.6686022,0.0,10,0.5,0.5,-19.06248986816406,-0.15025,-0.03,-0.001,5.755227764587559,10,1,100,-2.1845836794915683,-10,-1,-100,6404.778004329884,0.16273357607663747,0.5059069484685815,0.8470985436822078,322.4700823034168,44.49641887334265,1079.2448318980069,-39.683288440050845,2.3465576171875,4381.2578125,True
1599571578.8012486,0.0,10,0.5,0.5,-13.226477249145509,-0.15025,-0.03,-0.001,6.313116750389881,10,1,100,-3.7416620448609206,-10,-1,-100,6401.546815208509,0.18072596266085664,0.512895141472148,0.8392119519373946,361.93155501744945,50.769576401702814,1234.9460286417868,-40.425383839694305,-33.37109375,4381.2578125,True
1599571578.9269125,0.0,10,0.5,0.5,-9.992422927856444,-0.15025,-0.03,-0.001,5.889797429152393,10,1,100,-2.9663274343122628,-10,-1,-100,6399.930834803032,0.1899714145220744,0.5153546446409109,0.835655701776469,351.48602537556303,49.74272570031645,1211.3363286739996,-40.79762875335898,-51.66961669921875,4381.2578125,True
1599571579.042603,0.0,10,0.5,0.5,-9.477096633911133,-0.15025,-0.03,-0.001,5.648788431968873,10,1,100,-2.049385951967666,-10,-1,-100,6399.930834803032,0.1899714145220744,0.5153546446409109,0.835655701776469,351.48602537556303,49.74272570031645,1211.3363286739996,-40.79762875335898,-51.66961669921875,4381.2578125,True
1599571579.1776721,0.0,10,0.5,0.5,-3.321930938720703,-0.15025,-0.03,-0.001,5.986438171496928,10,1,100,-4.058290796941729,-10,-1,-100,6396.6289382036775,0.20816936891312102,0.5183841660131838,0.8294235168314971,331.1665148907749,47.91140834570849,1163.349563360965,-41.54157544380213,-89.14739990234375,4381.2578125,True
1599571579.2784023,0.0,10,0.5,0.5,0.0927090778350825,-0.15025,-0.03,-0.001,5.771537465777936,10,1,100,-3.202207479492832,-10,-1,-100,6394.948981031659,0.21685371371333062,0.5191469507670451,0.826716946940134,365.8639179675076,53.43381453289075,1296.7191748610126,-41.910637341905115,-108.3255386352539,4381.2578125,True
1599571579.3871121,0.0,10,0.5,0.5,0.6340236682891844,-0.15025,-0.03,-0.001,5.698909546472473,10,1,100,-2.342507573321786,-10,-1,-100,6394.948981031659,0.21685371371333062,0.5191469507670451,0.826716946940134,365.8639179675076,53.43381453289075,1296.7191748610126,-41.910637341905115,-108.3255386352539,4381.2578125,True
1599571579.4958222,0.0,10,0.5,0.5,5.57047890472412,-0.15025,-0.03,-0.001,5.765739016951363,10,1,100,-3.6999646070124115,-10,-1,-100,6392.433067900827,0.22912054139480956,0.5197264698877894,0.8230359494025316,374.5443277154063,55.38649602288282,1345.843950401888,-42.464993038878944,-137.58343505859375,4381.2578125,True
1599571579.6454227,0.0,10,0.5,0.5,10.518366203308105,-0.15025,-0.03,-0.001,5.747981714728082,10,1,100,-3.729259623013027,-10,-1,-100,6389.836909537786,0.24045997771214858,0.5200683352504857,0.8195778948876435,327.0117520470493,49.12305607202162,1191.633837678283,-43.02174515577905,-166.86148071289062,4381.2578125,True
1599571579.7720828,0.0,10,0.5,0.5,11.048977897644043,-0.15025,-0.03,-0.001,5.715656909557422,10,1,100,-2.6039314770363156,-10,-1,-100,6389.836909537786,0.24045997771214858,0.5200683352504857,0.8195778948876435,327.0117520470493,49.12305607202162,1191.633837678283,-43.02174515577905,-166.86148071289062,4381.2578125,True
1599571579.897761,0.0,10,0.5,0.5,-37.09426978302002,-0.15025,-0.03,-0.001,5.80306326816981,10,1,100,-4.164054401467565,-10,-1,-100,6386.412689418648,0.25456836551443973,0.5208481048591138,0.8148080749133356,381.387584456121,58.43114617806082,1413.6248373865837,-43.75909907003824,154.97067260742188,4381.2578125,True
1599571579.9950366,0.0,10,0.5,0.5,-35.81688315582275,-0.15025,-0.03,-0.001,5.7609182794492995,10,1,100,-3.141357191053515,-10,-1,-100,6385.501495919889,0.25801343906781504,0.5211602671909615,0.813523841790666,392.0299543747271,60.30827315856491,1459.3002340241296,-43.94296638056389,145.62570190429688,4381.2578125,True
1599571580.0912662,0.0,10,0.5,0.5,-32.18308864212036,-0.15025,-0.03,-0.001,5.865807799709621,10,1,100,-3.9525732187033937,-10,-1,-100,6382.852368649677,0.26844975393460335,0.5223900784716271,0.8093474751470213,383.8141348350292,59.886824152076805,1447.9155981064262,-44.49621351735767,117.98847961425781,4381.2578125,True
1599571580.190002,0.0,10,0.5,0.5,-32.71970015335083,-0.15025,-0.03,-0.001,5.743530215026136,10,1,100,-2.9167895659658156,-10,-1,-100,6382.852368649677,0.26844975393460335,0.5223900784716271,0.8093474751470213,383.8141348350292,59.886824152076805,1447.9155981064262,-44.49621351735767,117.98847961425781,4381.2578125,True
1599571580.2944782,0.0,10,0.5,0.5,-30.427046062469483,-0.15025,-0.03,-0.001,5.853016885328695,10,1,100,-3.720798021165246,-10,-1,-100,6381.048583576805,0.27568757776422315,0.523379015989077,0.8062696602804801,349.5623355617367,55.197495109660466,1330.3765554814938,-44.86577923951035,99.46531677246094,4381.2578125,True
1599571580.3712728,0.0,10,0.5,0.5,-25.291959800720214,-0.15025,-0.03,-0.001,5.961167400161545,10,1,100,-4.732980539042001,-10,-1,-100,6377.433143426897,0.29140769667289246,0.5252566958216247,0.799491687145244,402.4134626461865,64.8727500216943,1555.9504117232616,-45.59928714859768,61.650787353515625,4381.2578125,True
1599571580.4809797,0.0,10,0.5,0.5,-24.384078994750976,-0.15025,-0.03,-0.001,5.811309595159727,10,1,100,-3.6343155321881406,-10,-1,-100,6376.530280900071,0.2956430738157753,0.5255957794920565,0.7977118837555934,413.9462980029086,67.00955717405185,1606.9010982300813,-45.78207330090051,52.026824951171875,4381.2578125,True
1599571580.5757596,0.0,10,0.5,0.5,-23.408630210876467,-0.15025,-0.03,-0.001,5.805094019429465,10,1,100,-3.6983511352365817,-10,-1,-100,6375.562029562308,0.30000393182783425,0.5258416695687875,0.7959197066494524,417.57081907880723,67.88530931388485,1627.6030675336485,-45.96515202205869,42.333404541015625,4381.2578125,True
1599571580.663503,0.0,10,0.5,0.5,-19.495672950744627,-0.15025,-0.03,-0.001,5.78040193776358,10,1,100,-4.783771609378396,-10,-1,-100,6372.783113835612,0.31377136761241975,0.5258351732600522,0.7905978114244958,385.1301526663877,63.61771629593306,1520.2483031264087,-46.51630884388884,12.829925537109375,4381.2578125,True
1599571580.7477975,0.0,10,0.5,0.5,-17.034874885559084,-0.15025,-0.03,-0.001,5.69591354968175,10,1,100,-4.47453839072821,-10,-1,-100,6370.891933659324,0.3234093605289501,0.5250559486895403,0.7872246415528305,352.285377132054,58.88506164805323,1401.5652492182792,-46.88368851639321,-7.199005126953125,4381.2578125,True
1599571580.8431084,0.0,10,0.5,0.5,-14.45980238342285,-0.15025,-0.03,-0.001,5.610717316241866,10,1,100,-4.600984539538315,-10,-1,-100,6368.997600212693,0.33324527418514516,0.5235685173092223,0.7841068772277731,409.4043991772916,69.08383998450962,1640.6487120777645,-47.24808417550259,-27.5235595703125,4381.2578125,True
1599571580.9248915,0.0,10,0.5,0.5,-12.37866680908203,-0.15025,-0.03,-0.001,5.648238250022201,10,1,100,-4.167883806724001,-10,-1,-100,6368.021520189941,0.3381782100209463,0.5225549332592543,0.782669687667438,427.4158885753426,72.42076157795628,1719.1249868671632,-47.429947425703645,-37.79779052734375,4381.2578125,True
1599571581.0056736,0.0,10,0.5,0.5,-8.696771224975587,-0.15025,-0.03,-0.001,5.469876536146742,10,1,100,-4.7582716984835525,-10,-1,-100,6366.125676008756,0.34795698273225856,0.5200107552094444,0.7800735559127523,438.4391241913963,74.95204485664907,1777.147616157169,-47.794386043283104,-58.5706787109375,4381.2578125,True
1599571581.1083992,0.0,10,0.5,0.5,-3.39054186630249,-0.15025,-0.03,-0.001,5.1805915457492855,10,1,100,-5.343941534096792,-10,-1,-100,6363.220434432733,0.3620987680401195,0.5150701655453332,0.7769087505936144,390.67400566702753,67.99707050418239,1602.386096991867,-48.342865363290706,-90.28852844238281,4381.2578125,True
1599571581.193172,0.0,10,0.5,0.5,-1.1759500389099122,-0.15025,-0.03,-0.001,5.4665519107849985,10,1,100,-4.4355326647710385,-10,-1,-100,6362.253919904702,0.36661153858602663,0.5131850145445808,0.7760393808451121,365.97188093580274,64.07750325656573,1506.4191919096938,-48.52550744022171,-101.00904846191406,4381.2578125,True
1599571581.2749882,0.0,10,0.5,0.5,4.345445762634277,-0.15025,-0.03,-0.001,4.983544205045474,10,1,100,-5.398508583203309,-10,-1,-100,6359.285155310994,0.37938572564912487,0.5070895290384869,0.7739035345010464,445.4832199798267,79.02793614453333,1852.1607601786347,-49.068754787361584,-133.60867309570312,4381.2578125,True
1599571581.3590636,0.0,10,0.5,0.5,6.563791564941407,-0.15025,-0.03,-0.001,5.359329398805739,10,1,100,-4.5687413600543785,-10,-1,-100,6358.317343331873,0.38337530456060914,0.5049809232187523,0.7733160046437656,454.2404765721733,80.8976560776542,1895.2519740478099,-49.2498845266576,-144.6180419921875,4381.2578125,True
1599571581.4438381,0.0,10,0.5,0.5,12.187297561645506,-0.15025,-0.03,-0.001,4.874878829482669,10,1,100,-5.413837870411532,-10,-1,-100,6355.34593864379,0.3946051334554373,0.4986786535308505,0.7717553946447506,417.33328203402857,75.49794584337342,1760.8346963218205,-49.795647754193745,-177.97064208984375,4381.2578125,True
1599571582.2913756,0.0,10,0.5,0.5,-38.29754356384277,-0.15025,-0.03,-0.001,5.0560939989805895,10,1,100,-5.071900874067827,-10,-1,-100,6353.344926943188,0.4016195495734041,0.4946214217336826,0.7707472909862264,385.1406292933758,70.44357171559258,1636.0276865593707,-50.159537925825546,159.96258544921875,4381.2578125,True
1599571582.3995972,0.0,10,0.5,0.5,-36.74934474563598,-0.15025,-0.03,-0.001,5.242737716539426,10,1,100,-4.754962188818968,-10,-1,-100,6352.312545096269,0.405035168740238,0.49265816639727067,0.770217140269967,420.63199199191916,77.25535120206283,1792.3477880407447,-50.34018797996055,149.04249572753906,4381.2578125,True
1599571582.476391,0.0,10,0.5,0.5,-33.96235075378418,-0.15025,-0.03,-0.001,5.019439896332187,10,1,100,-5.162848002452586,-10,-1,-100,6350.31013816304,0.41177412464474594,0.4888728611643688,0.7690548718329642,462.34840291513717,85.53321590283502,1982.7843585521325,-50.700883474351414,127.44488525390625,4381.2578125,True
1599571582.552356,0.0,10,0.5,0.5,-31.18639701461792,-0.15025,-0.03,-0.001,4.993823385876812,10,1,100,-5.239261152785296,-10,-1,-100,6348.247754837619,0.4185237233332691,0.48523033872681354,0.76771701256799,463.5716435512765,86.53752024812577,2001.9932422560819,-51.06254674890918,105.87492370605469,4381.2578125,True
1599571582.6301467,0.0,10,0.5,0.5,-26.682261180877685,-0.15025,-0.03,-0.001,4.755521776190053,10,1,100,-5.724371420309594,-10,-1,-100,6345.15165453474,0.4289967741064089,0.4797865078723677,0.7653539538474556,392.73375310083264,74.61937557581378,1713.4177607850465,-51.60639371001797,73.10319519042969,4381.2578125,True
1599571582.707941,0.0,10,0.5,0.5,-25.43802381515503,-0.15025,-0.03,-0.001,5.0878675423027175,10,1,100,-5.085479806007222,-10,-1,-100,6344.120375330094,0.43263595123253795,0.47789546337602035,0.7644881031028122,418.1387957314522,79.81305943393161,1829.5550377276777,-51.78659567098513,62.04844665527344,4381.2578125,True
1599571582.7827375,0.0,10,0.5,0.5,-20.82719729614258,-0.15025,-0.03,-0.001,4.592132230354377,10,1,100,-5.9802551279022405,-10,-1,-100,6341.026888378314,0.44401449047061686,0.471703442545419,0.7618050896016112,484.6564402002219,93.4687275096438,2139.4128192717194,-52.324879887583634,28.468994140625,4381.2578125,True
1599571582.8635225,0.0,10,0.5,0.5,-17.809436553955077,-0.15025,-0.03,-0.001,4.684295709475844,10,1,100,-5.718795376893531,-10,-1,-100,6338.902380031766,0.4519113439034416,0.4669498930296122,0.7600881097945283,472.38244049116867,91.93832849375451,2099.085501572029,-52.685126614039135,5.7266845703125,4381.2578125,True
1599571582.936328,0.0,10,0.5,0.5,-14.765900611877441,-0.15025,-0.03,-0.001,4.56282674715669,10,1,100,-5.817557144181439,-10,-1,-100,6336.7768100379035,0.45992220343748663,0.4615607116632581,0.7585731844944915,416.4993746340152,81.98379222484449,1862.6060682669374,-53.04635885589031,-17.309906005859375,4381.2578125,True
1599571583.0270853,0.0,10,0.5,0.5,-11.640701011657715,-0.15025,-0.03,-0.001,4.429634522803454,10,1,100,-5.899805561669241,-10,-1,-100,6334.649863712024,0.46788292781025587,0.4554900903920482,0.7573733183961174,452.0746885730782,89.69181361568883,2032.6691175310846,-53.40547363843774,-40.649810791015625,4381.2578125,True
1599571583.0988932,0.0,10,0.5,0.5,-8.499417259216308,-0.15025,-0.03,-0.001,4.296296594719058,10,1,100,-5.957744577144599,-10,-1,-100,6332.5232209714595,0.47558005211313586,0.4487984431293981,0.7565735730758084,498.4188509393215,99.48538896645206,2253.6314561344716,-53.76295341739352,-64.29666137695312,4381.2578125,True
1599571583.1746905,0.0,10,0.5,0.5,-6.044721031188965,-0.15025,-0.03,-0.001,4.571131457355659,10,1,100,-5.601622553729818,-10,-1,-100,6331.427672373829,0.47927272808240173,0.4452552834405983,0.7563368196013499,502.56186696037634,100.70872118794895,2279.357565028547,-53.942043725561355,-76.23428344726562,4381.2578125,True
1599571583.2544787,0.0,10,0.5,0.5,0.10367586898803705,-0.15025,-0.03,-0.001,3.689758535643051,10,1,100,-6.368455772132062,-10,-1,-100,6328.202072735992,0.4895334286223528,0.43406484160153536,0.7562702794283785,438.1761994823666,89.24354851067588,2005.444766729489,-54.4806453255074,-112.49546813964844,4381.2578125,True
1599571583.3282793,0.0,10,0.5,0.5,4.498877418518067,-0.15025,-0.03,-0.001,3.9543708119668426,10,1,100,-6.018930863898065,-10,-1,-100,6326.00682823942,0.49561314876201956,0.42634710427766065,0.7567005705351687,471.1018831493887,96.63280359860335,2166.6978492258054,-54.83782852859897,-137.03524780273438,4381.2578125,True
1599571583.4061155,0.0,10,0.5,0.5,8.949782859802246,-0.15025,-0.03,-0.001,3.8737197188498884,10,1,100,-6.0172325956559085,-10,-1,-100,6323.748759458191,0.5010546469727618,0.41865131789530147,0.7574135691757364,512.4366427095893,105.64219467081531,2369.0392066580102,-55.1937353380378,-161.80691528320312,4381.2578125,True
1599571583.4849334,0.0,10,0.5,0.5,11.504352062225342,-0.15025,-0.03,-0.001,4.220278015090457,10,1,100,-5.755437926838143,-10,-1,-100,6322.650280668866,0.5035560048361238,0.41486125586805017,0.7578400150249827,511.0749291319866,105.73922742166629,2369.5819683572895,-55.372226202469896,-174.20103454589844,4381.2578125,True
1599571583.560242,0.0,10,0.5,0.5,-38.52598323822021,-0.15025,-0.03,-0.001,3.7786863215684567,10,1,100,-6.022602697158522,-10,-1,-100,6320.454121489194,0.5081942643933622,0.4074585788180835,0.7587595773268612,467.45324121274354,97.66594037873868,2179.9577142749317,-55.730254273403425,161.18203735351562,4381.2578125,True
1599571583.6460571,0.0,10,0.5,0.5,-33.092684112548824,-0.15025,-0.03,-0.001,3.3456763083644216,10,1,100,-6.263654790040157,-10,-1,-100,6317.094245152315,0.5145439014043913,0.396850822165102,0.7601013080336269,483.6811664102974,102.06209012524955,2271.886872595071,-56.26579442546626,124.844482421875,4381.2578125,True
1599571583.7198608,0.0,10,0.5,0.5,-29.872262588500977,-0.15025,-0.03,-0.001,3.656169992513701,10,1,100,-6.080428915926618,-10,-1,-100,6314.83389727748,0.5185936702338393,0.39009380330998905,0.7608465218508549,522.1357180947862,110.70534506368264,2465.0181532001898,-56.62106715287802,100.94952392578125,4381.2578125,True
1599571583.8046331,0.0,10,0.5,0.5,-26.616133113861082,-0.15025,-0.03,-0.001,3.5961519811563103,10,1,100,-6.1300406855271525,-10,-1,-100,6312.512105959584,0.5226729566508002,0.3834704105278676,0.7614219754088395,504.6913720406425,107.92753978573148,2395.948348703807,-56.97727472980835,76.91777038574219,4381.2578125,True
1599571583.8854172,0.0,10,0.5,0.5,-25.162197025299072,-0.15025,-0.03,-0.001,3.8866100423047634,10,1,100,-5.957329190350432,-10,-1,-100,6311.414406928117,0.524761485229303,0.38015514462716515,0.7616478514598694,477.1234681904669,102.55079483900396,2270.9829313136265,-57.15560634096702,64.81416320800781,4381.2578125,True
1599571583.9664953,0.0,10,0.5,0.5,-20.009341522216797,-0.15025,-0.03,-0.001,3.082389129862883,10,1,100,-6.471332770548681,-10,-1,-100,6307.931474298355,0.5312881969996386,0.36989257033023876,0.7621760545591568,504.3743852660343,109.32527989338884,2416.2538148256913,-57.68844895211504,28.10479736328125,4381.2578125,True
1599571584.0418017,0.0,10,0.5,0.5,-18.48723860168457,-0.15025,-0.03,-0.001,3.706300719791127,10,1,100,-6.0701943070130255,-10,-1,-100,6306.77055860986,0.533527571241513,0.3663033924352082,0.7623451681591419,527.0156209274936,114.42195560869165,2530.474263544372,-57.86526088407255,15.72906494140625,4381.2578125,True
1599571584.1166017,0.0,10,0.5,0.5,-15.107902969360351,-0.15025,-0.03,-0.001,3.2304898367818087,10,1,100,-6.345436077309925,-10,-1,-100,6304.4494791771285,0.538025569243535,0.35877655127524694,0.7627633139416251,526.8046075586121,115.06023190023012,2542.435383079637,-58.21982164744923,-9.23876953125,4381.2578125,True
1599571584.1933992,0.0,10,0.5,0.5,-9.76754167175293,-0.15025,-0.03,-0.001,2.6245531968576223,10,1,100,-6.614688013403976,-10,-1,-100,6300.966573717073,0.5445238464639722,0.3464868812696099,0.7638328493460723,441.5095699354842,97.57181295067456,2145.7600887765225,-58.75355682167491,-47.246826171875,4381.2578125,True
1599571584.2791667,0.0,10,0.5,0.5,-8.210051567077636,-0.15025,-0.03,-0.001,3.3670302532422793,10,1,100,-6.189964913690796,-10,-1,-100,6299.743095835671,0.5465307346674397,0.34212984944673286,0.7643633443470613,490.45500642500167,108.56088093764556,2388.292482977921,-58.93038055275461,-60.067840576171875,4381.2578125,True
