Timestamp,Input Throttle,horizon,dT,dt,Input Roll,Roll P,Roll I,Roll D,Input Pitch,Pitch P,Pitch I,Pitch D,Input Yaw,Yaw P,Yaw I,Yaw D,Altitude,Direction X,Direction Y,Direction Z,Drag X,Drag Y,Drag Z,Vertical Velocity,Roll,Mass,Has Fuel
1599566604.7195961,0.0,10,0.5,0.5,-2.744121276855469,-0.05075,-0.001,-0.5,-0.06857389929553459,10,1,100,0.6815961050250512,-10,-1,-100,6483.617967322934,-0.06725792913337432,-0.0070024113845623724,0.9977110489532988,205.0731668633555,21.498771532185206,-156.76519654484395,9.590823982961062,-35.944580078125,4381.2578125,True
1599566604.7814302,0.0,10,0.5,0.5,-2.7505501266479495,-0.05075,-0.001,-0.5,-0.06732747595862204,10,1,100,0.6998982774586584,-10,-1,-100,6483.997883024043,-0.0674451399807523,-0.006971530666149119,0.9976986272683489,204.61197651066382,21.45672375047268,-150.26659071770192,9.210801525285868,-35.941253662109375,4381.2578125,True
1599566604.8462565,0.0,10,0.5,0.5,-2.7552340164184574,-0.05075,-0.001,-0.5,-0.06931924468096572,10,1,100,0.6985833233140726,-10,-1,-100,6484.156591856503,-0.06754206376798082,-0.006955226519007331,0.9976921842161696,204.3812751686788,21.43562130646877,-147.025565035602,9.020797685759653,-35.939544677734375,4381.2578125,True
1599566604.9008412,0.0,10,0.5,0.5,-2.6802185989379885,-0.05075,-0.001,-0.5,-0.03741243720061063,10,1,100,0.700143381004577,-10,-1,-100,6484.53893633734,-0.06758295676831316,-0.006644019747676108,0.997691535974945,203.94219533214454,21.395582589041584,-140.57567356152833,8.64080069185867,-36.084014892578125,4381.2578125,True
1599566604.9696224,0.0,10,0.5,0.5,-2.52825408782959,-0.05075,-0.001,-0.5,-0.02717014044495028,10,1,100,0.7033839552293051,-10,-1,-100,6484.856805003248,-0.06758815293723254,-0.006261952694371105,0.9976936551522149,203.59149690994576,21.36435496996131,-134.20510440338967,8.260810793177335,-36.500885009765625,4381.2578125,True
1599566605.034989,0.0,10,0.5,0.5,-1.801471408081055,-0.05075,-0.001,-0.5,0.08538092539341571,10,1,100,0.670997230733871,-10,-1,-100,6485.493930145283,-0.06723700818362145,-0.004885734817659256,0.9977250695085329,203.0853928508595,21.31989170078242,-121.62842803730277,7.500820608524498,-38.20867919921875,4381.2578125,True
1599566605.0957923,0.0,10,0.5,0.5,-2.3243628967285157,-0.05075,-0.001,-0.5,-6.81748799403678e-05,10,1,100,0.6934389284012682,-10,-1,-100,6485.590084191761,-0.06706067656078442,-0.004406996082390213,0.9977391663379461,202.97100664775778,21.309354103807166,-118.49761777075094,7.310815183819937,-38.819091796875,4381.2578125,True
1599566605.1611273,0.0,10,0.5,0.5,-1.3831462326049806,-0.05075,-0.001,-0.5,0.1395770752089629,10,1,100,0.6317050524301752,-10,-1,-100,6486.00545972446,-0.06627819377977646,-0.0026982704167170628,0.9977975347564499,202.54093917949197,21.266594820389628,-109.0713783900529,6.740763345819328,-41.091522216796875,4381.2578125,True
1599566605.227955,0.0,10,0.5,0.5,-2.524252290344238,-0.05075,-0.001,-0.5,-0.031565318400023884,10,1,100,0.7165811499089482,-10,-1,-100,6486.00545972446,-0.06627819377977646,-0.0026982704167170628,0.9977975347564499,202.54093917949197,21.266594820389628,-109.0713783900529,6.740763345819328,-41.091522216796875,4381.2578125,True
1599566605.2947767,0.0,10,0.5,0.5,-1.4925371124267581,-0.05075,-0.001,-0.5,0.12250801084266447,10,1,100,0.644599762399966,-10,-1,-100,6486.2611845656065,-0.06556356462625865,-0.0012951508141319714,0.9978475542776396,202.0827489891499,21.218223287659747,-102.71533275961272,6.360687327396686,-42.97369384765625,4381.2578125,True
1599566605.3855705,0.0,10,0.5,0.5,-0.5792753875732424,-0.05075,-0.001,-0.5,0.24266224656036622,10,1,100,0.5635162323863248,-10,-1,-100,6486.675485140062,-0.06411717551873093,0.0010739011045737023,0.9979417991746401,200.89568795098964,21.090236036842175,-92.99232779042994,5.790480957870059,-46.34918212890625,4381.2578125,True
1599566605.452357,0.0,10,0.5,0.5,-0.8240924407958987,-0.05075,-0.001,-0.5,0.20269530144149145,10,1,100,0.575163362530478,-10,-1,-100,6486.8691384892445,-0.06291101456193862,0.002856906700053511,0.9980150511544879,199.59751627926136,20.949810209513767,-86.34451319922637,5.410257049386649,-48.96722412109375,4381.2578125,True
1599566605.5255303,0.0,10,0.5,0.5,-0.5276640655517579,-0.05075,-0.001,-0.5,0.2340228155747936,10,1,100,0.5392946256576239,-10,-1,-100,6487.06179451535,-0.061492547107300406,0.004753681517732263,0.9980962223965605,197.74288614833216,20.74958191502418,-79.54626882157524,5.029941990552279,-51.8798828125,4381.2578125,True
1599566606.112032,0.0,10,0.5,0.5,-1.129600785827637,-0.05075,-0.001,-0.5,0.15154327366289766,10,1,100,0.5935418933147922,-10,-1,-100,6487.157871318632,-0.06070168777874963,0.00571756378184413,0.9981395766951693,196.5589405857115,20.62207447969975,-76.08798335468967,4.839743323837249,-53.428314208984375,4381.2578125,True
1599566606.1748695,0.0,10,0.5,0.5,-0.09940442657470716,-0.05075,-0.001,-0.5,0.2782079288158299,10,1,100,0.4803714047783155,-10,-1,-100,6487.351965109119,-0.058960157828816924,0.007734079447400193,0.9982303761176086,193.63250591791254,20.3078181547028,-69.07584735047024,4.459246420415107,-56.701446533203125,4381.2578125,True
1599566606.2357025,0.0,10,0.5,0.5,0.18846412506103505,-0.05075,-0.001,-0.5,0.30566547124141935,10,1,100,0.43743266723445795,-10,-1,-100,6487.5440915016225,-0.05699444025585068,0.009804165863463998,0.9983263555128874,189.85448866465384,19.903880464551776,-61.95794582249334,4.078590354794729,-60.191986083984375,4381.2578125,True
1599566606.2965393,0.0,10,0.5,0.5,-0.559532765197754,-0.05075,-0.001,-0.5,0.2121237343201256,10,1,100,0.5162212440207707,-10,-1,-100,6487.57862670999,-0.05593299549478219,0.010822328723618312,0.9983758697083873,187.604210781849,19.664102604431605,-58.37057223774113,3.8881927412281807,-61.998748779296875,4381.2578125,True
1599566606.3663545,0.0,10,0.5,0.5,0.5462092498779296,-0.05075,-0.001,-0.5,0.33612695296707795,10,1,100,0.3701604391971889,-10,-1,-100,6487.770739252213,-0.053650336287292814,0.012861388470725429,0.9984769532156792,182.4669329833421,19.11836203011429,-51.218202894542664,3.5072436296164815,-65.64251708984375,4381.2578125,True
1599566606.4281867,0.0,10,0.5,0.5,0.7337536666870117,-0.05075,-0.001,-0.5,0.3579020849457043,10,1,100,0.3219064046079394,-10,-1,-100,6487.839800108573,-0.05114799838193883,0.014898889750730827,0.9985799443938962,176.6506822437098,18.50288248183618,-44.20299005971324,3.12605887808198,-69.28659057617188,4381.2578125,True
1599566606.493016,0.0,10,0.5,0.5,0.9639994049072265,-0.05075,-0.001,-0.5,0.37232046483240466,10,1,100,0.27404617145483745,-10,-1,-100,6487.969406721182,-0.04845180743513231,0.016866242404098966,0.9986831090107787,169.9997442092576,17.80202513567866,-37.352835291957504,2.744585265758173,-73.0078125,4381.2578125,True
1599566606.5538502,0.0,10,0.5,0.5,1.0941710983276367,-0.05075,-0.001,-0.5,0.3831581013698908,10,1,100,0.22676783785641913,-10,-1,-100,6488.100482091773,-0.04558647786640543,0.018736758427303303,0.9987846649400324,162.76454746461465,17.041694638839214,-30.79257331985581,2.362833869858264,-76.61703491210938,4381.2578125,True
1599566606.6236672,0.0,10,0.5,0.5,0.2467180252075195,-0.05075,-0.001,-0.5,0.29705903704447545,10,1,100,0.34671898340789614,-10,-1,-100,6488.133551586536,-0.044088943852260164,0.019638451629691897,0.9988345690090928,159.0655384946675,16.653454239098398,-27.662349186661096,2.1718727486643603,-78.34945678710938,4381.2578125,True
1599566606.6815095,0.0,10,0.5,0.5,1.1851985229492188,-0.05075,-0.001,-0.5,0.39621009567827037,10,1,100,0.15413081940262946,-10,-1,-100,6488.201651548967,-0.040993858776361754,0.02134429003314363,0.9989313914506864,151.6464581079418,15.875398732015787,-21.735568014564908,1.7898291146633811,-81.62091064453125,4381.2578125,True
1599566606.7443433,0.0,10,0.5,0.5,1.198023097229004,-0.05075,-0.001,-0.5,0.3996580020766056,10,1,100,0.10813586745293258,-10,-1,-100,6488.269275726983,-0.03778064431539408,0.02291131445034333,0.9990233703899379,144.41988940758574,15.118195877979348,-16.28193326257439,1.407686881864945,-84.60879516601562,4381.2578125,True
1599566606.8311093,0.0,10,0.5,0.5,1.2536285110473633,-0.05075,-0.001,-0.5,0.40571342492539686,10,1,100,0.055073489883456006,-10,-1,-100,6488.273438043427,-0.03439799232157673,0.024375300718542527,0.9991109161845472,147.088680028023,15.397272890486134,-12.081856195339036,1.02550047394866,-87.41665649414062,4381.2578125,True
1599566606.88999,0.0,10,0.5,0.5,1.9480917594909668,-0.05075,-0.001,-0.5,0.46513358042028663,10,1,100,-0.17418485637430242,-10,-1,-100,6488.3116978745675,-0.02926101660258792,0.0262312521747943,0.9992275588256788,152.22955063871026,15.934056343093175,-5.514896176586454,0.45221946490965026,-91.22114562988281,4381.2578125,True
1599566606.955293,0.0,10,0.5,0.5,0.669283390045166,-0.05075,-0.001,-0.5,0.341424430452979,10,1,100,0.14394852932262614,-10,-1,-100,6488.345295423875,-0.0275083725677095,0.026778918420491907,0.9992628177646282,153.5953482083411,16.07612505695707,-3.21333341841765,0.2611347250573326,-92.34748840332031,4381.2578125,True
1599566607.018125,0.0,10,0.5,0.5,1.2287360095977784,-0.05075,-0.001,-0.5,0.39521590783870264,10,1,100,-0.07046861736102766,-10,-1,-100,6488.350495411665,-0.02399165358699324,0.027751304265817334,0.9993269063072943,155.83000566620154,16.307595474360188,1.5110737999045032,-0.1210244084398222,-94.38033294677734,4381.2578125,True
1599566607.0799603,0.0,10,0.5,0.5,1.1728904727935792,-0.05075,-0.001,-0.5,0.38666121738859294,10,1,100,-0.09950162058330614,-10,-1,-100,6488.355719547719,-0.02055766237768529,0.028543985197662096,0.9993811202072015,157.62137849295547,16.49222796369257,6.355534224058254,-0.5031830311774348,-96.1192398071289,4381.2578125,True
1599566607.160744,0.0,10,0.5,0.5,1.8119386764526366,-0.05075,-0.001,-0.5,0.4360749910492839,10,1,100,-0.5285186190967988,-10,-1,-100,6488.240746482625,-0.013563507051831998,0.029701415718575496,0.999466786432029,162.08630695403278,16.953848098954733,16.466966896231757,-1.2675178157649398,-98.85336303710938,4381.2578125,True
1599566607.234547,0.0,10,0.5,0.5,0.4474616165161133,-0.05075,-0.001,-0.5,0.32161545628939153,10,1,100,0.16740808345020058,-10,-1,-100,6488.240746482625,-0.013563507051831998,0.029701415718575496,0.999466786432029,162.08630695403278,16.953848098954733,16.466966896231757,-1.2675178157649398,-98.85336303710938,4381.2578125,True
1599566607.3242345,0.0,10,0.5,0.5,1.1755069561004639,-0.05075,-0.001,-0.5,0.37558466855118927,10,1,100,-0.3851982026147657,-10,-1,-100,6488.154209025204,-0.008568925333800098,0.030182077050690682,0.9995076866855652,164.66248564378597,17.220294386032343,24.299880019878685,-1.8408381559834355,-100.1712417602539,4381.2578125,True
1599566607.3910577,0.0,10,0.5,0.5,0.8138274307250978,-0.05075,-0.001,-0.5,0.34494469073619205,10,1,100,-0.2506190702700323,-10,-1,-100,6488.033557024202,-0.005284134082830912,0.030330911531185424,0.9995259445020335,165.96024879900145,17.354983543897088,29.581095045211754,-2.2231069824963026,-100.70701599121094,4381.2578125,True
1599566607.478852,0.0,10,0.5,0.5,0.7533255016326905,-0.05075,-0.001,-0.5,0.3321911198882896,10,1,100,-0.28767891484276586,-10,-1,-100,6487.97542176256,-0.0019935159264645556,0.0303421043952924,0.9995375843834567,166.93750517380028,17.457085800266487,34.87716367410236,-2.6054305426611535,-101.0801010131836,4381.2578125,True
1599566607.5895913,0.0,10,0.5,0.5,0.6292230518341065,-0.05075,-0.001,-0.5,0.3286320686369693,10,1,100,-0.12584385575539067,-10,-1,-100,6487.884593548602,-0.0005058064381884877,0.03031316945133679,0.99954032230704,167.31787224225073,17.49719792576683,37.52430572814833,-2.7966158573135536,-101.19048309326172,4381.2578125,True
1599566607.6758687,0.0,10,0.5,0.5,0.49580040473938003,-0.05075,-0.001,-0.5,0.28649820148354155,10,1,100,-0.6395613202993787,-10,-1,-100,6487.640947836684,0.005486004423477476,0.029898431738407075,0.9995378869933093,167.92129947346987,17.56431202607563,47.97387596226932,-3.5615289695097863,-101.04593658447266,4381.2578125,True
1599566607.7457173,0.0,10,0.5,0.5,0.5690561382293702,-0.05075,-0.001,-0.5,0.3283386907328742,10,1,100,-0.04385493623538891,-10,-1,-100,6487.640947836684,0.005486004423477476,0.029898431738407075,0.9995378869933093,167.92129947346987,17.56431202607563,47.97387596226932,-3.5615289695097863,-101.04593658447266,4381.2578125,True
1599566607.8125045,0.0,10,0.5,0.5,0.35442369995117184,-0.05075,-0.001,-0.5,0.2868680071539394,10,1,100,-0.3655265637553632,-10,-1,-100,6487.520365656703,0.008380297058212527,0.029518589602855017,0.9995291008715425,167.7050339638774,17.545266222963004,53.06669267470669,-3.9440922605972113,-100.65464782714844,4381.2578125,True
1599566607.8873022,0.0,10,0.5,0.5,-0.15369236068725584,-0.05075,-0.001,-0.5,0.21474084489637899,10,1,100,-0.6554630632636789,-10,-1,-100,6487.152766025043,0.013617829493824347,0.028515970472432563,0.9995005723599624,166.50724993122276,17.42992002776377,62.93209625896096,-4.7094393071343505,-99.37568664550781,4381.2578125,True
1599566607.95615,0.0,10,0.5,0.5,0.48611387481689455,-0.05075,-0.001,-0.5,0.3149999564661014,10,1,100,-0.13512736888964783,-10,-1,-100,6487.152766025043,0.013617829493824347,0.028515970472432563,0.9995005723599624,166.50724993122276,17.42992002776377,62.93209625896096,-4.7094393071343505,-99.37568664550781,4381.2578125,True
1599566608.0249653,0.0,10,0.5,0.5,0.01619322204589846,-0.05075,-0.001,-0.5,0.24676118289705448,10,1,100,-0.3983370127592143,-10,-1,-100,6486.908185214968,0.015985934132142537,0.02789669566293772,0.9994829784848827,165.69965312146803,17.351572762602704,67.72884662347187,-5.092221190101783,-98.52235412597656,4381.2578125,True
1599566608.094748,0.0,10,0.5,0.5,-0.5659925525665284,-0.05075,-0.001,-0.5,0.14417033900229653,10,1,100,-0.6434102124496948,-10,-1,-100,6486.476158780395,0.020339831581268918,0.0264027151825861,0.999444439617447,164.08273580105669,17.196301901232466,77.18202764619465,-5.857992190456723,-96.69063568115234,4381.2578125,True
1599566608.1615703,0.0,10,0.5,0.5,0.0739419185638428,-0.05075,-0.001,-0.5,0.2481573132665396,10,1,100,-0.31696207350134176,-10,-1,-100,6486.384387484635,0.021303929129203265,0.025993323022730566,0.9994350853166473,163.64107101821946,17.153802660597233,79.49811425363387,-6.049478141384076,-96.19026947021484,4381.2578125,True
1599566608.2353714,0.0,10,0.5,0.5,-0.467403694152832,-0.05075,-0.001,-0.5,0.1441729789385992,10,1,100,-0.5107133191601645,-10,-1,-100,6485.983092649956,0.023917585439485575,0.02467977946397922,0.9994092543059395,162.2233753788701,17.016865576975807,86.32070358375388,-6.624041819173836,-94.75390625,4381.2578125,True
1599566608.3142028,0.0,10,0.5,0.5,0.2501452964782715,-0.05075,-0.001,-0.5,0.27496110232060267,10,1,100,-0.25193879826852855,-10,-1,-100,6485.983092649956,0.023917585439485575,0.02467977946397922,0.9994092543059395,162.2233753788701,17.016865576975807,86.32070358375388,-6.624041819173836,-94.75390625,4381.2578125,True
1599566608.3680165,0.0,10,0.5,0.5,-0.45920157203674317,-0.05075,-0.001,-0.5,0.1094244815421801,10,1,100,-0.5126810548273215,-10,-1,-100,6485.579831723473,0.026265766506494898,0.023180022356891157,0.999386209667394,160.97819368198913,16.898126747108357,93.12033854316131,-7.198767155694068,-93.46710968017578,4381.2578125,True
1599566608.4278574,0.0,10,0.5,0.5,-0.02859689445495603,-0.05075,-0.001,-0.5,0.202545635045763,10,1,100,-0.3525159337941428,-10,-1,-100,6485.4260396438185,0.026925539319762642,0.02266927039082687,0.9993803677841023,160.5952668252755,16.861879417453633,95.38231921118845,-7.390378172725068,-93.08211517333984,4381.2578125,True
1599566608.495709,0.0,10,0.5,0.5,-0.22290255966186523,-0.05075,-0.001,-0.5,0.12761498031099766,10,1,100,-0.43361450648284594,-10,-1,-100,6485.114543783711,0.028243102051815815,0.021530334616222904,0.9993691869763667,159.95756813609492,16.802732447895902,99.95394818631382,-7.7736520888763945,-92.38124084472656,4381.2578125,True
1599566609.0164783,0.0,10,0.5,0.5,-0.21911660766601562,-0.05075,-0.001,-0.5,0.11767798550377105,10,1,100,-0.41775477825339424,-10,-1,-100,6484.804992772639,0.029278649910693136,0.020411864191050542,0.9993628552531124,159.41806712660582,16.75370917404533,104.55477361666438,-8.156991938491574,-91.75332641601562,4381.2578125,True
1599566609.0653458,0.0,10,0.5,0.5,-0.06324035491943358,-0.05075,-0.001,-0.5,0.16119316451972088,10,1,100,-0.371505608100619,-10,-1,-100,6484.588201803039,0.029785372944268317,0.01979803280129465,0.9993602300751064,159.2052863416777,16.735102823416227,106.88253653362071,-8.348684835632238,-91.46768188476562,4381.2578125,True
1599566609.1263964,0.0,10,0.5,0.5,-0.22167757110595704,-0.05075,-0.001,-0.5,0.08466859608139167,10,1,100,-0.417508616814389,-10,-1,-100,6484.277172195143,0.030649541650870533,0.01855225176814188,0.9993580036958342,158.8443112898318,16.704498504959766,111.56697869045335,-8.732112854603505,-90.922119140625,4381.2578125,True
1599566609.1872332,0.0,10,0.5,0.5,-0.08819250411987305,-0.05075,-0.001,-0.5,0.13863887713283038,10,1,100,-0.3728240984499569,-10,-1,-100,6484.060375019675,0.031015596119451594,0.017918857423829527,0.9993582677628577,158.69739219549908,16.692626396277042,113.92659508752797,-8.923846350401178,-90.67057800292969,4381.2578125,True
1599566609.2456517,0.0,10,0.5,0.5,-0.34940444564819334,-0.05075,-0.001,-0.5,-0.01901235872418336,10,1,100,-0.4354015469533889,-10,-1,-100,6483.531061999616,0.03190755356406723,0.015917563928262497,0.9993640673869287,158.39038318419543,16.670653152907928,121.08722429336326,-9.499113725141157,-89.96902465820312,4381.2578125,True
1599566609.3035,0.0,10,0.5,0.5,-0.11401189117431641,-0.05075,-0.001,-0.5,0.10512375453916296,10,1,100,-0.3707447673106047,-10,-1,-100,6483.314255520701,0.03212099540384262,0.01523587610659059,0.999367855063155,158.33179429695056,16.667782882532073,123.5041979384765,-9.69088862626879,-89.76065063476562,4381.2578125,True
1599566609.362857,0.0,10,0.5,0.5,-0.40034354553222656,-0.05075,-0.001,-0.5,-0.1378482492522201,10,1,100,-0.40389254563396126,-10,-1,-100,6482.504134400166,0.03260891923388316,0.012415908873655726,0.9993910663965527,158.3555875189091,16.682759329154916,133.38323540790827,-10.458059189444246,-89.052490234375,4381.2578125,True
1599566609.4322171,0.0,10,0.5,0.5,-0.12034973754882813,-0.05075,-0.001,-0.5,0.06120723119060875,10,1,100,-0.35991922383238406,-10,-1,-100,6482.286828307784,0.03264482766863805,0.011673046548277315,0.9993988469128663,158.44491630806093,16.69512633953276,135.92802494919096,-10.649864827654389,-88.91900634765625,4381.2578125,True
1599566609.5219781,0.0,10,0.5,0.5,-0.12161217269897462,-0.05075,-0.001,-0.5,0.052379978931659174,10,1,100,-0.3564505567366586,-10,-1,-100,6482.069032129017,0.03264013921648849,0.010927930300859777,0.9994074252532187,158.56349049490046,16.7105246753535,138.50238360662104,-10.84167392014671,-88.79635620117188,4381.2578125,True
1599566609.5957806,0.0,10,0.5,0.5,-0.18952878570556642,-0.05075,-0.001,-0.5,-0.1099022770393951,10,1,100,-0.32882015607775605,-10,-1,-100,6481.414166809409,0.03237949643591094,0.0087859326035524,0.9994370293314344,159.13672160406864,16.77942682276932,146.4554035414198,-11.41711368524218,-88.56246948242188,4381.2578125,True
1599566609.6645956,0.0,10,0.5,0.5,-0.09836352081298828,-0.05075,-0.001,-0.5,0.021094446821177185,10,1,100,-0.3382962111426461,-10,-1,-100,6481.1963638748275,0.03222493405017208,0.008041127097471507,0.9994482947608968,159.40306134789907,16.810297673229424,149.19136047726155,-11.608928382899665,-88.516357421875,4381.2578125,True
1599566609.7523618,0.0,10,0.5,0.5,-0.11862491607666016,-0.05075,-0.001,-0.5,-0.14574004854172853,10,1,100,-0.2794298589052594,-10,-1,-100,6480.477514454396,0.03154659569357916,0.005858600076911169,0.9994851119978149,160.37158903357422,16.920808260489228,157.62374058918093,-12.184365949987292,-88.43829345703125,4381.2578125,True
1599566609.827161,0.0,10,0.5,0.5,-0.07614778747558594,-0.05075,-0.001,-0.5,-0.08938449781343857,10,1,100,-0.27917295284704086,-10,-1,-100,6479.97988415102,0.030925987839102425,0.004399480003681119,0.999511994851424,161.14448463455275,17.007991723561048,163.43161545822784,-12.567977253089687,-88.44509887695312,4381.2578125,True
1599566609.8999991,0.0,10,0.5,0.5,-0.057141613769531266,-0.05075,-0.001,-0.5,-0.10293817252421322,10,1,100,-0.2596469680300183,-10,-1,-100,6479.479808998061,0.03018403861288861,0.0029626581413417226,0.9995399674198892,162.01285133396334,17.10539469995329,169.39326392490042,-12.951569434615376,-88.48623657226562,4381.2578125,True
1599566609.9697795,0.0,10,0.5,0.5,-0.059692697143554685,-0.05075,-0.001,-0.5,-0.03734774183537887,10,1,100,-0.288239333274822,-10,-1,-100,6479.199985517655,0.02977022587083478,0.0022663296357339365,0.999554199331673,162.48013388031285,17.15766081369515,172.43174363537273,-13.143356411308378,-88.51934814453125,4381.2578125,True
1599566610.0346076,0.0,10,0.5,0.5,0.02954457550048828,-0.05075,-0.001,-0.5,-0.27397633362032797,10,1,100,-0.11550079950503511,-10,-1,-100,6478.076294442057,0.027825625187145264,-0.0005054550816885624,0.9996126645346712,164.52199334927192,17.38556898471705,184.94094451413793,-13.910427879203091,-88.71170043945312,4381.2578125,True
1599566610.0984364,0.0,10,0.5,0.5,-0.0338272720336914,-0.05075,-0.001,-0.5,-0.07373385226549956,10,1,100,-0.24791815807240628,-10,-1,-100,6477.794516584254,0.027265505434600622,-0.0011905628750394127,0.9996275180153037,165.07000075673582,17.446684881684114,188.15483490178298,-14.102173646196977,-88.77145385742188,4381.2578125,True
1599566610.165787,0.0,10,0.5,0.5,-0.02846983184814454,-0.05075,-0.001,-0.5,-0.08100349914443922,10,1,100,-0.23887516082422422,-10,-1,-100,6477.513227414573,0.026678954242575912,-0.0018671063208499144,0.9996423096860743,165.63065742638793,17.509215191963253,191.40209468993436,-14.293909390205922,-88.83547973632812,4381.2578125,True
1599566610.262045,0.0,10,0.5,0.5,0.07971750946044921,-0.05075,-0.001,-0.5,-0.28954768394636254,10,1,100,-0.02119365530433459,-10,-1,-100,6476.326065694564,0.02417222663003269,-0.004365692812632285,0.9996982765744933,167.95940727717533,17.769264193939563,204.68816926753394,-15.060743043774892,-89.09005737304688,4381.2578125,True
1599566610.3519366,0.0,10,0.5,0.5,0.02723487854003906,-0.05075,-0.001,-0.5,-0.1736192234744329,10,1,100,-0.1171894842317853,-10,-1,-100,6475.762517723138,0.02277377080213973,-0.005569336688950087,0.9997251311497058,169.16398569730148,17.904052348827147,211.5012048226134,-15.444088227365027,-89.225830078125,4381.2578125,True
1599566610.4237432,0.0,10,0.5,0.5,-0.0047346206665039026,-0.05075,-0.001,-0.5,-0.11400844606644818,10,1,100,-0.18083739687268385,-10,-1,-100,6475.420198294916,0.02208979718773045,-0.006108591991627771,0.9997373284838798,169.7797989634362,17.973013168462348,214.9558407647681,-15.635741558978479,-89.29092407226562,4381.2578125,True
1599566610.5249848,0.0,10,0.5,0.5,-0.003975622558593753,-0.05075,-0.001,-0.5,-0.12008728706390447,10,1,100,-0.1703071229349004,-10,-1,-100,6475.074951506569,0.021381486990526204,-0.006641222894866996,0.9997493316689613,170.3954519083131,18.04204691468097,218.4314095821155,-15.827381717955815,-89.35125732421875,4381.2578125,True
1599566610.5943127,0.0,10,0.5,0.5,0.05215500335693359,-0.05075,-0.001,-0.5,-0.243361239947881,10,1,100,0.009193177358808757,-10,-1,-100,6474.107087995508,0.01911498872558231,-0.008234741630419007,0.9997833796559639,172.2203358693088,18.24732298118138,228.955883806421,-16.402219959141483,-89.50778198242188,4381.2578125,True
1599566610.6891665,0.0,10,0.5,0.5,0.028354579162597652,-0.05075,-0.001,-0.5,-0.19345558679605424,10,1,100,-0.0421408338260543,-10,-1,-100,6473.480569246574,0.017531945858326178,-0.009218221614418683,0.9998038083867696,173.43320787874654,18.384194301621882,236.07224043830308,-16.785374188599935,-89.60647583007812,4381.2578125,True
1599566610.746028,0.0,10,0.5,0.5,0.03174413757324219,-0.05075,-0.001,-0.5,-0.19548778665011932,10,1,100,-0.023258034804400834,-10,-1,-100,6472.792531850282,0.01593265607221881,-0.010119695344222834,0.9998218552505362,174.6638143697244,18.523280310106554,243.29745835522303,-17.168468768341526,-89.7020263671875,4381.2578125,True
1599566610.8118525,0.0,10,0.5,0.5,0.029198617553710938,-0.05075,-0.001,-0.5,-0.19764306702911105,10,1,100,-0.0028365685186769463,-10,-1,-100,6472.104989606072,0.01430568618206791,-0.010947550352053845,0.9998377360772845,175.89871275959516,18.663155364301222,250.6143473869487,-17.55150138573746,-89.783935546875,4381.2578125,True
1599566610.8846922,0.0,10,0.5,0.5,0.04339599761962891,-0.05075,-0.001,-0.5,-0.2405162739732996,10,1,100,0.1121498467317028,-10,-1,-100,6471.01069918985,0.011793582451477347,-0.0120804094266016,0.9998574774041777,177.7275522478951,18.871069572347697,261.7165863959195,-18.125929786592927,-89.88388061523438,4381.2578125,True
1599566610.953474,0.0,10,0.5,0.5,-0.0064652938842773445,-0.05075,-0.001,-0.5,-0.12831935117368032,10,1,100,-0.13751333402904123,-10,-1,-100,6471.01069918985,0.011793582451477347,-0.0120804094266016,0.9998574774041777,177.7275522478951,18.871069572347697,261.7165863959195,-18.125929786592927,-89.88388061523438,4381.2578125,True
1599566611.0222898,0.0,10,0.5,0.5,0.02298553924560547,-0.05075,-0.001,-0.5,-0.20133536196314436,10,1,100,0.048766064923100594,-10,-1,-100,6470.260183890117,0.010113665526267966,-0.012734906521864226,0.999867759218939,178.9342778523306,19.008732617393136,269.2061170523291,-18.508799287591415,-89.93716430664062,4381.2578125,True
1599566611.086119,0.0,10,0.5,0.5,0.01890010681152344,-0.05075,-0.001,-0.5,-0.1985421736866006,10,1,100,0.06264972139966832,-10,-1,-100,6469.509674255969,0.008473033772748608,-0.013296902884398732,0.9998756923099836,180.1302686599761,19.145547443759163,276.76417077161636,-18.891600953873702,-89.97796630859375,4381.2578125,True
1599566611.1615012,0.0,10,0.5,0.5,0.018037469482421874,-0.05075,-0.001,-0.5,-0.20224321901321465,10,1,100,0.09298908355726225,-10,-1,-100,6468.757705748896,0.0067187386472341475,-0.013834429474948912,0.9998817265617433,181.31399780939938,19.281338403002735,284.38760001401863,-19.27433314949058,-90.0133056640625,4381.2578125,True
1599566611.2263284,0.0,10,0.5,0.5,0.016903031158447265,-0.05075,-0.001,-0.5,-0.196299751923419,10,1,100,0.10219225019763555,-10,-1,-100,6467.944218728808,0.005054233435072605,-0.014262035004193369,0.9998855179878959,182.49201599803,19.416800943416447,292.08601264821374,-19.656994553653483,-90.04319763183594,4381.2578125,True
1599566611.2946572,0.0,10,0.5,0.5,0.019859058380126953,-0.05075,-0.001,-0.5,-0.21231655735403285,10,1,100,0.21501973754183107,-10,-1,-100,6466.7874755494995,0.0025301854059380188,-0.014789446614594522,0.9998874288791942,184.25589414536657,19.620174167785805,303.7861511460025,-20.230851299971572,-90.07557678222656,4381.2578125,True
1599566611.3595188,0.0,10,0.5,0.5,0.01110477981567383,-0.05075,-0.001,-0.5,-0.18899736323889,10,1,100,0.14673938303492978,-10,-1,-100,6465.911501764553,0.0008714038779871747,-0.015050960218472294,0.9998863481675222,185.4165767687431,19.75446961849495,311.666049374144,-20.61333063886728,-90.08897399902344,4381.2578125,True
1599566611.4213188,0.0,10,0.5,0.5,0.008315957260131837,-0.05075,-0.001,-0.5,-0.1837582098508014,10,1,100,0.15943192894660585,-10,-1,-100,6465.097056303872,-0.0007368201630012488,-0.015235768701556688,0.9998836574562664,186.56331437056437,19.88754072551835,319.60576148578286,-20.99573514275729,-90.09598541259766,4381.2578125,True
1599566611.942924,0.0,10,0.5,0.5,0.00535387306213379,-0.05075,-0.001,-0.5,-0.1727341703223899,10,1,100,0.08615664274120323,-10,-1,-100,6464.690323373652,-0.0015175489836368645,-0.01529890689650482,0.9998818132623747,187.12928848168082,19.953384096134307,323.59397725873924,-21.18690896672233,-90.0969009399414,4381.2578125,True
1599566611.9927905,0.0,10,0.5,0.5,0.004746724700927734,-0.05075,-0.001,-0.5,-0.17240491309259473,10,1,100,0.09623719217585347,-10,-1,-100,6464.2845671590185,-0.0023045590561972403,-0.015349356229328209,0.9998795358796487,187.69144613354396,20.018882979326385,327.59610747585515,-21.378063719271605,-90.09657287597656,4381.2578125,True
1599566612.0496402,0.0,10,0.5,0.5,0.0040748405456542975,-0.05075,-0.001,-0.5,-0.17105653115975877,10,1,100,0.10382343197770476,-10,-1,-100,6463.81533632474,-0.0030761720826256167,-0.015379989471775758,0.9998769889787275,188.24824614735746,20.083871993128092,331.60928543110066,-21.569199220301485,-90.09501647949219,4381.2578125,True
1599566612.1184547,0.0,10,0.5,0.5,-0.0005504863739013675,-0.05075,-0.001,-0.5,-0.16738264729764799,10,1,100,0.27596074953452304,-10,-1,-100,6462.5311811838765,-0.0053290052166823955,-0.015371439311576909,0.9998676515203855,189.88615085302155,20.275735725194664,343.7122661064172,-22.14248928484193,-90.08516693115234,4381.2578125,True
1599566612.1753037,0.0,10,0.5,0.5,-0.0009767242431640622,-0.05075,-0.001,-0.5,-0.1587315278492945,10,1,100,0.2121224360389738,-10,-1,-100,6461.592236196273,-0.006782648242462701,-0.01528262305023864,0.9998602087869701,190.95743441072682,20.401739825919858,351.8433724127672,-22.524584432596953,-90.07542419433594,4381.2578125,True
1599566612.2351446,0.0,10,0.5,0.5,-0.005965847396850585,-0.05075,-0.001,-0.5,-0.14019274921716807,10,1,100,0.29313689482097016,-10,-1,-100,6460.246078579687,-0.008826768180267298,-0.015031541443124664,0.9998480589196217,192.5387523590233,20.588457766927508,364.1406126802379,-23.0975774468924,-90.05750274658203,4381.2578125,True
1599566612.299129,0.0,10,0.5,0.5,0.0029992961883544924,-0.05075,-0.001,-0.5,-0.16542062112538322,10,1,100,0.09027945172326055,-10,-1,-100,6460.246078579687,-0.008826768180267298,-0.015031541443124664,0.9998480589196217,192.5387523590233,20.588457766927508,364.1406126802379,-23.0975774468924,-90.05750274658203,4381.2578125,True
1599566612.3570158,0.0,10,0.5,0.5,-0.0041004657745361325,-0.05075,-0.001,-0.5,-0.1389584633647154,10,1,100,0.23589785609473768,-10,-1,-100,6459.307625528192,-0.010137952763994054,-0.01479027682126502,0.9998392218878521,193.57434081966673,20.711242917601115,372.40132494785934,-23.479471725684984,-90.04460906982422,4381.2578125,True
1599566612.4208834,0.0,10,0.5,0.5,-0.004564629745483398,-0.05075,-0.001,-0.5,-0.1307828641129505,10,1,100,0.23728769753942353,-10,-1,-100,6458.369172425708,-0.01133105718217922,-0.014496620962552324,0.9998307132328963,194.58401199697812,20.83149196123829,380.6891448731083,-23.861283955227627,-90.03206634521484,4381.2578125,True
1599566612.4797282,0.0,10,0.5,0.5,-0.009211264038085937,-0.05075,-0.001,-0.5,-0.09887263185452305,10,1,100,0.3113286888346705,-10,-1,-100,6456.896550854086,-0.013077704336795101,-0.01394007201524228,0.9998173073324392,196.0574081611538,21.007907639772586,393.18173441550096,-24.43384620470801,-90.01225280761719,4381.2578125,True
1599566612.543524,0.0,10,0.5,0.5,-0.0029475025177001955,-0.05075,-0.001,-0.5,-0.1313286501715373,10,1,100,0.19593728638058797,-10,-1,-100,6456.427812812384,-0.013605333651250794,-0.013730351044829926,0.9998131687252493,196.5348990659575,21.065369696292088,397.3558169730521,-24.624658414276126,-90.00565338134766,4381.2578125,True
1599566612.603366,0.0,10,0.5,0.5,-0.00988011016845703,-0.05075,-0.001,-0.5,-0.07528213815489362,10,1,100,0.30751067953178923,-10,-1,-100,6454.894641587278,-0.015088311343341786,-0.01303160783144164,0.999801240276353,197.9444297467372,21.23565004607531,409.94070922872777,-25.196967551532083,-89.98709106445312,4381.2578125,True
1599566612.6616147,0.0,10,0.5,0.5,-0.006408506774902343,-0.05075,-0.001,-0.5,-0.08713131329338283,10,1,100,0.2592596713307751,-10,-1,-100,6453.892707642983,-0.015986205759517882,-0.012506213546345724,0.9997939967053951,198.85372779451825,21.346206575245226,418.35758221080823,-25.57839981995372,-89.9765625,4381.2578125,True
1599566612.7304604,0.0,10,0.5,0.5,-0.003895701599121094,-0.05075,-0.001,-0.5,-0.10837781686416086,10,1,100,0.21776595795363118,-10,-1,-100,6453.360978427576,-0.016413521440179487,-0.012224344934106901,0.9997905589196492,199.2998945417057,21.400662230132042,422.5746441860765,-25.76908351405353,-89.97158813476562,4381.2578125,True
1599566612.7912698,0.0,10,0.5,0.5,-0.00592430191040039,-0.05075,-0.001,-0.5,-0.07365339650466857,10,1,100,0.2572370874387544,-10,-1,-100,6452.296052766964,-0.01715074185771525,-0.011655285187328468,0.9997849800736816,200.16643729651287,21.506981406960218,431.0058137868839,-26.15038613772436,-89.96340942382812,4381.2578125,True
1599566612.853102,0.0,10,0.5,0.5,-0.005392542266845704,-0.05075,-0.001,-0.5,-0.06246672532187906,10,1,100,0.2595266517259134,-10,-1,-100,6451.233077944256,-0.017832330918435342,-0.011039558713925361,0.9997800438683586,201.01262895884767,21.611349244763627,439.461109236763,-26.531602062018283,-89.95697021484375,4381.2578125,True
1599566612.9144852,0.0,10,0.5,0.5,-0.006233612060546875,-0.05075,-0.001,-0.5,-0.015018503243558107,10,1,100,0.2878860545641336,-10,-1,-100,6449.636411855463,-0.01870158321513,-0.010052088976237073,0.9997745777386327,202.22516479540235,21.762237363159088,452.14384852712544,-27.10326200601464,-89.94961547851562,4381.2578125,True
1599566612.9713326,0.0,10,0.5,0.5,-0.004298210906982422,-0.05075,-0.001,-0.5,-0.03747012430798727,10,1,100,0.25353566168120634,-10,-1,-100,6448.571476700716,-0.01917055917224866,-0.009363021635712428,0.9997723858393331,202.99896208815838,21.859401330528314,460.6022996597015,-27.484259078095626,-89.94647216796875,4381.2578125,True
1599566613.0341644,0.0,10,0.5,0.5,-0.0032910186767578127,-0.05075,-0.001,-0.5,-0.06677158599567647,10,1,100,0.2300970086388155,-10,-1,-100,6447.977240670356,-0.019375610827054565,-0.009007907573474064,0.9997716955916617,203.37625655352306,21.907035684318974,464.8333153396766,-27.674724555860383,-89.94546508789062,4381.2578125,True
1599566613.0969965,0.0,10,0.5,0.5,-0.003115482330322266,-0.05075,-0.001,-0.5,-0.023924588240728337,10,1,100,0.24712195975296755,-10,-1,-100,6446.849312060396,-0.019709480474602338,-0.008300548185838821,0.9997712924860545,204.10921611235963,22.000145497458767,473.2918613048805,-28.055589186893663,-89.94488525390625,4381.2578125,True
1599566613.1568363,0.0,10,0.5,0.5,-0.0024289207458496097,-0.05075,-0.001,-0.5,-0.013180831160311296,10,1,100,0.2433237251066841,-10,-1,-100,6445.723822326516,-0.019972440042736093,-0.00756495051801154,0.9997719105688053,204.81623186939308,22.090685476473865,481.7503431504883,-28.436364887300535,-89.94561767578125,4381.2578125,True
1599566613.2146823,0.0,10,0.5,0.5,-0.0010531494140625002,-0.05075,-0.001,-0.5,0.03839639393878118,10,1,100,0.24428228147814746,-10,-1,-100,6444.007016726886,-0.020214420065878733,-0.0064329464104739146,0.9997749718921154,205.81882241029285,22.22066115919856,494.4104063473742,-29.007360943797007,-89.94879150390625,4381.2578125,True
1599566613.2805073,0.0,10,0.5,0.5,-0.0007446395874023438,-0.05075,-0.001,-0.5,0.009526518608841641,10,1,100,0.22721247594195004,-10,-1,-100,6442.814136721077,-0.020274561755931578,-0.005672303962458222,0.9997783589943136,206.4506866761126,22.30363965997075,502.8328853582628,-29.387912914564296,-89.95223999023438,4381.2578125,True
1599566613.3463302,0.0,10,0.5,0.5,-6.783447265624977e-05,-0.05075,-0.001,-0.5,0.017617908392620167,10,1,100,0.21988809073948154,-10,-1,-100,6441.6857072608545,-0.020258752194142256,-0.004913465384031321,0.9997826967983875,207.055140657956,22.3838685518177,511.2425796691891,-29.76837483119442,-89.95660400390625,4381.2578125,True
1599566613.404175,0.0,10,0.5,0.5,-0.0008899276733398439,-0.05075,-0.001,-0.5,-0.016213829093591307,10,1,100,0.2178124574186503,-10,-1,-100,6441.031403760426,-0.02022201480709535,-0.004537819634927039,0.9997852160889871,207.34731272296656,22.42297364115446,515.4423813933454,-29.958571892856483,-89.95907592773438,4381.2578125,True
1599566613.466042,0.0,10,0.5,0.5,0.002243641662597656,-0.05075,-0.001,-0.5,0.07197256909097859,10,1,100,0.19858396379663118,-10,-1,-100,6439.246712229564,-0.020011020628716732,-0.003401099393656512,0.9997939745649158,208.18537083899398,22.536429880867008,528.022260482007,-30.5290270387503,-89.96701049804688,4381.2578125,True
1599566613.528841,0.0,10,0.5,0.5,-0.00012592163085937513,-0.05075,-0.001,-0.5,8.871940776720988e-05,10,1,100,0.20825295518166972,-10,-1,-100,6438.648071065894,-0.01990512703395445,-0.0030281509526400175,0.9997972875636192,208.4508749464891,22.572846877288914,532.2054012669892,-30.719133263116564,-89.96990966796875,4381.2578125,True
1599566613.5856898,0.0,10,0.5,0.5,0.0035360198974609377,-0.05075,-0.001,-0.5,0.08575954494834048,10,1,100,0.17344871444450674,-10,-1,-100,6436.735931910691,-0.01949136381036105,-0.0019166666268230807,0.9998081881670374,209.207195511095,22.678024408612384,544.7232428208831,-31.28931497963635,-89.97918701171875,4381.2578125,True
1599566613.6496606,0.0,10,0.5,0.5,0.00236297607421875,-0.05075,-0.001,-0.5,0.05538678963405742,10,1,100,0.17589133788710906,-10,-1,-100,6435.491282205097,-0.01913712945235606,-0.0011891117016728835,0.9998161612464987,209.74449012683132,22.751958026983484,553.2145109825948,-31.669320822439623,-89.9854736328125,4381.2578125,True
1599566613.7055113,0.0,10,0.5,0.5,0.0009548446655273437,-0.05075,-0.001,-0.5,0.02373568371518541,10,1,100,0.18918444323156575,-10,-1,-100,6434.827209033421,-0.01893616143127813,-0.0008225434561368145,0.9998203564703568,210.03215035914712,22.791056084020976,557.5291400413564,-31.85928831604334,-89.98861694335938,4381.2578125,True
1599566613.764542,0.0,10,0.5,0.5,0.003085224914550781,-0.05075,-0.001,-0.5,0.06265311124508188,10,1,100,0.16191970413596682,-10,-1,-100,6433.581580888946,-0.018506304983104863,-0.00014230298695014945,0.9998287335467672,210.58752978258192,22.867227300259007,566.1438300102095,-32.23915197107524,-89.99533081054688,4381.2578125,True
1599566613.8263764,0.0,10,0.5,0.5,0.0031073795318603517,-0.05075,-0.001,-0.5,0.07027884482969514,10,1,100,0.1511006537429147,-10,-1,-100,6432.260756339063,-0.018018504240337446,0.0005386744289605198,0.9998375084656508,211.12677698736826,22.941825082279376,574.7654029825562,-32.618919985210795,-90.00145721435547,4381.2578125,True
1599566613.886217,0.0,10,0.5,0.5,0.0033899459838867187,-0.05075,-0.001,-0.5,0.07640951865975568,10,1,100,0.14000685964345103,-10,-1,-100,6430.951162755722,-0.017476192633122434,0.0012071403683894656,0.9998465509782895,211.64575130874186,23.014391014292674,583.3809140816809,-32.9985921209233,-90.00752258300781,4381.2578125,True
1599566613.9520404,0.0,10,0.5,0.5,0.0037957332611083987,-0.05075,-0.001,-0.5,0.0795502100362222,10,1,100,0.13032418917948915,-10,-1,-100,6429.631314477301,-0.016897701776093507,0.001837134376446523,0.9998555358710421,212.143237128721,23.084785159396905,591.9849828596626,-33.37816781048284,-90.01375579833984,4381.2578125,True
1599566614.5077055,0.0,10,0.5,0.5,0.005504407501220703,-0.05075,-0.001,-0.5,0.11669469184859305,10,1,100,0.08378354814048584,-10,-1,-100,6427.598075126996,-0.01595175976063813,0.002741396400464967,0.9998690044732431,212.8583673049075,23.18728593757703,604.8911374580673,-33.94734989823891,-90.02250671386719,4381.2578125,True
1599566614.555541,0.0,10,0.5,0.5,0.005580891418457031,-0.05075,-0.001,-0.5,0.11938032131044324,10,1,100,0.06546102053783004,-10,-1,-100,6425.558001490543,-0.014929126091151336,0.003581250130102743,0.9998821409754551,213.54120893670563,23.286600119996738,617.8070441130428,-34.51631296766302,-90.03057861328125,4381.2578125,True
1599566614.6064043,0.0,10,0.5,0.5,0.0015512985229492189,-0.05075,-0.001,-0.5,0.036093183299041556,10,1,100,0.1672161980327531,-10,-1,-100,6425.558001490543,-0.014929126091151336,0.003581250130102743,0.9998821409754551,213.54120893670563,23.286600119996738,617.8070441130428,-34.51631296766302,-90.03057861328125,4381.2578125,True
1599566614.6702342,0.0,10,0.5,0.5,0.004364227294921875,-0.05075,-0.001,-0.5,0.09222527191402252,10,1,100,0.08985234143998451,-10,-1,-100,6424.123409104883,-0.014230341941165079,0.004085533298345531,0.9998903968865317,213.9823784860496,23.351450097775526,626.4320927062178,-34.895499417031466,-90.03567504882812,4381.2578125,True
1599566614.730074,0.0,10,0.5,0.5,0.00525880355834961,-0.05075,-0.001,-0.5,0.11978649659309913,10,1,100,0.03834177583679456,-10,-1,-100,6422.027674139128,-0.01313158850102966,0.0047890725848077,0.9999023083117755,214.63715920142133,23.448208020897372,639.4307038567222,-35.464094333226285,-90.04191589355469,4381.2578125,True
1599566614.7939043,0.0,10,0.5,0.5,0.003211305236816406,-0.05075,-0.001,-0.5,0.07475772846304364,10,1,100,0.1051469467476617,-10,-1,-100,6421.306961030001,-0.01274550105550655,0.005013866603785094,0.999906202273255,214.85184953988175,23.480132743943063,643.774591438817,-35.65357666742295,-90.04385375976562,4381.2578125,True
1599566614.8547404,0.0,10,0.5,0.5,0.004487502670288086,-0.05075,-0.001,-0.5,0.09660690037257044,10,1,100,0.060694433877488574,-10,-1,-100,6419.863094365108,-0.011996026588371032,0.005411547811069403,0.9999134014985397,215.27009134672196,23.542852158162724,652.4608318302503,-36.03246692042358,-90.04792022705078,4381.2578125,True
1599566614.910591,0.0,10,0.5,0.5,0.0052537841796875,-0.05075,-0.001,-0.5,0.11638009702332533,10,1,100,0.00845431411261334,-10,-1,-100,6417.704376029433,-0.010845694418926,0.005947783559245619,0.9999234944651034,215.89180638078528,23.63652140827102,665.5520448635509,-36.60061568687188,-90.05299377441406,4381.2578125,True
1599566614.973425,0.0,10,0.5,0.5,0.0035457344055175783,-0.05075,-0.001,-0.5,0.08151580386736865,10,1,100,0.07922777125892125,-10,-1,-100,6416.925559312454,-0.010449853702416415,0.006113405111505951,0.999926710732112,216.09838611078428,23.66772536385172,669.9348035130537,-36.789948659984255,-90.05448913574219,4381.2578125,True
1599566615.0367715,0.0,10,0.5,0.5,0.004403670120239258,-0.05075,-0.001,-0.5,0.09752968503763519,10,1,100,0.03317317458825529,-10,-1,-100,6415.480231074267,-0.009677707934884108,0.006405090656251297,0.9999326561238073,216.50796841594615,23.729816776852264,678.7206795483052,-37.16853962528768,-90.0573959350586,4381.2578125,True
1599566615.0965292,0.0,10,0.5,0.5,0.004900109100341797,-0.05075,-0.001,-0.5,0.10897410776228275,10,1,100,-0.016923288009372192,-10,-1,-100,6413.197982783779,-0.008526898480641042,0.00677014685235313,0.9999407268002932,217.126433943941,23.823582376985893,691.9911607208572,-37.73623749820557,-90.06092834472656,4381.2578125,True
1599566615.1563692,0.0,10,0.5,0.5,0.0036881938934326176,-0.05075,-0.001,-0.5,0.08463602540232049,10,1,100,0.05454053784824117,-10,-1,-100,6412.476784946513,-0.008137129085743829,0.006877098326944333,0.9999432447138404,217.33486299120133,23.855133495948554,696.4430636329975,-37.925419660472855,-90.06192779541016,4381.2578125,True
1599566615.2152116,0.0,10,0.5,0.5,0.004721091079711914,-0.05075,-0.001,-0.5,0.10145016709287456,10,1,100,-0.02973544550566186,-10,-1,-100,6410.128622300457,-0.007022822511715795,0.007124186548126061,0.999949961713083,217.96225799514366,23.95014782605182,709.86953927837,-38.49281364565168,-90.06470489501953,4381.2578125,True
1599566615.2700648,0.0,10,0.5,0.5,0.0037477390289306642,-0.05075,-0.001,-0.5,0.0839607479588049,10,1,100,0.04115911475678813,-10,-1,-100,6409.41133230587,-0.006661500086421161,0.007186596633056069,0.9999519874701147,218.17544461731407,23.9823060465403,714.379671924486,-38.68189371416485,-90.0654525756836,4381.2578125,True
1599566615.3378837,0.0,10,0.5,0.5,0.004389531707763672,-0.05075,-0.001,-0.5,0.09331759836383031,10,1,100,-0.042498807064054955,-10,-1,-100,6407.055848506512,-0.00557937935764996,0.0073255762018247525,0.9999576023308661,218.828026238583,24.080331626399502,728.0185335323499,-39.24897985267094,-90.06729125976562,4381.2578125,True
1599566615.393734,0.0,10,0.5,0.5,0.0037500518798828128,-0.05075,-0.001,-0.5,0.08237406776145625,10,1,100,0.027767472594960117,-10,-1,-100,6406.276059377356,-0.005241283245797532,0.007350128710122867,0.9999592514487188,219.05043656032495,24.1135817992135,732.6031783459052,-39.43795672752189,-90.06779479980469,4381.2578125,True
1599566615.4555688,0.0,10,0.5,0.5,0.003950278091430665,-0.05075,-0.001,-0.5,0.08334407359406888,10,1,100,-0.015623326330795842,-10,-1,-100,6404.648121369653,-0.004546283351888188,0.007379143532411869,0.9999624390687945,219.50409891710854,24.18111112739016,741.835993065632,-39.81583239475856,-90.06861114501953,4381.2578125,True
1599566615.5149207,0.0,10,0.5,0.5,0.003939152145385742,-0.05075,-0.001,-0.5,0.07916469915694602,10,1,100,-0.016026839013961396,-10,-1,-100,6403.075360232848,-0.003917569463247718,0.007365737607135898,0.9999651986739357,219.9677241969655,24.249809172726643,751.1483703652437,-40.19360337715638,-90.06932830810547,4381.2578125,True
1599566615.5712779,0.0,10,0.5,0.5,0.00396877784729004,-0.05075,-0.001,-0.5,0.07186228801688092,10,1,100,-0.056595446617835596,-10,-1,-100,6400.609529979527,-0.002983504154408142,0.007285875797386341,0.9999690068781261,220.6902868547034,24.355977054516504,765.2979559659044,-40.76006214133172,-90.07003021240234,4381.2578125,True
1599566615.6361034,0.0,10,0.5,0.5,0.003724427032470703,-0.05075,-0.001,-0.5,0.07507518106570801,10,1,100,0.004188595462264785,-10,-1,-100,6399.829253681819,-0.002693723664871266,0.007241416388343462,0.9999701524253152,220.9377761275852,24.392132062670537,770.0614861694046,-40.94882858114613,-90.07022094726562,4381.2578125,True
1599566615.6959443,0.0,10,0.5,0.5,0.0037732063293457034,-0.05075,-0.001,-0.5,0.06724295147165368,10,1,100,-0.029209933085851195,-10,-1,-100,6398.138818238862,-0.0021330129460094267,0.0071290363604202675,0.9999723131648917,221.4438951111163,24.465722012543015,779.6643973509352,-41.32628150560197,-90.07048034667969,4381.2578125,True
1599566615.7603223,0.0,10,0.5,0.5,0.0037032882690429692,-0.05075,-0.001,-0.5,0.06283384955979845,10,1,100,-0.02976733625471823,-10,-1,-100,6396.500629738672,-0.0016240212505404467,0.006986463690829527,0.9999742756091652,221.9669489325862,24.54124856260857,789.3772737759803,-41.70362707237842,-90.07058715820312,4381.2578125,True
1599566615.823158,0.0,10,0.5,0.5,0.0036675559997558596,-0.05075,-0.001,-0.5,0.057765069019151044,10,1,100,-0.0343763226347291,-10,-1,-100,6394.813613193226,-0.0011253226583278237,0.0068106729268648915,0.9999761739077576,222.50918967865712,24.618963349586558,799.2101999224917,-42.08086463745197,-90.07061767578125,4381.2578125,True
1599566615.8740222,0.0,10,0.5,0.5,0.0035016204833984376,-0.05075,-0.001,-0.5,0.027698306415740025,10,1,100,-0.07845954475392833,-10,-1,-100,6391.4288387290435,-0.00027656510055398055,0.006377813948339905,0.9999796232928877,223.64658944048554,24.7804502104887,819.2281062332302,-42.835013099395255,-90.07034301757812,4381.2578125,True
1599566615.9438348,0.0,10,0.5,0.5,0.003580612182617188,-0.05075,-0.001,-0.5,0.05704398491207939,10,1,100,-0.015033415221577643,-10,-1,-100,6390.521121342201,-8.73729846771906e-05,0.006251819938451836,0.999980453365674,223.94245915920348,24.822140062510275,824.3092734346491,-43.023481705502206,-90.07023620605469,4381.2578125,True
1599566616.0016818,0.0,10,0.5,0.5,0.0035544765472412115,-0.05075,-0.001,-0.5,0.05511211085058833,10,1,100,-0.01622366268898815,-10,-1,-100,6389.679811307928,9.044754639364783e-05,0.006120693580052193,0.9999812642891567,224.24376464601397,24.86444946206007,829.4247264366696,-43.21192269303842,-90.0700912475586,4381.2578125,True
1599566616.0624616,0.0,10,0.5,0.5,0.0033372550964355474,-0.05075,-0.001,-0.5,0.038574734762613104,10,1,100,-0.032465669034123325,-10,-1,-100,6387.920041001984,0.000394910149784556,0.005852265685370989,0.9999827973681953,224.86161815046265,24.950810636041194,839.7558070874642,-43.588721620841206,-90.06956481933594,4381.2578125,True
1599566616.123298,0.0,10,0.5,0.5,0.003382066345214844,-0.05075,-0.001,-0.5,0.031815369438807736,10,1,100,-0.034045301341247586,-10,-1,-100,6386.170525387162,0.0006815626342940815,0.0055481796216689735,0.9999843764655831,225.500627880174,25.039591877448235,850.2256654581081,-43.96540904330333,-90.06916809082031,4381.2578125,True
1599566616.1806457,0.0,10,0.5,0.5,0.0030971973419189457,-0.05075,-0.001,-0.5,0.008525577861305048,10,1,100,-0.04255405380277117,-10,-1,-100,6383.506457119365,0.0010153270679551902,0.005061664693040269,0.9999866742419524,226.49825107081563,25.1772491074009,866.1941347840805,-44.53022992948227,-90.06829071044922,4381.2578125,True
1599566616.2382374,0.0,10,0.5,0.5,0.0033592342376708986,-0.05075,-0.001,-0.5,0.03809625513595085,10,1,100,-0.01942956180597734,-10,-1,-100,6382.598740543588,0.001104891324746833,0.004890224743242177,0.9999874323795879,226.84100718316662,25.22430870189975,871.5877110367983,-44.71844702616796,-90.0679702758789,4381.2578125,True
1599566616.3025606,0.0,10,0.5,0.5,0.0029015487670898442,-0.05075,-0.001,-0.5,-0.0038060718928496426,10,1,100,-0.03335258290892901,-10,-1,-100,6379.935160030494,0.0013094330091391433,0.0043555774446594545,0.9999896571116714,227.8987178065126,25.368881666458183,887.980435195485,-45.28292762610156,-90.06684875488281,4381.2578125,True
1599566616.3594084,0.0,10,0.5,0.5,0.0032224384307861327,-0.05075,-0.001,-0.5,0.029244006777763693,10,1,100,-0.018229792603012794,-10,-1,-100,6379.02402563591,0.0013547705867555065,0.004172511032876883,0.999990377327871,228.26167488437068,25.418269561544104,893.518616580966,-45.471030789687575,-90.06641387939453,4381.2578125,True
1599566616.423782,0.0,10,0.5,0.5,0.0027629547119140626,-0.05075,-0.001,-0.5,-0.016249316047757707,10,1,100,-0.022724493492992732,-10,-1,-100,6376.238863551989,0.0014341394910090217,0.0035950694988952166,0.9999925093315543,229.37975264787784,25.569815629603955,910.3517954370834,-46.035167156318046,-90.065185546875,4381.2578125,True
1599566616.4830966,0.0,10,0.5,0.5,0.002876552963256836,-0.05075,-0.001,-0.5,-0.0023181815809893355,10,1,100,-0.014815150149413453,-10,-1,-100,6374.416594656417,0.0014320631352530086,0.003199692602635205,0.9999938555623354,230.1496564272539,25.67369103778201,921.7599556171264,-46.41111308475615,-90.06427764892578,4381.2578125,True
1599566616.542936,0.0,10,0.5,0.5,0.003094589614868164,-0.05075,-0.001,-0.5,0.014387909270822938,10,1,100,-0.013502057495509319,-10,-1,-100,6373.4537024155725,0.0014166850347704072,0.00299502181500231,0.9999945114088576,230.54186788563635,25.72647382993114,927.5204153942534,-46.599042285091976,-90.06385040283203,4381.2578125,True
1599566617.0326655,0.0,10,0.5,0.5,0.0027361171722412115,-0.05075,-0.001,-0.5,-0.009963096971421191,10,1,100,-0.00813502259553792,-10,-1,-100,6371.565515869763,0.0013525463915869864,0.0025905454041551404,0.9999957298372666,231.34208637961353,25.833875222791857,939.160850177306,-46.97481268039601,-90.06281280517578,4381.2578125,True
1599566617.0844917,0.0,10,0.5,0.5,0.0026911350250244143,-0.05075,-0.001,-0.5,-0.015323134001354873,10,1,100,-0.0034445115364710125,-10,-1,-100,6369.688071936485,0.0012504501619330925,0.0021773211923636774,0.9999968478184409,232.1602486369363,25.943379758805158,950.9501440282904,-47.35046494734655,-90.0617904663086,4381.2578125,True
1599566617.137347,0.0,10,0.5,0.5,0.0029452117919921876,-0.05075,-0.001,-0.5,0.0022501110407130015,10,1,100,-0.0064737743480408685,-10,-1,-100,6368.770101154572,0.0011843963968873254,0.0019647604497475164,0.9999973684573126,232.57541648688326,25.998850892454467,956.898728215931,-47.538246677641126,-90.06132507324219,4381.2578125,True
1599566617.1912043,0.0,10,0.5,0.5,0.0028745880126953127,-0.05075,-0.001,-0.5,0.00034161328292329346,10,1,100,-0.004924965149066121,-10,-1,-100,6367.78133084916,0.001109810314343591,0.0017574310851819377,0.9999978398761905,232.99591185752507,26.05494410455596,962.8888882546631,-47.72599859922029,-90.06077575683594,4381.2578125,True
1599566617.2550313,0.0,10,0.5,0.5,0.0022660980224609374,-0.05075,-0.001,-0.5,-0.04851730366923311,10,1,100,0.018365613167327252,-10,-1,-100,6364.823319746996,0.0008301863607489942,0.001127781721109861,0.9999990194490171,234.28022065167355,26.225940593641738,981.0740658719386,-48.289074991297355,-90.05917358398438,4381.2578125,True
1599566617.3108833,0.0,10,0.5,0.5,0.002784778213500977,-0.05075,-0.001,-0.5,-0.009368682629073657,10,1,100,0.002787878521743118,-10,-1,-100,6363.836014681496,0.0007178482678628508,0.0009146901659749975,0.9999993240176537,234.71659385617588,26.283921422151497,987.2110388313165,-48.47670693271662,-90.05866241455078,4381.2578125,True
1599566617.367732,0.0,10,0.5,0.5,0.002459683609008789,-0.05075,-0.001,-0.5,-0.03528114675262242,10,1,100,0.01918067002234941,-10,-1,-100,6361.884353345609,0.00046723515590745994,0.0004885307940734824,0.9999997715144601,235.60239664656876,26.40143422389923,999.602354693507,-48.85187975204111,-90.05760955810547,4381.2578125,True
1599566617.4280806,0.0,10,0.5,0.5,0.0017666835784912113,-0.05075,-0.001,-0.5,-0.08456455114646463,10,1,100,0.059684461075609624,-10,-1,-100,6357.937575935037,-0.00012800437778085364,-0.00034356869283663934,0.999999932787714,237.4159668479289,26.641531565370716,1024.8187752575877,-49.60185919934936,-90.0553970336914,4381.2578125,True
1599566617.4889944,0.0,10,0.5,0.5,0.002561027145385742,-0.05075,-0.001,-0.5,-0.024067162434777578,10,1,100,0.018662453197961695,-10,-1,-100,6356.965896223206,-0.0002947837514563486,-0.0005464659306562024,0.9999998072387447,237.87776060037396,26.70257878501306,1031.2132874619228,-49.78927728554976,-90.0548324584961,4381.2578125,True
1599566617.5508313,0.0,10,0.5,0.5,0.0021406547546386724,-0.05075,-0.001,-0.5,-0.04728750350690008,10,1,100,0.040537911387967196,-10,-1,-100,6354.961991676129,-0.0006436993048098401,-0.0009386063761175629,0.999999352334428,238.81024980733721,26.82577368433145,1044.1074319008792,-50.16402041868244,-90.05355834960938,4381.2578125,True
1599566617.609669,0.0,10,0.5,0.5,0.0019405040740966798,-0.05075,-0.001,-0.5,-0.07252221442992945,10,1,100,0.06978830872251085,-10,-1,-100,6351.922444493626,-0.0012249348887728834,-0.001520928127481685,0.9999980931542566,240.21483798067072,27.011484168542264,1063.6423331779179,-50.72590214320694,-90.05204010009766,4381.2578125,True
1599566617.689971,0.0,10,0.5,0.5,0.002698551559448242,-0.05075,-0.001,-0.5,-0.014701186646680913,10,1,100,0.011922498454242496,-10,-1,-100,6351.922444493626,-0.0012249348887728834,-0.001520928127481685,0.9999980931542566,240.21483798067072,27.011484168542264,1063.6423331779179,-50.72590214320694,-90.05204010009766,4381.2578125,True
1599566617.7507753,0.0,10,0.5,0.5,0.0017605552673339844,-0.05075,-0.001,-0.5,-0.07417785543163183,10,1,100,0.08008515705625832,-10,-1,-100,6348.821375164785,-0.0018423450714723855,-0.002058263071599561,0.9999961846516044,241.63848479038018,27.199668627649086,1083.4662780567419,-51.28750201926238,-90.05033874511719,4381.2578125,True
1599566617.8106165,0.0,10,0.5,0.5,0.002110109329223633,-0.05075,-0.001,-0.5,-0.05942706629736556,10,1,100,0.06775891696170039,-10,-1,-100,6346.816497503547,-0.002288818744459261,-0.0024089940072848943,0.9999944790130733,242.59027396108954,27.325620715820857,1096.8096612609868,-51.66174431139745,-90.04943084716797,4381.2578125,True
1599566617.8791387,0.0,10,0.5,0.5,0.002033485794067383,-0.05075,-0.001,-0.5,-0.06137270405888122,10,1,100,0.0740725005965263,-10,-1,-100,6344.685643121251,-0.0027490104538013807,-0.002741740269292188,0.9999924628725061,243.55107905242835,27.452751163632627,1110.287189407831,-52.035859748922874,-90.04846954345703,4381.2578125,True
1599566617.937983,0.0,10,0.5,0.5,0.00202564811706543,-0.05075,-0.001,-0.5,-0.06292833114663644,10,1,100,0.08033302137388708,-10,-1,-100,6342.617778314161,-0.003221026563166087,-0.0030548611882871366,0.9999901463569526,244.51575138350157,27.58048593726272,1123.876875253779,-52.409847627503126,-90.0475845336914,4381.2578125,True
1599566617.9946098,0.0,10,0.5,0.5,0.0022653545379638677,-0.05075,-0.001,-0.5,-0.04883012574522204,10,1,100,0.060385476284421716,-10,-1,-100,6341.583602881292,-0.003465210002837927,-0.0032077423824930845,0.9999888512920749,244.99763613181838,27.644367453636193,1130.7053035932508,-52.596793540063175,-90.0472183227539,4381.2578125,True
1599566618.0594368,0.0,10,0.5,0.5,0.0020608470916748047,-0.05075,-0.001,-0.5,-0.0658808740773821,10,1,100,0.09074358947057687,-10,-1,-100,6339.453727731598,-0.003959602844996696,-0.0034983718409939773,0.9999860413724644,245.96186140285556,27.772316032800045,1144.435939060861,-52.970589055063606,-90.04651641845703,4381.2578125,True
1599566618.1176057,0.0,10,0.5,0.5,0.0018562618255615233,-0.05075,-0.001,-0.5,-0.0957414951906736,10,1,100,0.15466121624068072,-10,-1,-100,6335.192026864621,-0.004986636946262689,-0.004031172628708205,0.9999794413382725,247.8880702339135,28.028517983602253,1172.1753942849737,-53.717792583737506,-90.0455093383789,4381.2578125,True
1599566618.1809485,0.0,10,0.5,0.5,0.002358869552612305,-0.05075,-0.001,-0.5,-0.042809887089056045,10,1,100,0.052426991433562095,-10,-1,-100,6335.192026864621,-0.004986636946262689,-0.004031172628708205,0.9999794413382725,247.8880702339135,28.028517983602253,1172.1753942849737,-53.717792583737506,-90.0455093383789,4381.2578125,True
1599566618.2468045,0.0,10,0.5,0.5,0.0019294719696044925,-0.05075,-0.001,-0.5,-0.09244532569310096,10,1,100,0.1667721179561064,-10,-1,-100,6330.868317527114,-0.006022189971339044,-0.004479592464878985,0.9999718328429544,249.816688476333,28.285783712864813,1200.3152271056817,-54.46447558058699,-90.04473114013672,4381.2578125,True
1599566618.317617,0.0,10,0.5,0.5,0.0023178401947021488,-0.05075,-0.001,-0.5,-0.04789920850976265,10,1,100,0.06369654095672754,-10,-1,-100,6330.868317527114,-0.006022189971339044,-0.004479592464878985,0.9999718328429544,249.816688476333,28.285783712864813,1200.3152271056817,-54.46447558058699,-90.04473114013672,4381.2578125,True
1599566618.397402,0.0,10,0.5,0.5,0.0022918979644775393,-0.05075,-0.001,-0.5,-0.08100844729361481,10,1,100,0.1529528349770817,-10,-1,-100,6327.516283714795,-0.006829249685085385,-0.004777895849880007,0.9999652659267654,251.24241945289867,28.476933296008916,1221.5774877510335,-55.0241434794205,-90.04468536376953,4381.2578125,True
1599566618.45824,0.0,10,0.5,0.5,0.0023688453674316407,-0.05075,-0.001,-0.5,-0.07005699686836969,10,1,100,0.13112147766367446,-10,-1,-100,6325.322936624405,-0.007359939899629618,-0.0049470497116711806,0.9999606782188109,252.1837700881047,28.603603727770423,1235.8302977625676,-55.39709089714451,-90.04478454589844,4381.2578125,True
1599566618.543013,0.0,10,0.5,0.5,0.002407029342651367,-0.05075,-0.001,-0.5,-0.06238860502705193,10,1,100,0.10891543311171835,-10,-1,-100,6324.227728276979,-0.0076359023067837095,-0.005028805973192644,0.999958201179652,252.6508663037475,28.666616401474307,1242.975813997338,-55.58351495848914,-90.0449447631836,4381.2578125,True
1599566618.6377604,0.0,10,0.5,0.5,0.0024694324493408203,-0.05075,-0.001,-0.5,-0.06975329737051136,10,1,100,0.13983443074654883,-10,-1,-100,6321.971394340275,-0.008163416390101359,-0.005168002445240059,0.9999533241024643,253.58750949464294,28.79309325460206,1257.3524806097664,-55.95626373029428,-90.04520416259766,4381.2578125,True
1599566618.7295153,0.0,10,0.5,0.5,0.002927759170532227,-0.05075,-0.001,-0.5,-0.08125052524588429,10,1,100,0.20509544376834252,-10,-1,-100,6317.459703519824,-0.009231763502563769,-0.005397143908462051,0.9999428210554162,255.43505732953471,29.043840311695266,1286.2728801001006,-56.70136187138219,-90.04627227783203,4381.2578125,True
1599566618.8093004,0.0,10,0.5,0.5,0.0025952976226806643,-0.05075,-0.001,-0.5,-0.0635675812112994,10,1,100,0.12822035912031599,-10,-1,-100,6316.362054386525,-0.009498881423002332,-0.005442709927871301,0.9999400722845109,255.89182879662178,29.106099279255734,1293.5386927771715,-56.887552787658514,-90.04663848876953,4381.2578125,True
1599566618.8831048,0.0,10,0.5,0.5,0.0026180969238281254,-0.05075,-0.001,-0.5,-0.06355104477315208,10,1,100,0.1306522575997448,-10,-1,-100,6315.202882766258,-0.009758788356324918,-0.005482215670544846,0.9999373537183007,256.3471559595983,29.16825718837017,1300.8217600767043,-57.073710256122745,-90.04701232910156,4381.2578125,True
