Timestamp,Input Throttle,horizon,dT,dt,Input Roll,Roll P,Roll I,Roll D,Input Pitch,Pitch P,Pitch I,Pitch D,Input Yaw,Yaw P,Yaw I,Yaw D,Altitude,Direction X,Direction Y,Direction Z,Drag X,Drag Y,Drag Z,Vertical Velocity,Roll,Mass,Has Fuel
1599568833.6270573,0.0,10,0.5,0.5,-5.432972648620606,-0.1005,-0.0155,-0.12575,-0.06719329198026462,10,1,100,0.6903706199711903,-10,-1,-100,6483.6179669694975,-0.06725843689090066,-0.007002515445010402,0.9977110139937492,205.07317741412322,21.49877247432053,-156.76520120994667,9.590823779654905,-35.944580078125,4381.2578125,True
1599568833.6969056,0.0,10,0.5,0.5,-5.51710820465088,-0.1005,-0.0155,-0.12575,-0.06732525254738271,10,1,100,0.6999099399099726,-10,-1,-100,6483.9978827956365,-0.06744570713919044,-0.006971604959126562,0.997698588408738,204.6119816684303,21.456724129213207,-150.26659380469965,9.210801487682089,-35.941253662109375,4381.2578125,True
1599568833.7661853,0.0,10,0.5,0.5,-5.600867622375488,-0.1005,-0.0155,-0.12575,-0.0693085465640745,10,1,100,0.6986152427172319,-10,-1,-100,6484.156591506209,-0.06754286856575697,-0.006955196640330155,0.9976921299406963,204.38111734762327,21.435604552971025,-147.02545234293245,9.020797751646084,-35.939544677734375,4381.2578125,True
1599568833.8455486,0.0,10,0.5,0.5,-5.651766941833497,-0.1005,-0.0155,-0.12575,-0.037115292774211245,10,1,100,0.6997826370113289,-10,-1,-100,6484.538935991004,-0.06758040720297674,-0.006641291137298,0.9976917268446749,203.9423408543793,21.39559776305541,-140.5757756780305,8.640800820905355,-36.083984375,4381.2578125,True
1599568833.9173572,0.0,10,0.5,0.5,-5.587458187866212,-0.1005,-0.0155,-0.12575,0.002014751668647688,10,1,100,0.699173476365478,-10,-1,-100,6485.016949031386,-0.06754755867893882,-0.005994157284027053,0.9976980492087623,203.44694841544566,21.351709117602272,-131.04558607606265,8.070816250828711,-36.81787109375,4381.2578125,True
1599568833.9911602,0.0,10,0.5,0.5,-5.569020500183106,-0.1005,-0.0155,-0.12575,0.012627552677378653,10,1,100,0.6897128433316309,-10,-1,-100,6485.33575573517,-0.06737028375797942,-0.005303924537988613,0.9977139435984969,203.1993382094965,21.33007712616888,-124.76112434208129,7.6908222016328285,-37.671600341796875,4381.2578125,True
1599568834.058982,0.0,10,0.5,0.5,-5.635992594909668,-0.1005,-0.0155,-0.12575,-0.01008256813180717,10,1,100,0.6986928906030183,-10,-1,-100,6485.493928615004,-0.06722951581979442,-0.004878074117548094,0.9977256118771031,203.08657479819735,21.320014400702163,-121.62914190853773,7.5008209720861165,-38.208587646484375,4381.2578125,True
1599568834.124887,0.0,10,0.5,0.5,-5.319592137145996,-0.1005,-0.0155,-0.12575,0.1207342567863262,10,1,100,0.6471921215886833,-10,-1,-100,6485.909322916879,-0.06657223841602337,-0.003297258895966821,0.99777615984551,202.70948303802646,21.28384733456863,-112.2243583590398,6.930787895843981,-40.26031494140625,4381.2578125,True
1599568834.189714,0.0,10,0.5,0.5,-5.466708660888672,-0.1005,-0.0155,-0.12575,0.031365498323506186,10,1,100,0.6868868102264234,-10,-1,-100,6486.005457100808,-0.06627505409256004,-0.0026695998997404214,0.9977978204232577,202.54265908299328,21.266773564653818,-109.07230700670563,6.7407634774303755,-41.0911865234375,4381.2578125,True
1599568834.2535439,0.0,10,0.5,0.5,-5.221178805541993,-0.1005,-0.0155,-0.12575,0.12339699509422247,10,1,100,0.644304812313799,-10,-1,-100,6486.26118282543,-0.06555752740466719,-0.001259923932619237,0.9978479960356037,202.0848930362346,21.218443988722544,-102.7164229331135,6.360687350102287,-42.9732666015625,4381.2578125,True
1599568834.3206995,0.0,10,0.5,0.5,-4.767092825317382,-0.1005,-0.0155,-0.12575,0.2452930175661823,10,1,100,0.5640143519453811,-10,-1,-100,6486.674997562543,-0.0641157193874111,0.0011308907180838557,0.9979418297744707,200.89694774117376,21.0903566346421,-92.99290998622548,5.790480898801766,-46.3485107421875,4381.2578125,True
1599568834.387488,0.0,10,0.5,0.5,-4.887612965393067,-0.1005,-0.0155,-0.12575,0.10502190375919473,10,1,100,0.6449675432215012,-10,-1,-100,6486.772071383195,-0.06354377994469165,0.0020217726330566945,0.9979770039764247,200.3083622912853,21.026671766028404,-89.68689598081379,5.600379258402783,-47.620513916015625,4381.2578125,True
1599568834.4523466,0.0,10,0.5,0.5,-4.403803996276856,-0.1005,-0.0155,-0.12575,0.2192332829422592,10,1,100,0.5573897066165998,-10,-1,-100,6486.965226530447,-0.06223122005235168,0.003861774750521513,0.99805428807584,198.74892179939596,20.858104664320418,-82.96485461598843,5.220112134387591,-50.3858642578125,4381.2578125,True
1599568834.5187109,0.0,10,0.5,0.5,-4.036699371337891,-0.1005,-0.0155,-0.12575,0.2458212876082283,10,1,100,0.5200534272485389,-10,-1,-100,6487.157872732147,-0.06070339183643607,0.005766379471188475,0.9981391922409151,196.55808455997985,20.621960691722833,-76.08764820704828,4.839743196340997,-53.446441650390625,4381.2578125,True
1599568834.5945094,0.0,10,0.5,0.5,-3.231064013671875,-0.1005,-0.0155,-0.12575,0.3953294730680812,10,1,100,0.37490001061790046,-10,-1,-100,6487.447542488691,-0.05800113241202202,0.00884572392996757,0.9982773271025832,191.75029875637023,20.10649338492029,-65.49119076705304,4.268938432718704,-58.589385986328125,4381.2578125,True
1599568834.669817,0.0,10,0.5,0.5,-2.9847035491943363,-0.1005,-0.0155,-0.12575,0.3162869236555949,10,1,100,0.4151510078520759,-10,-1,-100,6487.578628011746,-0.055919129661289854,0.010913068551276876,0.9983756586940202,187.29359858798188,19.631400454580234,-58.27379675911797,3.888185981079449,-62.3875732421875,4381.2578125,True
1599568834.7401376,0.0,10,0.5,0.5,-2.969278747558594,-0.1005,-0.0155,-0.12575,0.2256850782240088,10,1,100,0.4984160645124046,-10,-1,-100,6487.675173065509,-0.05479376508853332,0.011954076891189767,0.9984261331481173,184.63147240689048,19.348586399044425,-54.63620652855668,3.6977330275672413,-64.3974609375,4381.2578125,True
1599568834.8119454,0.0,10,0.5,0.5,-1.716500668334961,-0.1005,-0.0155,-0.12575,0.45156944296756174,10,1,100,0.2068849198238767,-10,-1,-100,6487.839799637324,-0.05113172848043282,0.014938640378771297,0.9985801837440181,174.75426969642731,18.30410253313136,-43.72753034793462,3.126003222704105,-70.87228393554688,4381.2578125,True
1599568834.8817582,0.0,10,0.5,0.5,-1.961452713012695,-0.1005,-0.0155,-0.12575,0.2621969473802347,10,1,100,0.425629215189651,-10,-1,-100,6487.934875942185,-0.04980522562178994,0.01591373368098359,0.9986321607985061,170.75642172514674,17.883112368219688,-40.122951421077985,2.935272341662434,-73.17861938476562,4381.2578125,True
1599568834.9495776,0.0,10,0.5,0.5,-1.1078841995239257,-0.1005,-0.0155,-0.12575,0.3773675670975011,10,1,100,0.2460236923292981,-10,-1,-100,6488.003933724947,-0.046981509022903,0.017830293831714708,0.9987366111401972,161.68550661266585,16.929988124512906,-33.05538472671327,2.553576143183429,-78.01333618164062,4381.2578125,True
1599568835.0150568,0.0,10,0.5,0.5,-0.5001491409301758,-0.1005,-0.0155,-0.12575,0.3733922525347422,10,1,100,0.2074916031923832,-10,-1,-100,6488.133544249926,-0.04408108950301724,0.01951912727475034,0.9988372546209211,151.15946185672328,15.826045338955707,-26.28414229469606,2.171633977297971,-83.14654541015625,4381.2578125,True
1599568835.0808773,0.0,10,0.5,0.5,0.1397016479492187,-0.1005,-0.0155,-0.12575,0.39008758979655456,10,1,100,0.14786762647033846,-10,-1,-100,6488.200661044335,-0.0409205216328156,0.02118948961938406,0.9989376939724359,148.01630737625646,15.496595568890509,-21.211632261432015,1.7895597880712173,-88.5755615234375,4381.2578125,True
1599568835.1469543,0.0,10,0.5,0.5,0.8163561698913575,-0.1005,-0.0155,-0.12575,0.3838546116784987,10,1,100,0.10905543573831394,-10,-1,-100,6488.269254168845,-0.03771500661535195,0.02263391220708118,0.9990321738033295,155.96133945217176,16.328087239170394,-17.58006385361645,1.407461889220531,-94.30317687988281,4381.2578125,True
1599568835.2107837,0.0,10,0.5,0.5,2.1908588687896726,-0.1005,-0.0155,-0.12575,0.4480118871096957,10,1,100,-0.12170868246082989,-10,-1,-100,6488.306986627751,-0.032725333900790056,0.024513206029401664,0.9991637279501504,168.71237603916464,17.660230694292572,-11.277195935952586,0.8344682744991414,-103.26087188720703,4381.2578125,True
1599568835.2746127,0.0,10,0.5,0.5,1.82189111328125,-0.1005,-0.0155,-0.12575,0.3208708484316763,10,1,100,0.18872248511385348,-10,-1,-100,6488.34105802339,-0.031036803918172404,0.025048784764839915,0.9992043210396709,172.4380281995748,18.049286008218754,-8.889211095210683,0.64351502852662,-106.26750183105469,4381.2578125,True
1599568835.3386965,0.0,10,0.5,0.5,3.4960771984100343,-0.1005,-0.0155,-0.12575,0.41740287172228807,10,1,100,-0.19778987809123771,-10,-1,-100,6488.318302335916,-0.026012540930740846,0.026398508317121275,0.9993129972500897,182.3657558564429,19.08714038280654,-1.0322170427774606,0.07064336294759466,-115.01167297363281,4381.2578125,True
1599568835.4055204,0.0,10,0.5,0.5,3.108123778152466,-0.1005,-0.0155,-0.12575,0.3244433763261564,10,1,100,0.12157071209700507,-10,-1,-100,6488.350443617906,-0.024375495024542136,0.026766365733988728,0.9993444836029781,184.77448990978002,19.338878534365826,1.7819919922795036,-0.12035888726559563,-117.79646301269531,4381.2578125,True
1599568835.4693472,0.0,10,0.5,0.5,4.6321522182464605,-0.1005,-0.0155,-0.12575,0.38297617717657634,10,1,100,-0.2622874506563631,-10,-1,-100,6488.327755779843,-0.01942530478484359,0.02761943222174223,0.9994297496561549,189.78417199966805,19.862230276470978,10.549389629401187,-0.6935724099379033,-125.71446228027344,4381.2578125,True
1599568835.5311823,0.0,10,0.5,0.5,4.832512868881225,-0.1005,-0.0155,-0.12575,0.3424369337175497,10,1,100,-0.1200335428332,-10,-1,-100,6488.2685526686255,-0.016247173205051476,0.02801488064112429,0.9994754603418278,191.59361856554557,20.050920576385913,16.522605979512097,-1.0758705712952725,-130.62515258789062,4381.2578125,True
1599568835.5926049,0.0,10,0.5,0.5,4.834574953842163,-0.1005,-0.0155,-0.12575,0.3186023025254245,10,1,100,0.0200661950403882,-10,-1,-100,6488.240667263512,-0.014662103979015573,0.028146699696124898,0.9994962661276553,192.00103804570458,20.093185831490796,19.501636682227236,-1.2670637896493369,-132.97007751464844,4381.2578125,True
1599568835.656434,0.0,10,0.5,0.5,5.635486029434205,-0.1005,-0.0155,-0.12575,0.3379435151571823,10,1,100,-0.14785214395090807,-10,-1,-100,6488.181985890144,-0.011723982878192865,0.02843298585562833,0.9995269448798293,191.87984667648155,20.079550446547135,25.375950228025722,-1.6495287277719322,-137.43682861328125,4381.2578125,True
1599568835.7182689,0.0,10,0.5,0.5,6.101804570388794,-0.1005,-0.0155,-0.12575,0.32669239546025614,10,1,100,-0.1763242034583133,-10,-1,-100,6488.124302109238,-0.008823542342491105,0.02858285958649496,0.9995524824832307,190.76440727920178,19.9615603611975,31.08394608056536,-2.0320783593030307,-141.6085968017578,4381.2578125,True
1599568835.7789845,0.0,10,0.5,0.5,6.9497172428131115,-0.1005,-0.0155,-0.12575,0.32122109204195215,10,1,100,-0.3416870840237429,-10,-1,-100,6487.97482105915,-0.004712658376976804,0.02866264806532812,0.9995780327002516,187.684329705637,19.636544327162476,39.228379921826374,-2.6059989880419385,-147.31163024902344,4381.2578125,True
1599568835.8398314,0.0,10,0.5,0.5,6.711286256027223,-0.1005,-0.0155,-0.12575,0.3153265223734333,10,1,100,-0.0761761443455374,-10,-1,-100,6487.883010719554,-0.003419229085618739,0.028676115380136962,0.9995829076565711,186.37322485850498,19.498144582921974,41.81741732602348,-2.797318676689187,-149.06439208984375,4381.2578125,True
1599568835.902662,0.0,10,0.5,0.5,7.3047311408996585,-0.1005,-0.0155,-0.12575,0.3139994281969246,10,1,100,-0.22444735692955453,-10,-1,-100,6487.761413388769,-0.0009221060743614073,0.028672509438039707,0.9995884337680749,183.4736705063238,19.1918018919776,46.80535438435511,-3.179965194718179,-152.34774780273438,4381.2578125,True
1599568835.9644969,0.0,10,0.5,0.5,7.951605183410645,-0.1005,-0.0155,-0.12575,0.3153823184586172,10,1,100,-0.3588647673362728,-10,-1,-100,6487.549506827607,0.0025426052142574138,0.028678508743354682,0.9995854532229757,178.88875902212988,18.70662814837147,53.88538879094913,-3.753928958666535,-156.716064453125,4381.2578125,True
1599568836.0286112,0.0,10,0.5,0.5,8.0419464302063,-0.1005,-0.0155,-0.12575,0.31402818527712956,10,1,100,-0.25039742368807616,-10,-1,-100,6487.426968511078,0.004680316765159101,0.028669579627967286,0.9995779858715043,175.75404900756052,18.374436695085542,58.34673904638643,-4.136568821377719,-159.257568359375,4381.2578125,True
1599568836.0894492,0.0,10,0.5,0.5,8.048871074676514,-0.1005,-0.0155,-0.12575,0.31687538581832264,10,1,100,-0.1506845206850458,-10,-1,-100,6487.336651258869,0.005690795591596995,0.028685615697176883,0.9995722836781784,174.19391125125478,18.20890227578234,60.508378817054094,-4.327894804802904,-160.4167022705078,4381.2578125,True
1599568836.1519437,0.0,10,0.5,0.5,8.430844151306154,-0.1005,-0.0155,-0.12575,0.3257051203327276,10,1,100,-0.2612951585038302,-10,-1,-100,6487.151142616407,0.007592131140914538,0.028779494997975257,0.9995569519604175,171.20899748625604,17.891652311462686,64.7406503549142,-4.710575428383131,-162.51148986816406,4381.2578125,True
1599568836.2107866,0.0,10,0.5,0.5,8.80192024536133,-0.1005,-0.0155,-0.12575,0.3320462915098183,10,1,100,-0.36029226338379794,-10,-1,-100,6486.813327501761,0.010198919589797496,0.02892179172362292,0.9995296453846161,167.21980698175318,17.466309221829643,70.95701507637973,-5.284714704303726,-165.09744262695312,4381.2578125,True
1599568836.270664,0.0,10,0.5,0.5,8.687929174804689,-0.1005,-0.0155,-0.12575,0.32529282465689835,10,1,100,-0.189781840912843,-10,-1,-100,6486.72107055271,0.010996031590347129,0.028989052600978345,0.9995192454968348,166.05525781575452,17.34176246528177,73.02150021803442,-5.476136165605439,-165.810791015625,4381.2578125,True
1599568836.3294706,0.0,10,0.5,0.5,8.914370860290527,-0.1005,-0.0155,-0.12575,0.34239445868785656,10,1,100,-0.2745554335378881,-10,-1,-100,6486.473085235339,0.01247069332883035,0.029205162738178032,0.9994956429506509,164.0358605520372,17.125119450443375,77.19119977098921,-5.859048755170576,-167.01373291015625,4381.2578125,True
1599568836.3893092,0.0,10,0.5,0.5,9.084504253387452,-0.1005,-0.0155,-0.12575,0.368656090464211,10,1,100,-0.3428492250806729,-10,-1,-100,6486.1352973748,0.014412789163593757,0.02963980287618853,0.9994567292254259,161.92246003065526,16.896194686920463,83.69238791396774,-6.433587485298284,-168.26025390625,4381.2578125,True
1599568836.4502063,0.0,10,0.5,0.5,9.06412505645752,-0.1005,-0.0155,-0.12575,0.3646458854990493,10,1,100,-0.27298554089621396,-10,-1,-100,6485.8253123875475,0.015525819659392164,0.02999758554305037,0.9994293840914883,161.18108373904627,16.813486090687707,88.2882915594287,-6.816723829301279,-168.719482421875,4381.2578125,True
1599568836.509056,0.0,10,0.5,0.5,9.063504581451417,-0.1005,-0.0155,-0.12575,0.35252068183607976,10,1,100,-0.21840001887530835,-10,-1,-100,6485.733064985834,0.0160242107747052,0.030211412052204213,0.9994150765577132,161.01737947806504,16.793747401553006,90.68716794921845,-7.0083243006726,-168.8373260498047,4381.2578125,True
1599568836.5718527,0.0,10,0.5,0.5,9.053161389160158,-0.1005,-0.0155,-0.12575,0.4148963906151008,10,1,100,-0.3079807452515767,-10,-1,-100,6485.267361303908,0.017276258104002157,0.030971452683413205,0.9993709521617101,161.3949801558062,16.82489861646406,98.38934615317355,-7.583245704567441,-168.744140625,4381.2578125,True
1599568836.6328123,0.0,10,0.5,0.5,8.985353342437744,-0.1005,-0.0155,-0.12575,0.40261532024296276,10,1,100,-0.25536879094278475,-10,-1,-100,6484.957382416702,0.017922798225201514,0.03154866812300189,0.9993415106175884,162.37271066068672,16.920834789636583,104.0141299178398,-7.966615676669183,-168.31024169921875,4381.2578125,True
1599568836.6946495,0.0,10,0.5,0.5,8.888403037261963,-0.1005,-0.0155,-0.12575,0.41771682598500737,10,1,100,-0.24380288356365212,-10,-1,-100,6484.584902342991,0.018393378739699685,0.03220807849437834,0.9993119249254648,163.9168860325223,17.07504513630038,110.08441437833369,-8.350043838793155,-167.57855224609375,4381.2578125,True
1599568836.7560205,0.0,10,0.5,0.5,8.758676863098145,-0.1005,-0.0155,-0.12575,0.43156106857650933,10,1,100,-0.2309119618599022,-10,-1,-100,6484.2739450352965,0.018692441207256567,0.03293019698028222,0.9992828402252052,165.9982866153256,17.28416440418158,116.63251854915771,-8.733516389809566,-166.5494384765625,4381.2578125,True
1599568837.277137,0.0,10,0.5,0.5,8.75271263809204,-0.1005,-0.0155,-0.12575,0.401416195465844,10,1,100,-0.2117443299318446,-10,-1,-100,6484.119198356289,0.018779973787447442,0.03330885066465942,0.9992686490888936,167.23194026886776,17.4083341241868,120.09532303261446,-8.925264340699501,-165.92343139648438,4381.2578125,True
1599568837.326006,0.0,10,0.5,0.5,8.499024250793457,-0.1005,-0.0155,-0.12575,0.4515724996268577,10,1,100,-0.2075245915540881,-10,-1,-100,6483.746225396404,0.018813386644007134,0.03410505945288333,0.9992411627843892,170.0504206344101,17.69211563371786,127.40246533744894,-9.308772202666422,-164.4485626220703,4381.2578125,True
1599568837.3818567,0.0,10,0.5,0.5,8.682377545166016,-0.1005,-0.0155,-0.12575,0.37246322148965727,10,1,100,-0.20496504140348495,-10,-1,-100,6483.746225396404,0.018813386644007134,0.03410505945288333,0.9992411627843892,170.0504206344101,17.69211563371786,127.40246533744894,-9.308772202666422,-164.4485626220703,4381.2578125,True
1599568837.4377072,0.0,10,0.5,0.5,8.051950439453126,-0.1005,-0.0155,-0.12575,0.5114929156110981,10,1,100,-0.17346470336620737,-10,-1,-100,6483.155508072348,0.01852125384974536,0.03536451131151942,0.9992028395153462,175.0407646754889,18.19405589037035,139.3073620046811,-9.884027184873576,-161.67971801757812,4381.2578125,True
1599568837.4940963,0.0,10,0.5,0.5,7.88841014328003,-0.1005,-0.0155,-0.12575,0.4822401313345583,10,1,100,-0.1571935539762831,-10,-1,-100,6482.7185591692105,0.01810402407442975,0.03623832886373339,0.9991791770415737,178.76255463202804,18.567607352936882,147.83506961213413,-10.267496291007678,-159.46304321289062,4381.2578125,True
1599568837.5519068,0.0,10,0.5,0.5,7.876901621246339,-0.1005,-0.0155,-0.12575,0.44446533080459427,10,1,100,-0.16940466767863122,-10,-1,-100,6482.500816196436,0.0178333905810596,0.03668362777609125,0.9991677945338152,180.70739267345027,18.762499379754445,152.25826973846074,-10.459212750607549,-158.24356079101562,4381.2578125,True
1599568837.6127455,0.0,10,0.5,0.5,7.085866493225098,-0.1005,-0.0155,-0.12575,0.5416087062896677,10,1,100,-0.0691397240603912,-10,-1,-100,6481.847085252986,0.01667421593618787,0.03796568273198644,0.9991399188590192,186.70742972479246,19.362375606293533,166.04540450661457,-11.03426159513295,-154.14205932617188,4381.2578125,True
1599568837.6695929,0.0,10,0.5,0.5,7.2362284645080575,-0.1005,-0.0155,-0.12575,0.46037241882909785,10,1,100,-0.13275154112533166,-10,-1,-100,6481.628846085281,0.016199257361592858,0.03838631714220545,0.9991316603517231,188.70908874547573,19.56204090755698,170.7695184556721,-11.22590321311468,-152.62705993652344,4381.2578125,True
1599568837.7284358,0.0,10,0.5,0.5,6.666769523620606,-0.1005,-0.0155,-0.12575,0.509728125416176,10,1,100,-0.06029984773447836,-10,-1,-100,6481.192850144813,0.015110391936465644,0.03921118425772417,0.9991166894235294,192.61688081063167,19.951287133489963,180.31881222124065,-11.60910915644658,-149.37551879882812,4381.2578125,True
1599568837.7873116,0.0,10,0.5,0.5,5.376391236114502,-0.1005,-0.0155,-0.12575,0.5824333936314657,10,1,100,0.13488884547672012,-10,-1,-100,6480.193389287917,0.012349056145160221,0.04061565397764078,0.9990985284066294,199.47219089986706,20.6332264797959,199.20249252350962,-12.375160218784256,-141.98968505859375,4381.2578125,True
1599568837.8471184,0.0,10,0.5,0.5,6.267092211151123,-0.1005,-0.0155,-0.12575,0.4427549673395405,10,1,100,-0.1406103951476125,-10,-1,-100,6480.193389287917,0.012349056145160221,0.04061565397764078,0.9990985284066294,199.47219089986706,20.6332264797959,199.20249252350962,-12.375160218784256,-141.98968505859375,4381.2578125,True
1599568837.9059608,0.0,10,0.5,0.5,5.294763104248047,-0.1005,-0.0155,-0.12575,0.5040138603680423,10,1,100,0.040944560604722346,-10,-1,-100,6479.693889748654,0.010704402836177438,0.04116591045670627,0.9990949822595403,202.06173123979764,20.891607422694406,208.1085415043997,-12.757995729455848,-137.85606384277344,4381.2578125,True
1599568837.9648037,0.0,10,0.5,0.5,4.772018043518066,-0.1005,-0.0155,-0.12575,0.4889676657906312,10,1,100,0.07212339537692171,-10,-1,-100,6479.194864999736,0.008933191315362032,0.04152294107696768,0.9990976145788968,203.83200042750815,21.070009137921243,216.3115294189858,-13.140711640817509,-133.4302978515625,4381.2578125,True
1599568838.0232744,0.0,10,0.5,0.5,3.6537486587524417,-0.1005,-0.0155,-0.12575,0.49779317207866985,10,1,100,0.22276640186329688,-10,-1,-100,6478.3515836903825,0.005962499142316111,0.04192100271471106,0.999103136885963,204.48082793192674,21.141704767983715,226.60985822142882,-13.714610056713646,-126.24032592773438,4381.2578125,True
1599568838.0830781,0.0,10,0.5,0.5,3.9277186382293703,-0.1005,-0.0155,-0.12575,0.46130295431759016,10,1,100,0.04105569355354241,-10,-1,-100,6478.070323077962,0.00492520247391525,0.04194518723173778,0.9991077737905383,204.37255244879486,21.135460871019568,229.6945891633607,-13.905879957406803,-123.69783782958984,4381.2578125,True
1599568838.1454203,0.0,10,0.5,0.5,2.9918528766632084,-0.1005,-0.0155,-0.12575,0.4522938925751929,10,1,100,0.17447793220872182,-10,-1,-100,6477.506817864603,0.002781256807231486,0.041880084541951176,0.9991187732844035,203.16558410349305,21.025585854379955,234.71554246046355,-14.288409885309838,-118.39331817626953,4381.2578125,True
1599568838.2072942,0.0,10,0.5,0.5,2.3309848628997805,-0.1005,-0.0155,-0.12575,0.42812508570670904,10,1,100,0.19951573428076377,-10,-1,-100,6476.9452552953735,0.0006182826675675264,0.04159645980082636,0.9991343014122683,200.33705488456368,20.753561440096355,237.74574192506844,-14.670978023483748,-112.79710388183594,4381.2578125,True
1599568838.2681315,0.0,10,0.5,0.5,1.6382361671447758,-0.1005,-0.0155,-0.12575,0.40879636513436973,10,1,100,0.23450339127855888,-10,-1,-100,6476.31971881038,-0.0016515307654991014,0.041159602779083586,0.9991512195584804,195.6936837295296,20.296810343787214,238.3982972477113,-15.053649620234067,-106.90809631347656,4381.2578125,True
1599568838.3300004,0.0,10,0.5,0.5,0.9095219696044924,-0.1005,-0.0155,-0.12575,0.3797143269097205,10,1,100,0.25248069295219555,-10,-1,-100,6475.75716360088,-0.0038621995488408306,0.040495556697605274,0.9991722540695352,190.0290907696894,19.734301810561316,237.4942522280372,-15.436473886015662,-100.72735595703125,4381.2578125,True
1599568838.392833,0.0,10,0.5,0.5,-0.6103259449005127,-0.1005,-0.0155,-0.12575,0.29918157645860244,10,1,100,0.39235111474814244,-10,-1,-100,6474.787340759416,-0.007126199921400732,0.039158594917214934,0.9992075969080648,177.60086337254984,18.47341386667568,230.3910785856148,-16.011081783205526,-90.9078140258789,4381.2578125,True
1599568838.4556997,0.0,10,0.5,0.5,-1.0176090843200685,-0.1005,-0.0155,-0.12575,0.31045114509737975,10,1,100,0.2969432743348039,-10,-1,-100,6474.161294391495,-0.009208424205364328,0.038046950339994806,0.9992335235036301,167.41789041208364,17.42287072017452,222.49128869166265,-16.39440081095729,-83.99990844726562,4381.2578125,True
1599568838.515916,0.0,10,0.5,0.5,-1.0433621517181395,-0.1005,-0.0155,-0.12575,0.35352497421263473,10,1,100,0.20120454231875906,-10,-1,-100,6473.817508631619,-0.010211405553957621,0.03743027981051305,0.9992470672210749,170.67825582482615,17.76183984711147,229.53340434755629,-16.586055965975625,-80.44393920898438,4381.2578125,True
1599568838.576721,0.0,10,0.5,0.5,-2.2877804721832273,-0.1005,-0.0155,-0.12575,0.2722336505624801,10,1,100,0.3078906715720731,-10,-1,-100,6473.129934152472,-0.01207406631099062,0.03613405423293386,0.9992740099929593,184.32074344786454,19.1723547976573,253.73411187052403,-16.969152789674478,-73.36065673828125,4381.2578125,True
1599568838.63683,0.0,10,0.5,0.5,-3.7995340839385987,-0.1005,-0.0155,-0.12575,0.15945498640325229,10,1,100,0.40846967792456496,-10,-1,-100,6472.098571230774,-0.014662651368201133,0.033935305748999826,0.999316467230765,200.51327701518179,20.829969522986048,285.57671285845004,-17.543142293118247,-63.15350341796875,4381.2578125,True
1599568838.695594,0.0,10,0.5,0.5,-4.071378953933715,-0.1005,-0.0155,-0.12575,0.20714290286188072,10,1,100,0.31862139785015003,-10,-1,-100,6471.347518089111,-0.016180357828160994,0.03237722972865252,0.9993447408255324,208.82941283362376,21.67574900312907,304.05145261038894,-17.92535365664111,-56.711029052734375,4381.2578125,True
1599568838.7560885,0.0,10,0.5,0.5,-4.068611782073974,-0.1005,-0.0155,-0.12575,0.2749076936025653,10,1,100,0.24570632203585727,-10,-1,-100,6471.00373086601,-0.016878039774992682,0.03158553867825491,0.9993585370225033,212.05889144433382,22.003559804763867,312.1200382013914,-18.116340267751355,-53.6014404296875,4381.2578125,True
1599568838.8204246,0.0,10,0.5,0.5,-5.13460392036438,-0.1005,-0.0155,-0.12575,0.1822727909970589,10,1,100,0.31857388942280795,-10,-1,-100,6470.252194619388,-0.018156856433282655,0.030033042741355834,0.999383982715431,216.80521358715703,22.486449402066125,325.99105242673363,-18.498119037327996,-47.605438232421875,4381.2578125,True
1599568838.8812628,0.0,10,0.5,0.5,-6.389740502548218,-0.1005,-0.0155,-0.12575,0.07236221410659546,10,1,100,0.3736893863245271,-10,-1,-100,6469.1573685591575,-0.019803398695288396,0.027633007933406527,0.999421954067784,220.94335663664148,22.918456031088397,342.7484433801851,-19.07045656635484,-39.171905517578125,4381.2578125,True
1599568838.94161,0.0,10,0.5,0.5,-6.036510200881958,-0.1005,-0.0155,-0.12575,0.2238673174038415,10,1,100,0.26258908357343824,-10,-1,-100,6468.751087124925,-0.02027375084671118,0.026840774133287282,0.9994341138216822,221.53274378003096,22.985507329663367,347.1886170032965,-19.261188362734746,-36.50982666015625,4381.2578125,True
1599568839.002448,0.0,10,0.5,0.5,-7.507431930923462,-0.1005,-0.0155,-0.12575,0.056887271026021646,10,1,100,0.3541341962217107,-10,-1,-100,6467.593283270835,-0.02151865241635449,0.024614974604802622,0.9994653824037074,221.08942459156822,22.97060544173531,357.0708519863936,-19.833376602978703,-28.9688720703125,4381.2578125,True
1599568839.0642827,0.0,10,0.5,0.5,-7.190248196411134,-0.1005,-0.0155,-0.12575,0.20041286681907666,10,1,100,0.2710060506012103,-10,-1,-100,6467.187008091947,-0.021881586653575716,0.023909520104582898,0.9994746274988129,220.3111145717471,22.9037652180792,359.33517567926276,-20.02412917171975,-26.603851318359375,4381.2578125,True
1599568839.1251202,0.0,10,0.5,0.5,-8.001364978027345,-0.1005,-0.0155,-0.12575,0.11305981823086797,10,1,100,0.3025962702218863,-10,-1,-100,6466.373970731627,-0.022487189627193694,0.022486931417431626,0.9994942041943506,217.9921568927862,22.694449333120097,362.53487807898165,-20.405700282876932,-22.0975341796875,4381.2578125,True
1599568839.1879516,0.0,10,0.5,0.5,-8.928865740966797,-0.1005,-0.0155,-0.12575,0.04660754394425856,10,1,100,0.3305065481201727,-10,-1,-100,6465.091193626518,-0.02328030778040061,0.02060314225231864,0.9995166520868877,213.05278674691334,22.23253772120662,364.5908850715089,-20.9782653632025,-15.8931884765625,4381.2578125,True
1599568839.246794,0.0,10,0.5,0.5,-9.089647454833985,-0.1005,-0.0155,-0.12575,0.10602257398385578,10,1,100,0.2979572159390749,-10,-1,-100,6464.277681038482,-0.023695233771242906,0.01944486229528555,0.9995301062133365,209.4583701303776,21.892292483231497,365.1946200865072,-21.360125781126946,-12.12786865234375,4381.2578125,True
1599568839.3086295,0.0,10,0.5,0.5,-9.096081083679199,-0.1005,-0.0155,-0.12575,0.16136918125656263,10,1,100,0.27826592799022976,-10,-1,-100,6463.808915056055,-0.02388521607028909,0.018908204621783452,0.9995358804221369,207.68790824372115,21.723931117268016,365.4634087689497,-21.551096948203707,-10.356231689453125,4381.2578125,True
1599568839.367472,0.0,10,0.5,0.5,-10.04715668182373,-0.1005,-0.0155,-0.12575,0.05427626189442081,10,1,100,0.3154887833753555,-10,-1,-100,6462.525672724354,-0.02438931242906665,0.0174590065835865,0.9995500710461439,202.0473236631588,21.177971379315427,365.35637167254623,-22.124155553677184,-5.4854736328125,4381.2578125,True
1599568839.4263146,0.0,10,0.5,0.5,-10.160156153869629,-0.1005,-0.0155,-0.12575,0.10503583157063813,10,1,100,0.294732939695014,-10,-1,-100,6461.588152901735,-0.02465206392844853,0.016615846756913674,0.9995579970069864,198.88869260392153,20.87051230456453,366.1072006796563,-22.50628351010165,-2.608489990234375,4381.2578125,True
1599568839.4851568,0.0,10,0.5,0.5,-10.45210506744385,-0.1005,-0.0155,-0.12575,0.10802767064780502,10,1,100,0.29619494146841274,-10,-1,-100,6460.712159934104,-0.024898315119012807,0.01588873381153484,0.9995637158491202,195.77530029285813,20.562066159834075,366.7510304571012,-22.888452563843067,-0.02734375,4381.2578125,True
1599568839.545995,0.0,10,0.5,0.5,-10.45509048614502,-0.1005,-0.0155,-0.12575,0.14428216176787703,10,1,100,0.2853772366146369,-10,-1,-100,6460.241939340252,-0.025019205324106255,0.01556798493875644,0.9995657443159489,194.27055856229876,20.41111807292112,367.0997073540669,-23.07954551947176,1.15228271484375,4381.2578125,True
1599568839.606832,0.0,10,0.5,0.5,-10.848685627746582,-0.1005,-0.0155,-0.12575,0.11253040761147307,10,1,100,0.29538622365117667,-10,-1,-100,6459.303941666032,-0.02521578225227121,0.014997990734076523,0.9995695196430044,191.4207244690179,20.121754801089853,367.9651209632606,-23.46173491278997,3.28955078125,4381.2578125,True
1599568839.6676698,0.0,10,0.5,0.5,-11.229824168395997,-0.1005,-0.0155,-0.12575,0.09757185063649372,10,1,100,0.30521054101840267,-10,-1,-100,6457.895242989063,-0.025480439499545118,0.014352570015386536,0.9995722839979424,190.4594953428492,20.02634253802682,375.4651551024033,-24.034966570452536,5.9410400390625,4381.2578125,True
1599568839.728548,0.0,10,0.5,0.5,-11.113369168090822,-0.1005,-0.0155,-0.12575,0.143444117089658,10,1,100,0.2874276936157367,-10,-1,-100,6457.364969252143,-0.02555610306354628,0.014191532648050948,0.9995726516853614,192.44829786756847,20.235128562216726,382.5390646256812,-24.225983563011003,6.67706298828125,4381.2578125,True
1599568839.7913795,0.0,10,0.5,0.5,-11.46468733062744,-0.1005,-0.0155,-0.12575,0.12424787100967921,10,1,100,0.30507659652997415,-10,-1,-100,6455.8928042241605,-0.025782542772370992,0.013878164984990952,0.9995712365933906,197.45418448942027,20.75530586289367,402.20958706208575,-24.798816919512447,8.441802978515625,4381.2578125,True
1599568839.8522177,0.0,10,0.5,0.5,-11.463131047058106,-0.1005,-0.0155,-0.12575,0.147030273166909,10,1,100,0.29654498711283683,-10,-1,-100,6454.892322188476,-0.025908562208426782,0.013806511653881524,0.9995689704268752,200.04973413800923,21.02073425253096,414.0739760900557,-25.180532812530295,9.249053955078125,4381.2578125,True
1599568839.9109557,0.0,10,0.5,0.5,-11.461010028076172,-0.1005,-0.0155,-0.12575,0.1541933950664548,10,1,100,0.29023716111840614,-10,-1,-100,6454.422112224856,-0.025963769342676146,0.0138116173252701,0.9995674674119706,201.1397125073115,21.13087202708572,419.6403934102923,-25.37134245812158,9.541900634765625,4381.2578125,True
1599568839.9698305,0.0,10,0.5,0.5,-11.55366580810547,-0.1005,-0.0155,-0.12575,0.17426163629238606,10,1,100,0.30260780321003533,-10,-1,-100,6452.889415356913,-0.02612452843530639,0.014003330662492285,0.9995606113409979,203.61811665203942,21.37625630530578,434.8802641587287,-25.94359493950718,9.977874755859375,4381.2578125,True
1599568840.0346224,0.0,10,0.5,0.5,-11.522306216430664,-0.1005,-0.0155,-0.12575,0.16790450975065413,10,1,100,0.29143665215483805,-10,-1,-100,6452.357196648954,-0.026167539677190054,0.014122964978606793,0.9995578030946763,204.18798670044757,21.430808787188578,439.4686833844097,-26.134292375874157,9.97564697265625,4381.2578125,True
1599568840.0964808,0.0,10,0.5,0.5,-11.440504362487793,-0.1005,-0.0155,-0.12575,0.21396814478965528,10,1,100,0.2980171870224315,-10,-1,-100,6450.761520466651,-0.026265086145199925,0.014652750022500272,0.999547618758888,205.14174591430273,21.515386420897787,451.7005004254982,-26.706248455957795,9.526641845703125,4381.2578125,True
1599568840.1593459,0.0,10,0.5,0.5,-11.360682028198243,-0.1005,-0.0155,-0.12575,0.215450154430873,10,1,100,0.2921495809152181,-10,-1,-100,6449.634101472562,-0.02629918035966497,0.015148969226222718,0.9995393248110815,205.14236225325968,21.506262255567375,458.50372164523577,-27.08745647762042,8.85882568359375,4381.2578125,True
1599568840.2201564,0.0,10,0.5,0.5,-11.238861521911621,-0.1005,-0.0155,-0.12575,0.2329914096204765,10,1,100,0.28852182140134175,-10,-1,-100,6448.570162059739,-0.026296031854474718,0.015759924472887276,0.9995299612764578,204.61884128265612,21.443995124297736,464.131518982304,-27.468603864122557,7.89642333984375,4381.2578125,True
1599568840.285981,0.0,10,0.5,0.5,-11.08266513824463,-0.1005,-0.0155,-0.12575,0.25180520658612066,10,1,100,0.2838702813797196,-10,-1,-100,6447.443725309102,-0.02624990080446683,0.01648568018432563,0.9995194670723605,203.54494396048557,21.326700892814817,468.4716955027376,-27.84970362025139,6.63958740234375,4381.2578125,True
1599568840.3468184,0.0,10,0.5,0.5,-10.89083408355713,-0.1005,-0.0155,-0.12575,0.27155906751382575,10,1,100,0.27807928134219206,-10,-1,-100,6446.318268338335,-0.026154618521114024,0.0173230994666406,0.9995078019479808,201.88684579972866,21.151761094331594,471.3903735100272,-28.230766860985348,5.08837890625,4381.2578125,True
1599568840.9123054,0.0,10,0.5,0.5,-10.88298858947754,-0.1005,-0.0155,-0.12575,0.23878592557185024,10,1,100,0.28001483231975405,-10,-1,-100,6445.790453452268,-0.026085050076536977,0.01778360519034662,0.9995015325395645,200.82533633492537,21.041573863408424,472.2668108811669,-28.421287953900382,4.202423095703125,4381.2578125,True
1599568840.9661617,0.0,10,0.5,0.5,-10.286650346374513,-0.1005,-0.0155,-0.12575,0.3627368652037659,10,1,100,0.25206135496896775,-10,-1,-100,6444.062969459919,-0.025767408508001452,0.019325523081091915,0.9994811478044116,201.378260888707,21.110793410846856,483.6800226991678,-28.99275456262338,1.103302001953125,4381.2578125,True
1599568841.0279968,0.0,10,0.5,0.5,-10.11312451324463,-0.1005,-0.0155,-0.12575,0.3364108299643211,10,1,100,0.25073071029057836,-10,-1,-100,6442.875510369195,-0.02546667499743873,0.020482921741931583,0.9994658065094015,205.57263093787273,21.56601433561862,500.6524994857039,-29.373520201260547,-1.330352783203125,4381.2578125,True
1599568841.0907762,0.0,10,0.5,0.5,-9.785150564575195,-0.1005,-0.0155,-0.12575,0.35880182372648123,10,1,100,0.23599843419284253,-10,-1,-100,6441.686589998775,-0.025059803018170693,0.021732592009244864,0.9994496989429985,209.96790644258468,22.04968579701327,518.4133592302799,-29.75407622653089,-4.05810546875,4381.2578125,True
1599568841.1536102,0.0,10,0.5,0.5,-9.772875988769531,-0.1005,-0.0155,-0.12575,0.3066406751914361,10,1,100,0.2490906493185566,-10,-1,-100,6441.092863185913,-0.024809907470358182,0.02238743702798675,0.9994414796047992,212.20989872407148,22.29907306133562,527.5181983147678,-29.94426786314958,-5.53228759765625,4381.2578125,True
1599568841.2184355,0.0,10,0.5,0.5,-8.833844473266602,-0.1005,-0.0155,-0.12575,0.4712300791003059,10,1,100,0.17513336265513185,-10,-1,-100,6439.244302664418,-0.023911624941049158,0.024471504833242393,0.9994145184276019,219.09311934047173,23.07536895290384,555.6932875698398,-30.514458660589572,-10.39581298828125,4381.2578125,True
1599568841.2892447,0.0,10,0.5,0.5,-8.164474784851075,-0.1005,-0.0155,-0.12575,0.5096927796572589,10,1,100,0.13516518526067123,-10,-1,-100,6437.396726126783,-0.02273379690282236,0.02670684670234642,0.9993847701549181,226.62991044000265,23.936420709025608,586.25919694047,-31.083992250871514,-15.9210205078125,4381.2578125,True
1599568841.3510802,0.0,10,0.5,0.5,-8.82086086883545,-0.1005,-0.0155,-0.12575,0.2873143804944686,10,1,100,0.2525914507376669,-10,-1,-100,6437.396726126783,-0.02273379690282236,0.02670684670234642,0.9993847701549181,226.62991044000265,23.936420709025608,586.25919694047,-31.083992250871514,-15.9210205078125,4381.2578125,True
1599568841.411918,0.0,10,0.5,0.5,-7.383870054626464,-0.1005,-0.0155,-0.12575,0.536011257266121,10,1,100,0.07967329848161955,-10,-1,-100,6435.4925106274895,-0.02116505209590525,0.028957775652789206,0.999356536877115,233.95055153331052,24.785729531759436,617.0095688039715,-31.652807459566574,-22.10919189453125,4381.2578125,True
1599568841.4717574,0.0,10,0.5,0.5,-7.617468336486817,-0.1005,-0.0155,-0.12575,0.3947742163106082,10,1,100,0.17008830468981972,-10,-1,-100,6434.893904239754,-0.020565497644881116,0.02970876333044302,0.9993470116471025,236.3577512577881,25.066426716662455,627.3331323202281,-31.842246576813018,-24.31915283203125,4381.2578125,True
1599568841.5335925,0.0,10,0.5,0.5,-6.250027478027344,-0.1005,-0.0155,-0.12575,0.5729260085866311,10,1,100,0.009911848284282293,-10,-1,-100,6432.920355161186,-0.018569379559241775,0.0319997814545796,0.9993153617000212,242.8054387887262,25.82410927972182,656.6846582289488,-32.41008737438077,-31.389923095703125,4381.2578125,True
1599568841.5964236,0.0,10,0.5,0.5,-5.93410246734619,-0.1005,-0.0155,-0.12575,0.5048255718598161,10,1,100,0.038972093370200495,-10,-1,-100,6431.604003189248,-0.017025743228093717,0.033450506527856146,0.9992953455713486,246.02072008227398,26.207814763488866,673.6392233891306,-32.78829752383694,-36.472381591796875,4381.2578125,True
1599568841.6571538,0.0,10,0.5,0.5,-5.298340100097656,-0.1005,-0.0155,-0.12575,0.5111732139762998,10,1,100,0.005741297033540316,-10,-1,-100,6430.2842328061815,-0.01532828629242576,0.03481421244694216,0.9992762452150238,248.1182233765592,26.46348306302851,687.7086475410576,-33.16628892830557,-41.84979248046875,4381.2578125,True
1599568841.7189877,0.0,10,0.5,0.5,-4.628296244812012,-0.1005,-0.0155,-0.12575,0.5122752565622135,10,1,100,-0.027686027772043403,-10,-1,-100,6428.978128849645,-0.013490475569681415,0.03605093522352411,0.9992588939501179,248.87081187150815,26.56419444138434,698.1491947558508,-33.5441337204131,-47.522491455078125,4381.2578125,True
1599568841.7813659,0.0,10,0.5,0.5,-4.607539254760742,-0.1005,-0.0155,-0.12575,0.4536173356539116,10,1,100,0.048461775871063886,-10,-1,-100,6428.320436762529,-0.012522508879804339,0.03662895815469197,0.9992504722019686,248.67387626481042,26.548621435396328,701.7744615997946,-33.73302762518699,-50.4693603515625,4381.2578125,True
1599568841.8427713,0.0,10,0.5,0.5,-2.0743856933593747,-0.1005,-0.0155,-0.12575,0.6011281690800088,10,1,100,-0.30949354811704455,-10,-1,-100,6425.563184824889,-0.008399570215106514,0.038482494285875725,0.9992239713166108,243.4492629501589,25.983781243021273,703.4430369409947,-34.48869380052082,-62.995635986328125,4381.2578125,True
1599568841.9075706,0.0,10,0.5,0.5,-2.8178363067626955,-0.1005,-0.0155,-0.12575,0.45753639686335446,10,1,100,-0.018848154580207305,-10,-1,-100,6424.845913142315,-0.00730777687455787,0.03884941012184352,0.9992183543802307,240.91561827609507,25.706397715343503,700.2018952291819,-34.67769326154547,-66.31143188476562,4381.2578125,True
1599568841.9704018,0.0,10,0.5,0.5,-1.605981024169922,-0.1005,-0.0155,-0.12575,0.4793870162542949,10,1,100,-0.148479571692473,-10,-1,-100,6423.47044669732,-0.005150793700336927,0.03937057327316871,0.9992114026993478,234.23430310307805,24.97810608063112,688.7458160110776,-35.055867030093395,-73.1654052734375,4381.2578125,True
1599568842.0342305,0.0,10,0.5,0.5,-0.7617156372070312,-0.1005,-0.0155,-0.12575,0.46474425759878046,10,1,100,-0.17338002484397613,-10,-1,-100,6422.029538263683,-0.0029795166980337556,0.03969972948971345,0.9992072127235121,225.3135820199363,24.01527716702213,670.214488446425,-35.43432351201261,-80.31423950195312,4381.2578125,True
1599568842.0980988,0.0,10,0.5,0.5,0.11369300537109372,-0.1005,-0.0155,-0.12575,0.4463070821673999,10,1,100,-0.1954549727311811,-10,-1,-100,6420.6506323989015,-0.0008214794745998012,0.039821586315526195,0.9992064683711709,214.07425841849397,22.81676047341361,644.131799691407,-35.81309047899222,-87.75802612304688,4381.2578125,True
1599568842.1639652,0.0,10,0.5,0.5,0.1430918968200684,-0.1005,-0.0155,-0.12575,0.43253665865508717,10,1,100,-0.09616434023656548,-10,-1,-100,6419.927484914777,0.00021978132568885035,0.039797986104348496,0.9992077221470054,207.58368644216972,22.130783945923476,628.1744852424802,-36.002585562506006,-91.59062194824219,4381.2578125,True
1599568842.2317827,0.0,10,0.5,0.5,2.4292813541412355,-0.1005,-0.0155,-0.12575,0.39842929378187475,10,1,100,-0.32299057599856973,-10,-1,-100,6417.706269846065,0.0032113576866195444,0.03945937513656705,0.9992160151316833,217.48089490763147,23.233537931605795,669.358263858748,-36.57066351136825,-103.4130630493164,4381.2578125,True
1599568842.3015964,0.0,10,0.5,0.5,1.945576206970215,-0.1005,-0.0155,-0.12575,0.41099900058242206,10,1,100,-0.12897299208392884,-10,-1,-100,6416.992879462312,0.004148778978319155,0.039260354438035515,0.9992204022148412,223.07937273318367,23.8547138031449,690.4234842716553,-36.75973736574031,-107.38746643066406,4381.2578125,True
1599568842.3675566,0.0,10,0.5,0.5,4.225856483840943,-0.1005,-0.0155,-0.12575,0.34158225784145135,10,1,100,-0.3246833268811185,-10,-1,-100,6414.768709483207,0.006762458591410758,0.03844432328536976,0.9992378611526533,235.8998536530912,25.302287715420476,742.2259399755038,-37.32615417746992,-119.22604370117188,4381.2578125,True
1599568842.446833,0.0,10,0.5,0.5,3.7184967037200933,-0.1005,-0.0155,-0.12575,0.38858532531630496,10,1,100,-0.14998138326544042,-10,-1,-100,6413.982558002113,0.007531919721205057,0.03812760158902515,0.9992444926955474,239.4247131447878,25.703505858769653,757.4043856483181,-37.51472374904162,-123.07223510742188,4381.2578125,True
1599568842.5166492,0.0,10,0.5,0.5,5.860247269821167,-0.1005,-0.0155,-0.12575,0.2951461550411544,10,1,100,-0.3076712842845083,-10,-1,-100,6411.75836962543,0.009646743095190483,0.03698886336854293,0.9992691150707894,245.95862641938348,26.456081216792168,790.6504899177886,-38.079944927960454,-134.17886352539062,4381.2578125,True
1599568842.589451,0.0,10,0.5,0.5,6.164881153488159,-0.1005,-0.0155,-0.12575,0.31783793825932743,10,1,100,-0.22602878381290895,-10,-1,-100,6410.188984405948,0.010810699509698788,0.036161293589103694,0.9992874909764826,247.09593076429027,26.592836328519482,802.7326765063702,-38.456548164426074,-141.21072387695312,4381.2578125,True
1599568842.6632547,0.0,10,0.5,0.5,6.16679578819275,-0.1005,-0.0155,-0.12575,0.35127336657363906,10,1,100,-0.16809371031175885,-10,-1,-100,6409.409660782432,0.01132568787616474,0.03571535960750062,0.9992978244158439,246.8140989867623,26.564084458389686,806.0329956775778,-38.64484023336337,-144.6143798828125,4381.2578125,True
1599568842.7430413,0.0,10,0.5,0.5,8.0573371509552,-0.1005,-0.0155,-0.12575,0.2579653110352289,10,1,100,-0.2560317006695521,-10,-1,-100,6407.064364122925,0.012578316774771453,0.034465032949935616,0.9993267470906967,243.04811622624356,26.146811619229986,806.239945160841,-39.20984469826186,-154.3726348876953,4381.2578125,True
1599568842.8158462,0.0,10,0.5,0.5,8.331916535568238,-0.1005,-0.0155,-0.12575,0.2879035134832202,10,1,100,-0.19900914001558062,-10,-1,-100,6405.498389520915,0.013184539918947991,0.03360529664398533,0.9993482135595158,238.52454542208503,25.645128175331347,799.4690832649845,-39.586716510589966,-160.50253295898438,4381.2578125,True
1599568842.8916738,0.0,10,0.5,0.5,8.992511261367799,-0.1005,-0.0155,-0.12575,0.2841356341704242,10,1,100,-0.18791053303244254,-10,-1,-100,6403.9289949995,0.013622022696176727,0.03279511590816105,0.9993692615196024,232.7611666966195,25.01147069916608,788.2323608049861,-39.963799454855796,-166.3309326171875,4381.2578125,True
1599568842.9664438,0.0,10,0.5,0.5,9.00919709892273,-0.1005,-0.0155,-0.12575,0.3224591372943969,10,1,100,-0.16334571496386588,-10,-1,-100,6403.094005834195,0.01378423392815171,0.03241334969508072,0.9993794923133846,229.50954151986898,24.65700070027192,781.2206029385051,-40.15242404295776,-169.132080078125,4381.2578125,True
1599568843.0382524,0.0,10,0.5,0.5,9.97533221282959,-0.1005,-0.0155,-0.12575,0.2767915067890508,10,1,100,-0.1693093919512719,-10,-1,-100,6401.5255894715665,0.013976302224158538,0.03165753470172408,0.9994010523672405,222.44716179867063,23.89467831109506,764.9612791012875,-40.52983322956317,-174.50894165039062,4381.2578125,True
1599568843.1090639,0.0,10,0.5,0.5,10.551582855987547,-0.1005,-0.0155,-0.12575,0.2759373124291991,10,1,100,-0.15579017571206574,-10,-1,-100,6399.827290203539,0.01401907368813029,0.030969576413343313,0.9994220084177178,214.85175648148768,23.08603432308611,746.3837160414038,-40.907436128409536,-179.58453369140625,4381.2578125,True
1599568843.1838624,0.0,10,0.5,0.5,-69.84824732208251,-0.1005,-0.0155,-0.12575,0.2441368495714043,10,1,100,-0.12778026030262069,-10,-1,-100,6397.357481555664,0.013796724319749001,0.030061859895082685,0.9994528177846582,218.55735110403282,23.51888097655203,770.7939672448954,-41.47374814403331,173.36631774902344,4381.2578125,True
1599568843.256669,0.0,10,0.5,0.5,-24.945985990142823,-0.1005,-0.0155,-0.12575,0.2780527674567961,10,1,100,-0.11621943034023997,-10,-1,-100,6395.725593408919,0.013483794799200238,0.02955232207898017,0.9994722845269663,224.88998031798857,24.237078105422164,801.0480389529232,-41.8508474400914,169.04290771484375,4381.2578125,True
1599568843.3344595,0.0,10,0.5,0.5,-25.02934318084717,-0.1005,-0.0155,-0.12575,0.28052435487791016,10,1,100,-0.09963237178441184,-10,-1,-100,6394.03511440556,0.013045033746644733,0.02911833535116034,0.9994908452011587,230.86016044095823,24.92507040651808,830.4422455951159,-42.22759120196427,164.93106079101562,4381.2578125,True
1599568843.4212286,0.0,10,0.5,0.5,-25.543039476013185,-0.1005,-0.0155,-0.12575,0.3027133426865206,10,1,100,-0.11491417466785024,-10,-1,-100,6393.186458648299,0.012783054330319218,0.02893192272252781,0.9994996435064726,233.63255581335198,25.248661666957858,844.5261013625552,-42.41583194220485,162.81884765625,4381.2578125,True
1599568843.49307,0.0,10,0.5,0.5,-24.760891117858886,-0.1005,-0.0155,-0.12575,0.2737614875909577,10,1,100,-0.03372469748998416,-10,-1,-100,6390.5848311992595,0.011805480189811646,0.028505424774615824,0.9995239223729998,241.56694951855266,26.184592642897638,885.9444122526818,-42.980029074446335,156.08169555664062,4381.2578125,True
1599568843.5629215,0.0,10,0.5,0.5,-25.548848290252685,-0.1005,-0.0155,-0.12575,0.3050817929867036,10,1,100,-0.08962565907431712,-10,-1,-100,6389.739597732318,0.011425669564285024,0.028407847242089272,0.9995311142181007,244.2763612348911,26.504563509035805,900.1683058169909,-43.16791651265481,153.6929931640625,4381.2578125,True
1599568843.631703,0.0,10,0.5,0.5,-25.20607160873413,-0.1005,-0.0155,-0.12575,0.3020179343170048,10,1,100,-0.034694095195934055,-10,-1,-100,6387.986634053756,0.010582608297052489,0.02829601208770596,0.9995435678856441,249.22696224659768,27.092570060357147,927.1492291551649,-43.543434124433645,148.69781494140625,4381.2578125,True
1599568843.6975605,0.0,10,0.5,0.5,-25.12643252029419,-0.1005,-0.0155,-0.12575,0.3075787002312729,10,1,100,-0.013909985112409054,-10,-1,-100,6386.2268403708,0.00963000561189916,0.02824898627732398,0.9995545296611978,253.3913833022817,27.590298399407192,951.5130879548253,-43.918640954306596,143.41128540039062,4381.2578125,True
1599568843.7673526,0.0,10,0.5,0.5,-24.358468784332278,-0.1005,-0.0155,-0.12575,0.3296699108461848,10,1,100,0.06825535187920202,-10,-1,-100,6383.570074680261,0.008020822133032627,0.028410850512946614,0.9995641500101139,257.7095671046649,28.109621504254317,981.2546813851766,-44.480994988055436,134.93753051757812,4381.2578125,True
1599568843.8311818,0.0,10,0.5,0.5,-25.231795214843753,-0.1005,-0.0155,-0.12575,0.3242736229799571,10,1,100,-0.027648394744871407,-10,-1,-100,6382.7282738426,0.007435194376182924,0.028511894186718553,0.9995658006226873,258.5244094870626,28.20859884136392,988.8836682047067,-44.66836304374792,131.9678497314453,4381.2578125,True
1599568843.8960094,0.0,10,0.5,0.5,-24.69522161178589,-0.1005,-0.0155,-0.12575,0.34538293075779447,10,1,100,0.050881995166201774,-10,-1,-100,6380.906006812118,0.00619487821559339,0.02879788912651577,0.9995660583802107,259.0529628859461,28.276433689507876,999.9930303894486,-45.043043307090876,125.81130981445312,4381.2578125,True
1599568843.9588423,0.0,10,0.5,0.5,-23.937316555786136,-0.1005,-0.0155,-0.12575,0.359551136439024,10,1,100,0.07694207206666943,-10,-1,-100,6379.091075035161,0.00483731904878425,0.02918783546049584,0.9995622394856417,257.9323375204105,28.15189744748019,1004.7515799117452,-45.41773527548884,119.36543273925781,4381.2578125,True
1599568844.0246646,0.0,10,0.5,0.5,-23.147253881835937,-0.1005,-0.0155,-0.12575,0.3783115045614454,10,1,100,0.09575827644857843,-10,-1,-100,6377.268833102309,0.003439978380713509,0.029713212280334723,0.9995525456746752,254.95875317329183,27.81624651657639,1002.2006940823246,-45.79254465321106,112.63114929199219,4381.2578125,True
1599568844.0894914,0.0,10,0.5,0.5,-21.5053110244751,-0.1005,-0.0155,-0.12575,0.43747064641495104,10,1,100,0.20932943445491595,-10,-1,-100,6374.483741750475,0.0011459354781969775,0.030728097154375418,0.9995271236325461,246.60299568663078,26.885127574807157,982.5830026736728,-46.35519182301242,101.98931884765625,4381.2578125,True
1599568844.1513593,0.0,10,0.5,0.5,-21.062807096099853,-0.1005,-0.0155,-0.12575,0.4305272550576927,10,1,100,0.1583593112198002,-10,-1,-100,6372.606368209235,-0.00046561411390597877,0.03158596514168111,0.9995009304695845,238.2281040492891,25.968745633584504,957.8153421616879,-46.73068773128645,94.53549194335938,4381.2578125,True
1599568844.2121632,0.0,10,0.5,0.5,-21.037165966033935,-0.1005,-0.0155,-0.12575,0.398493915534623,10,1,100,0.08950578615668568,-10,-1,-100,6371.688441578997,-0.0012935625204224272,0.032071832461415595,0.9994847293773792,233.16170300958558,25.42083502728944,941.6756937031721,-46.9185714935605,90.70095825195312,4381.2578125,True
1599568844.275029,0.0,10,0.5,0.5,-19.638041266632083,-0.1005,-0.0155,-0.12575,0.4737461264714764,10,1,100,0.19942220880055034,-10,-1,-100,6369.7852255171165,-0.003033920157577325,0.033194310137673495,0.9994443121569913,229.3688670786711,25.032662395566295,934.7054092838038,-47.294463365946655,82.81729125976562,4381.2578125,True
1599568844.3378556,0.0,10,0.5,0.5,-18.678814779663085,-0.1005,-0.0155,-0.12575,0.5041415493477104,10,1,100,0.21982304179158113,-10,-1,-100,6367.809773520334,-0.004789146919950576,0.03448661341673738,0.9993936849744567,242.54414126474813,26.519497459778233,997.2296845840933,-47.66980422873842,74.64720153808594,4381.2578125,True
1599568844.870492,0.0,10,0.5,0.5,-17.68638507461548,-0.1005,-0.0155,-0.12575,0.536107991214693,10,1,100,0.24001847866735498,-10,-1,-100,6365.895387980621,-0.006555294173222521,0.03594636802636856,0.9993322204072155,254.30937933074347,27.870510417066683,1054.8406077044324,-48.04446880189001,66.19091796875,4381.2578125,True
1599568844.9214342,0.0,10,0.5,0.5,-17.662455094909667,-0.1005,-0.0155,-0.12575,0.4819867265102399,10,1,100,0.1638547092213014,-10,-1,-100,6364.918920275522,-0.007455233666409025,0.036774555703707856,0.9992957778074388,259.37423188780986,28.459855389085938,1080.5450112085405,-48.23156192723019,61.856109619140625,4381.2578125,True
1599568844.9773977,0.0,10,0.5,0.5,-16.08901998443604,-0.1005,-0.0155,-0.12575,0.59821056482998,10,1,100,0.2696935101026335,-10,-1,-100,6362.976267472608,-0.009221994642733782,0.03857652243008941,0.9992130937552861,268.4139032579298,29.517566032591457,1127.8932733679674,-48.60532047370516,52.97273254394531,4381.2578125,True
1599568845.0382347,0.0,10,0.5,0.5,-15.018965736389159,-0.1005,-0.0155,-0.12575,0.6389864312576734,10,1,100,0.2820851954924215,-10,-1,-100,6361.033165695262,-0.01092677733124679,0.040576474027684786,0.9991166875258535,275.15035935867905,30.309670974006984,1166.1094309418543,-48.978618637814805,43.80482482910156,4381.2578125,True
1599568845.099071,0.0,10,0.5,0.5,-13.916304149627686,-0.1005,-0.0155,-0.12575,0.6841844278903078,10,1,100,0.29126290028123436,-10,-1,-100,6359.029068530421,-0.012545682458538706,0.04279514941437072,0.9990050956017448,278.4799596900262,30.70552554830052,1190.2658711381748,-49.35167664502411,34.353302001953125,4381.2578125,True
1599568845.1569173,0.0,10,0.5,0.5,-12.78107942428589,-0.1005,-0.0155,-0.12575,0.7319192386939235,10,1,100,0.29376023931103035,-10,-1,-100,6357.085558672436,-0.014025585055584726,0.04523418719399623,0.9988779461339343,277.9868752278597,30.65864980860686,1198.253051681792,-49.72474527090834,24.61883544921875,4381.2578125,True
1599568845.2152722,0.0,10,0.5,0.5,-11.618821816253663,-0.1005,-0.0155,-0.12575,0.7783411598962833,10,1,100,0.29064299247604974,-10,-1,-100,6355.080078603467,-0.015328820153914211,0.04786032437727758,0.9987364099817283,273.3456319398037,30.14279710012825,1188.2842139225957,-50.09806594330201,14.601409912109375,4381.2578125,True
1599568845.2751122,0.0,10,0.5,0.5,-10.424222298431399,-0.1005,-0.0155,-0.12575,0.8249571326556318,10,1,100,0.28072439388334014,-10,-1,-100,6353.013113243855,-0.016409898250607284,0.05065670851513143,0.9985813002063567,264.3545428838458,29.15305804967273,1159.0319254502695,-50.47182854179132,4.30133056640625,4381.2578125,True
1599568845.3519363,0.0,10,0.5,0.5,-9.191146144866945,-0.1005,-0.0155,-0.12575,0.8689613674189451,10,1,100,0.2641655694219465,-10,-1,-100,6351.0077030709945,-0.01722841962910633,0.05358201906916168,0.9984148179937813,250.96392968391953,27.702264982293197,1109.7568067314796,-50.84613554409743,-6.2816162109375,4381.2578125,True
1599568845.4118185,0.0,10,0.5,0.5,-9.162624526214602,-0.1005,-0.0155,-0.12575,0.7430685531868026,10,1,100,0.21699284550722536,-10,-1,-100,6349.9737573993625,-0.017530782938088428,0.055078377889868343,0.9983281243852636,244.00694284461915,26.96109235814495,1083.5960163660802,-51.033469691162495,-11.679290771484375,4381.2578125,True
1599568845.4706614,0.0,10,0.5,0.5,-5.947529995727539,-0.1005,-0.0155,-0.12575,1.0923812293513784,10,1,100,0.2347168643718043,-10,-1,-100,6346.934445166029,-0.01795520281227911,0.05959555408794043,0.9980611106665371,268.3822282810393,29.79394761686553,1206.9692562399919,-51.59405123130112,-28.29827880859375,4381.2578125,True
1599568845.5305011,0.0,10,0.5,0.5,-6.605396867370606,-0.1005,-0.0155,-0.12575,0.8068308167486322,10,1,100,0.19147313949714057,-10,-1,-100,6345.839475284563,-0.017937550736647278,0.061084665802470475,0.9979713963222446,274.5934797208842,30.538108665807147,1240.017359511221,-51.780460197679716,-33.9801025390625,4381.2578125,True
1599568845.5913384,0.0,10,0.5,0.5,-3.2182206420898436,-0.1005,-0.0155,-0.12575,1.13361592965509,10,1,100,0.14237741810263668,-10,-1,-100,6342.737655054778,-0.017465649276059,0.0653870773783758,0.9977071119358025,287.2833580726221,32.09861087749352,1313.2446695187975,-52.33868836305712,-51.45245361328125,4381.2578125,True
1599568845.6510777,0.0,10,0.5,0.5,-2.5375085838317872,-0.1005,-0.0155,-0.12575,0.9950748683093069,10,1,100,0.11849709398536791,-10,-1,-100,6340.60772913089,-0.016812059861155096,0.06801452320337509,0.9975426704039495,289.490040737413,32.40761246784124,1334.0031002969536,-52.71041628635725,-63.456878662109375,4381.2578125,True
1599568845.7129192,0.0,10,0.5,0.5,-2.4987013916015623,-0.1005,-0.0155,-0.12575,0.8715197404729693,10,1,100,0.14029250992133724,-10,-1,-100,6339.574735917966,-0.01641067755381499,0.0692549382010662,0.9974640059656243,288.23246942722915,32.28631008613459,1333.5478988382079,-52.89631091712373,-69.56564331054688,4381.2578125,True
1599568845.7727585,0.0,10,0.5,0.5,-0.29289692382812516,-0.1005,-0.0155,-0.12575,0.9886000532739718,10,1,100,0.07749202066990928,-10,-1,-100,6337.444742778316,-0.015471357376588023,0.07142290032553386,0.9973261284103684,280.8122594293918,31.481204934819225,1309.7233364048636,-53.268408118445564,-81.99838256835938,4381.2578125,True
1599568845.8318229,0.0,10,0.5,0.5,2.6491411285400392,-0.1005,-0.0155,-0.12575,1.0689759350578727,10,1,100,0.0022362067198043456,-10,-1,-100,6334.219611167442,-0.013931971841088915,0.07410065689751126,0.9971534449662082,257.373417439684,28.91192671712033,1215.0900928728997,-53.82781459979993,-101.18157958984375,4381.2578125,True
1599568845.890666,0.0,10,0.5,0.5,3.383349520874024,-0.1005,-0.0155,-0.12575,0.9520352887801374,10,1,100,0.04625834478805313,-10,-1,-100,6332.088492488139,-0.012934001562449102,0.07544802942176564,0.9970658486077811,256.5227224752503,28.90520806963104,1220.8708474081468,-54.2012272342527,-114.2955322265625,4381.2578125,True
1599568845.9520113,0.0,10,0.5,0.5,6.371028330230713,-0.1005,-0.0155,-0.12575,0.9773618539452995,10,1,100,0.01578715997214783,-10,-1,-100,6328.800157612306,-0.011752904989621185,0.07688061747176506,0.996971032619035,280.93353970365445,31.841056527474723,1352.9307238035615,-54.7592230431295,-133.9770050048828,4381.2578125,True
1599568846.0118523,0.0,10,0.5,0.5,5.550623091125488,-0.1005,-0.0155,-0.12575,0.8742445362168844,10,1,100,0.10091453568519537,-10,-1,-100,6327.704021397163,-0.011458043806841225,0.07722435953932202,0.9969478980999267,285.61731811542256,32.42683913095919,1380.8139348908282,-54.94481007075073,-140.41506958007812,4381.2578125,True
1599568846.0726912,0.0,10,0.5,0.5,9.207904084014892,-0.1005,-0.0155,-0.12575,0.9216126212923218,10,1,100,0.0862972647353761,-10,-1,-100,6324.351600238588,-0.011062624576707675,0.07794733857265101,0.9968960982704844,292.0126679818895,33.26654166355245,1428.0827772296361,-55.501067462595095,-159.27618408203125,4381.2578125,True
1599568846.1335263,0.0,10,0.5,0.5,8.426718039703369,-0.1005,-0.0155,-0.12575,0.8686102711056051,10,1,100,0.12660532417180795,-10,-1,-100,6323.2534836618,-0.011075855433495256,0.07810606925172112,0.9968835274857648,290.6275609753648,33.13082180223233,1426.7876215902716,-55.68652641792267,-165.40914916992188,4381.2578125,True
1599568846.1963592,0.0,10,0.5,0.5,9.229237650299073,-0.1005,-0.0155,-0.12575,0.8692352912951689,10,1,100,0.13670308828898936,-10,-1,-100,6322.1573181466665,-0.011185919245552118,0.0782405778676452,0.9968717506206949,287.5999232211773,32.804179276779216,1417.3898894675933,-55.87209041574198,-171.46450805664062,4381.2578125,True
1599568846.2581928,0.0,10,0.5,0.5,-70.10897880706787,-0.1005,-0.0155,-0.12575,0.8840841954309444,10,1,100,0.18282709857861193,-10,-1,-100,6319.902487251791,-0.011710995286446294,0.07848616346472935,0.9968464148172419,277.0081703318687,31.636590705090935,1375.8517917638699,-56.24366156711951,176.6582489013672,4381.2578125,True
1599568846.3200614,0.0,10,0.5,0.5,-24.08796960220337,-0.1005,-0.0155,-0.12575,0.8872086810966286,10,1,100,0.22558628538338624,-10,-1,-100,6317.645718267886,-0.012581694353279592,0.07872830784061993,0.9968167105901431,261.15004343235074,29.891739978128424,1307.255560678271,-56.615920809083754,165.09249877929688,4381.2578125,True
1599568846.3798916,0.0,10,0.5,0.5,-22.09329595413208,-0.1005,-0.0155,-0.12575,0.921984116250122,10,1,100,0.35824052122272315,-10,-1,-100,6314.229868760565,-0.014582667451849777,0.07925596725678899,0.9967476297760529,274.55537582582997,31.608551290994846,1390.359125230172,-57.17389269948313,148.2404022216797,4381.2578125,True
1599568846.4387102,0.0,10,0.5,0.5,-22.001547494506838,-0.1005,-0.0155,-0.12575,0.9303270330613337,10,1,100,0.3526279129191552,-10,-1,-100,6311.91119998775,-0.01635151809317636,0.07980438136347073,0.9966764211975934,288.30105820278936,33.33733880402487,1471.0311620211205,-57.54457291031742,136.89114379882812,4381.2578125,True
1599568846.5015435,0.0,10,0.5,0.5,-21.171346577453615,-0.1005,-0.0155,-0.12575,0.9603723048577841,10,1,100,0.4077861265100535,-10,-1,-100,6309.592604531092,-0.01845880284861589,0.08057089327272554,0.9965779466527599,298.14593744014877,34.608185207126716,1532.610713621374,-57.91449992029396,125.28282165527344,4381.2578125,True
