Timestamp,Input Throttle,horizon,dT,dt,Input Roll,Roll P,Roll I,Roll D,Input Pitch,Pitch P,Pitch I,Pitch D,Input Yaw,Yaw P,Yaw I,Yaw D,Altitude,Direction X,Direction Y,Direction Z,Drag X,Drag Y,Drag Z,Vertical Velocity,Roll,Mass,Has Fuel
1599566679.2475922,0.0,10,0.5,0.5,-2.7433126678466797,-0.05075,-0.00825,-0.001,-0.067212757157626,10,1,100,0.6903670437473428,-10,-1,-100,6483.617967110826,-0.06725805062973719,-0.007002828137008176,0.9977110378378958,205.07311032038024,21.498765347107486,-156.76515878906935,9.590824368838007,-35.94464111328125,4381.2578125,True
1599566679.3093934,0.0,10,0.5,0.5,-2.78799041595459,-0.05075,-0.00825,-0.001,-0.06904654024753726,10,1,100,0.689486470264808,-10,-1,-100,6483.776675257832,-0.06735059752886867,-0.006987537010315036,0.997704901931946,204.84274013408165,21.4777870120027,-153.51324590541827,9.4008104902572,-35.9429931640625,4381.2578125,True
1599566679.3732235,0.0,10,0.5,0.5,-2.825286344909668,-0.05075,-0.00825,-0.001,-0.03322018041571265,10,1,100,0.7122161624317844,-10,-1,-100,6484.538936360856,-0.06758013682275264,-0.006641589499386218,0.9976917431731805,203.9424284912957,21.39560671271446,-140.57584285166953,8.6408012708727,-36.08404541015625,4381.2578125,True
1599566679.4462004,0.0,10,0.5,0.5,-2.869908059692383,-0.05075,-0.00825,-0.001,-0.06847909045853312,10,1,100,0.6960202467256623,-10,-1,-100,6484.538936360856,-0.06758013682275264,-0.006641589499386218,0.9976917431731805,203.9424284912957,21.39560671271446,-140.57584285166953,8.6408012708727,-36.08404541015625,4381.2578125,True
1599566679.5070379,0.0,10,0.5,0.5,-2.8764053466796873,-0.05075,-0.00825,-0.001,0.0013826758582416304,10,1,100,0.698565467341024,-10,-1,-100,6485.016949539422,-0.06754183870396252,-0.006000444724234278,0.9976983986594341,203.44635968873038,21.35164715642685,-131.04521241728978,8.070816614933007,-36.818023681640625,4381.2578125,True
1599566679.568387,0.0,10,0.5,0.5,-2.849046453094483,-0.05075,-0.00825,-0.001,0.059517475581470525,10,1,100,0.6745636994912916,-10,-1,-100,6485.493927473552,-0.06722742267124306,-0.00488363270868113,0.9977257257245343,203.08687748426232,21.320047120809626,-121.6293278862344,7.500821289435035,-38.208709716796875,4381.2578125,True
1599566680.134161,0.0,10,0.5,0.5,-2.8931649536132817,-0.05075,-0.00825,-0.001,-0.0526520892447124,10,1,100,0.7127280450303622,-10,-1,-100,6485.493927473552,-0.06722742267124306,-0.00488363270868113,0.9977257257245343,203.08687748426232,21.320047120809626,-121.6293278862344,7.500821289435035,-38.208709716796875,4381.2578125,True
1599566680.1895316,0.0,10,0.5,0.5,-2.8297064048767093,-0.05075,-0.00825,-0.001,0.11905463005560891,10,1,100,0.6456567797483788,-10,-1,-100,6485.90932129696,-0.06655656805716026,-0.0033182228671248624,0.9977771357600136,202.71042351829345,21.283948537108405,-112.22488599614677,6.93078834068921,-40.2606201171875,4381.2578125,True
1599566680.247377,0.0,10,0.5,0.5,-2.782995177459717,-0.05075,-0.00825,-0.001,0.10586975992689773,10,1,100,0.6494048845073113,-10,-1,-100,6486.165058073122,-0.0659202679348415,-0.0020119689006373345,0.9978228651702374,202.33944370525333,21.24550431064398,-105.9049835174274,6.550730902362311,-41.995849609375,4381.2578125,True
1599566680.3042254,0.0,10,0.5,0.5,-2.7193098213195803,-0.05075,-0.00825,-0.001,0.13697495707112567,10,1,100,0.6294152522203504,-10,-1,-100,6486.420282340143,-0.06510016183200222,-0.0005398617126096577,0.9978785885461108,201.77073704580275,21.18474070453205,-99.50491028304803,6.170633189423905,-44.025299072265625,4381.2578125,True
1599566680.3730414,0.0,10,0.5,0.5,-2.573170231628418,-0.05075,-0.00825,-0.001,0.26386359828404576,10,1,100,0.5429730370996722,-10,-1,-100,6486.772066676989,-0.06350959054484034,0.0019524414345444214,0.9979793183634976,200.31042948642659,21.02690237292474,-89.68782559455286,5.60037942703889,-47.62139892578125,4381.2578125,True
1599566680.4332511,0.0,10,0.5,0.5,-2.4240119125366215,-0.05075,-0.00825,-0.001,0.21571627108875957,10,1,100,0.5569870838523924,-10,-1,-100,6486.965219855541,-0.062194424763431455,0.0037723274396622986,0.9980569237643883,198.75030404746406,20.858269174715144,-82.96543565605754,5.220112275626605,-50.38702392578125,4381.2578125,True
1599566680.4961145,0.0,10,0.5,0.5,-2.4148612121582036,-0.05075,-0.00825,-0.001,0.034803657021969574,10,1,100,0.6879880447167375,-10,-1,-100,6486.965219855541,-0.062194424763431455,0.0037723274396622986,0.9980569237643883,198.75030404746406,20.858269174715144,-82.96543565605754,5.220112275626605,-50.38702392578125,4381.2578125,True
1599566680.5604231,0.0,10,0.5,0.5,-2.2446495269775393,-0.05075,-0.00825,-0.001,0.24057281223481802,10,1,100,0.5186972917426812,-10,-1,-100,6487.157863755012,-0.06066031402008487,0.005633488926198149,0.9981425700297042,196.56045586825763,20.622236980574087,-76.08856896092172,4.83974324813877,-53.4481201171875,4381.2578125,True
1599566680.6232545,0.0,10,0.5,0.5,-1.967187355041504,-0.05075,-0.00825,-0.001,0.3855998961616879,10,1,100,0.3732285189699387,-10,-1,-100,6487.4485058131395,-0.05794951524892911,0.008632722787451754,0.9982821894533073,191.75368525672127,20.106892617956262,-65.49235099769456,4.268938507358289,-58.592041015625,4381.2578125,True
1599566680.6980543,0.0,10,0.5,0.5,-1.757795728302002,-0.05075,-0.00825,-0.001,0.3115984095319348,10,1,100,0.41313057136014786,-10,-1,-100,6487.57861164608,-0.05585661895456671,0.010673255357855743,0.9983817505037992,187.30043272287392,19.632173817859474,-58.27592744151167,3.8881860261945365,-62.390533447265625,4381.2578125,True
1599566680.7588918,0.0,10,0.5,0.5,-1.529738957977295,-0.05075,-0.00825,-0.001,0.3283642439925988,10,1,100,0.3689234661754085,-10,-1,-100,6487.77072086744,-0.053562440279572965,0.012666559018714009,0.9984841627556857,181.6709071319113,19.034806969441554,-50.99442211873798,3.5072249560914686,-66.48532104492188,4381.2578125,True
1599566680.8287046,0.0,10,0.5,0.5,-1.2832891181945802,-0.05075,-0.00825,-0.001,0.3478908868501419,10,1,100,0.3219377148352919,-10,-1,-100,6487.839778175345,-0.05106210281957002,0.014640213471174283,0.9985881662653339,174.76450537020824,18.305246797743433,-43.73009901369467,3.1260034413383697,-70.8759765625,4381.2578125,True
1599566680.8935313,0.0,10,0.5,0.5,-1.143066086578369,-0.05075,-0.00825,-0.001,0.25883057924991326,10,1,100,0.4242960804256984,-10,-1,-100,6487.9348532450385,-0.04973368523878703,0.015608479780374,0.9986405438953072,170.7672108118003,17.884315735349663,-40.125494368072324,2.935272611689518,-73.182373046875,4381.2578125,True
1599566680.9543693,0.0,10,0.5,0.5,-0.7385053565979004,-0.05075,-0.00825,-0.001,0.4625468268655956,10,1,100,0.09028163611921403,-10,-1,-100,6488.1004520934075,-0.04550425301955814,0.018324669177351753,0.9987960599925654,156.622327222962,16.398831925328665,-29.627634987510472,2.362629200449128,-80.54736328125,4381.2578125,True
1599566681.0201933,0.0,10,0.5,0.5,-0.5810061309814454,-0.05075,-0.00825,-0.001,0.2857085376209564,10,1,100,0.34732353319761755,-10,-1,-100,6488.133519351133,-0.04401387361989231,0.019169161880662117,0.9988469963721998,151.16982479252238,15.82720089087477,-26.285951167541292,2.171634271995905,-83.15090942382812,4381.2578125,True
1599566681.0820675,0.0,10,0.5,0.5,-0.27331781997680665,-0.05075,-0.00825,-0.001,0.38208511915786025,10,1,100,0.14900533908505176,-10,-1,-100,6488.2016108202515,-0.040873813961831824,0.02079738169723783,0.9989478466099985,148.00810091364218,15.49580602483301,-21.21046272477473,1.789560116276712,-88.58047485351562,4381.2578125,True
1599566681.1518798,0.0,10,0.5,0.5,0.35198663978576655,-0.05075,-0.00825,-0.001,0.5175436361668959,10,1,100,-0.25393297874810794,-10,-1,-100,6488.273380899453,-0.03437552102947684,0.023493545272154644,0.9991328124351123,164.58501545706517,17.22936236299049,-13.518174522861802,1.0254391023255747,-100.1596908569336,4381.2578125,True
1599566681.2137167,0.0,10,0.5,0.5,0.5366784177780153,-0.05075,-0.00825,-0.001,0.3117917212494904,10,1,100,0.21117659577042022,-10,-1,-100,6488.306957609486,-0.03272154077180797,0.02405620273389125,0.9991749595939367,168.5497183698159,17.643286709269013,-11.266289932607481,0.8344658348247727,-103.15888977050781,4381.2578125,True
1599566681.3035083,0.0,10,0.5,0.5,0.8873755441665651,-0.05075,-0.00825,-0.001,0.36760354969510495,10,1,100,0.014337104820051683,-10,-1,-100,6488.311627957155,-0.029453871322785905,0.0250583418542413,0.9992519947278647,175.8124545935828,18.401956786699873,-6.374262285183389,0.4525651858932327,-109.20111083984375,4381.2578125,True
1599566681.3603225,0.0,10,0.5,0.5,1.2320673234939579,-0.05075,-0.00825,-0.001,0.3618168805487867,10,1,100,-0.026796705216720285,-10,-1,-100,6488.318277223734,-0.026135224136000775,0.025901838954077737,0.9993227930944826,182.4113458060158,19.091967033352066,-1.0324225498936295,0.0706397822384024,-115.17176818847656,4381.2578125,True
1599566681.4261465,0.0,10,0.5,0.5,1.5713662843704224,-0.05075,-0.00825,-0.001,0.35181276943463613,10,1,100,-0.06016354189873313,-10,-1,-100,6488.322015866055,-0.022841956718921964,0.026563863867803836,0.9993861146472187,186.94517032969281,19.565785514938735,4.664920293044317,-0.3113972937232927,-121.00220489501953,4381.2578125,True
1599566681.489977,0.0,10,0.5,0.5,1.757572501373291,-0.05075,-0.00825,-0.001,0.3173780072424977,10,1,100,0.09004309959975809,-10,-1,-100,6488.355143939843,-0.021241519883891738,0.02684002749230895,0.9994140337003651,188.58378482219575,19.73695516388239,7.593800204513687,-0.5024694369477078,-123.84394836425781,4381.2578125,True
1599566681.5593386,0.0,10,0.5,0.5,2.2182703189849855,-0.05075,-0.00825,-0.001,0.3603745929843467,10,1,100,-0.2711105697457831,-10,-1,-100,6488.268523833598,-0.016530471751573593,0.027470872644947558,0.999485915188301,191.81472539686138,20.074043322051637,16.541656526715588,-1.075869101659709,-131.95681762695312,4381.2578125,True
1599566681.6191459,0.0,10,0.5,0.5,2.519702122116089,-0.05075,-0.00825,-0.001,0.3258976841957119,10,1,100,-0.13956933672344765,-10,-1,-100,6488.211292379652,-0.013473714852839432,0.02772015780120909,0.9995249130759775,191.96034239680174,20.08837114953827,22.44157993647894,-1.458280091059305,-137.00137329101562,4381.2578125,True
1599566681.6859741,0.0,10,0.5,0.5,2.924156479263306,-0.05075,-0.00825,-0.001,0.3239448199812565,10,1,100,-0.31771771785169944,-10,-1,-100,6488.124259231146,-0.009104432878430378,0.027920486006202838,0.999568684865197,189.80422808360652,19.860836494477365,30.927136820763167,-2.032056770932465,-144.014404296875,4381.2578125,True
1599566681.746856,0.0,10,0.5,0.5,2.96735583152771,-0.05075,-0.00825,-0.001,0.3047871318944359,10,1,100,0.11571953551505983,-10,-1,-100,6488.124259231146,-0.009104432878430378,0.027920486006202838,0.999568684865197,189.80422808360652,19.860836494477365,30.927136820763167,-2.032056770932465,-144.014404296875,4381.2578125,True
1599566681.805726,0.0,10,0.5,0.5,3.2358990421295166,-0.05075,-0.00825,-0.001,0.31027631054647187,10,1,100,-0.19301426643530156,-10,-1,-100,6488.003111315891,-0.006326643207139276,0.02796391208094047,0.9995889121068016,187.13249324942734,19.57948906198154,36.23796764168733,-2.414632558811811,-148.31991577148438,4381.2578125,True
1599566681.8655355,0.0,10,0.5,0.5,3.6709668600082397,-0.05075,-0.00825,-0.001,0.299761831193815,10,1,100,-0.4860532492882122,-10,-1,-100,6487.761360009899,-0.0011628880962321203,0.02790374018494254,0.9996099384134629,179.90465730550332,18.818264427073796,45.89180799267685,-3.1797822706794356,-156.04244995117188,4381.2578125,True
1599566681.9473183,0.0,10,0.5,0.5,3.7971657052993772,-0.05075,-0.00825,-0.001,0.3068831293878025,10,1,100,-0.10361532862823343,-10,-1,-100,6487.732547597378,2.6036677978599615e-05,0.027910279774479716,0.9996104319208567,177.90647280409132,18.60784735966951,48.11550642599116,-3.371048829718249,-157.7872314453125,4381.2578125,True
1599566682.0061595,0.0,10,0.5,0.5,4.004549524879455,-0.05075,-0.00825,-0.001,0.31036181944479324,10,1,100,-0.2387150271559936,-10,-1,-100,6487.54944682878,0.0023082565429672877,0.02794525664010412,0.9996067899844672,173.71251542658493,18.166097643702724,52.320007380678895,-3.753555523345506,-161.05380249023438,4381.2578125,True
1599566682.069989,0.0,10,0.5,0.5,4.192848988151551,-0.05075,-0.00825,-0.001,0.307584625020266,10,1,100,-0.25174760788118783,-10,-1,-100,6487.426909922971,0.004475622171659708,0.027949948916188763,0.9995993043023583,169.3839754571714,17.70987298691873,56.22345683470427,-4.136051022139136,-164.02410888671875,4381.2578125,True
1599566682.136811,0.0,10,0.5,0.5,4.363706824111938,-0.05075,-0.00825,-0.001,0.31090316456895034,10,1,100,-0.2604493618722597,-10,-1,-100,6487.243349577766,0.006500227253216579,0.027983123085755218,0.9995872607571707,165.04710013717707,17.25257783396156,59.85973373175074,-4.518575950026415,-166.69725036621094,4381.2578125,True
1599566682.236165,0.0,10,0.5,0.5,4.4597667194366455,-0.05075,-0.00825,-0.001,0.3135554675386815,10,1,100,-0.1659720435167863,-10,-1,-100,6487.151085832971,0.007456672844912059,0.028036354089091872,0.9995790918579055,162.90839490484396,17.027088318262372,61.59002974186429,-4.70986279035161,-167.92196655273438,4381.2578125,True
1599566682.3269215,0.0,10,0.5,0.5,4.6552699832916264,-0.05075,-0.00825,-0.001,0.3329824163796211,10,1,100,-0.3669269223982428,-10,-1,-100,6486.813273472479,0.01013122487756075,0.028260840462093605,0.9995492399971382,156.94256126676052,16.39859083413892,66.58174422269836,-5.283874429509742,-171.15011596679688,4381.2578125,True
1599566682.4146893,0.0,10,0.5,0.5,4.772348434829712,-0.05075,-0.00825,-0.001,0.3334781776428218,10,1,100,-0.2797010462490825,-10,-1,-100,6486.628278547432,0.011748214269766829,0.02846893437388711,0.999525637108467,153.41785066868442,16.028149049090267,69.81372181178182,-5.666703580372182,-172.93048095703125,4381.2578125,True
1599566682.5393536,0.0,10,0.5,0.5,4.871164433670045,-0.05075,-0.00825,-0.001,0.3412064291388103,10,1,100,-0.2835954477833953,-10,-1,-100,6486.380789718125,0.013234651324676838,0.028727868899692297,0.9994996516021385,150.38643265623355,15.710560828446555,73.07190413514999,-6.049663681176565,-174.41339111328125,4381.2578125,True
1599566682.6440735,0.0,10,0.5,0.5,4.956040091323853,-0.05075,-0.00825,-0.001,0.3581788380642758,10,1,100,-0.2848321324411093,-10,-1,-100,6486.134773286991,0.01457689206766233,0.02911682456529807,0.9994697217749425,150.31212374278763,15.703248307943658,77.6749154028044,-6.4327354446837095,-175.5975341796875,4381.2578125,True
1599566682.748797,0.0,10,0.5,0.5,5.023247678756715,-0.05075,-0.00825,-0.001,0.36762532897682276,10,1,100,-0.28600935439439734,-10,-1,-100,6485.825286160922,0.01578880972879285,0.02955524971279524,0.999438442677568,152.08733554756344,15.890337008663707,83.29002082514899,-6.815893017508154,-176.4842529296875,4381.2578125,True
1599566682.8255887,0.0,10,0.5,0.5,5.079120547103883,-0.05075,-0.00825,-0.001,0.4166682044114984,10,1,100,-0.3370791982465726,-10,-1,-100,6485.423566412879,0.017339413730453983,0.030398160978537127,0.999387460668087,154.13120023005544,16.10803021858581,91.55830086140115,-7.390783944080191,-177.2551727294922,4381.2578125,True
1599566682.9153547,0.0,10,0.5,0.5,5.094410678863526,-0.05075,-0.00825,-0.001,0.3326258659577156,10,1,100,-0.18375013578570676,-10,-1,-100,6485.423566412879,0.017339413730453983,0.030398160978537127,0.999387460668087,154.13120023005544,16.10803021858581,91.55830086140115,-7.390783944080191,-177.2551727294922,4381.2578125,True
1599566683.0001216,0.0,10,0.5,0.5,5.10693978843689,-0.05075,-0.00825,-0.001,0.4967196290930283,10,1,100,-0.35411163880905616,-10,-1,-100,6484.803157672286,0.018874489978677626,0.031887692548550485,0.999313228518453,155.29074350674972,16.23643917178738,101.86578653613402,-8.15757230774717,-177.23899841308594,4381.2578125,True
1599566683.0789192,0.0,10,0.5,0.5,5.117858246612549,-0.05075,-0.00825,-0.001,0.34816024645492866,10,1,100,-0.20204390076739365,-10,-1,-100,6484.803157672286,0.018874489978677626,0.031887692548550485,0.999313228518453,155.29074350674972,16.23643917178738,101.86578653613402,-8.15757230774717,-177.23899841308594,4381.2578125,True
1599566683.1920884,0.0,10,0.5,0.5,5.064027360534668,-0.05075,-0.00825,-0.001,0.5525934285506653,10,1,100,-0.3023910311244294,-10,-1,-100,6484.119284691871,0.019775487288536623,0.03374262641354555,0.9992348899359034,154.5686102075865,16.16760153727427,110.98392592254123,-8.924639999960977,-176.03073120117188,4381.2578125,True
1599566683.3626328,0.0,10,0.5,0.5,5.0466725967407235,-0.05075,-0.00825,-0.001,0.4227858944044835,10,1,100,-0.2295599478723684,-10,-1,-100,6483.903029175359,0.019921276072986407,0.03424367391464445,0.9992149486253953,154.0769422944703,16.117375378805356,113.02410146259187,-9.116447858184,-175.54275512695312,4381.2578125,True
1599566683.4380941,0.0,10,0.5,0.5,4.951873901367188,-0.05075,-0.00825,-0.001,0.557084180354099,10,1,100,-0.2283836764309677,-10,-1,-100,6483.311396028148,0.020034217908295817,0.03591462621204673,0.9991540270332957,154.19083846343872,16.130774457885288,120.29958312925177,-9.691954227805223,-173.63143920898438,4381.2578125,True
1599566683.5325782,0.0,10,0.5,0.5,4.820797086334229,-0.05075,-0.00825,-0.001,0.594027181383715,10,1,100,-0.1813083532061472,-10,-1,-100,6482.719763002358,0.01970140208958916,0.03776275040828335,0.9990925029431988,159.73298195399815,16.707643042767362,132.0848894133307,-10.267503900212036,-171.05044555664062,4381.2578125,True
1599566683.6283224,0.0,10,0.5,0.5,4.652443787384033,-0.05075,-0.00825,-0.001,0.6267159610149003,10,1,100,-0.1265345692357122,-10,-1,-100,6482.065630580997,0.01889501989942923,0.039731820509228695,0.9990317115397402,166.23463233458705,17.379176245321936,145.2372569199229,-10.843023498123587,-167.8009796142578,4381.2578125,True
1599566683.71461,0.0,10,0.5,0.5,4.517979109573364,-0.05075,-0.00825,-0.001,0.5782497563699279,10,1,100,-0.11668191708096572,-10,-1,-100,6481.630189851974,0.018068450045302723,0.04107163238063932,0.9989928188563469,171.1139153177367,17.880255906837903,154.8424318292572,-11.226647834927803,-165.26412963867188,4381.2578125,True
1599566683.8703127,0.0,10,0.5,0.5,4.364658310317993,-0.05075,-0.00825,-0.001,0.5930646470654484,10,1,100,-0.08265917485981587,-10,-1,-100,6481.191814917722,0.01700565284834407,0.042413854558546585,0.9989553907521035,176.30104752788276,18.410590923041024,165.04509129147615,-11.610199537489605,-162.43125915527344,4381.2578125,True
1599566683.9570465,0.0,10,0.5,0.5,4.016215092086791,-0.05075,-0.00825,-0.001,0.7459898298288807,10,1,100,0.12096937512089834,-10,-1,-100,6480.1944434088655,0.014188608361177087,0.04501336211487529,0.9988856193898722,186.85592961278886,19.482634435035465,186.6165967297234,-12.376990521285183,-155.879638671875,4381.2578125,True
1599566684.0468056,0.0,10,0.5,0.5,4.005131896972657,-0.05075,-0.00825,-0.001,0.487500594309644,10,1,100,-0.1604199930588725,-10,-1,-100,6480.1944434088655,0.014188608361177087,0.04501336211487529,0.9988856193898722,186.85592961278886,19.482634435035465,186.6165967297234,-12.376990521285183,-155.879638671875,4381.2578125,True
1599566684.1365633,0.0,10,0.5,0.5,3.79512512550354,-0.05075,-0.00825,-0.001,0.6209893017930144,10,1,100,0.033394492022287475,-10,-1,-100,6479.695504943607,0.012430918389182451,0.04621496339239109,0.9988541682481189,191.9157622795302,19.993682789461182,197.67942256695537,-12.760181964699562,-152.16204833984375,4381.2578125,True
1599566684.2382927,0.0,10,0.5,0.5,3.570651229858399,-0.05075,-0.00825,-0.001,0.6124789603134937,10,1,100,0.07797001330000246,-10,-1,-100,6479.195578202489,0.010433644195380369,0.04721693665773359,0.9988301657246159,196.5958522035247,20.465171624534506,208.65956615325027,-13.143211859745819,-148.15232849121094,4381.2578125,True
1599566684.332042,0.0,10,0.5,0.5,3.2118086826324466,-0.05075,-0.00825,-0.001,0.6722434190389233,10,1,100,0.24836450591203527,-10,-1,-100,6478.353392071789,0.007077392125535592,0.0486588853325996,0.9987903801093052,202.45401880708997,21.054841181200782,224.39802194128382,-13.71743661891741,-141.5851287841797,4381.2578125,True
1599566684.414821,0.0,10,0.5,0.5,2.9449202621459962,-0.05075,-0.00825,-0.001,0.6065857485438985,10,1,100,0.18614365343241956,-10,-1,-100,6477.790949614719,0.004603574251807257,0.04935975511305215,0.9987704549491278,205.28003840587874,21.34079186475613,233.97063153507983,-14.100047543474748,-136.84231567382812,4381.2578125,True
1599566684.5066216,0.0,10,0.5,0.5,2.5228602699279787,-0.05075,-0.00825,-0.001,0.6093387286152026,10,1,100,0.37686734240639,-10,-1,-100,6476.946288602776,0.0006348250519785749,0.050009713706019955,0.998748529677113,207.2971495308596,21.551021283141175,246.03363713423164,-14.673715808969797,-129.18141174316406,4381.2578125,True
1599566684.5913503,0.0,10,0.5,0.5,2.2128134799957273,-0.05075,-0.00825,-0.001,0.5644495915752581,10,1,100,0.28895398351096613,-10,-1,-100,6476.320827315445,-0.0021565831606003643,0.05018136848717507,0.9987377931198087,207.4551730100789,21.577619697309636,252.74344926124294,-15.05605955018539,-123.70960998535156,4381.2578125,True
1599566684.662159,0.0,10,0.5,0.5,1.8837354290008546,-0.05075,-0.00825,-0.001,0.5325131124005057,10,1,100,0.31918997255813275,-10,-1,-100,6475.756873473292,-0.004949961796955433,0.050037587070292926,0.9987350688537935,206.04425407237062,21.448873153043404,257.5112263127232,-15.438391712841845,-117.94778442382812,4381.2578125,True
1599566684.7632015,0.0,10,0.5,0.5,1.8504612697601321,-0.05075,-0.00825,-0.001,0.5477878495576853,10,1,100,0.04215395010685167,-10,-1,-100,6475.756873473292,-0.004949961796955433,0.050037587070292926,0.9987350688537935,206.04425407237062,21.448873153043404,257.5112263127232,-15.438391712841845,-117.94778442382812,4381.2578125,True
1599566684.8250008,0.0,10,0.5,0.5,1.338229524230957,-0.05075,-0.00825,-0.001,0.47618915994090105,10,1,100,0.5124195743614238,-10,-1,-100,6474.788601146429,-0.009205144185955817,0.04937975922603875,0.9987376555929461,200.28676849055657,20.887180246511434,259.79527211368935,-16.012037211962614,-108.75874328613281,4381.2578125,True
1599566685.4283957,0.0,10,0.5,0.5,0.9726935440063478,-0.05075,-0.00825,-0.001,0.4575658614260691,10,1,100,0.39527470497276046,-10,-1,-100,6474.1621139799245,-0.011987271406470924,0.048608461747389975,0.9987459750961604,194.59060739617343,20.321180492016328,258.5636984766601,-16.394664157925945,-102.26888275146484,4381.2578125,True
1599566685.486694,0.0,10,0.5,0.5,0.5840122091293335,-0.05075,-0.00825,-0.001,0.4242065293520183,10,1,100,0.41983466219921817,-10,-1,-100,6473.47262790706,-0.014715954054663683,0.04760074729373379,0.998758033536321,186.84240789293855,19.537300355901777,254.19449932725834,-16.777505470568435,-95.48738861083984,4381.2578125,True
1599566685.5575051,0.0,10,0.5,0.5,0.17805091629028316,-0.05075,-0.00825,-0.001,0.3904482076107687,10,1,100,0.4319074406152483,-10,-1,-100,6472.786548446398,-0.017281648200035696,0.04637648960739741,0.9987745320377291,176.7727604844309,18.501513813619496,246.11502683303615,-17.160586440185398,-88.41519165039062,4381.2578125,True
1599566685.6158605,0.0,10,0.5,0.5,-0.24402220726013185,-0.05075,-0.00825,-0.001,0.35627288969719306,10,1,100,0.44666502764972255,-10,-1,-100,6472.097528380109,-0.01972306158487328,0.044953607408832134,0.9987943602276957,173.89331147798123,18.204694094271286,247.64416118905825,-17.54380368513558,-81.07485961914062,4381.2578125,True
1599566685.6871777,0.0,10,0.5,0.5,-0.8714861862182619,-0.05075,-0.00825,-0.001,0.23126436698580238,10,1,100,0.5676802131146531,-10,-1,-100,6471.003193023149,-0.02301830229921553,0.04252700545632721,0.9988301214752083,194.75910479285614,20.37274812962868,286.67008893105873,-18.118117160210666,-69.77276611328125,4381.2578125,True
1599566685.762976,0.0,10,0.5,0.5,-1.111327239227295,-0.05075,-0.00825,-0.001,0.3781620029770245,10,1,100,0.35043150372549803,-10,-1,-100,6470.657453783206,-0.024013876611851604,0.041662648326385415,0.9988431095344767,200.54880828379808,20.969462952091007,298.38726739795095,-18.309359113420705,-65.98898315429688,4381.2578125,True
1599566685.825844,0.0,10,0.5,0.5,-1.354808885574341,-0.05075,-0.00825,-0.001,0.3659859872865264,10,1,100,0.3569574638121402,-10,-1,-100,6470.2521436423995,-0.02495586316806857,0.04077376630686983,0.9988566988686062,205.74366448802405,21.503298330527226,309.39361076390855,-18.500497166066815,-62.21832275390625,4381.2578125,True
1599566685.889642,0.0,10,0.5,0.5,-2.1535775276184084,-0.05075,-0.00825,-0.001,0.05408956162367462,10,1,100,0.6186783112148483,-10,-1,-100,6468.750526596676,-0.02817076839555637,0.037138822057811834,0.9989129670317441,220.4359122021707,23.012365713722147,345.5272113501868,-19.264120663219707,-47.69061279296875,4381.2578125,True
1599566685.9494774,0.0,10,0.5,0.5,-2.1970119842529297,-0.05075,-0.00825,-0.001,0.41629411002822625,10,1,100,0.2995098691259284,-10,-1,-100,6468.750526596676,-0.02817076839555637,0.037138822057811834,0.9989129670317441,220.4359122021707,23.012365713722147,345.5272113501868,-19.264120663219707,-47.69061279296875,4381.2578125,True
1599566686.0093167,0.0,10,0.5,0.5,-2.6088555213928224,-0.05075,-0.00825,-0.001,0.21105406755109862,10,1,100,0.44299401143157546,-10,-1,-100,6467.998980805394,-0.029454059865063525,0.03528472963984929,0.9989431646553814,224.04383720562353,23.391081359454535,358.32136097054104,-19.645546376166074,-40.852325439453125,4381.2578125,True
1599566686.0861123,0.0,10,0.5,0.5,-3.160080411148072,-0.05075,-0.00825,-0.001,0.10978858462429081,10,1,100,0.4915023354233713,-10,-1,-100,6466.779141117935,-0.031043265132105348,0.03269140944199072,0.9989832768563416,224.96771744145047,23.514060536997643,370.5731154134356,-20.217541613460853,-31.15106201171875,4381.2578125,True
1599566686.1523848,0.0,10,0.5,0.5,-3.5244581872940066,-0.05075,-0.00825,-0.001,0.18158098738884287,10,1,100,0.4248755381669257,-10,-1,-100,6465.966077688383,-0.03186497540551601,0.03100097388025649,0.9990112927093876,222.86557655610957,23.324822389272803,374.24859672883207,-20.59894340210724,-25.056243896484375,4381.2578125,True
1599566686.2122247,0.0,10,0.5,0.5,-3.7284230964660647,-0.05075,-0.00825,-0.001,0.2625618999865229,10,1,100,0.38442904536461636,-10,-1,-100,6465.55881546915,-0.032228699336458486,0.030215495096307443,0.9990236908077631,221.1264211799516,23.16063287893864,374.87750652941156,-20.789697029371855,-22.11993408203125,4381.2578125,True
1599566686.276281,0.0,10,0.5,0.5,-4.349597778320313,-0.05075,-0.00825,-0.001,0.02481752538204568,10,1,100,0.47599833934213037,-10,-1,-100,6463.807227296755,-0.03337821735425957,0.027354802791323143,0.9990683707186909,211.3940346592415,22.215620050168752,372.0075480474449,-21.553185194013558,-11.11669921875,4381.2578125,True
1599566686.3401103,0.0,10,0.5,0.5,-4.658003812408447,-0.05075,-0.00825,-0.001,0.1716659393756128,10,1,100,0.4043927858396358,-10,-1,-100,6462.93022083526,-0.03375986037881116,0.026105157918203944,0.9990889813010995,205.323031922341,21.61039854380295,367.97566241078556,-21.93522582542139,-6.059814453125,4381.2578125,True
1599566686.404937,0.0,10,0.5,0.5,-4.8306305198669435,-0.05075,-0.00825,-0.001,0.23532697525728485,10,1,100,0.39061653292425524,-10,-1,-100,6462.524923890014,-0.03397180486728224,0.025562782766599984,0.9990958215362963,201.96299782464766,21.270446747159568,365.23262684773044,-22.126315487327012,-3.64202880859375,4381.2578125,True
1599566686.470762,0.0,10,0.5,0.5,-5.231993698120117,-0.05075,-0.00825,-0.001,0.1275833248513536,10,1,100,0.4210186561016097,-10,-1,-100,6461.179654887994,-0.03443181195090878,0.024104862957414996,0.9991163125019936,192.54632619472213,20.304444029688945,357.604025037091,-22.699783797808138,3.16656494140625,4381.2578125,True
1599566686.5361729,0.0,10,0.5,0.5,-5.388914768981934,-0.05075,-0.00825,-0.001,0.22645449513855362,10,1,100,0.38847193232657784,-10,-1,-100,6460.70893684472,-0.03454550640281186,0.023693463681993602,0.9991222286417829,189.20933469123133,19.95576585190385,354.4916377713517,-22.89098722676876,5.288055419921875,4381.2578125,True
1599566686.5990045,0.0,10,0.5,0.5,-5.5364627845764165,-0.05075,-0.00825,-0.001,0.2253985886797967,10,1,100,0.3895323636473239,-10,-1,-100,6460.239686069428,-0.03465271006381484,0.02332208824414529,0.9991272540998796,192.02342165401456,20.25302454907956,362.8971880495739,-23.08215015278733,7.33563232421875,4381.2578125,True
1599566686.6648288,0.0,10,0.5,0.5,-5.874727478790284,-0.05075,-0.00825,-0.001,0.16426791862313295,10,1,100,0.41403548326180933,-10,-1,-100,6458.832432741532,-0.034967030896069,0.022441301512689575,0.9991364745302467,204.12094620157146,21.515940327184374,395.761204105275,-23.655257405537405,13.03448486328125,4381.2578125,True
1599566686.7386317,0.0,10,0.5,0.5,-6.090957359313966,-0.05075,-0.00825,-0.001,0.20755990573150424,10,1,100,0.39982367953042924,-10,-1,-100,6457.893459423562,-0.03511856709962296,0.022045825665194266,0.9991399640769101,210.77696481735958,22.199465323664015,415.5564710631047,-24.036988289254424,16.463897705078125,4381.2578125,True
1599566686.7980442,0.0,10,0.5,0.5,-6.288975975799561,-0.05075,-0.00825,-0.001,0.21990178372614133,10,1,100,0.40161403589295297,-10,-1,-100,6456.892969610402,-0.035268898431633576,0.021808178861765046,0.9991398841694552,216.43937409541533,22.77265317870336,433.79812393300926,-24.418442807853374,19.5975341796875,4381.2578125,True
1599566686.8718467,0.0,10,0.5,0.5,-6.398024639892578,-0.05075,-0.00825,-0.001,0.2361394485358479,10,1,100,0.3952414022963222,-10,-1,-100,6456.423246306484,-0.03534453577074102,0.02174810853420717,0.999138520709884,218.9341497037739,23.02229805768522,442.3788869565368,-24.60906881460875,21.053436279296875,4381.2578125,True
1599566686.950148,0.0,10,0.5,0.5,-6.63527172164917,-0.05075,-0.00825,-0.001,0.24806208016857484,10,1,100,0.4092199488663699,-10,-1,-100,6454.889088805998,-0.03553754210562615,0.021809584329963074,0.9991303344071009,225.24709671393532,23.644393332631594,466.1901916703507,-25.180564895848466,24.977783203125,4381.2578125,True
1599566687.0359242,0.0,10,0.5,0.5,-6.721172884368897,-0.05075,-0.00825,-0.001,0.2525555022199728,10,1,100,0.3975731743881043,-10,-1,-100,6454.420839630999,-0.0356051596195817,0.021911361816082386,0.9991257002158581,227.0089244584931,23.815137475336467,473.55205682320644,-25.370943858493604,26.13812255859375,4381.2578125,True
1599566687.1057415,0.0,10,0.5,0.5,-6.903784156036377,-0.05075,-0.00825,-0.001,0.3028750860613991,10,1,100,0.41346794812270027,-10,-1,-100,6452.88768766413,-0.03580945048509147,0.022465150107569384,0.9991061006152451,231.616139440499,24.256138286948268,494.54157879454164,-25.94175492466796,29.17596435546875,4381.2578125,True
1599566687.1835334,0.0,10,0.5,0.5,-6.972582823944093,-0.05075,-0.00825,-0.001,0.27681832625766867,10,1,100,0.40115935933694513,-10,-1,-100,6452.353531089961,-0.03588160260512274,0.02273453040403186,0.9990974185342468,233.0019457473954,24.38770385658941,501.31855238952636,-26.13192282687971,30.040924072265625,4381.2578125,True
1599566687.26731,0.0,10,0.5,0.5,-7.1347503479003915,-0.05075,-0.00825,-0.001,0.41612478107020945,10,1,100,0.4266860080135696,-10,-1,-100,6450.2262122690445,-0.03617793789252575,0.024247089655978465,0.999051167585054,237.5625075330841,24.814072213111764,526.7180149037913,-26.892140300480197,32.76287841796875,4381.2578125,True
1599566687.3550751,0.0,10,0.5,0.5,-7.202221325683594,-0.05075,-0.00825,-0.001,0.37633883239321375,10,1,100,0.41527749454462004,-10,-1,-100,6449.100317615201,-0.03634213582091102,0.025259949782526343,0.999020111960194,239.37039910819323,24.97998149097226,538.5909758190081,-27.272005605078178,33.68125915527344,4381.2578125,True
1599566687.4184177,0.0,10,0.5,0.5,-7.2230380870819095,-0.05075,-0.00825,-0.001,0.2752466058922642,10,1,100,0.3990266442818027,-10,-1,-100,6449.100317615201,-0.03634213582091102,0.025259949782526343,0.999020111960194,239.37039910819323,24.97998149097226,538.5909758190081,-27.272005605078178,33.68125915527344,4381.2578125,True
1599566687.4942122,0.0,10,0.5,0.5,-7.2723735748291025,-0.05075,-0.00825,-0.001,0.4118525182941792,10,1,100,0.41272112775210335,-10,-1,-100,6448.03596164356,-0.03646538102980026,0.02649925930593481,0.9989835160014345,240.93402239621943,25.12178494347542,550.0343864128517,-27.65172836914555,34.305450439453125,4381.2578125,True
1599566687.5580418,0.0,10,0.5,0.5,-7.303513883972168,-0.05075,-0.00825,-0.001,0.44360142437326716,10,1,100,0.41544199427197526,-10,-1,-100,6446.914006257197,-0.03660093290267097,0.027910482170078996,0.9989401266821191,242.29189852301607,25.243358892076248,561.114550130437,-28.031321132955632,34.63482666015625,4381.2578125,True
1599566687.6271088,0.0,10,0.5,0.5,-7.317387500000001,-0.05075,-0.00825,-0.001,0.47727258467800093,10,1,100,0.4185881170066309,-10,-1,-100,6445.786210915656,-0.03675155205334936,0.02949396595542737,0.9988890976449236,243.47061506599775,25.34725500271438,571.8747404534754,-28.410794927635884,34.6695556640625,4381.2578125,True
1599566687.6914835,0.0,10,0.5,0.5,-7.302777399444581,-0.05075,-0.00825,-0.001,0.6277202340346025,10,1,100,0.41826705770708394,-10,-1,-100,6444.059402370825,-0.036884280727349644,0.032294160884057524,0.9987975956158588,244.9423042511373,25.473413419651408,587.4737284343713,-28.979805716064796,34.17083740234375,4381.2578125,True
1599566687.758269,0.0,10,0.5,0.5,-7.274641072845459,-0.05075,-0.00825,-0.001,0.5819172447520606,10,1,100,0.41131374539262827,-10,-1,-100,6442.866236151196,-0.03694050692028965,0.0344138703924672,0.9987247290785797,245.72583630142236,25.537267885965626,597.4910906676268,-29.359027803589996,33.470947265625,4381.2578125,True
1599566687.8290787,0.0,10,0.5,0.5,-7.198609968566895,-0.05075,-0.00825,-0.001,0.769294034091113,10,1,100,0.39861556498934986,-10,-1,-100,6441.089234746294,-0.03687496968538648,0.038032938477216116,0.9985958803247139,246.5639056926642,25.597715000381562,611.8068446380113,-29.927709621806386,31.871322631835938,4381.2578125,True
1599566687.8949032,0.0,10,0.5,0.5,-7.202433263778687,-0.05075,-0.00825,-0.001,0.4089440044531857,10,1,100,0.40527584039969644,-10,-1,-100,6441.089234746294,-0.03687496968538648,0.038032938477216116,0.9985958803247139,246.5639056926642,25.597715000381562,611.8068446380113,-29.927709621806386,31.871322631835938,4381.2578125,True
1599566687.9627213,0.0,10,0.5,0.5,-7.129790399932862,-0.05075,-0.00825,-0.001,0.7062970923292278,10,1,100,0.3905494832775554,-10,-1,-100,6439.897119943867,-0.03674019065056677,0.04072224072329542,0.9984947959310725,246.85189412345804,25.609396629759317,620.7376807046562,-30.306747007061283,30.43841552734375,4381.2578125,True
1599566688.0335326,0.0,10,0.5,0.5,-6.989685805511474,-0.05075,-0.00825,-0.001,0.9333422499491051,10,1,100,0.35409583578639137,-10,-1,-100,6438.0577439211775,-0.03628575632103097,0.045216130424396116,0.9983180081705703,246.76704146351068,25.572378033893404,632.8803476863709,-30.875211429423047,27.740447998046875,4381.2578125,True
1599566688.1023488,0.0,10,0.5,0.5,-6.933360518264771,-0.05075,-0.00825,-0.001,0.6613573273896494,10,1,100,0.38057871799867665,-10,-1,-100,6437.389952889993,-0.036113438932019085,0.04681075251063636,0.9982507565626441,246.57834514729058,25.543223481599604,636.5223500266728,-31.064682589444015,26.694610595703125,4381.2578125,True
1599566688.1663384,0.0,10,0.5,0.5,-6.809090521240234,-0.05075,-0.00825,-0.001,0.8793494002175615,10,1,100,0.3342888999520519,-10,-1,-100,6436.149617202464,-0.03553617813875614,0.050222563430446586,0.9981056427882598,245.9180220922109,25.455561515127425,643.0647186199243,-31.443612743838976,24.384429931640625,4381.2578125,True
1599566688.2321622,0.0,10,0.5,0.5,-6.668543939208984,-0.05075,-0.00825,-0.001,0.9404270740308462,10,1,100,0.30390485343610013,-10,-1,-100,6434.888819024432,-0.03473602172463667,0.05385789466119074,0.9979442549448391,244.8212862228,25.323148270539168,648.4314459080583,-31.822542249926858,21.782073974609375,4381.2578125,True
1599566688.3020122,0.0,10,0.5,0.5,-6.510741306304932,-0.05075,-0.00825,-0.001,0.9996729935143442,10,1,100,0.286558514848437,-10,-1,-100,6433.576313831494,-0.033852608189347516,0.05767775194581621,0.9977611326611472,243.20032162717627,25.13781304564645,652.344548009928,-32.201490156642315,18.887359619140625,4381.2578125,True
1599566688.3747814,0.0,10,0.5,0.5,-6.3357273345947265,-0.05075,-0.00825,-0.001,1.065311270150363,10,1,100,0.2385609011262312,-10,-1,-100,6432.321967826458,-0.03261579843603187,0.061721439459448274,0.9975603608822043,240.98366111713165,24.893413328080644,654.5581525364366,-32.58047569528537,15.70111083984375,4381.2578125,True
1599566688.437614,0.0,10,0.5,0.5,-6.143683406066896,-0.05075,-0.00825,-0.001,1.1277118074953703,10,1,100,0.19631665453615466,-10,-1,-100,6431.010548213497,-0.03111126776609997,0.06593804455809077,0.9973385900975864,238.0875976547721,24.582880644177273,654.7821260315792,-32.959517136218004,12.222991943359375,4381.2578125,True
1599566688.510419,0.0,10,0.5,0.5,-5.9345445060729975,-0.05075,-0.00825,-0.001,1.1906384177451748,10,1,100,0.14479380578540318,-10,-1,-100,6429.635221513454,-0.029280422385840672,0.07031472367352251,0.9970950288210361,234.42129886313208,24.19870434695563,652.6936514003871,-33.338628636224364,8.45318603515625,4381.2578125,True
1599566688.5782378,0.0,10,0.5,0.5,-5.598028429794312,-0.05075,-0.00825,-0.001,1.500183095497006,10,1,100,-0.046409114212598745,-10,-1,-100,6427.6031040374655,-0.025884713264986335,0.07707821831693501,0.9966889835250896,227.29908441047095,23.470337249442846,644.5407998201008,-33.90744660120281,2.250946044921875,4381.2578125,True
1599566688.6470656,0.0,10,0.5,0.5,-5.22480067214966,-0.05075,-0.00825,-0.001,1.5858838263577912,10,1,100,-0.17355663187430428,-10,-1,-100,6425.567703162436,-0.021651809591303615,0.08397045165528104,0.9962329859978689,218.0125148963101,22.54254248820391,629.4546795379583,-34.47644023952106,-4.60882568359375,4381.2578125,True
1599566688.7114837,0.0,10,0.5,0.5,-5.202746469879151,-0.05075,-0.00825,-0.001,0.9009853136163868,10,1,100,0.24822489738804143,-10,-1,-100,6425.567703162436,-0.021651809591303615,0.08397045165528104,0.9962329859978689,218.0125148963101,22.54254248820391,629.4546795379583,-34.47644023952106,-4.60882568359375,4381.2578125,True
1599566688.7703257,0.0,10,0.5,0.5,-4.920405296325685,-0.05075,-0.00825,-0.001,1.4013817127980446,10,1,100,-0.1146086592997261,-10,-1,-100,6424.1930922985775,-0.018366626300260026,0.08848427862854076,0.9959082284397158,212.48034115399838,22.00793366302194,620.8045413800822,-34.85581635309184,-9.548980712890625,4381.2578125,True
1599566688.8361833,0.0,10,0.5,0.5,-4.624570320129395,-0.05075,-0.00825,-0.001,1.4373814011039892,10,1,100,-0.18864770615931192,-10,-1,-100,6422.756509048049,-0.014723147257525764,0.09287714256508736,0.9955687145163702,218.29763410910692,22.663854943490772,645.3249195340934,-35.23491635179476,-14.78326416015625,4381.2578125,True
1599566688.8991418,0.0,10,0.5,0.5,-4.162767882537842,-0.05075,-0.00825,-0.001,1.7165525481454782,10,1,100,-0.5034571831653144,-10,-1,-100,6420.651533654076,-0.008567910183059349,0.09936979786311177,0.9950136854273609,228.18005888179235,23.796855460364277,686.3168396526647,-35.8027826237738,-23.1837158203125,4381.2578125,True
1599566688.9609776,0.0,10,0.5,0.5,-3.9815031829833987,-0.05075,-0.00825,-0.001,1.2944505836980498,10,1,100,-0.13402002836761612,-10,-1,-100,6419.935246635927,-0.006354548896743117,0.10139354672706469,0.9948260995723954,231.28653296071286,24.16126778404499,699.6306904768993,-35.99184793506777,-26.13189697265625,4381.2578125,True
1599566689.0297782,0.0,10,0.5,0.5,-3.4666425544738777,-0.05075,-0.00825,-0.001,1.7202345101184529,10,1,100,-0.6904498880217564,-10,-1,-100,6417.726354526472,0.0006910527610432737,0.10706433975740623,0.9942518542091798,239.16699675785037,25.11465629814921,735.7481984988812,-36.558397039288344,-35.420166015625,4381.2578125,True
1599566689.0931318,0.0,10,0.5,0.5,-3.094155870819092,-0.05075,-0.00825,-0.001,1.5315098187549807,10,1,100,-0.5421905758431972,-10,-1,-100,6416.2830527902115,0.005718054292683022,0.11046270631777792,0.9938638208366668,243.84813203182105,25.69207058272969,758.4629816838054,-36.935591658341494,-41.98248291015625,4381.2578125,True
1599566689.1559627,0.0,10,0.5,0.5,-2.8804517044067386,-0.05075,-0.00825,-0.001,1.369771928102155,10,1,100,-0.33112941107992566,-10,-1,-100,6415.496948365006,0.008335836621726886,0.11204130903785406,0.9936685860471287,245.6595911026973,25.923432648345408,768.2769780345001,-37.124059632713575,-45.37469482421875,4381.2578125,True
1599566689.2167995,0.0,10,0.5,0.5,-2.4766457992553716,-0.05075,-0.00825,-0.001,1.511076894082591,10,1,100,-0.6403078872091537,-10,-1,-100,6413.995018605376,0.01349215555929832,0.11472305976014148,0.9933058850614117,248.05215951306343,26.249638549284853,784.1889796954491,-37.500797734618196,-52.3851318359375,4381.2578125,True
1599566689.292115,0.0,10,0.5,0.5,-1.865586988067627,-0.05075,-0.00825,-0.001,1.6110752407294342,10,1,100,-1.0113317193204483,-10,-1,-100,6411.775721037178,0.021516865004625678,0.11803586825769843,0.9927761874284776,248.22519915360766,26.354251400865728,797.3859341646081,-38.06562862617385,-63.457489013671875,4381.2578125,True
1599566689.3569396,0.0,10,0.5,0.5,-1.2203357070922851,-0.05075,-0.00825,-0.001,1.5272593486911492,10,1,100,-1.0838025017528579,-10,-1,-100,6409.442025069497,0.029431636454676155,0.12025458113094542,0.9923067139209635,243.6507825109484,25.92626239236192,795.149738008668,-38.630503807735714,-75.201904296875,4381.2578125,True
1599566689.41678,0.0,10,0.5,0.5,-1.1738408325195313,-0.05075,-0.00825,-0.001,1.3090164743140171,10,1,100,-0.2974337013524081,-10,-1,-100,6409.442025069497,0.029431636454676155,0.12025458113094542,0.9923067139209635,243.6507825109484,25.92626239236192,795.149738008668,-38.630503807735714,-75.201904296875,4381.2578125,True
1599566689.4781227,0.0,10,0.5,0.5,-0.25528650360107424,-0.05075,-0.00825,-0.001,1.4613811278410982,10,1,100,-1.3666689108491432,-10,-1,-100,6406.30859690276,0.03910850357486926,0.12161083225164397,0.9918071034365487,229.419048867365,24.469104381151148,764.468365158789,-39.38436561288997,-91.90510559082031,4381.2578125,True
1599566689.537963,0.0,10,0.5,0.5,0.017366130447387697,-0.05075,-0.00825,-0.001,1.3356281100844758,10,1,100,-0.6658310042093942,-10,-1,-100,6405.529565545381,0.04148546394119946,0.12167445702750376,0.9917027189579776,224.36175425750122,23.946539616723772,751.4926318877631,-39.5730084221679,-96.26704406738281,4381.2578125,True
1599566689.5997982,0.0,10,0.5,0.5,0.5345682968139649,-0.05075,-0.00825,-0.001,1.3154588867553898,10,1,100,-0.9019631793473144,-10,-1,-100,6403.8947605661815,0.04574749007173141,0.12152866419423516,0.9915331315348478,212.40076404353414,22.710929072944808,718.7825081275275,-39.95051255550833,-105.18048095703125,4381.2578125,True
1599566690.112428,0.0,10,0.5,0.5,0.8239719638824463,-0.05075,-0.00825,-0.001,1.3137854083624623,10,1,100,-0.6931362034756704,-10,-1,-100,6403.115158365923,0.04767626673795598,0.12136260716272149,0.9914626020040284,205.57911016336203,22.007041031023522,699.2560442048923,-40.13936146181125,-109.68486785888672,4381.2578125,True
1599566690.1812444,0.0,10,0.5,0.5,1.348198295402527,-0.05075,-0.00825,-0.001,1.265573711280498,10,1,100,-0.9144784180483245,-10,-1,-100,6401.491421693354,0.051399188190659806,0.12076035964477727,0.9913501192776473,208.52945964161776,22.386516420714727,716.4932301796753,-40.516868122501,-118.71795654296875,4381.2578125,True
1599566690.249063,0.0,10,0.5,0.5,1.4024719724655152,-0.05075,-0.00825,-0.001,1.3268282284076194,10,1,100,-0.54675438616774,-10,-1,-100,6401.491421693354,0.051399188190659806,0.12076035964477727,0.9913501192776473,208.52945964161776,22.386516420714727,716.4932301796753,-40.516868122501,-118.71795654296875,4381.2578125,True
1599566690.3388631,0.0,10,0.5,0.5,2.1527216871261596,-0.05075,-0.00825,-0.001,1.195104518762729,10,1,100,-1.0542720051831802,-10,-1,-100,6399.0805344332475,0.055973836225737504,0.11955494496563561,0.9912484778260384,222.82090995023628,24.035998238091235,777.0713743305807,-41.08197741393724,-132.04629516601562,4381.2578125,True
1599566690.4141693,0.0,10,0.5,0.5,2.647901009178162,-0.05075,-0.00825,-0.001,1.209558671486552,10,1,100,-0.8735127165856614,-10,-1,-100,6397.386257178499,0.058450721197043025,0.1185861222046275,0.9912218948409154,228.81794638250742,24.7570505555641,805.7982626596564,-41.45812368985796,-140.60256958007812,4381.2578125,True
1599566690.5009384,0.0,10,0.5,0.5,2.9186502233505247,-0.05075,-0.00825,-0.001,1.248592862790897,10,1,100,-0.7468270046973273,-10,-1,-100,6396.547877813457,0.05951717028452463,0.11805973029379878,0.9912212702138099,231.32145067189396,25.061657035747537,818.5563483628025,-41.646069716660584,-144.76992797851562,4381.2578125,True
1599566690.5837162,0.0,10,0.5,0.5,3.5951838193893435,-0.05075,-0.00825,-0.001,1.159862894742375,10,1,100,-0.8990283963736431,-10,-1,-100,6394.067826166516,0.06184296798490182,0.11677655143881988,0.9912308935585469,235.51075239590355,25.599993372589157,845.4218188213508,-42.20961382688443,-156.81451416015625,4381.2578125,True
1599566690.6593387,0.0,10,0.5,0.5,4.23841836681366,-0.05075,-0.00825,-0.001,1.1701913095863121,10,1,100,-0.8113081135282358,-10,-1,-100,6391.469546489185,0.06313040756707718,0.11570708173259496,0.9912751499343364,234.9030077878788,25.5942682839974,855.3020858359888,-42.77307708024195,-168.17584228515625,4381.2578125,True
1599566690.7384195,0.0,10,0.5,0.5,4.478007660102845,-0.05075,-0.00825,-0.001,1.2530887710985907,10,1,100,-0.7060332375421741,-10,-1,-100,6390.620864508906,0.0633219247655522,0.11549381687751943,0.9912878048816336,233.8117825089298,25.492246481606106,855.3500419082335,-42.96093988526974,-171.80921936035156,4381.2578125,True
1599566690.802755,0.0,10,0.5,0.5,4.90086146030426,-0.05075,-0.00825,-0.001,1.2460027440020602,10,1,100,-0.697394750233507,-10,-1,-100,6388.86784999771,0.06339764827879221,0.11524114007216411,0.9913123714690473,230.54579853516623,25.1683838163136,851.3646816687557,-43.33677331240477,-178.84622192382812,4381.2578125,True
1599566690.865588,0.0,10,0.5,0.5,-13.327129554557802,-0.05075,-0.00825,-0.001,1.2735091453363847,10,1,100,-0.6560622963649434,-10,-1,-100,6387.177364029456,0.06307469265728977,0.11526720801044593,0.9913299419989617,226.0913482667956,24.71625156297384,842.7649672942762,-43.71277148504104,174.42388916015625,4381.2578125,True
1599566690.9403884,0.0,10,0.5,0.5,-12.875920295333863,-0.05075,-0.00825,-0.001,1.3104416002527497,10,1,100,-0.6144643444060649,-10,-1,-100,6385.424420015304,0.06238893486909834,0.11563219699826206,0.9913308306631315,220.72593595846084,24.16953864150694,830.4621866011105,-44.088936376501835,168.0020751953125,4381.2578125,True
1599566691.0002272,0.0,10,0.5,0.5,-12.634669559860232,-0.05075,-0.00825,-0.001,1.4088455471044286,10,1,100,-0.5060078023300336,-10,-1,-100,6382.697953391587,0.06076955945488909,0.11686324847006155,0.9912870632670858,211.4195101740177,23.22537913790984,806.543138055798,-44.65345656868161,158.64523315429688,4381.2578125,True
1599566691.0640585,0.0,10,0.5,0.5,-12.87285103340149,-0.05075,-0.00825,-0.001,1.2853506888070085,10,1,100,-0.6688823808773815,-10,-1,-100,6382.697953391587,0.06076955945488909,0.11686324847006155,0.9912870632670858,211.4195101740177,23.22537913790984,806.543138055798,-44.65345656868161,158.64523315429688,4381.2578125,True
1599566691.1278892,0.0,10,0.5,0.5,-12.776342343521119,-0.05075,-0.00825,-0.001,1.4279489120435982,10,1,100,-0.5132529446106854,-10,-1,-100,6380.949097971083,0.05935038664952899,0.1181620429508447,0.9912190793211328,210.94693346186452,23.237826651410046,812.125175791915,-45.029835196381306,152.1461181640625,4381.2578125,True
1599566691.1917174,0.0,10,0.5,0.5,-12.492972475814819,-0.05075,-0.00825,-0.001,1.5958748718225633,10,1,100,-0.3764946795412477,-10,-1,-100,6378.21614946553,0.056816154720886296,0.1208697503670507,0.9910410829067275,224.79859000990308,24.886165088448774,877.2319105418361,-45.59350917180809,141.87777709960938,4381.2578125,True
1599566691.2615297,0.0,10,0.5,0.5,-12.367238250350953,-0.05075,-0.00825,-0.001,1.5837183225633678,10,1,100,-0.4232458517250683,-10,-1,-100,6376.398264462827,0.054939773637940066,0.12321823391572413,0.9908576527954465,233.31003637371543,25.91992084777951,918.5696442757198,-45.96866389462097,134.67996215820312,4381.2578125,True
1599566691.319375,0.0,10,0.5,0.5,-12.227814226150514,-0.05075,-0.00825,-0.001,1.6538111120464742,10,1,100,-0.3890499969535046,-10,-1,-100,6374.5175483356,0.05292937687765379,0.12598457006211286,0.9906191847373076,240.77381404933595,26.84313338387538,956.317767841764,-46.3433658721724,127.19967651367188,4381.2578125,True
1599566691.3812099,0.0,10,0.5,0.5,-12.279959440231325,-0.05075,-0.00825,-0.001,1.5486931824224706,10,1,100,-0.47540257688288384,-10,-1,-100,6373.606794034364,0.05189604057737828,0.12753446039103938,0.9904755233649932,244.43986637360717,27.297893849274388,975.1182778534784,-46.53056270188524,123.3538818359375,4381.2578125,True
1599566691.4450402,0.0,10,0.5,0.5,-12.118364556121826,-0.05075,-0.00825,-0.001,1.773631264409135,10,1,100,-0.35099773582721094,-10,-1,-100,6371.698511978262,0.04983607800770186,0.13097739721402088,0.9901319542100693,250.91067494761313,28.10904524501801,1009.6346521609162,-46.90469745288486,115.45146179199219,4381.2578125,True
1599566691.5058775,0.0,10,0.5,0.5,-11.945550533676148,-0.05075,-0.00825,-0.001,1.8563327464734765,10,1,100,-0.32940395755530055,-10,-1,-100,6369.790921727428,0.047779406387588735,0.1348448657471873,0.9897140953360585,255.66181402196858,28.721512232758585,1037.6396643283665,-47.27859055854858,107.26765441894531,4381.2578125,True
1599566691.575691,0.0,10,0.5,0.5,-11.460292155456544,-0.05075,-0.00825,-0.001,1.9448543108601783,10,1,100,-0.3208254324794736,-10,-1,-100,6367.812758017797,0.045845623128859925,0.13914768985563883,0.9892098358021747,258.37193021333206,29.097422634497757,1057.6666860089335,-47.65237930853595,98.80314636230469,4381.2578125,True
1599566691.6554596,0.0,10,0.5,0.5,-10.727372976303101,-0.05075,-0.00825,-0.001,2.3104514103653004,10,1,100,-0.2171571631992843,-10,-1,-100,6364.958757181885,0.04316023891086859,0.146361580410771,0.9882891689970189,257.9155638779646,29.144767514687594,1069.4560765070737,-48.213166833666946,85.58006286621094,4381.2578125,True
1599566691.7212837,0.0,10,0.5,0.5,-10.20597519607544,-0.05075,-0.00825,-0.001,2.173638078408861,10,1,100,-0.3177138192968666,-10,-1,-100,6363.0168565399945,0.04164914042316724,0.1516490885049774,0.9875565315755959,254.19264448550848,28.79508710163539,1063.1016921520081,-48.58725966687208,76.41403198242188,4381.2578125,True
1599566691.783119,0.0,10,0.5,0.5,-9.658440813446045,-0.05075,-0.00825,-0.001,2.268478221322526,10,1,100,-0.3285601794862991,-10,-1,-100,6361.075704734656,0.04039139999882605,0.15728647367162119,0.9867266592152465,247.4567950156477,28.117265715230168,1043.8458084138706,-48.9616197359018,66.96746826171875,4381.2578125,True
1599566691.8459566,0.0,10,0.5,0.5,-9.347738991546631,-0.05075,-0.00825,-0.001,2.0320919173441387,10,1,100,-0.3954346159417904,-10,-1,-100,6360.043217176339,0.03987318447779371,0.16022683521356584,0.9862745512467839,242.90499995233023,27.650658504398102,1029.0363801397036,-49.148904878008224,62.138946533203125,4381.2578125,True
1599566691.9127882,0.0,10,0.5,0.5,-8.77609601211548,-0.05075,-0.00825,-0.001,2.40855180379117,10,1,100,-0.3647631261713335,-10,-1,-100,6358.10197229858,0.03913865043370843,0.1662864745968099,0.9853004488014773,233.3457552451119,26.68026174198501,996.9712784791394,-49.52362859940582,52.270599365234375,4381.2578125,True
1599566691.9736233,0.0,10,0.5,0.5,-7.652798084259033,-0.05075,-0.00825,-0.001,3.202178777868447,10,1,100,-0.40812685406465715,-10,-1,-100,6354.096191096003,0.03887947257739223,0.17897087539984238,0.9830858621558537,264.47752631091987,30.572045989204774,1148.900917533904,-50.27080037397662,31.68743896484375,4381.2578125,True
1599566692.0334628,0.0,10,0.5,0.5,-7.594583648681641,-0.05075,-0.00825,-0.001,1.9390373280989712,10,1,100,-0.43263964926625076,-10,-1,-100,6354.096191096003,0.03887947257739223,0.17897087539984238,0.9830858621558537,264.47752631091987,30.572045989204774,1148.900917533904,-50.27080037397662,31.68743896484375,4381.2578125,True
1599566692.1132493,0.0,10,0.5,0.5,-6.395138284301759,-0.05075,-0.00825,-0.001,3.3650583014171223,10,1,100,-0.6045345539960286,-10,-1,-100,6350.030648996355,0.04045398677311747,0.19188794205272666,0.9805827311598599,286.750973924607,33.494528839386284,1265.9642249348703,-51.0150167297188,9.971099853515625,4381.2578125,True
1599566692.170099,0.0,10,0.5,0.5,-6.039677669906617,-0.05075,-0.00825,-0.001,2.429078685610407,10,1,100,-0.5216943462626843,-10,-1,-100,6348.997257942683,0.041140799690959635,0.1950664510981616,0.9799267902536173,290.30201502559987,33.9865647816217,1286.8042385369288,-51.20082457503693,4.364227294921875,4381.2578125,True
1599566692.2374322,0.0,10,0.5,0.5,-5.368985009765626,-0.05075,-0.00825,-0.001,2.7984041181308346,10,1,100,-0.6392791829920536,-10,-1,-100,6346.93394509342,0.04284016322898917,0.20125876181205998,0.978600853876794,293.8694592522995,34.551470926632355,1313.16601152702,-51.572415458355714,-7.063873291015625,4381.2578125,True
1599566692.3092399,0.0,10,0.5,0.5,-4.991814793014527,-0.05075,-0.00825,-0.001,2.5148039340312827,10,1,100,-0.5786597312706765,-10,-1,-100,6345.902050246601,0.0438366854841852,0.20425348708564767,0.9779360193893636,293.72759476480206,34.60776762741111,1317.8651434242138,-51.75826835921892,-12.885284423828125,4381.2578125,True
1599566692.372581,0.0,10,0.5,0.5,-3.99042031326294,-0.05075,-0.00825,-0.001,3.1601999463616655,10,1,100,-0.8659134778986008,-10,-1,-100,6342.80582452903,0.04735339755227789,0.2127905720767537,0.975949705761267,284.854969341495,33.80341430315271,1293.8059764134618,-52.3163410304176,-30.778656005859375,4381.2578125,True
1599566692.43776,0.0,10,0.5,0.5,-3.283964952850342,-0.05075,-0.00825,-0.001,2.884770134795451,10,1,100,-0.8081425389138257,-10,-1,-100,6340.679379927809,0.050020032480565,0.21799206788754652,0.9746678689116384,271.5499929026545,32.42339025543207,1243.469937985912,-52.68889361218815,-43.066864013671875,4381.2578125,True
1599566692.5025876,0.0,10,0.5,0.5,-2.881937841796875,-0.05075,-0.00825,-0.001,2.6399736807865857,10,1,100,-0.6969975290121997,-10,-1,-100,6339.64686788735,0.05142508356855511,0.22044009122980857,0.9740439553524064,262.64939937752666,31.473343639362895,1207.5655888550289,-52.8753044781527,-49.31878662109375,4381.2578125,True
1599566692.5599437,0.0,10,0.5,0.5,-1.8031687217712402,-0.05075,-0.00825,-0.001,3.12871569928716,10,1,100,-1.015799566394969,-10,-1,-100,6336.426465485012,0.05559010135285242,0.22705393693094633,0.9722943229062574,285.4211550629185,34.610524222205704,1327.765617162677,-53.43291654567325,-68.50851440429688,4381.2578125,True
1599566692.6217802,0.0,10,0.5,0.5,-1.0420597816467285,-0.05075,-0.00825,-0.001,2.901053729464735,10,1,100,-0.8992944094925337,-10,-1,-100,6334.299431166262,0.05830238750226497,0.23094162651329123,0.9712192320763275,300.40359476465363,36.70217727094167,1408.1259130038761,-53.80322476990464,-81.66128540039062,4381.2578125,True
1599566692.6826158,0.0,10,0.5,0.5,-0.2662164470672607,-0.05075,-0.00825,-0.001,2.902999133196529,10,1,100,-0.9040533818153491,-10,-1,-100,6332.109668397694,0.06079370837291573,0.2344463291210634,0.9702262848345878,310.526866385712,38.18769603148201,1466.5947575201344,-54.17295024302806,-95.10057830810547,4381.2578125,True
1599566692.7454484,0.0,10,0.5,0.5,0.5351261846542359,-0.05075,-0.00825,-0.001,2.9118997754423503,10,1,100,-0.8959491723336455,-10,-1,-100,6329.919201289304,0.06296494886385955,0.23766290509970808,0.969304781146848,313.1582057919682,38.7339959662986,1490.304265089131,-54.54264508787124,-108.82389831542969,4381.2578125,True
1599566692.8072836,0.0,10,0.5,0.5,1.3424929094314575,-0.05075,-0.00825,-0.001,2.9253567823770217,10,1,100,-0.880517550063195,-10,-1,-100,6327.72758468159,0.06477805186944915,0.240667787904203,0.9684435037013239,306.9612185192896,38.18899220548653,1472.1260029811392,-54.912778300331375,-122.79653930664062,4381.2578125,True
1599566692.908015,0.0,10,0.5,0.5,2.521236021614075,-0.05075,-0.00825,-0.001,3.112037603888387,10,1,100,-0.9125206614195851,-10,-1,-100,6324.4416855262825,0.0666957762939719,0.24505514216129623,0.9672123090226113,280.81922708403016,35.31413059759832,1362.4931035751536,-55.46919891656579,-143.81698608398438,4381.2578125,True
1599566692.9748347,0.0,10,0.5,0.5,3.3253384981155403,-0.05075,-0.00825,-0.001,3.0091630245548284,10,1,100,-0.8061879750104295,-10,-1,-100,6322.1879329697695,0.06745081442794118,0.2480686076916675,0.9663914080283024,283.18595132706645,35.92178556048611,1384.3361144119388,-55.840205836762934,-157.58126831054688,4381.2578125,True
1599566693.0516293,0.0,10,0.5,0.5,3.781282699775696,-0.05075,-0.00825,-0.001,2.8858044630610107,10,1,100,-0.7582731232815576,-10,-1,-100,6321.092339483439,0.06768015578042919,0.24964684841423757,0.9659688647106465,295.7943840532171,37.68599574316911,1451.2735326443456,-56.02505053199241,-164.35101318359375,4381.2578125,True
1599566693.1443834,0.0,10,0.5,0.5,4.230979368019105,-0.05075,-0.00825,-0.001,2.9131919106227837,10,1,100,-0.7525929866027914,-10,-1,-100,6319.93477327202,0.06781853144176754,0.25129708379773785,0.9655311607958774,306.48643727926066,39.21319733893418,1509.1796497090943,-56.20956010021971,-171.04220581054688,4381.2578125,True
1599566693.2122002,0.0,10,0.5,0.5,-12.956225665855408,-0.05075,-0.00825,-0.001,3.56029375662318,10,1,100,-0.7202253583149991,-10,-1,-100,6315.426136267255,0.06763389587767593,0.2586497645500961,0.9636005165142801,332.4226174672624,43.15326696397127,1660.665973212701,-56.945908037518066,162.98858642578125,4381.2578125,True
1599566693.2969756,0.0,10,0.5,0.5,-12.797348456382752,-0.05075,-0.00825,-0.001,2.8288466487193853,10,1,100,-0.7403097959550721,-10,-1,-100,6315.426136267255,0.06763389587767593,0.2586497645500961,0.9636005165142801,332.4226174672624,43.15326696397127,1660.665973212701,-56.945908037518066,162.98858642578125,4381.2578125,True
1599566693.3747656,0.0,10,0.5,0.5,-12.019497695732117,-0.05075,-0.00825,-0.001,3.5565742518545767,10,1,100,-0.6709743080798609,-10,-1,-100,6311.952689645928,0.06699262435651508,0.2652367465534895,0.9618531366895607,331.2746426373332,43.45129577701116,1673.4839236018647,-57.498305597502565,144.26712036132812,4381.2578125,True
1599566693.4510708,0.0,10,0.5,0.5,-11.900523510551453,-0.05075,-0.00825,-0.001,3.1677531361201474,10,1,100,-0.708638737788887,-10,-1,-100,6310.79474323988,0.0667441539374925,0.2676589972134976,0.9611991880592874,326.7836735496705,43.03151533897454,1657.0459837353021,-57.68268421922157,138.00457763671875,4381.2578125,True
1599566693.5178955,0.0,10,0.5,0.5,-11.107976652145386,-0.05075,-0.00825,-0.001,3.8065068532446213,10,1,100,-0.6612288084181903,-10,-1,-100,6307.320605757297,0.06608186288449784,0.2756377019072798,0.9589875101819564,300.5381989534386,40.14371979349711,1541.2001176205144,-58.236611456709085,118.85247802734375,4381.2578125,True
1599566693.5812392,0.0,10,0.5,0.5,-10.637199902343752,-0.05075,-0.00825,-0.001,3.6608465132726895,10,1,100,-0.7012961543769722,-10,-1,-100,6305.005288945977,0.06584119515047286,0.2815323623593301,0.957290168112852,316.6657770666573,42.76494460922424,1635.5808355866277,-58.60515361779368,105.75563049316406,4381.2578125,True
1599566693.6500943,0.0,10,0.5,0.5,-10.147242472457886,-0.05075,-0.00825,-0.001,3.7697205318129625,10,1,100,-0.7306150147974462,-10,-1,-100,6302.628472941229,0.06588797490219898,0.28784375878023727,0.9554081563889602,341.86597869869865,46.6614933252101,1777.9668749557557,-58.971841358214235,92.39118957519531,4381.2578125,True
1599566693.715918,0.0,10,0.5,0.5,-9.650000352478028,-0.05075,-0.00825,-0.001,3.8760619579164377,10,1,100,-0.7738200600111904,-10,-1,-100,6300.25264650397,0.06632400945243111,0.29450923338507634,0.9533443434672954,360.5738580820542,49.683170863240775,1888.1048624091754,-59.3374231161699,78.75875854492188,4381.2578125,True
