Timestamp,Input Throttle,horizon,dT,dt,Input Roll,Roll P,Roll I,Roll D,Input Pitch,Pitch P,Pitch I,Pitch D,Input Yaw,Yaw P,Yaw I,Yaw D,Altitude,Direction X,Direction Y,Direction Z,Drag X,Drag Y,Drag Z,Vertical Velocity,Roll,Mass,Has Fuel
1599568431.4976315,0.0,10,0.5,0.5,-5.43256674194336,-0.1005,-0.00825,-0.001,-0.06720903134977763,10,1,100,0.6903473882463671,-10,-1,-100,6483.617967379512,-0.06725786658752543,-0.007002754576033293,0.9977110507609117,205.073143088686,21.4987690898835,-156.76518456922386,9.59082440045448,-35.94464111328125,4381.2578125,True
1599568431.5993578,0.0,10,0.5,0.5,-5.477499967956543,-0.1005,-0.00825,-0.001,-0.06733428416822518,10,1,100,0.6999103892241209,-10,-1,-100,6483.997882623342,-0.06744519328470829,-0.006971904239217738,0.9976986210545083,204.6120761129975,21.45673423545216,-150.26667302127288,9.210802136632502,-35.9412841796875,4381.2578125,True
1599568431.676152,0.0,10,0.5,0.5,-5.52226851348877,-0.1005,-0.00825,-0.001,-0.06933113872475993,10,1,100,0.6985942971358292,-10,-1,-100,6484.156591894105,-0.06754221199654031,-0.006955673606954624,0.9976921710644461,204.3812017174631,21.435613629153547,-147.0255227961292,9.020798398354488,-35.9395751953125,4381.2578125,True
1599568431.7379868,0.0,10,0.5,0.5,-5.552202928161622,-0.1005,-0.00825,-0.001,-0.037085923489628164,10,1,100,0.6998043527190438,-10,-1,-100,6484.538936094847,-0.06758000931987453,-0.006641456826753363,0.9976917526929568,203.94239509973073,21.3956036201685,-140.57582234805002,8.640801428770612,-36.08404541015625,4381.2578125,True
1599568431.800818,0.0,10,0.5,0.5,-5.522338558959961,-0.1005,-0.00825,-0.001,0.0019887307138273524,10,1,100,0.6991287367534609,-10,-1,-100,6485.0169493814465,-0.06754679218747317,-0.005994543391241937,0.9976980987827493,203.44699213707224,21.351713523611387,-131.0456237935442,8.07081687674806,-36.81793212890625,4381.2578125,True
1599568431.8626537,0.0,10,0.5,0.5,-5.480294132995605,-0.1005,-0.00825,-0.001,0.012603798740013744,10,1,100,0.6897241599387451,-10,-1,-100,6485.335755822598,-0.06736969246680409,-0.005304490064728726,0.9977139805185059,203.19943067595452,21.330086591082974,-124.7611905528444,7.690822836969362,-37.671661376953125,4381.2578125,True
1599568431.9279933,0.0,10,0.5,0.5,-5.4078545539855964,-0.1005,-0.00825,-0.001,0.04215974046776831,10,1,100,0.67868004182987,-10,-1,-100,6485.59008194285,-0.06704704647205442,-0.004403656215769194,0.9977400971051065,202.97238584533883,21.30949720928029,-118.49843856327752,7.310816200114391,-38.819091796875,4381.2578125,True
1599568431.9928217,0.0,10,0.5,0.5,-5.304935889434814,-0.1005,-0.00825,-0.001,0.07327415174319621,10,1,100,0.6653649014273283,-10,-1,-100,6485.909323096392,-0.06657173334001157,-0.003297854744924121,0.9977761915751386,202.70946822613692,21.283844821343585,-112.22435990607143,6.930788563371702,-40.2603759765625,4381.2578125,True
1599568432.0566487,0.0,10,0.5,0.5,-5.263078897857667,-0.1005,-0.00825,-0.001,0.03139032672680775,10,1,100,0.6868304415078985,-10,-1,-100,6486.005457365536,-0.06627425200857778,-0.0026703446763549276,0.9977978717054936,202.54271238033328,21.266777849868294,-109.07234610204856,6.740764177590256,-41.09124755859375,4381.2578125,True
1599568432.1184833,0.0,10,0.5,0.5,-5.113197386932374,-0.1005,-0.00825,-0.001,0.12088299818037751,10,1,100,0.6429831171108564,-10,-1,-100,6486.2611818758305,-0.06554495307456616,-0.0012838836510992496,0.9978487915356832,202.0850976862818,21.218465265321527,-102.71653941640618,6.360688168410677,-42.9736328125,4381.2578125,True
1599568432.1823127,0.0,10,0.5,0.5,-4.932951094818115,-0.1005,-0.00825,-0.001,0.15278757993031392,10,1,100,0.621982937306487,-10,-1,-100,6486.5178577821935,-0.06463145699717536,0.00026774428199724244,0.9979091657457715,201.37888960084035,21.142469225152272,-96.26448489687736,5.980565529050391,-45.150238037109375,4381.2578125,True
1599568432.759639,0.0,10,0.5,0.5,-4.540161653137208,-0.1005,-0.00825,-0.001,0.28819438520360613,10,1,100,0.5227326984222206,-10,-1,-100,6486.86864937481,-0.06290111876386344,0.0029026765428803183,0.998015542828438,199.59906182739113,20.949959072510676,-86.34519100472382,5.410257646838063,-48.966705322265625,4381.2578125,True
1599568432.8194811,0.0,10,0.5,0.5,-4.237597290802002,-0.1005,-0.00825,-0.001,0.23465836838617815,10,1,100,0.5394462060954917,-10,-1,-100,6487.061794026988,-0.06148415596199219,0.004802401553722771,0.9980965061079806,197.7427272830375,20.749548519893136,-79.5462107191813,5.029942423974848,-51.879364013671875,4381.2578125,True
1599568432.8791907,0.0,10,0.5,0.5,-3.90176851348877,-0.1005,-0.00825,-0.001,0.26221700445274665,10,1,100,0.5008085347357416,-10,-1,-100,6487.25540792488,-0.059850263726142924,0.006769268186765917,0.9981844132925172,195.1790314542793,20.47374182700045,-72.59138010757303,4.649512895697264,-55.087158203125,4381.2578125,True
1599568432.9380338,0.0,10,0.5,0.5,-3.5337451812744147,-0.1005,-0.00825,-0.001,0.2888710302596305,10,1,100,0.4595275350204162,-10,-1,-100,6487.448517397745,-0.057996652373953114,0.008787446519582704,0.9982781020823207,191.75084349125157,20.106556088075855,-65.49138156587564,4.268938717558328,-58.59014892578125,4381.2578125,True
1599568432.9958825,0.0,10,0.5,0.5,-3.1337360137939454,-0.1005,-0.00825,-0.001,0.31302538448819617,10,1,100,0.4155243187817206,-10,-1,-100,6487.57862577145,-0.05592020385144107,0.010828300960665994,0.9983765215085532,187.29247126614965,19.631290972198787,-58.27345058401214,3.8881862285465068,-62.388671875,4381.2578125,True
1599568433.0537684,0.0,10,0.5,0.5,-2.7015499397277836,-0.1005,-0.00825,-0.001,0.33216874584265244,10,1,100,0.36983900750261356,-10,-1,-100,6487.770736135659,-0.053627610990815845,0.012842987563940955,0.9984784108882124,181.66117715814534,19.03373561555225,-50.991689697526475,3.507225086041011,-66.48318481445312,4381.2578125,True
1599568433.1157424,0.0,10,0.5,0.5,-2.2371576507568363,-0.1005,-0.00825,-0.001,0.34880149678587213,10,1,100,0.32297222302901946,-10,-1,-100,6487.839794553816,-0.05112957347274318,0.014810048899329544,0.9985822095191236,174.7575965717369,18.30446559398314,-43.72837115372708,3.1260037154525424,-70.87396240234375,4381.2578125,True
1599568433.177091,0.0,10,0.5,0.5,-1.740532652282715,-0.1005,-0.00825,-0.001,0.3617434953021193,10,1,100,0.2753881762010397,-10,-1,-100,6487.969398100977,-0.048440086357756644,0.016699479278335733,0.9986864800454072,166.3999816243972,17.42509448390834,-36.559991976387785,2.744461907721147,-75.56124877929688,4381.2578125,True
1599568433.2369325,0.0,10,0.5,0.5,-1.2108836128234866,-0.1005,-0.00825,-0.001,0.3708581597510845,10,1,100,0.22778501276819696,-10,-1,-100,6488.100468898192,-0.04557855491806197,0.018482394914282232,0.9987897658715841,156.61658365255778,16.39817291415803,-29.62655441264593,2.362629811451531,-80.54547119140625,4381.2578125,True
1599568433.2977693,0.0,10,0.5,0.5,-0.9206080375671387,-0.1005,-0.00825,-0.001,0.28747951272513117,10,1,100,0.3479646463984708,-10,-1,-100,6488.133536101086,-0.04408785609512066,0.019327270266210946,0.9988406867809265,151.164415193167,15.82657895114851,-26.28501690428336,2.17163492598341,-83.1490478515625,4381.2578125,True
1599568433.357611,0.0,10,0.5,0.5,-0.3406935592651367,-0.1005,-0.00825,-0.001,0.3785074521909748,10,1,100,0.15683867365504567,-10,-1,-100,6488.200653210166,-0.04101384250469021,0.020905538648577252,0.9989398496290023,148.00659102703713,15.495593262527589,-21.210256064076024,1.7895610388280567,-88.57928466796875,4381.2578125,True
1599568433.4204412,0.0,10,0.5,0.5,0.5696031745910645,-0.1005,-0.00825,-0.001,0.45134921905811454,10,1,100,-0.07020218420678531,-10,-1,-100,6488.301350478083,-0.036175174420336034,0.02298615972942453,0.999081074396143,160.29978475317782,16.78166590036275,-15.61764523940601,1.2164396118417655,-97.27925109863281,4381.2578125,True
1599568433.4802809,0.0,10,0.5,0.5,0.9070816028594971,-0.1005,-0.00825,-0.001,0.3126715076242173,10,1,100,0.2263382548867354,-10,-1,-100,6488.273398982477,-0.03449521559135666,0.02360039628245417,0.9991261689079197,164.76749286074468,17.248405340759213,-13.533206479079869,1.0254423804544088,-100.32086181640625,4381.2578125,True
1599568433.5391257,0.0,10,0.5,0.5,1.8861591548919678,-0.1005,-0.00825,-0.001,0.4235124994754373,10,1,100,-0.1543270822277334,-10,-1,-100,6488.3116431451635,-0.0295304363622755,0.025151137503768854,0.9992474036045929,176.32157626906172,18.455281092411095,-6.392900190931838,0.4525775975948143,-109.6292495727539,4381.2578125,True
1599568433.5979657,0.0,10,0.5,0.5,2.2311484281539915,-0.1005,-0.00825,-0.001,0.3179478326279441,10,1,100,0.15800305567313905,-10,-1,-100,6488.345235999324,-0.027882243967674813,0.025586347378183005,0.999283703108967,179.91752073564976,18.83135523634683,-3.771247738881143,0.2616277236420297,-112.70501708984375,4381.2578125,True
1599568433.6568093,0.0,10,0.5,0.5,3.1709777074813843,-0.1005,-0.00825,-0.001,0.39155677165197544,10,1,100,-0.2328521601952267,-10,-1,-100,6488.322020203108,-0.022856147064583377,0.026637748485671138,0.9993838236118177,187.39733438549976,19.613162100409706,4.675931370487001,-0.31137874852216996,-121.58574676513672,4381.2578125,True
1599568433.7146537,0.0,10,0.5,0.5,3.4940250705718996,-0.1005,-0.00825,-0.001,0.3188765441247038,10,1,100,0.09105633034224397,-10,-1,-100,6488.355147282826,-0.02125956476113747,0.02692029764139267,0.9994114910691522,188.93279478878608,19.773533251897465,7.607588987133211,-0.5024511726559968,-124.40809631347656,4381.2578125,True
1599568433.7744946,0.0,10,0.5,0.5,4.086117702484131,-0.1005,-0.00825,-0.001,0.3362544245217807,10,1,100,-0.11514294118705354,-10,-1,-100,6488.2988561606035,-0.017960742024749038,0.027324131924074707,0.999465258806186,191.33379467811844,20.02410981760764,13.567165397821372,-0.884688287078196,-129.83419799804688,4381.2578125,True
1599568433.8343341,0.0,10,0.5,0.5,4.646183962249756,-0.1005,-0.00825,-0.001,0.33675901928080093,10,1,100,-0.12266383746009452,-10,-1,-100,6488.241614264087,-0.014921148974943734,0.027686182449189706,0.999505294940781,192.06889506423136,20.100223765669245,19.508283308395377,-1.267045284103343,-134.96441650390625,4381.2578125,True
1599568433.894174,0.0,10,0.5,0.5,5.176824907684326,-0.1005,-0.00825,-0.001,0.3189587241700569,10,1,100,-0.16111192287095621,-10,-1,-100,6488.181950351573,-0.011836224885879367,0.027845131345983026,0.9995421714168822,191.4200853429959,20.031237280758496,25.314824659107202,-1.649505023334712,-139.80062866210938,4381.2578125,True
1599568433.954014,0.0,10,0.5,0.5,5.898613319396973,-0.1005,-0.00825,-0.001,0.32299684318903066,10,1,100,-0.32776440569247384,-10,-1,-100,6488.033411517157,-0.007546045534906366,0.028018597005895103,0.999578919054722,188.36040268139726,19.708872495449462,33.583287480696484,-2.2233216001939624,-146.4990234375,4381.2578125,True
1599568434.0148528,0.0,10,0.5,0.5,6.151319146728516,-0.1005,-0.00825,-0.001,0.3082201514687209,10,1,100,-0.053524091221017145,-10,-1,-100,6488.003114208928,-0.006169401526462138,0.028035493082578432,0.9995878898888391,186.90856312499923,19.55599045093552,36.194321982163956,-2.4146108058968196,-148.58395385742188,4381.2578125,True
1599568434.07569,0.0,10,0.5,0.5,6.592225093460084,-0.1005,-0.00825,-0.001,0.30889627377930134,10,1,100,-0.21062194683436664,-10,-1,-100,6487.882963396842,-0.003517022624931367,0.02805240941570205,0.9996002665454975,183.51831832300107,19.198907029769845,41.17482019626694,-2.7971928033808684,-152.53138732910156,4381.2578125,True
1599568434.1350455,0.0,10,0.5,0.5,7.001824175262452,-0.1005,-0.00825,-0.001,0.31370189209597604,10,1,100,-0.22161728646600343,-10,-1,-100,6487.761368109612,-0.0010339734386761723,0.028107428054935792,0.9996043734333422,179.69867308967505,18.79667105157159,45.83885273953646,-3.1797515259994062,-156.18136596679688,4381.2578125,True
1599568434.1938887,0.0,10,0.5,0.5,7.535985835838319,-0.1005,-0.00825,-0.001,0.3045102411410247,10,1,100,-0.36327520427719046,-10,-1,-100,6487.549461090704,0.002485237380817887,0.028071196999602213,0.9996028368778125,173.59674503145428,18.153957833678387,52.28466460788777,-3.7535199225057156,-161.10162353515625,4381.2578125,True
1599568434.2517338,0.0,10,0.5,0.5,7.866183139610291,-0.1005,-0.00825,-0.001,0.31219565672162325,10,1,100,-0.25148190261611825,-10,-1,-100,6487.426924681058,0.004640610400395019,0.028105868136739473,0.9995941801108047,169.348164497441,17.706092935598985,56.211103380581115,-4.136015192900146,-164.00990295410156,4381.2578125,True
1599568434.3106177,0.0,10,0.5,0.5,8.163268838119507,-0.1005,-0.00825,-0.001,0.31824492010299554,10,1,100,-0.26051872106992285,-10,-1,-100,6487.243365505594,0.006657196260986109,0.028191046001557578,0.9995803852933893,165.1061773843998,17.258704192024304,59.88073243151847,-4.518541781893683,-166.6206817626953,4381.2578125,True
1599568434.3714545,0.0,10,0.5,0.5,8.430282728195191,-0.1005,-0.00825,-0.001,0.3247333450039675,10,1,100,-0.2683884473389734,-10,-1,-100,6487.058843771345,0.008536620226676539,0.02832631087925545,0.9995622773129632,161.02435583701978,16.828242517150585,63.3550902895627,-4.9011406035119,-168.93397521972656,4381.2578125,True
1599568434.4332895,0.0,10,0.5,0.5,8.566309552764892,-0.1005,-0.00825,-0.001,0.32054468014168486,10,1,100,-0.18085033774268505,-10,-1,-100,6486.905063430662,0.009425297960745739,0.028410289106637145,0.999551909222942,159.09776903283307,16.625172043818342,65.0459790920384,-5.092477883507758,-169.9791259765625,4381.2578125,True
1599568434.4951673,0.0,10,0.5,0.5,8.783618410491945,-0.1005,-0.00825,-0.001,0.3383488642153121,10,1,100,-0.27804130649222164,-10,-1,-100,6486.721044984879,0.011094607937681081,0.028647830889783073,0.999527994335336,155.5033515146694,16.246748987890765,68.36618807782645,-5.475243478636047,-171.84579467773438,4381.2578125,True
1599568434.5560024,0.0,10,0.5,0.5,9.035732315826417,-0.1005,-0.00825,-0.001,0.3676054672548805,10,1,100,-0.3608911504191664,-10,-1,-100,6486.380823313142,0.013344496649845836,0.02912901735705381,0.9994865805787363,150.98224053792737,15.772256614152823,73.36115621191949,-6.049634433499245,-174.0876007080078,4381.2578125,True
1599568434.6178434,0.0,10,0.5,0.5,9.17015825920105,-0.1005,-0.00825,-0.001,0.365257409242965,10,1,100,-0.2841015956482045,-10,-1,-100,6486.135299397749,0.014672771761000729,0.029544104145054196,0.9994557797517185,149.71535933635613,15.64002640121126,77.36629897853737,-6.4327078701636555,-175.2098388671875,4381.2578125,True
1599568434.677683,0.0,10,0.5,0.5,9.236602725601196,-0.1005,-0.00825,-0.001,0.35075011093377273,10,1,100,-0.22064179857160393,-10,-1,-100,6485.98006931541,0.015284439912911115,0.029788199775823275,0.9994393673708596,150.62663710437974,15.73571066844803,80.16303812759749,-6.6242780913553165,-175.6591033935547,4381.2578125,True
1599568435.180866,0.0,10,0.5,0.5,9.323707917404176,-0.1005,-0.00825,-0.001,0.3901971380942768,10,1,100,-0.28313120294610383,-10,-1,-100,6485.733090411057,0.016391495124836154,0.030367136241290546,0.9994044005927106,152.08099013059228,15.88933948377758,85.63657338443699,-7.007482422908802,-176.33372497558594,4381.2578125,True
1599568435.2288053,0.0,10,0.5,0.5,9.377924380493166,-0.1005,-0.00825,-0.001,0.40314262183353533,10,1,100,-0.2807510302289815,-10,-1,-100,6485.423617223976,0.017360429685009157,0.031009074054630093,0.9993683268982593,153.25132482250754,16.01405452321831,91.03537574428313,-7.390768861882488,-176.71072387695312,4381.2578125,True
1599568435.2826626,0.0,10,0.5,0.5,9.398219834136965,-0.1005,-0.00825,-0.001,0.37773700029233537,10,1,100,-0.23287127627763926,-10,-1,-100,6485.26741692971,0.017792485892604966,0.03135902289178693,0.999349808189822,153.66716696916137,16.058916577191248,93.66029865517926,-7.582441580132713,-176.7875213623047,4381.2578125,True
1599568435.3385143,0.0,10,0.5,0.5,9.401527719116212,-0.1005,-0.00825,-0.001,0.4313820924029607,10,1,100,-0.2713744848238061,-10,-1,-100,6484.957461004145,0.018523337181300663,0.032161883440430604,0.9993110122645662,154.14580348095174,16.111941118098745,98.7258796608742,-7.965843749725785,-176.71701049804688,4381.2578125,True
1599568435.3953605,0.0,10,0.5,0.5,9.372543561172485,-0.1005,-0.00825,-0.001,0.448302103087925,10,1,100,-0.26374791587036106,-10,-1,-100,6484.585985041456,0.019107627597883328,0.03304196509320737,0.9992712980519155,154.14800156630477,16.115130903020823,103.50561044485558,-8.349318682794564,-176.34869384765625,4381.2578125,True
1599568435.4532082,0.0,10,0.5,0.5,9.34899997558594,-0.1005,-0.00825,-0.001,0.41245528757802274,10,1,100,-0.2322213747930611,-10,-1,-100,6484.429789353046,0.019342585778281927,0.033511872223629,0.9992511289938466,153.9691673653558,16.097778227377585,105.77359883200575,-8.541082443074917,-176.05284118652344,4381.2578125,True
1599568435.5100534,0.0,10,0.5,0.5,9.271548273849488,-0.1005,-0.00825,-0.001,0.478207351208199,10,1,100,-0.24527854274264527,-10,-1,-100,6484.119351495057,0.019665869934715478,0.034532168754180276,0.9992100794531866,153.24388223679045,16.024085315938823,110.03238707885102,-8.924660919488671,-175.23748779296875,4381.2578125,True
1599568435.569982,0.0,10,0.5,0.5,9.094381935501099,-0.1005,-0.00825,-0.001,0.5600426049532776,10,1,100,-0.23239414313189508,-10,-1,-100,6483.5291850180365,0.019834841660469126,0.03619831850885088,0.9991477672463849,154.26999688124477,16.132325568080066,117.96116761431837,-9.500135883190058,-173.45640563964844,4381.2578125,True
1599568435.6278276,0.0,10,0.5,0.5,8.9373722240448,-0.1005,-0.00825,-0.001,0.5263291474706573,10,1,100,-0.20313030590808112,-10,-1,-100,6483.155762582086,0.019716517122746295,0.03740008748948052,0.9991058464488773,157.6714261714342,16.486462407999383,125.46836333909435,-9.883817848226444,-171.8970947265625,4381.2578125,True
1599568435.6856725,0.0,10,0.5,0.5,8.642230137252808,-0.1005,-0.00825,-0.001,0.6168269906657302,10,1,100,-0.15142420382270322,-10,-1,-100,6482.501144588692,0.019134308664620518,0.039308170606967736,0.999043915929355,163.62989422522742,17.10292220253467,137.85659325024523,-10.459340181024212,-169.0008544921875,4381.2578125,True
1599568435.7435188,0.0,10,0.5,0.5,8.52658416595459,-0.1005,-0.00825,-0.001,0.49897525800527787,10,1,100,-0.17798343144697426,-10,-1,-100,6482.282937299693,0.018842975891316175,0.03996275771610551,0.9990234833352434,165.8078945640468,17.3271632661132,142.27676846387595,-10.651170092701946,-167.88706970214844,4381.2578125,True
1599568435.801366,0.0,10,0.5,0.5,8.27207180633545,-0.1005,-0.00825,-0.001,0.5796555272301747,10,1,100,-0.12260564524435502,-10,-1,-100,6481.847497858689,0.018072464876682525,0.041282570606934535,0.99898405161312,170.5886270286057,17.817930143173264,151.70210945768517,-11.034795463459059,-165.43724060058594,4381.2578125,True
1599568435.8612034,0.0,10,0.5,0.5,7.986497142410278,-0.1005,-0.00825,-0.001,0.595432494095129,10,1,100,-0.09087412857442596,-10,-1,-100,6481.410588832805,0.017082884679841967,0.0426164879368675,0.9989454489645279,175.6490511293181,18.335089136362523,161.68791076304984,-11.418355174061741,-162.69119262695312,4381.2578125,True
1599568435.9190495,0.0,10,0.5,0.5,7.826982180786133,-0.1005,-0.00825,-0.001,0.536993696401332,10,1,100,-0.12681898109710393,-10,-1,-100,6481.193354136893,0.016510682797659226,0.04328764419864015,0.9989262120964125,178.23601016636982,18.598581651663395,166.8541537558052,-11.610103575689624,-161.20713806152344,4381.2578125,True
1599568435.9768946,0.0,10,0.5,0.5,7.318914387893677,-0.1005,-0.00825,-0.001,0.6818362038508456,10,1,100,0.047305442618381516,-10,-1,-100,6480.475236401078,0.014409379647701085,0.04520442199455795,0.998873830876706,186.03384108939244,19.38953905776531,182.88074267750522,-12.185186501257213,-156.31298828125,4381.2578125,True
1599568436.0367353,0.0,10,0.5,0.5,7.1267300083160405,-0.1005,-0.00825,-0.001,0.5589536951801509,10,1,100,-0.07319134913413408,-10,-1,-100,6480.194520112476,0.013598800570898538,0.04581877676938477,0.9988572031668942,188.57710992451004,19.646536151158877,188.33158619000523,-12.376816758660851,-154.5341796875,4381.2578125,True
1599568436.096575,0.0,10,0.5,0.5,6.524330750274658,-0.1005,-0.00825,-0.001,0.6878733553880846,10,1,100,0.14953588223432163,-10,-1,-100,6479.476385620423,0.010842339111553337,0.04753808992607604,0.998810579483803,195.74430386461688,20.36876206563617,204.68341587764604,-12.951480028451453,-148.756591796875,4381.2578125,True
1599568436.1554174,0.0,10,0.5,0.5,6.297926638031005,-0.1005,-0.00825,-0.001,0.5717561642647049,10,1,100,-0.01181571391198423,-10,-1,-100,6479.195661859703,0.009811319141499719,0.048033667493608385,0.9987975294341775,197.9031913580535,20.58590956330913,210.04105262520778,-13.142952723466806,-146.684326171875,4381.2578125,True
1599568436.215626,0.0,10,0.5,0.5,5.602194149398804,-0.1005,-0.00825,-0.001,0.6712171669692303,10,1,100,0.25693584053801055,-10,-1,-100,6478.352502814261,0.006439944603286449,0.04937762408051097,0.9987594191564205,203.3041720617063,21.129550373122438,225.33273810744186,-13.717121180834244,-140.02700805664062,4381.2578125,True
1599568436.2804294,0.0,10,0.5,0.5,5.342533819961549,-0.1005,-0.00825,-0.001,0.5744497633759911,10,1,100,0.054683127651427285,-10,-1,-100,6478.071281244862,0.005225789297079197,0.049708810457219296,0.9987500814964426,204.66261733357868,21.267022995394367,230.04798167144205,-13.908430731756383,-137.6622314453125,4381.2578125,True
1599568436.3392713,0.0,10,0.5,0.5,4.554396237564087,-0.1005,-0.00825,-0.001,0.6285227923626171,10,1,100,0.36163204365977114,-10,-1,-100,6477.226625274168,0.0013442111635126974,0.05049200684515051,0.9987235605216778,206.9847239736487,21.506997908291897,242.40303283222576,-14.48216199025208,-130.12875366210938,4381.2578125,True
1599568436.398114,0.0,10,0.5,0.5,4.261157339477539,-0.1005,-0.00825,-0.001,0.5642303851096355,10,1,100,0.12317189714641424,-10,-1,-100,6476.946369125857,-7.687489465088967e-07,0.05060995508721629,0.9987184950953291,207.15938988816177,21.528481150420465,245.8614942514053,-14.673357399546674,-127.47238159179688,4381.2578125,True
1599568436.4555418,0.0,10,0.5,0.5,3.3791514629364015,-0.1005,-0.00825,-0.001,0.5628430370181421,10,1,100,0.4538480227965798,-10,-1,-100,6476.039664712036,-0.0042131941447058115,0.050696089066007706,0.9987052395719721,206.16413051522832,21.446919715329926,254.40695344545173,-15.246888482876791,-119.06507873535156,4381.2578125,True
1599568436.518374,0.0,10,0.5,0.5,2.7457685234069826,-0.1005,-0.00825,-0.001,0.5250156632566394,10,1,100,0.350115749651479,-10,-1,-100,6475.413693814073,-0.007080291040600127,0.05042316237514157,0.9987028457829037,203.2330736734513,21.16516248509537,257.1949917266144,-15.629288335451287,-113.09661865234375,4381.2578125,True
1599568436.5783093,0.0,10,0.5,0.5,2.3980472164154056,-0.1005,-0.00825,-0.001,0.5287894224427852,10,1,100,0.22673552378757267,-10,-1,-100,6475.131954664015,-0.008543658007342848,0.05020286726861323,0.9987024972562467,201.0108970046419,20.94708488293662,257.55494066857085,-15.820530735264075,-110.00303649902344,4381.2578125,True
1599568436.6381018,0.0,10,0.5,0.5,1.7128555900573732,-0.1005,-0.00825,-0.001,0.4752143624474292,10,1,100,0.387432428638134,-10,-1,-100,6474.4449294894,-0.011314006168791293,0.04951100894883508,0.9987094939256767,195.5220179257643,20.40299328384623,256.70341587221475,-16.20313926307625,-103.59831237792969,4381.2578125,True
1599568436.697123,0.0,10,0.5,0.5,0.9975215183258058,-0.1005,-0.00825,-0.001,0.4451296315853684,10,1,100,0.4180666582537245,-10,-1,-100,6473.817949048593,-0.014088349487759166,0.048605192711945806,0.9987187059678744,188.32533323924997,19.678157718466885,253.22288754741703,-16.58595084362071,-96.90159606933594,4381.2578125,True
1599568436.758962,0.0,10,0.5,0.5,-0.1136062881469727,-0.1005,-0.00825,-0.001,0.3360642694991607,10,1,100,0.5811450124689552,-10,-1,-100,6472.785659479327,-0.018070346008232683,0.04678925002054833,0.9987413222039315,173.3233063635243,18.13467659042236,241.3138894349599,-17.160606714692,-86.31002807617188,4381.2578125,True
1599568436.8198016,0.0,10,0.5,0.5,-0.9065527030944825,-0.1005,-0.00825,-0.001,0.3570691937509194,10,1,100,0.45494574312935443,-10,-1,-100,6472.097128860536,-0.02051772979180339,0.04533047817381485,0.9987613180899249,178.08181674569778,18.633097091498147,253.61008233078616,-17.543805003546552,-78.88412475585938,4381.2578125,True
1599568436.8806367,0.0,10,0.5,0.5,-1.727924262237549,-0.1005,-0.00825,-0.001,0.3268371889799219,10,1,100,0.4601998561658204,-10,-1,-100,6471.3460896849865,-0.022765881827749093,0.04373316476605416,0.9987838229187286,192.06930865676813,20.08517888031396,279.6491223510609,-17.92668556508037,-71.21560668945312,4381.2578125,True
1599568436.944183,0.0,10,0.5,0.5,-2.5526141418457033,-0.1005,-0.00825,-0.001,0.29781204675601836,10,1,100,0.4631686010827271,-10,-1,-100,6470.658033585525,-0.024811198022285406,0.04202262914395547,0.9988085417598952,203.6469506451382,21.277973569090843,302.99221289183134,-18.309165171620293,-63.55511474609375,4381.2578125,True
1599568437.0080118,0.0,10,0.5,0.5,-3.722008219146729,-0.1005,-0.00825,-0.001,0.1711629335126228,10,1,100,0.5523991125089094,-10,-1,-100,6469.5011844717665,-0.027457985203751166,0.03932394061956324,0.9988491811793709,216.65948543415305,22.613463130231494,332.6984215734085,-18.88213304987651,-52.4996337890625,4381.2578125,True
1599568437.0708432,0.0,10,0.5,0.5,-4.4841601745605475,-0.1005,-0.00825,-0.001,0.24059029736257376,10,1,100,0.45352604217901776,-10,-1,-100,6468.749643086689,-0.02894034816894393,0.03751200528190409,0.998877022314354,221.56132309707945,23.119329203832287,347.27911052920524,-19.263722610804322,-45.4912109375,4381.2578125,True
1599568437.6343539,0.0,10,0.5,0.5,-4.882252627944946,-0.1005,-0.00825,-0.001,0.3251656469564777,10,1,100,0.3809397553979142,-10,-1,-100,6468.342378911446,-0.02960559629926892,0.03664564368378045,0.9988896863351658,223.35889175310507,23.308429730638593,353.6540336956521,-19.45444194224016,-42.09808349609375,4381.2578125,True
1599568437.6892073,0.0,10,0.5,0.5,-5.274277743911744,-0.1005,-0.00825,-0.001,0.31607562836071107,10,1,100,0.3844274236056998,-10,-1,-100,6467.99908158835,-0.030221595851218173,0.03578793071524413,0.9989023371477945,224.49504604227542,23.431707882373892,359.03078906008085,-19.64513139083762,-38.7794189453125,4381.2578125,True
1599568437.7460551,0.0,10,0.5,0.5,-5.9806684692382825,-0.1005,-0.00825,-0.001,0.2116953541614481,10,1,100,0.4444960076899867,-10,-1,-100,6467.185534424731,-0.03130796626480749,0.034072384557084515,0.9989288682678842,224.94326214176792,23.497205118758398,366.9276839585024,-20.026483280982315,-32.366119384765625,4381.2578125,True
1599568437.8009088,0.0,10,0.5,0.5,-6.952809723281861,-0.1005,-0.00825,-0.001,0.11365157391337702,10,1,100,0.4774156453139191,-10,-1,-100,6465.964727248647,-0.03257666883729169,0.0316355251604949,0.9989684450448297,221.66278962584224,23.200720300667335,372.2241442131145,-20.59864287192503,-23.304168701171875,4381.2578125,True
1599568437.8627436,0.0,10,0.5,0.5,-7.57999059829712,-0.1005,-0.00825,-0.001,0.1925932919292048,10,1,100,0.42473017627640264,-10,-1,-100,6465.090635343804,-0.03323426843980033,0.030153277388785912,0.9989926242290211,217.3121441504603,22.782928645407793,371.90469663336427,-20.980276560587615,-17.63397216796875,4381.2578125,True
1599568437.920589,0.0,10,0.5,0.5,-8.176413648986816,-0.1005,-0.00825,-0.001,0.19033856003979688,10,1,100,0.42039919937860737,-10,-1,-100,6464.275631279801,-0.03377892835898135,0.028800405463357454,0.9990142744946464,212.3171372843833,22.297202568211237,370.20489912279425,-21.362104968924097,-12.260223388671875,4381.2578125,True
1599568437.9804292,0.0,10,0.5,0.5,-8.487448893737794,-0.1005,-0.00825,-0.001,0.25527661461523904,10,1,100,0.3931926926191284,-10,-1,-100,6463.807342086686,-0.03401468622536231,0.028175895184299655,0.9990240838195811,209.52886657446487,22.022315438534566,368.7308515993991,-21.553093136235397,-9.684417724609375,4381.2578125,True
1599568438.0382745,0.0,10,0.5,0.5,-9.274847363281252,-0.1005,-0.00825,-0.001,0.13075649174140513,10,1,100,0.42947138504022175,-10,-1,-100,6462.524065223406,-0.034548591667357104,0.02649030042228658,0.9990518799328386,200.07442459466344,21.071564307477612,361.82676308568176,-22.126336226009403,-2.40155029296875,4381.2578125,True
1599568438.0951216,0.0,10,0.5,0.5,-9.549405087280274,-0.1005,-0.00825,-0.001,0.24476912214749671,10,1,100,0.39299798161892885,-10,-1,-100,6462.054806945962,-0.034693531680208736,0.026008540304804314,0.9990595150894505,197.02473881153406,20.76043582486029,359.51519040988615,-22.317492949620714,-0.121856689453125,4381.2578125,True
1599568438.1539648,0.0,10,0.5,0.5,-10.239434639739992,-0.1005,-0.00825,-0.001,0.15681640655838244,10,1,100,0.41541366894460857,-10,-1,-100,6460.709049736266,-0.03502249653441962,0.02478311132929645,0.999079187116485,189.76011910865384,20.008676150028997,355.53416684561756,-22.89108601599711,6.273193359375,4381.2578125,True
1599568438.2148025,0.0,10,0.5,0.5,-10.670931731414795,-0.1005,-0.00825,-0.001,0.20939523357690037,10,1,100,0.4006248673627444,-10,-1,-100,6459.770547458669,-0.035181582616262135,0.024158646046232746,0.9990888929749084,198.32211270007127,20.90754184384619,378.0490333157472,-23.27330926563381,10.166656494140625,4381.2578125,True
1599568438.2726476,0.0,10,0.5,0.5,-11.075318788146973,-0.1005,-0.00825,-0.001,0.21913468327632224,10,1,100,0.3990768568533655,-10,-1,-100,6458.832540307427,-0.03530706442574553,0.02369084260220371,0.9990956686816503,205.70618876224407,21.67344078077962,398.8443381264312,-23.655271481191406,13.764312744140625,4381.2578125,True
1599568438.3294952,0.0,10,0.5,0.5,-11.286394326019288,-0.1005,-0.00825,-0.001,0.24552613377046312,10,1,100,0.39396738052447766,-10,-1,-100,6458.3632964071585,-0.03537006585994552,0.023516486374044996,0.9990975594553728,208.99216690239948,22.010854374251974,408.6303490691947,-23.84615027649511,15.452239990234375,4381.2578125,True
1599568438.3873403,0.0,10,0.5,0.5,-11.793103086090088,-0.1005,-0.00825,-0.001,0.23046216490440152,10,1,100,0.401675825737727,-10,-1,-100,6456.892099254997,-0.035493723847888556,0.023230631811648368,0.9990998615318899,217.39175265102347,22.861382584765572,435.7139633753983,-24.418378079962757,20.072402954101562,4381.2578125,True
1599568438.4461837,0.0,10,0.5,0.5,-12.099393129348755,-0.1005,-0.00825,-0.001,0.25950125114755157,10,1,100,0.3971153687197112,-10,-1,-100,6455.890641952632,-0.035562029632208815,0.023242396532906294,0.9990971589649552,221.92344861102157,23.311482049726536,452.0549961135469,-24.799534675135806,22.782989501953125,4381.2578125,True
1599568438.5060241,0.0,10,0.5,0.5,-12.375153001022339,-0.1005,-0.00825,-0.001,0.2769275870735043,10,1,100,0.39729385445211535,-10,-1,-100,6454.890658193617,-0.035623632250801444,0.023417795588700233,0.999090868577541,225.7296789141926,23.683502213370993,467.1938546308889,-25.18044662314493,25.198028564453125,4381.2578125,True
1599568438.564866,0.0,10,0.5,0.5,-12.514960203170777,-0.1005,-0.00825,-0.001,0.2752740161408245,10,1,100,0.39470965048192164,-10,-1,-100,6454.4209437817335,-0.03565446486443678,0.023567110094465504,0.9990862577660781,227.39461207683976,23.844204035984728,474.3611191972835,-25.37081672108789,26.294769287109375,4381.2578125,True
1599568438.625704,0.0,10,0.5,0.5,-12.832536938095094,-0.1005,-0.00825,-0.001,0.3373046980861437,10,1,100,0.3996351986896024,-10,-1,-100,6452.886327134445,-0.035725781516321393,0.02427095564929123,0.9990668592476273,231.77100402671758,24.261606774263406,494.8761113613585,-25.94161067194368,29.1419677734375,4381.2578125,True
1599568438.6871178,0.0,10,0.5,0.5,-12.937060584640504,-0.1005,-0.00825,-0.001,0.30189001562564777,10,1,100,0.3951790866751948,-10,-1,-100,6452.353635072941,-0.03574903455440464,0.02459088117201283,0.999058204056006,233.0826697564171,24.38564385548018,501.496058253615,-26.131775941741065,29.94342041015625,4381.2578125,True
1599568438.746957,0.0,10,0.5,0.5,-13.101285260391236,-0.1005,-0.00825,-0.001,0.35407128586964753,10,1,100,0.3982625532340403,-10,-1,-100,6451.291190366028,-0.035797245646038735,0.025357386521371365,0.9990373166969105,235.40695572208242,24.603235550690723,514.2164272878504,-26.511970101751725,31.324920654296875,4381.2578125,True
1599568438.8063097,0.0,10,0.5,0.5,-13.274785271835329,-0.1005,-0.00825,-0.001,0.44195090238641654,10,1,100,0.39872390483059583,-10,-1,-100,6449.632606519968,-0.03584456369920967,0.02685259310258423,0.9989965492917783,238.27005770509,24.8668840055137,532.2046035039297,-27.081952170871403,32.844268798828125,4381.2578125,True
1599568438.866189,0.0,10,0.5,0.5,-13.328411248397826,-0.1005,-0.00825,-0.001,0.35696822968450576,10,1,100,0.3960843493553584,-10,-1,-100,6449.100423937547,-0.03586298144224205,0.02743685301816369,0.9989800126421615,239.08663724080805,24.94105109392385,537.957591515509,-27.271871317587692,33.2032470703125,4381.2578125,True
1599568438.9280229,0.0,10,0.5,0.5,-13.408586247634888,-0.1005,-0.00825,-0.001,0.5254993182195868,10,1,100,0.39432648683977706,-10,-1,-100,6447.441399828764,-0.035863238897569386,0.029496693736813063,0.9989213047855034,241.19775919959162,25.13006529959864,554.613807419523,-27.84142785292931,33.83868408203125,4381.2578125,True
1599568438.986903,0.0,10,0.5,0.5,-13.429680204391481,-0.1005,-0.00825,-0.001,0.4065908607034554,10,1,100,0.39270605369690204,-10,-1,-100,6446.914117483189,-0.03584829339835208,0.030282853678745145,0.9988983174645444,241.80136683918965,25.183163120046665,559.985749519925,-28.03121809208987,33.9033203125,4381.2578125,True
1599568439.0437512,0.0,10,0.5,0.5,-13.43172108230591,-0.1005,-0.00825,-0.001,0.5153432288058039,10,1,100,0.3924024091220436,-10,-1,-100,6445.786813668907,-0.035831623839700844,0.0319797913160983,0.9988460280145228,242.87313117299783,25.275857646050323,570.4799713396649,-28.410713826109593,33.8116455078125,4381.2578125,True
1599568439.1015966,0.0,10,0.5,0.5,-13.401820516967774,-0.1005,-0.00825,-0.001,0.5599719273484566,10,1,100,0.38126741806442266,-10,-1,-100,6444.593125232146,-0.03571499741839636,0.033920234250640564,0.99878619166856,243.77172552766027,25.351088129712192,580.6451081115155,-28.790105764087777,33.426513671875,4381.2578125,True
1599568439.1602046,0.0,10,0.5,0.5,-13.294399323272705,-0.1005,-0.00825,-0.001,0.7254222936259356,10,1,100,0.3701196165664386,-10,-1,-100,6442.877591458149,-0.0355075466898037,0.03717881984941794,0.9986776003709483,244.78839033503016,25.429902519847676,595.2249380569446,-29.359021812458444,32.29750061035156,4381.2578125,True
1599568439.2200432,0.0,10,0.5,0.5,-13.247396597671509,-0.1005,-0.00825,-0.001,0.5328618839745369,10,1,100,0.37847839959853813,-10,-1,-100,6442.278092445224,-0.03539507761698822,0.03837824693351652,0.9986362193725988,245.0321854637371,25.44626642989463,599.8820930801543,-29.548620212889123,31.774505615234375,4381.2578125,True
1599568439.279775,0.0,10,0.5,0.5,-13.046210187911988,-0.1005,-0.00825,-0.001,0.8469217944273828,10,1,100,0.3345690048827368,-10,-1,-100,6440.490869828733,-0.034893957329648076,0.04231090047655544,0.9984949671594442,245.43265830723666,25.460579293268328,613.1005306571094,-30.117315938327003,29.765823364257812,4381.2578125,True
1599568439.3406126,0.0,10,0.5,0.5,-12.965255130004882,-0.1005,-0.00825,-0.001,0.612546153032813,10,1,100,0.3586255538060965,-10,-1,-100,6439.897262156475,-0.03465786667430099,0.04373924330363606,0.998441641195324,245.43681165188443,25.451751777550665,617.1992749668607,-30.306853540049172,28.94989013671875,4381.2578125,True
1599568439.4007711,0.0,10,0.5,0.5,-12.671053954315186,-0.1005,-0.00825,-0.001,0.9761449092152893,10,1,100,0.2872367838090681,-10,-1,-100,6438.057901116554,-0.033795285786714056,0.0483264692419298,0.9982597011946357,244.97972589872865,25.37617475882878,628.3217139387323,-30.875408364969402,26.0626220703125,4381.2578125,True
1599568439.460611,0.0,10,0.5,0.5,-12.555836178588867,-0.1005,-0.00825,-0.001,0.7012824495805324,10,1,100,0.32865039950821656,-10,-1,-100,6437.399879307719,-0.03338947173882046,0.04997840330175419,0.9981920167885585,244.64622619120675,25.332179936531972,631.5620505876514,-31.06491450031681,24.954147338867188,4381.2578125,True
1599568439.5204504,0.0,10,0.5,0.5,-12.302811883163454,-0.1005,-0.00825,-0.001,0.9153595447487293,10,1,100,0.27739927561290867,-10,-1,-100,6436.144903534907,-0.032556879214144775,0.05340582463013852,0.9980420169068086,243.66114116669763,25.211562047401383,637.1946810907776,-31.443921481076792,22.517425537109375,4381.2578125,True
1599568440.0740092,0.0,10,0.5,0.5,-12.018979718399049,-0.1005,-0.00825,-0.001,0.9784906965494504,10,1,100,0.2271822397166552,-10,-1,-100,6434.899251218652,-0.03134646419236769,0.05707384618968236,0.9978777356288459,242.19168869468064,25.041854384681667,641.5027883178528,-31.822937137669783,19.7890625,4381.2578125,True
1599568440.1318536,0.0,10,0.5,0.5,-11.539049673843385,-0.1005,-0.00825,-0.001,1.2550822360468552,10,1,100,0.11577659773903565,-10,-1,-100,6432.980087867472,-0.0292374009084156,0.0628985243369614,0.9975915747560988,238.90735585364885,24.67987581860532,644.9129155935309,-32.39151763922967,15.148529052734375,4381.2578125,True
1599568440.1936886,0.0,10,0.5,0.5,-11.356476012802124,-0.1005,-0.00825,-0.001,0.8990210018818592,10,1,100,0.23029428132127955,-10,-1,-100,6432.329489756841,-0.02836713524914436,0.06492865803933251,0.9974866289845535,237.48660153023607,24.52736647952227,645.1038572157867,-32.58106869946684,13.45574951171875,4381.2578125,True
1599568440.2535286,0.0,10,0.5,0.5,-10.781736170578002,-0.1005,-0.00825,-0.001,1.3874880105292695,10,1,100,-0.023095324440774445,-10,-1,-100,6430.286466586986,-0.02527912265394206,0.07118665382574753,0.997142630858264,232.102804162383,23.962470024419673,642.3249621469408,-33.14981968490027,7.938934326171875,4381.2578125,True
1599568440.3153632,0.0,10,0.5,0.5,-10.356792742919922,-0.1005,-0.00825,-0.001,1.2386522411703549,10,1,100,0.01402450449124465,-10,-1,-100,6428.974161756923,-0.022818590034081838,0.07549177224288348,0.9968853014627536,227.46722586252832,23.487222059751453,637.2679460711306,-33.52908020720419,3.89593505859375,4381.2578125,True
1599568440.376201,0.0,10,0.5,0.5,-10.121547499847413,-0.1005,-0.00825,-0.001,1.0525847179653196,10,1,100,0.10966657811299499,-10,-1,-100,6428.3236485417,-0.021462648764936552,0.07768025375177096,0.9967472763369126,224.8093714423497,23.218002439584648,633.6707784521433,-33.71873952617867,1.7650146484375,4381.2578125,True
1599568440.4370544,0.0,10,0.5,0.5,-9.160847833633424,-0.1005,-0.00825,-0.001,1.7819161596934576,10,1,100,-0.46067116249660606,-10,-1,-100,6425.571327574551,-0.015057296613412385,0.08626791427258336,0.9961581826124574,211.81413129261685,21.92469185999426,611.5874237221971,-34.47754502086194,-7.493408203125,4381.2578125,True
1599568440.4971979,0.0,10,0.5,0.5,-9.140040535354615,-0.1005,-0.00825,-0.001,0.9274029747091119,10,1,100,0.17790399564972184,-10,-1,-100,6425.571327574551,-0.015057296613412385,0.08626791427258336,0.9961581826124574,211.81413129261685,21.92469185999426,611.5874237221971,-34.47754502086194,-7.493408203125,4381.2578125,True
1599568440.5570407,0.0,10,0.5,0.5,-8.32929707221985,-0.1005,-0.00825,-0.001,1.6160305003685482,10,1,100,-0.4556433809468973,-10,-1,-100,6423.473037719959,-0.009314809543600666,0.09249367228309582,0.995669701713753,216.83375931669698,22.518493534178234,637.2642351446729,-35.04635333647137,-15.208282470703125,4381.2578125,True
1599568440.6198707,0.0,10,0.5,0.5,-8.027813305664063,-0.1005,-0.00825,-0.001,1.210972239272261,10,1,100,-0.11122428290037772,-10,-1,-100,6422.749857967137,-0.007247335518917665,0.09443245421997605,0.995504890855825,219.85316166647027,22.86352914960447,649.9145552357803,-35.23576237750777,-17.928131103515625,4381.2578125,True
1599568440.6807072,0.0,10,0.5,0.5,-7.124447705078125,-0.1005,-0.00825,-0.001,1.6558563719467119,10,1,100,-0.6515967837069561,-10,-1,-100,6420.658509903122,-0.0004783450743235207,0.10020208752364414,0.9949669908302958,229.3445110029163,23.96269086813958,689.7661740220801,-35.80333327867419,-26.526336669921875,4381.2578125,True
1599568440.740548,0.0,10,0.5,0.5,-6.475347455596924,-0.1005,-0.00825,-0.001,1.4611761821165559,10,1,100,-0.5124770096768893,-10,-1,-100,6419.215145410271,0.004382495457654145,0.10363818130912829,0.9946054097522795,234.5320881454673,24.58705032879842,713.3808276622466,-36.181177061896186,-32.629669189453125,4381.2578125,True
1599568440.8003888,0.0,10,0.5,0.5,-5.456162985992432,-0.1005,-0.00825,-0.001,1.610756931166792,10,1,100,-0.8734622938137189,-10,-1,-100,6416.999811326852,0.012052562254908592,0.1080846918718686,0.994068626970017,241.13601751528623,25.402848915081773,745.7783259493274,-36.74720280385483,-42.342681884765625,4381.2578125,True
1599568440.8592303,0.0,10,0.5,0.5,-5.419842292785645,-0.1005,-0.00825,-0.001,1.170421478276014,10,1,100,-0.11049758383867948,-10,-1,-100,6416.999811326852,0.012052562254908592,0.1080846918718686,0.994068626970017,241.13601751528623,25.402848915081773,745.7783259493274,-36.74720280385483,-42.342681884765625,4381.2578125,True
1599568440.9180725,0.0,10,0.5,0.5,-4.6833631179809565,-0.1005,-0.00825,-0.001,1.4475558896380427,10,1,100,-0.7014760374850944,-10,-1,-100,6415.496845172951,0.0173911557563225,0.11057055194057239,0.9937161067151004,244.00379099810544,25.778822052515135,762.9259804807627,-37.12414614842102,-49.18994140625,4381.2578125,True
1599568440.9759188,0.0,10,0.5,0.5,-3.9209007812500003,-0.1005,-0.00825,-0.001,1.4135793301140476,10,1,100,-0.7520162502570338,-10,-1,-100,6413.994797096937,0.02266732474117968,0.11248965711672343,0.993394317192745,245.1785092447973,25.965429338811745,774.9072805436842,-37.500879578140996,-56.337860107421875,4381.2578125,True
1599568441.034981,0.0,10,0.5,0.5,-3.1245570960998537,-0.1005,-0.00825,-0.001,1.4017473776215077,10,1,100,-0.8423886741399365,-10,-1,-100,6412.498562554247,0.028245291332252488,0.11409509006932406,0.9930682322678683,244.46006361662268,25.93859862701849,780.9244351612886,-37.87752220278789,-63.781768798828125,4381.2578125,True
1599568441.0948217,0.0,10,0.5,0.5,-2.2993965423583984,-0.1005,-0.00825,-0.001,1.35291657511092,10,1,100,-0.8685536164876488,-10,-1,-100,6411.000308705145,0.033514667174620004,0.11508536075268588,0.9927900718805555,241.60730974767344,25.672785011508306,780.0208799503888,-38.25419810328424,-71.52725219726562,4381.2578125,True
1599568441.154661,0.0,10,0.5,0.5,-1.0183143333435059,-0.1005,-0.00825,-0.001,1.330942570526712,10,1,100,-1.1946272270002507,-10,-1,-100,6408.659501382848,0.04122515806889773,0.11575964547181283,0.9924213776528772,233.09187187912107,24.808396315334768,764.4678279841788,-38.81951606583273,-83.70458984375,4381.2578125,True
1599568441.214485,0.0,10,0.5,0.5,-0.11210572204589839,-0.1005,-0.00825,-0.001,1.2542399532986672,10,1,100,-0.9570985827492476,-10,-1,-100,6407.093623747234,0.046029398509038824,0.11565418417513809,0.9922224569902052,224.47687797723043,23.917774416629673,743.9222826452312,-39.19671228054861,-92.19598388671875,4381.2578125,True
1599568441.274325,0.0,10,0.5,0.5,0.8327536392211914,-0.1005,-0.00825,-0.001,1.2124227952344258,10,1,100,-0.9678810016368689,-10,-1,-100,6405.528607701417,0.050446478413574594,0.11515886180489053,0.9920653150692604,213.49364690182077,22.780475943629764,714.8811797255811,-39.57419895468767,-100.98494720458984,4381.2578125,True
1599568441.3381538,0.0,10,0.5,0.5,1.803554044151306,-0.1005,-0.00825,-0.001,1.1734271817262352,10,1,100,-0.9685845974487123,-10,-1,-100,6403.900486711413,0.05442210663099851,0.11434046609615352,0.9919498435519603,200.2039106702596,21.406262932002512,677.2860405498961,-39.951953198036136,-110.03086853027344,4381.2578125,True
1599568441.3999884,0.0,10,0.5,0.5,2.780760230445862,-0.1005,-0.00825,-0.001,1.1385013264171462,10,1,100,-0.959666008781979,-10,-1,-100,6402.328406020184,0.05790974546698327,0.11326923287195813,0.9918752654767369,206.96524776069955,22.189017042780375,707.277906986636,-40.32945447158613,-119.11851501464844,4381.2578125,True
1599568441.460826,0.0,10,0.5,0.5,4.178648632621766,-0.1005,-0.00825,-0.001,1.038223493600877,10,1,100,-1.0807207518857598,-10,-1,-100,6399.8651146934135,0.06213913554317463,0.11137905460526888,0.9918333700925691,220.16864619723432,23.709275687990434,763.6921315936514,-40.89461916152942,-132.35630798339844,4381.2578125,True
1599568441.5211806,0.0,10,0.5,0.5,4.673083709907532,-0.1005,-0.00825,-0.001,1.1543427101383492,10,1,100,-0.7879781773748991,-10,-1,-100,6399.078965866705,0.0632772062320787,0.11071334509249804,0.991835949333302,223.16030336153563,24.064904717867783,777.8690136503145,-41.08277838709477,-136.62637329101562,4381.2578125,True
1599568441.583055,0.0,10,0.5,0.5,5.584918351173401,-0.1005,-0.00825,-0.001,1.0766620954450368,10,1,100,-0.883183220884834,-10,-1,-100,6397.387961740955,0.0651356017534675,0.1094018374080836,0.9918611754454093,227.85155824910024,24.631992913403646,801.967070706697,-41.458856502427416,-144.94134521484375,4381.2578125,True
1599568441.6424413,0.0,10,0.5,0.5,6.0601617036819455,-0.1005,-0.00825,-0.001,1.138741054984946,10,1,100,-0.7813038088958477,-10,-1,-100,6396.542681607651,0.06586026823027354,0.10877671898144113,0.9918820748840402,229.56525049820328,24.843803491278507,811.8986370189073,-41.646805597339004,-148.98529052734375,4381.2578125,True
1599568441.701284,0.0,10,0.5,0.5,7.311638752174378,-0.1005,-0.00825,-0.001,1.0060880961337657,10,1,100,-0.8703865353620023,-10,-1,-100,6394.069261187222,0.06729470347079132,0.10700732839592624,0.9919782530652297,231.34588576677243,25.09971825085542,830.0067184538345,-42.21051065064644,-160.66241455078125,4381.2578125,True
1599568441.7601256,0.0,10,0.5,0.5,8.124882490730286,-0.1005,-0.00825,-0.001,1.0787546253254465,10,1,100,-0.7674184596151437,-10,-1,-100,6392.319525458734,0.06763195296783953,0.10606673997661593,0.992056331872585,230.1023391783284,24.995892484420505,833.4122315148597,-42.58634085336065,-168.06521606445312,4381.2578125,True
1599568441.820963,0.0,10,0.5,0.5,8.90734373111725,-0.1005,-0.00825,-0.001,1.0952664769660951,10,1,100,-0.7234385568894475,-10,-1,-100,6390.6186045516515,0.06751471994501435,0.10537057906988083,0.992138500239369,227.2773511707227,24.71594840139516,830.9895436936798,-42.96228622062188,-175.16143798828125,4381.2578125,True
1599568441.8808024,0.0,10,0.5,0.5,9.31711084842682,-0.1005,-0.00825,-0.001,1.1384251624347737,10,1,100,-0.7134776694755125,-10,-1,-100,6389.776693264837,0.06729805883737752,0.10513940593629623,0.992177744457153,225.3671223721734,24.521601440413463,827.8921347525247,-43.1503160657817,-178.5941162109375,4381.2578125,True
1599568441.9406455,0.0,10,0.5,0.5,-26.488802054977416,-0.1005,-0.00825,-0.001,1.131048663356208,10,1,100,-0.6565909653657181,-10,-1,-100,6388.023546725279,0.06656862271996064,0.10487129805584017,0.9922553246585532,220.74220881796649,24.047351681328674,818.5444602548196,-43.52650108712412,174.77049255371094,4381.2578125,True
1599568442.000483,0.0,10,0.5,0.5,-25.11728182411194,-0.1005,-0.00825,-0.001,1.2151483167050363,10,1,100,-0.45368710246262883,-10,-1,-100,6384.5105339558795,0.06404987611765452,0.1054007142568152,0.9923650048260803,209.18503629610774,22.864848529623657,790.2500760468228,-44.27934483253935,162.4245147705078,4381.2578125,True
1599568442.567158,0.0,10,0.5,0.5,-25.361900801467897,-0.1005,-0.00825,-0.001,1.1614198447460187,10,1,100,-0.7061757757583084,-10,-1,-100,6384.5105339558795,0.06404987611765452,0.1054007142568152,0.9923650048260803,209.18503629610774,22.864848529623657,790.2500760468228,-44.27934483253935,162.4245147705078,4381.2578125,True
1599568442.6290278,0.0,10,0.5,0.5,-25.302345087051393,-0.1005,-0.00825,-0.001,1.2007007395910017,10,1,100,-0.6156925003877642,-10,-1,-100,6383.599358231877,0.06322556385012731,0.10576324815572273,0.9923792941287038,205.9962220729082,22.54112865649794,781.7963966303271,-44.467637801813694,159.44175720214844,4381.2578125,True
1599568442.697815,0.0,10,0.5,0.5,-24.928176879119874,-0.1005,-0.00825,-0.001,1.2735591045811563,10,1,100,-0.49334008654899364,-10,-1,-100,6381.84298102872,0.06136394133782463,0.10675967328821896,0.9923894592663108,209.86148122090282,23.022796884612394,803.7855643821365,-44.844062437264256,153.31951904296875,4381.2578125,True
1599568442.768626,0.0,10,0.5,0.5,-24.85980051803589,-0.1005,-0.00825,-0.001,1.249512834393595,10,1,100,-0.5690411718731738,-10,-1,-100,6380.946028353646,0.06036317770269259,0.10744931382889213,0.9923764062770404,214.2005121935558,23.53233714912022,824.1372624050425,-45.032106024176755,150.1612548828125,4381.2578125,True
1599568442.8354473,0.0,10,0.5,0.5,-24.105379224395755,-0.1005,-0.00825,-0.001,1.4690598920619296,10,1,100,-0.30176872972399316,-10,-1,-100,6378.212853853358,0.05702864046078689,0.11007334884935491,0.9922860434573705,226.89741963959906,25.04354222505794,884.8301316198456,-45.59553347344576,140.26593017578125,4381.2578125,True
1599568442.908253,0.0,10,0.5,0.5,-23.65817614517212,-0.1005,-0.00825,-0.001,1.45973055437109,10,1,100,-0.3690489667156922,-10,-1,-100,6376.394803857314,0.05461821427080626,0.11237123577944669,0.9921640771763853,234.43714728539135,25.959023183267714,922.3684049972683,-45.97059265717219,133.3165283203125,4381.2578125,True
1599568442.9800603,0.0,10,0.5,0.5,-23.179702543640136,-0.1005,-0.00825,-0.001,1.5296499664616505,10,1,100,-0.3298903690454854,-10,-1,-100,6374.5139189529,0.05208276115445565,0.11509012355689628,0.9919887345379413,241.43821713665014,26.817563928085274,958.2787012816765,-46.34525128375156,126.08438110351562,4381.2578125,True
1599568443.0488772,0.0,10,0.5,0.5,-22.672770589447023,-0.1005,-0.00825,-0.001,1.6061634942156808,10,1,100,-0.29465177071599774,-10,-1,-100,6372.62147627899,0.04947148193549662,0.11824858129371708,0.9917508989142028,247.70536616396515,27.592770601046084,991.733736918376,-46.71956191485312,118.57017517089844,4381.2578125,True
1599568443.119688,0.0,10,0.5,0.5,-22.533381142044068,-0.1005,-0.00825,-0.001,1.4839096061776405,10,1,100,-0.4103629629750907,-10,-1,-100,6371.697539363522,0.04816571764507279,0.11999659009470161,0.991605204710715,250.299245240014,27.918388868807536,1006.4588530183078,-46.906618132047555,114.70747375488281,4381.2578125,True
1599568443.1974795,0.0,10,0.5,0.5,-21.26860461845398,-0.1005,-0.00825,-0.001,1.9569080805787948,10,1,100,-0.10771430266352794,-10,-1,-100,6368.800539050018,0.044244037655559544,0.12587192487011725,0.991059394618418,255.45710119406667,28.591950619224946,1040.5418951384754,-47.46757046953268,102.69676208496094,4381.2578125,True
1599568443.2692873,0.0,10,0.5,0.5,-20.38293461494446,-0.1005,-0.00825,-0.001,1.860988301010472,10,1,100,-0.2230842913395469,-10,-1,-100,6366.892590292613,0.04174569741529503,0.130322530114771,0.9905924161287502,256.3360311606443,28.747494257568256,1053.1237770392715,-47.841517078473636,94.33808898925781,4381.2578125,True
1599568443.3371065,0.0,10,0.5,0.5,-19.458183731460572,-0.1005,-0.00825,-0.001,1.9526827086892626,10,1,100,-0.2066376098999584,-10,-1,-100,6364.953140222584,0.03934524025533318,0.13517946421075616,0.9900396277548403,254.81533531307082,28.633537000618965,1055.9064146343453,-48.2155862130691,85.69830322265625,4381.2578125,True
1599568443.406919,0.0,10,0.5,0.5,-18.50055269546509,-0.1005,-0.00825,-0.001,2.0484346500400448,10,1,100,-0.19977071485536613,-10,-1,-100,6363.010517736897,0.037122289540048654,0.1404385890229725,0.9893932172460762,250.64416958834516,28.22865155516081,1047.5889423346703,-48.589869709088774,76.77778625488281,4381.2578125,True
1599568443.472744,0.0,10,0.5,0.5,-17.982907291793826,-0.1005,-0.00825,-0.001,1.8298293114703075,10,1,100,-0.3081222843814988,-10,-1,-100,6362.038326357375,0.03610847738711645,0.1432016731236854,0.989034609442643,247.4942708335493,27.911391031834057,1038.8782958956622,-48.77710974769533,72.21208190917969,4381.2578125,True
1599568443.5365732,0.0,10,0.5,0.5,-16.974930728912355,-0.1005,-0.00825,-0.001,2.1936484633577016,10,1,100,-0.20382486955089435,-10,-1,-100,6360.035055725952,0.03426072138627766,0.14898851245122363,0.9882452257044622,238.94221363170047,27.03627298128096,1011.6139926893634,-49.15179604106888,62.869873046875,4381.2578125,True
1599568443.6009104,0.0,10,0.5,0.5,-15.943626177215576,-0.1005,-0.00825,-0.001,2.289670448605426,10,1,100,-0.21712881992467,-10,-1,-100,6358.094060160569,0.03272258631534445,0.15508682519341782,0.9873587539472474,235.67652932449118,26.781852734622994,1006.3014166043753,-49.526574290659745,53.24627685546875,4381.2578125,True
1599568443.6633232,0.0,10,0.5,0.5,-14.881729123687744,-0.1005,-0.00825,-0.001,2.379609133230971,10,1,100,-0.24319997546604635,-10,-1,-100,6356.091794216307,0.03158119732664992,0.16140953791981388,0.9863820705203067,251.99193063120492,28.782444015512638,1085.0177204562387,-49.90055363574731,43.340240478515625,4381.2578125,True
1599568443.7261562,0.0,10,0.5,0.5,-13.789293531036378,-0.1005,-0.00825,-0.001,2.4726609437588873,10,1,100,-0.27111569573734434,-10,-1,-100,6354.08732912736,0.030815988033782882,0.16796127557191598,0.9853118210951073,266.23533508442284,30.573636949581207,1155.8442303617576,-50.2736674981273,33.15228271484375,4381.2578125,True
1599568443.8079376,0.0,10,0.5,0.5,-12.124001160812378,-0.1005,-0.00825,-0.001,2.9242379586701395,10,1,100,-0.31354639432039944,-10,-1,-100,6351.051985102007,0.03052303638547854,0.17797745294185818,0.983561065971066,283.41706133350374,32.79580420896027,1245.5294128007017,-50.832064104497,17.339370727539062,4381.2578125,True
1599568443.869255,0.0,10,0.5,0.5,-11.5100989818573,-0.1005,-0.00825,-0.001,2.297609037813481,10,1,100,-0.35546019599561196,-10,-1,-100,6350.019951713388,0.030653790067030704,0.18133373230415678,0.9829437535704527,287.82429778380094,33.38187588446269,1270.0162281792848,-51.01796341718155,11.92669677734375,4381.2578125,True
1599568443.9320865,0.0,10,0.5,0.5,-10.320235848999022,-0.1005,-0.00825,-0.001,2.7014142864963873,10,1,100,-0.4076297990471239,-10,-1,-100,6347.955991845694,0.03125928093944508,0.18800543234206007,0.9816704206428062,293.4748666662202,34.180002950715064,1305.4594583650712,-51.38963523711782,0.88836669921875,4381.2578125,True
1599568443.993921,0.0,10,0.5,0.5,-8.519416530990602,-0.1005,-0.00825,-0.001,3.1113500934548126,10,1,100,-0.5352974447749582,-10,-1,-100,6344.859247004613,0.032979875254143774,0.19774486434684213,0.9796985742832691,292.84629597198256,34.31348178398147,1318.6855168450616,-51.94735232824108,-16.202880859375,4381.2578125,True
1599568444.0537605,0.0,10,0.5,0.5,-7.859710648727417,-0.1005,-0.00825,-0.001,2.4888918583947834,10,1,100,-0.44740331634176744,-10,-1,-100,6343.826366737136,0.033750801068114664,0.20088330457779274,0.9790335956284474,289.94496565166133,34.049705135316884,1310.9926867649929,-52.133419410943674,-22.042572021484375,4381.2578125,True
1599568444.1156292,0.0,10,0.5,0.5,-6.576784378051758,-0.1005,-0.00825,-0.001,2.846340138594316,10,1,100,-0.5665881013788138,-10,-1,-100,6341.699554936495,0.03553820575249038,0.2069310121390574,0.977709871151457,279.8350216736899,33.03659335446903,1275.7281989408739,-52.50586590054615,-33.936553955078125,4381.2578125,True
1599568444.1760342,0.0,10,0.5,0.5,-4.635643653488159,-0.1005,-0.00825,-0.001,3.1715048259601257,10,1,100,-0.7325292533008618,-10,-1,-100,6338.541169969481,0.03867219345724567,0.21532703495351865,0.9757759627452048,266.7570385861999,31.825394625449125,1230.975381237662,-53.06497308656868,-52.31549072265625,4381.2578125,True
1599568444.2378685,0.0,10,0.5,0.5,-3.2789107875823977,-0.1005,-0.00825,-0.001,2.9007623918306624,10,1,100,-0.6701171636072838,-10,-1,-100,6336.414102566661,0.040949880126107986,0.2204381803632135,0.9745409770532035,287.4219161968473,34.56748872720075,1336.7781577092458,-53.43644933154729,-64.92715454101562,4381.2578125,True
1599568444.297709,0.0,10,0.5,0.5,-1.884769818496704,-0.1005,-0.00825,-0.001,2.9134385933887783,10,1,100,-0.6915484120257925,-10,-1,-100,6334.287840293022,0.04320785454359584,0.22514050406331004,0.9733677797913068,302.811752332266,36.698278867033174,1419.1932099793892,-53.80681638929333,-77.82626342773438,4381.2578125,True
1599568444.3577151,0.0,10,0.5,0.5,-0.4594145961761474,-0.1005,-0.00825,-0.001,2.926228298682358,10,1,100,-0.7056380455879663,-10,-1,-100,6332.097910249839,0.04537807644895279,0.22947367659684537,0.9722564794985525,313.62409418404724,38.26387017038215,1481.0713490389212,-54.176542507127664,-91.01140594482422,4381.2578125,True
1599568444.4192715,0.0,10,0.5,0.5,0.9970241662979127,-0.1005,-0.00825,-0.001,2.9386181723232054,10,1,100,-0.7082610023693221,-10,-1,-100,6329.908281020587,0.04736161225327582,0.23346963920495342,0.9712099697049444,317.1694603966704,38.923073306702946,1509.3044283491065,-54.5461765553277,-104.48124694824219,4381.2578125,True
1599568444.4826472,0.0,10,0.5,0.5,1.7784220537185669,-0.1005,-0.00825,-0.001,2.7531858905645947,10,1,100,-0.6093248798117711,-10,-1,-100,6328.812915232265,0.04825009952862103,0.23536613702700693,0.9707083544692826,315.7426094600748,38.8574420457568,1508.3325683190128,-54.731120900186355,-111.3222885131836,4381.2578125,True
1599568444.5444827,0.0,10,0.5,0.5,3.275108596801758,-0.1005,-0.00825,-0.001,2.970184950512735,10,1,100,-0.6909938438421697,-10,-1,-100,6326.622079908382,0.0497842637160643,0.2390138243150179,0.9697390983520048,306.1169162398539,37.90279528453507,1473.8171778950964,-55.10146873158079,-125.13359069824219,4381.2578125,True
1599568444.6098204,0.0,10,0.5,0.5,4.758207944869995,-0.1005,-0.00825,-0.001,2.9996687694048574,10,1,100,-0.669056884717607,-10,-1,-100,6324.431155619328,0.050962690637356145,0.24255156711952627,0.9687990201537484,287.63599713221396,35.87820343989811,1395.7091643648582,-55.47249553250145,-138.85716247558594,4381.2578125,True
1599568444.6706579,0.0,10,0.5,0.5,6.881207900238038,-0.1005,-0.00825,-0.001,3.232650533388464,10,1,100,-0.6728281659691963,-10,-1,-100,6321.082243058947,0.05205192419956026,0.24784497961186425,0.9674003634836602,295.4751642613192,37.35097458884614,1450.1010740027382,-56.02861361007959,-158.91168212890625,4381.2578125,True
1599568445.1793869,0.0,10,0.5,0.5,7.636797126770021,-0.1005,-0.00825,-0.001,2.9094030467032663,10,1,100,-0.5854702719459215,-10,-1,-100,6319.924305064138,0.05223133647123291,0.24967586683954782,0.966919773822187,306.88840038431664,38.96742949771004,1511.6382585972626,-56.213207829194104,-165.44100952148438,4381.2578125,True
1599568445.228238,0.0,10,0.5,0.5,9.040184863281251,-0.1005,-0.00825,-0.001,3.148789227959985,10,1,100,-0.5820628645754954,-10,-1,-100,6317.670545696281,0.052348286532368955,0.2534776888264117,0.9659237641575786,324.36615606314996,41.5275657408972,1609.3369529767967,-56.581616168930736,-178.262939453125,4381.2578125,True
1599568445.2831004,0.0,10,0.5,0.5,9.131269578552248,-0.1005,-0.00825,-0.001,2.7724220946608864,10,1,100,-0.5717354677694032,-10,-1,-100,6317.670545696281,0.052348286532368955,0.2534776888264117,0.9659237641575786,324.36615606314996,41.5275657408972,1609.3369529767967,-56.581616168930736,-178.262939453125,4381.2578125,True
1599568445.3414295,0.0,10,0.5,0.5,-26.04605868301392,-0.1005,-0.00825,-0.001,3.2230014670939564,10,1,100,-0.5535372432240582,-10,-1,-100,6315.416010279558,0.05217248593976922,0.2575438290226549,0.9648570919277186,336.2639153277011,43.364205274287634,1680.5233747562718,-56.94947910342334,169.23292541503906,4381.2578125,True
1599568445.3993077,0.0,10,0.5,0.5,-24.665629530715943,-0.1005,-0.00825,-0.001,3.3034375732776717,10,1,100,-0.5264654894954764,-10,-1,-100,6313.100210051751,0.051758410702240375,0.2619420998709467,0.9636946628661889,340.0001627530179,44.146265223473335,1711.813880999716,-57.317375508278765,157.04812622070312,4381.2578125,True
1599568445.4561467,0.0,10,0.5,0.5,-23.079320652198792,-0.1005,-0.00825,-0.001,3.6733923607504604,10,1,100,-0.46908107697777224,-10,-1,-100,6309.626884274301,0.050854501886822945,0.26927423650707905,0.9617199203465492,330.9534098282868,43.46614562930744,1685.3357955343147,-57.870028841987725,139.28317260742188,4381.2578125,True
