Timestamp,Input Throttle,horizon,dT,dt,Input Roll,Roll P,Roll I,Roll D,Input Pitch,Pitch P,Pitch I,Pitch D,Input Yaw,Yaw P,Yaw I,Yaw D,Altitude,Direction X,Direction Y,Direction Z,Drag X,Drag Y,Drag Z,Vertical Velocity,Roll,Mass,Has Fuel
1599572780.353646,0.0,10,0.5,0.5,-10.812979194641114,-0.2,-0.00825,-0.37525,-0.06666054655183884,10,1,100,0.6931903596288254,-10,-1,-100,6483.997882808326,-0.06744592090064182,-0.006971604037773228,0.9976985739646043,204.61199716638288,21.456724573505824,-150.2666076041451,9.210801700725868,-35.94134521484375,4381.2578125,True
1599572780.4354248,0.0,10,0.5,0.5,-10.858313088989258,-0.2,-0.00825,-0.37525,-0.06671345518589315,10,1,100,0.7028073320343685,-10,-1,-100,6484.3167654598365,-0.06764231663644078,-0.006937969986903988,0.9976855123597397,204.1498977906504,21.414399443052922,-143.78965367163445,8.830797940249417,-35.937896728515625,4381.2578125,True
1599572780.525185,0.0,10,0.5,0.5,-10.879026689910889,-0.2,-0.00825,-0.37525,-0.051333739266043746,10,1,100,0.7034384169176779,-10,-1,-100,6484.6971676006215,-0.06776510233461862,-0.006761270732308862,0.9976783931326082,203.68466663971208,21.37155186062838,-137.333029802857,8.450806313413729,-35.9771728515625,4381.2578125,True
1599572780.608961,0.0,10,0.5,0.5,-10.87889185562134,-0.2,-0.00825,-0.37525,-0.05225770842010487,10,1,100,0.7005706259705413,-10,-1,-100,6484.8568439837545,-0.0677890502313203,-0.006602888156139022,0.9976778270247028,203.47710473234784,21.35264886172787,-134.12974591889505,8.260812749042822,-36.08050537109375,4381.2578125,True
1599572780.692737,0.0,10,0.5,0.5,-10.540052852630616,-0.2,-0.00825,-0.37525,0.0028579791068302357,10,1,100,0.7020235972596536,-10,-1,-100,6485.33437078842,-0.06776240346710347,-0.005951849665597813,0.9976837335357933,202.97772160415636,21.308063296587562,-124.62522128378248,7.69082834796675,-36.81427001953125,4381.2578125,True
1599572780.777289,0.0,10,0.5,0.5,-10.634832561492921,-0.2,-0.00825,-0.37525,-0.02764955949644659,10,1,100,0.7037704046883895,-10,-1,-100,6485.494021835504,-0.06769245701856112,-0.005631926979985051,0.9976903390638211,202.84681098882032,21.296550210353043,-121.48576769628438,7.500829086533245,-37.204437255859375,4381.2578125,True
1599572780.8700445,0.0,10,0.5,0.5,-10.249303382873537,-0.2,-0.00825,-0.37525,0.028293607824752022,10,1,100,0.6912756015808407,-10,-1,-100,6485.7503155764425,-0.06745374162161895,-0.004827393992889839,0.9977107241121953,202.61016504402764,21.275417539706414,-115.22916425888083,7.120817766281645,-38.204864501953125,4381.2578125,True
1599572780.958805,0.0,10,0.5,0.5,-9.487258788299561,-0.2,-0.00825,-0.37525,0.1228437431553269,10,1,100,0.6502787842860528,-10,-1,-100,6486.1637574937195,-0.06680270770206288,-0.003232065143440884,0.9977609693702101,202.22110351671242,21.237933288459615,-105.84366668414592,6.550753067188271,-40.2564697265625,4381.2578125,True
1599572781.059535,0.0,10,0.5,0.5,-9.300041516876222,-0.2,-0.00825,-0.37525,0.10780984973553291,10,1,100,0.6525196118218684,-10,-1,-100,6486.419984747539,-0.06617050010942654,-0.001915499706718651,0.9978064921497264,201.83830036315524,21.198297601171415,-99.53911350148942,6.170665007213879,-41.9915771484375,4381.2578125,True
1599572781.1323402,0.0,10,0.5,0.5,-8.823306722259522,-0.2,-0.00825,-0.37525,0.13880317174987022,10,1,100,0.6323221083219608,-10,-1,-100,6486.675209795008,-0.06535199726602214,-0.0004351232007438104,0.9978621784200171,201.25508583572037,21.13616320022959,-93.15995751987126,5.790528292001483,-44.021026611328125,4381.2578125,True
1599572781.2161205,0.0,10,0.5,0.5,-8.975581370544434,-0.2,-0.00825,-0.37525,0.07849342850302406,10,1,100,0.6678145851553522,-10,-1,-100,6486.772295033792,-0.06487115174571623,0.0003627987962626649,0.9978935825268231,200.8556522220155,21.093226055423315,-89.93346076659736,5.600437237043434,-45.1461181640625,4381.2578125,True
1599572781.3026242,0.0,10,0.5,0.5,-7.19450945892334,-0.2,-0.00825,-0.37525,0.28712848165470417,10,1,100,0.5244121554164589,-10,-1,-100,6487.062049153843,-0.06313270170158902,0.0029781970923437925,0.998000697553833,199.0430467134269,20.897831811931336,-80.07181019843271,5.030046095390912,-48.9630126953125,4381.2578125,True
1599572781.38438,0.0,10,0.5,0.5,-6.9405113883972165,-0.2,-0.00825,-0.37525,0.2360443085504289,10,1,100,0.5412909613767563,-10,-1,-100,6487.254702495411,-0.061709835911053224,0.004882415635942999,0.9980821900872636,197.16222754846245,20.695355031001764,-73.33241767620737,4.649662834159925,-51.875732421875,4381.2578125,True
1599572781.4716666,0.0,10,0.5,0.5,-6.175021770477295,-0.2,-0.00825,-0.37525,0.2627309439756354,10,1,100,0.5019878954025857,-10,-1,-100,6487.447826621472,-0.06006452574391328,0.006845544010018472,0.9981710230588571,194.57067129118445,20.417242348518183,-66.45911902636328,4.269153700690258,-55.08367919921875,4381.2578125,True
1599572781.548463,0.0,10,0.5,0.5,-6.376662313079834,-0.2,-0.00825,-0.37525,0.1766091619376147,10,1,100,0.566158216570956,-10,-1,-100,6487.544382110122,-0.059159178079396156,0.007835055029590388,0.9982178136867994,192.96105959736883,20.245003379630973,-62.977030262812704,4.078842433563098,-56.79852294921875,4381.2578125,True
1599572781.6407282,0.0,10,0.5,0.5,-4.903590106964112,-0.2,-0.00825,-0.37525,0.30427046947753744,10,1,100,0.4384499812477226,-10,-1,-100,6487.674494178616,-0.05718297190452184,0.00988263429347762,0.9983148006834258,189.00519562515208,19.823103791493374,-55.93740496186031,3.69808597510699,-60.449249267578125,4381.2578125,True
1599572781.7225134,0.0,10,0.5,0.5,-2.78525784072876,-0.2,-0.00825,-0.37525,0.43852944438730657,10,1,100,0.26258654019848193,-10,-1,-100,6487.838635467575,-0.05379721635883758,0.012950501976851676,0.9984678983375419,181.0178551169649,18.97574566586076,-45.30466874948433,3.1265600032162073,-66.47982788085938,4381.2578125,True
1599572781.8012986,0.0,10,0.5,0.5,-2.499339031219483,-0.2,-0.00825,-0.37525,0.35457378366631065,10,1,100,0.3214911093878424,-10,-1,-100,6487.968725872692,-0.051267167878357695,0.01496007759521018,0.9985729185072453,174.10774187687568,18.246630309348465,-38.26570684329289,2.7452078367233907,-70.87020874023438,4381.2578125,True
1599572781.886072,0.0,10,0.5,0.5,-1.4251765151977542,-0.2,-0.00825,-0.37525,0.36452935609134485,10,1,100,0.2758184272225349,-10,-1,-100,6488.0993040298345,-0.04856604082171292,0.016860931413273994,0.9986776500306696,165.7562693746436,17.36848024538417,-31.369310593739026,2.363537889500764,-75.55755615234375,4381.2578125,True
1599572781.9648628,0.0,10,0.5,0.5,-0.28932553253173854,-0.2,-0.00825,-0.37525,0.3753690958738284,10,1,100,0.2277093590073045,-10,-1,-100,6488.165920703323,-0.045689119658522584,0.018670453944881864,0.9987812165305878,156.0130483372225,16.345810016829468,-24.75711160150033,1.9815988709444214,-80.5416259765625,4381.2578125,True
1599572782.0486372,0.0,10,0.5,0.5,0.9086234886169431,-0.2,-0.00825,-0.37525,0.3810572001799034,10,1,100,0.1798769777613064,-10,-1,-100,6488.234985637944,-0.04265677229666548,0.020349815760811858,0.9988825180048608,144.77399433022637,15.167430968143616,-18.54573416305773,1.5994981790830782,-85.82296752929688,4381.2578125,True
1599572782.1284266,0.0,10,0.5,0.5,0.5436301696777344,-0.2,-0.00825,-0.37525,0.3006846098974541,10,1,100,0.3091118251741176,-10,-1,-100,6488.268545695348,-0.04109515001641099,0.02112767839366727,0.9989318344365757,147.32295808937056,15.434406821758431,-16.6186515390338,1.4084211268016733,-88.57528686523438,4381.2578125,True
1599572782.2241719,0.0,10,0.5,0.5,2.776742594528198,-0.2,-0.00825,-0.37525,0.38203051407117583,10,1,100,0.11195340700637968,-10,-1,-100,6488.2726859305985,-0.037903178279823084,0.022557834933023,0.9990267729943091,155.233328564001,16.262479906887123,-12.761178438109184,1.026277986476729,-94.19586944580078,4381.2578125,True
1599572782.3089418,0.0,10,0.5,0.5,3.891310197639465,-0.2,-0.00825,-0.37525,0.37942618955331026,10,1,100,0.06940847854204096,-10,-1,-100,6488.340317347203,-0.034636256131095756,0.023818233001095725,0.9991161201471662,163.32413538931084,17.10791096898917,-8.428831837877148,0.644207694130869,-99.7391586303711,4381.2578125,True
1599572782.3937154,0.0,10,0.5,0.5,4.931986486053467,-0.2,-0.00825,-0.37525,0.37651083232605614,10,1,100,0.019733570012831048,-10,-1,-100,6488.345463077887,-0.031237853436180657,0.024922116461831276,0.9992012232897649,170.22538001377202,17.82813364764327,-3.576082987440994,0.2622041389287397,-105.10022735595703,4381.2578125,True
1599572782.4780712,0.0,10,0.5,0.5,7.32506793422699,-0.2,-0.00825,-0.37525,0.41203404618227907,10,1,100,-0.19775915710495967,-10,-1,-100,6488.321235662792,-0.026196572853044484,0.026233051496254493,0.9993125469941574,179.21072285882255,18.76737470683507,4.46399958510518,-0.3108371842657207,-112.68818664550781,4381.2578125,True
1599572782.56085,0.0,10,0.5,0.5,7.2234164308547975,-0.2,-0.00825,-0.37525,0.35658745935459824,10,1,100,-0.06717535923978085,-10,-1,-100,6488.327409514342,-0.02282888539356002,0.026905886722566885,0.9993772637254462,183.97039474314255,19.26513998148939,10.217885825789686,-0.6929909987597176,-117.3863754272461,4381.2578125,True
1599572782.6416366,0.0,10,0.5,0.5,8.035661608886718,-0.2,-0.00825,-0.37525,0.34932490415033657,10,1,100,-0.09395205527409789,-10,-1,-100,6488.26720116823,-0.019552079858230608,0.02743884516758876,0.9994322518055371,187.7324632824387,19.65862547971347,16.180692671803364,-1.0752555904838044,-121.79010009765625,4381.2578125,True
1599572782.7254498,0.0,10,0.5,0.5,7.628110329055787,-0.2,-0.00825,-0.37525,0.3216644136299285,10,1,100,0.055169195268701066,-10,-1,-100,6488.240281261038,-0.017957645365611247,0.02766054950599368,0.9994560605519132,189.1124189585527,19.802978958757773,19.19902748004522,-1.266432657533441,-123.88125610351562,4381.2578125,True
1599572782.814212,0.0,10,0.5,0.5,10.237488745498657,-0.2,-0.00825,-0.37525,0.3514677608511161,10,1,100,-0.30681289577811216,-10,-1,-100,6488.15369490406,-0.013245238995037255,0.02812322059010648,0.9995167072678698,191.63974451089297,20.067113047630045,28.275457817742595,-1.840139272527071,-129.71214294433594,4381.2578125,True
1599572782.8960302,0.0,10,0.5,0.5,10.113816945648193,-0.2,-0.00825,-0.37525,0.3243256972151374,10,1,100,-0.1700483127517641,-10,-1,-100,6488.093068145332,-0.010234042031721777,0.028288491209295375,0.9995474104057267,192.23599594153023,20.129001243598747,34.2660495799135,-2.2227427096768455,-133.2302703857422,4381.2578125,True
1599572782.9753933,0.0,10,0.5,0.5,10.686232551193239,-0.2,-0.00825,-0.37525,0.32027198690976766,10,1,100,-0.18679080756856353,-10,-1,-100,6487.973865813226,-0.00737386095788675,0.02839466833719239,0.9995695918667167,192.16869538278988,20.121010569338203,40.15797029704611,-2.605434808344828,-136.4523162841797,4381.2578125,True
1599572783.055182,0.0,10,0.5,0.5,11.19984570541382,-0.2,-0.00825,-0.37525,0.3158480710228946,10,1,100,-0.20452854785959262,-10,-1,-100,6487.852731358609,-0.004643099878171484,0.028444369227269443,0.9995845934600954,191.5816431273336,20.05805031401256,45.924350577686084,-2.988198994279649,-139.37832641601562,4381.2578125,True
1599572783.1351633,0.0,10,0.5,0.5,10.916947030448915,-0.2,-0.00825,-0.37525,0.31082047988640227,10,1,100,-0.08067919866036526,-10,-1,-100,6487.761409159983,-0.003316729415152083,0.028438495085831156,0.9995900416186828,191.1550696783584,20.012395803445493,48.76120004201156,-3.1796028432351346,-140.73045349121094,4381.2578125,True
1599572783.2119594,0.0,10,0.5,0.5,12.520936109542848,-0.2,-0.00825,-0.37525,0.30725145094214545,10,1,100,-0.36241202588558413,-10,-1,-100,6487.54947724333,0.00042179713808032215,0.02839650900131698,0.9995966488357753,189.50716705372034,19.835681508939768,57.0864445159465,-3.7538821801166944,-144.34202575683594,4381.2578125,True
1599572783.2907495,0.0,10,0.5,0.5,11.8053212972641,-0.2,-0.00825,-0.37525,0.30903854136801717,10,1,100,-0.12084387014196228,-10,-1,-100,6487.518228898873,0.0015956019973729823,0.028371427571503398,0.9995961765392168,188.95951435614992,19.776501082825742,59.829660059000304,-3.9453277129481314,-145.3976593017578,4381.2578125,True
1599572783.3690927,0.0,10,0.5,0.5,13.002274023246766,-0.2,-0.00825,-0.37525,0.29905665569586204,10,1,100,-0.3714895552230001,-10,-1,-100,6487.243346380186,0.004916028847602638,0.02825593787822123,0.9995886327059704,187.31287655051457,19.597125871535834,67.96108461987093,-4.519714248572966,-148.1201171875,4381.2578125,True
1599572783.4588923,0.0,10,0.5,0.5,12.836775955200196,-0.2,-0.00825,-0.37525,0.3019789568315523,10,1,100,-0.26564522344642283,-10,-1,-100,6487.0588027006015,0.006947154864168747,0.028176286302693122,0.9995788282719286,186.289441127792,19.4841051826609,73.33044003775308,-4.902680117754489,-149.56427001953125,4381.2578125,True
1599572783.5356452,0.0,10,0.5,0.5,12.977690202331544,-0.2,-0.00825,-0.37525,0.30347189539405256,10,1,100,-0.2716676119221625,-10,-1,-100,6486.812743394985,0.008824291833806116,0.02811677754720384,0.9995656950365958,185.42844103563718,19.387144778887773,78.70879279213226,-5.285682334896643,-150.71145629882812,4381.2578125,True
1599572783.6162002,0.0,10,0.5,0.5,12.835041975402833,-0.2,-0.00825,-0.37525,0.30937644814325727,10,1,100,-0.1824536984201614,-10,-1,-100,6486.7209672641475,0.009695397195095153,0.02811594167807798,0.9995576487110608,185.06782219870814,19.345638217957205,81.41003364991474,-5.477198098252529,-151.17333984375,4381.2578125,True
1599572783.6949868,0.0,10,0.5,0.5,13.08318733177185,-0.2,-0.00825,-0.37525,0.3056235638857878,10,1,100,-0.2796714330111385,-10,-1,-100,6486.472965578083,0.011350253623284859,0.028081071284633868,0.9995412073437464,184.5453908342798,19.282776075690624,86.87534182052389,-5.86026120774307,-151.87522888183594,4381.2578125,True
1599572783.782753,0.0,10,0.5,0.5,13.067889002609254,-0.2,-0.00825,-0.37525,0.31062648922972896,10,1,100,-0.2804322383965687,-10,-1,-100,6486.226921152556,0.012841962883638496,0.02809504063001565,0.9995227624628129,184.30380542407144,19.248463018875988,92.45294721626951,-6.243368036357619,-152.27975463867188,4381.2578125,True
1599572783.8615425,0.0,10,0.5,0.5,12.958158377838137,-0.2,-0.00825,-0.37525,0.3144074175677404,10,1,100,-0.349436728405098,-10,-1,-100,6485.823677371838,0.014806997735090682,0.028142384499532987,0.9994942516156626,184.53447679050961,19.257531153229763,101.12367994851654,-6.81810940519098,-152.33018493652344,4381.2578125,True
1599572783.9383698,0.0,10,0.5,0.5,12.755591997909546,-0.2,-0.00825,-0.37525,0.3186410370572411,10,1,100,-0.2772145944889396,-10,-1,-100,6485.577634660178,0.015919146293888263,0.028224186362387608,0.9994748501515458,185.09454748796804,19.305109361527606,107.15640396869766,-7.201319083854145,-151.99237060546875,4381.2578125,True
1599572784.0161645,0.0,10,0.5,0.5,12.526437538146974,-0.2,-0.00825,-0.37525,0.3236861072905795,10,1,100,-0.27254070385011897,-10,-1,-100,6485.26762698649,0.01687021336361584,0.028344610793216197,0.9994558414157411,185.9773436848156,19.3857104732192,113.42488066373672,-7.584559766425977,-151.3574981689453,4381.2578125,True
1599572784.1028962,0.0,10,0.5,0.5,12.234447138977051,-0.2,-0.00825,-0.37525,0.3284487457990248,10,1,100,-0.26614204524012175,-10,-1,-100,6484.957128590555,0.017661697061254086,0.028497431442417235,0.9994378224072277,187.15732959566273,19.496733414038424,119.94284365651656,-7.967821259273082,-150.4257049560547,4381.2578125,True
1599572784.1817276,0.0,10,0.5,0.5,12.256237263488769,-0.2,-0.00825,-0.37525,0.32255828674966275,10,1,100,-0.2257117260926078,-10,-1,-100,6484.802366961376,0.017999073798617017,0.02858269512863224,0.999429368630708,187.85045926450806,19.562819504207503,123.29859654883431,-8.159456264987373,-149.84854125976562,4381.2578125,True
1599572784.2734914,0.0,10,0.5,0.5,11.682116494750977,-0.2,-0.00825,-0.37525,0.33578959694897187,10,1,100,-0.2534865015536643,-10,-1,-100,6484.429362187628,0.01854638420500109,0.028780195156775587,0.9994136941225382,189.40709125370446,19.712500153284,130.19501714208567,-8.542726689650966,-148.47152709960938,4381.2578125,True
1599572784.349286,0.0,10,0.5,0.5,10.689962258148194,-0.2,-0.00825,-0.37525,0.3520954642086444,10,1,100,-0.2572183682336875,-10,-1,-100,6483.901094085188,0.019067320426676977,0.029107426785762853,0.9993944141317069,192.05145678851946,19.96910404065919,140.95626958945317,-9.117609881494266,-145.85009765625,4381.2578125,True
1599572785.063082,0.0,10,0.5,0.5,11.081770820617677,-0.2,-0.00825,-0.37525,0.3317852814883888,10,1,100,-0.21673243997940442,-10,-1,-100,6483.747299825074,0.0191635330726226,0.029219371469895717,0.9993893071926869,192.9768772669166,20.059340008798532,144.63330597729004,-9.309225556657482,-144.82815551757812,4381.2578125,True
1599572785.1269112,0.0,10,0.5,0.5,10.156455721282962,-0.2,-0.00825,-0.37525,0.3462250485511015,10,1,100,-0.21461440832171902,-10,-1,-100,6483.310797999264,0.019223136884887363,0.02945140685623042,0.9993813514582377,194.82606454165455,20.240181342518493,152.0757334365956,-9.692428564065995,-142.56207275390625,4381.2578125,True
1599572785.2027085,0.0,10,0.5,0.5,10.99911992454529,-0.2,-0.00825,-0.37525,0.3231585434747909,10,1,100,-0.20944131542140287,-10,-1,-100,6483.310797999264,0.019223136884887363,0.02945140685623042,0.9993813514582377,194.82606454165455,20.240181342518493,152.0757334365956,-9.692428564065995,-142.56207275390625,4381.2578125,True
1599572785.2785068,0.0,10,0.5,0.5,8.716804352188111,-0.2,-0.00825,-0.37525,0.3581582785691389,10,1,100,-0.1879717755226356,-10,-1,-100,6482.7190167952795,0.01902215818217016,0.02976835320597339,0.9993758065139944,197.39587510606475,20.492765280518213,163.2946549846335,-10.267138293360805,-138.60848999023438,4381.2578125,True
1599572785.3503134,0.0,10,0.5,0.5,8.460340273284912,-0.2,-0.00825,-0.37525,0.3471182797012319,10,1,100,-0.1724683855363456,-10,-1,-100,6482.283468428999,0.018694678397599997,0.029954644471752896,0.9993764197109021,198.79215619832542,20.6309532752573,170.64078838349744,-10.650201337056373,-135.6033172607422,4381.2578125,True
1599572785.4281065,0.0,10,0.5,0.5,7.676025618362427,-0.2,-0.00825,-0.37525,0.3446443315019234,10,1,100,-0.15277083423911483,-10,-1,-100,6481.846933877794,0.018215377643376194,0.030099936586004766,0.9993809052782766,199.77449498861031,20.72921927294765,177.71028826783842,-11.033199089983453,-132.30303955078125,4381.2578125,True
1599572785.5033255,0.0,10,0.5,0.5,6.830657782745362,-0.2,-0.00825,-0.37525,0.3404015543077677,10,1,100,-0.13229573605560885,-10,-1,-100,6481.4103886506055,0.017592289552159263,0.03019185387374797,0.9993892951737973,200.19255838963733,20.772751935895975,184.32624866147572,-11.416132398667532,-128.70794677734375,4381.2578125,True
1599572785.5890949,0.0,10,0.5,0.5,5.924278931808472,-0.2,-0.00825,-0.37525,0.3346333081106299,10,1,100,-0.11136632631421307,-10,-1,-100,6480.973833109718,0.01683564156932127,0.030221436058602967,0.9994014338470327,199.8807441118991,20.744991145461107,190.27859090002946,-11.799010685286033,-124.81829833984375,4381.2578125,True
1599572785.667919,0.0,10,0.5,0.5,6.1809533565521235,-0.2,-0.00825,-0.37525,0.3303974541048184,10,1,100,-0.1399481046298717,-10,-1,-100,6480.693051992916,0.01640867178072844,0.030208331425754704,0.9994089314203991,199.39575279204675,20.6987331283994,192.93113317781683,-11.99043498950154,-122.76307678222656,4381.2578125,True
1599572785.743684,0.0,10,0.5,0.5,4.439570453643799,-0.2,-0.00825,-0.37525,0.32184114081420967,10,1,100,-0.07921045026270032,-10,-1,-100,6480.193493082654,0.015470300308146376,0.03011733515118804,0.999426643597101,198.23552853279435,20.590009083296245,198.00538722631228,-12.373267783312881,-118.43209838867188,4381.2578125,True
1599572785.8184807,0.0,10,0.5,0.5,3.3816453292846678,-0.2,-0.00825,-0.37525,0.3106958420373847,10,1,100,-0.05807273625063064,-10,-1,-100,6479.694901491748,0.014428344314887985,0.029932372268733187,0.9994477855149297,196.05327601659553,20.379455033313864,201.96120830620657,-12.756106156110489,-113.80714416503906,4381.2578125,True
1599572785.8988166,0.0,10,0.5,0.5,0.7838806125640878,-0.2,-0.00825,-0.37525,0.2780601771970633,10,1,100,0.030236777791924574,-10,-1,-100,6478.913551150705,0.01268260254677325,0.029466888149045092,0.999485294586895,190.3068700650387,19.81178899339063,204.9903135221977,-13.330470422539172,-106.31877136230469,4381.2578125,True
1599572785.9775722,0.0,10,0.5,0.5,0.4810069255828857,-0.2,-0.00825,-0.37525,0.2749149697871702,10,1,100,-0.0069138260213927605,-10,-1,-100,6478.352928618668,0.011439243278006479,0.02901511389897251,0.9995135151055519,185.2486039234795,19.306260958590823,205.36039615453117,-13.713512151980524,-100.95938873291016,4381.2578125,True
1599572786.0583568,0.0,10,0.5,0.5,-0.7886354581832886,-0.2,-0.00825,-0.37525,0.257910682337622,10,1,100,0.010013421539598208,-10,-1,-100,6477.790835671127,0.010162108868215752,0.028450222233871777,0.999543554027634,178.8878003094127,18.662508346979603,203.9375483057123,-14.096696079559472,-95.31587982177734,4381.2578125,True
1599572786.1331568,0.0,10,0.5,0.5,-2.084564311599731,-0.2,-0.00825,-0.37525,0.2395006856785095,10,1,100,0.026170596967111673,-10,-1,-100,6477.2282508061035,0.008862248763895837,0.02777051905139927,0.9995750391133538,170.83350586639145,17.83630389805648,200.139768186496,-14.480042663126918,-89.44375610351562,4381.2578125,True
1599572786.2259088,0.0,10,0.5,0.5,-1.6433893291473387,-0.2,-0.00825,-0.37525,0.26485108885176867,10,1,100,-0.030598534302388708,-10,-1,-100,6476.946957709617,0.00820557934390383,0.027385050846563307,0.9995912802029449,166.61172775884432,17.399705067241268,197.82246201022417,-14.671771846293947,-86.44635009765625,4381.2578125,True
1599572786.305695,0.0,10,0.5,0.5,-3.9570167522430424,-0.2,-0.00825,-0.37525,0.20961125031952382,10,1,100,0.04735094265256087,-10,-1,-100,6476.321869945619,0.006909075351865621,0.02653491293345515,0.9996240108527786,164.45903323021852,17.175889017201577,200.4606008868349,-15.055270017546205,-80.53488159179688,4381.2578125,True
1599572786.388987,0.0,10,0.5,0.5,-6.61201699256897,-0.2,-0.00825,-0.37525,0.131655147520173,10,1,100,0.12905881053289997,-10,-1,-100,6475.414999476168,0.004997348573100796,0.02505669293330845,0.9996735410355145,180.70624317555567,18.85748427851648,228.83256948119578,-15.63014951272408,-72.13238525390625,4381.2578125,True
1599572786.4771962,0.0,10,0.5,0.5,-5.029663946914673,-0.2,-0.00825,-0.37525,0.21837624146440338,10,1,100,0.008062785268459265,-10,-1,-100,6475.133705888176,0.004370141088442436,0.024505925371872902,0.9996901327354067,185.23945419140847,19.32256064321687,237.50178218469287,-15.821645707737693,-69.47750854492188,4381.2578125,True
1599572786.5543141,0.0,10,0.5,0.5,-7.003436262512207,-0.2,-0.00825,-0.37525,0.14762632379130555,10,1,100,0.0787049372110063,-10,-1,-100,6474.446608182276,0.0031686952035410313,0.02336723052449777,0.9997219272919456,193.1964602864133,20.13415941250828,253.8136915194065,-16.2044321939215,-64.39093017578125,4381.2578125,True
1599572786.635097,0.0,10,0.5,0.5,-9.206268296051025,-0.2,-0.00825,-0.37525,0.05943139485466273,10,1,100,0.14811627129280353,-10,-1,-100,6473.477249106392,0.0014566428211639662,0.021536417768029708,0.9997670033069768,202.76812599232883,21.103431885920976,276.01012851469096,-16.778111624743413,-57.32098388671875,4381.2578125,True
1599572786.713402,0.0,10,0.5,0.5,-7.869466759872436,-0.2,-0.00825,-0.37525,0.16933288835179428,10,1,100,0.03839200474562493,-10,-1,-100,6473.133461616118,0.0009095173526080071,0.020878779707124213,0.9997816008189622,205.24174547622238,21.35263931701384,282.62451519676614,-16.969216620967302,-55.11395263671875,4381.2578125,True
1599572786.7932212,0.0,10,0.5,0.5,-9.494295154571534,-0.2,-0.00825,-0.37525,0.0910176740720019,10,1,100,0.09899218779416999,-10,-1,-100,6472.445889082737,-0.00012807738725312428,0.019576777802341034,0.9998083483183468,209.23968922025637,21.75483910681928,294.7530236827959,-17.351268974560945,-50.923126220703125,4381.2578125,True
1599572786.8739712,0.0,10,0.5,0.5,-10.202436353492738,-0.2,-0.00825,-0.37525,0.07705635694244245,10,1,100,0.10456082604683412,-10,-1,-100,6471.756858904031,-0.0011114535706372268,0.018274798947811813,0.9998323841496521,212.13388982733085,22.046727605913823,305.548908194087,-17.733143392990716,-47.03009033203125,4381.2578125,True
1599572786.9587462,0.0,10,0.5,0.5,-10.848715100097657,-0.2,-0.00825,-0.37525,0.05322049774893192,10,1,100,0.1091333945404421,-10,-1,-100,6471.007775816834,-0.0020367520305293444,0.0168837425631043,0.9998553849823628,214.33982419329809,22.272340285191866,315.52063880128424,-18.11487844835017,-43.43634033203125,4381.2578125,True
1599572787.0415242,0.0,10,0.5,0.5,-11.43455609817505,-0.2,-0.00825,-0.37525,0.04327959336856568,10,1,100,0.1137218572123231,-10,-1,-100,6470.256746552535,-0.0029097375630898013,0.015538671061265316,0.9998750337562009,216.07345798065637,22.454402076778603,324.9291766434271,-18.496503822141996,-40.139617919921875,4381.2578125,True
1599572787.1223075,0.0,10,0.5,0.5,-12.759071362304688,-0.2,-0.00825,-0.37525,-0.04644026048800984,10,1,100,0.1617577658529589,-10,-1,-100,6469.162440404878,-0.0041299460195078205,0.013511013187974916,0.9999001930535418,217.5856482649837,22.62435219249512,337.57633022621957,-19.06879710129762,-35.75299072265625,4381.2578125,True
1599572787.2040896,0.0,10,0.5,0.5,-13.28842573928833,-0.2,-0.00825,-0.37525,-0.06370607536259082,10,1,100,0.1649848104682833,-10,-1,-100,6467.942662274581,-0.005258527729689539,0.011522565804074252,0.9999197859645577,218.22195106308712,22.71354755518944,348.98972134825624,-19.64097613256325,-32.035491943359375,4381.2578125,True
1599572787.2868683,0.0,10,0.5,0.5,-11.92651425933838,-0.2,-0.00825,-0.37525,0.13378525031455213,10,1,100,0.053152227080390524,-10,-1,-100,6467.942662274581,-0.005258527729689539,0.011522565804074252,0.9999197859645577,218.22195106308712,22.71354755518944,348.98972134825624,-19.64097613256325,-32.035491943359375,4381.2578125,True
1599572787.3646595,0.0,10,0.5,0.5,-13.711891845703125,-0.2,-0.00825,-0.37525,-0.07264355516268045,10,1,100,0.17416454658572889,-10,-1,-100,6466.784910834278,-0.006349886389903404,0.009657743353888318,0.9999332012370356,218.4015876151431,22.763117581230713,359.7367737558596,-20.213078113987482,-28.98553466796875,4381.2578125,True
1599572787.443451,0.0,10,0.5,0.5,-13.552557695007323,-0.2,-0.00825,-0.37525,-0.022284411824970887,10,1,100,0.14078255466324338,-10,-1,-100,6465.972394689801,-0.007029904716626645,0.008432723781489928,0.9999397329885938,218.44225133902373,22.791185247881312,366.7926343474083,-20.59444108972582,-27.32373046875,4381.2578125,True
1599572787.515257,0.0,10,0.5,0.5,-14.068119836425781,-0.2,-0.00825,-0.37525,-0.08850264075464633,10,1,100,0.1855641653949382,-10,-1,-100,6464.689665297396,-0.008047493704356099,0.006728998174482106,0.9999449777005965,218.59389862070972,22.84631173504101,377.5594523437879,-21.166417149611426,-25.386474609375,4381.2578125,True
1599572787.6095903,0.0,10,0.5,0.5,-13.365689744567872,-0.2,-0.00825,-0.37525,0.08045494179287169,10,1,100,0.08470096772768924,-10,-1,-100,6464.689665297396,-0.008047493704356099,0.006728998174482106,0.9999449777005965,218.59389862070972,22.84631173504101,377.5594523437879,-21.166417149611426,-25.386474609375,4381.2578125,True
1599572787.690987,0.0,10,0.5,0.5,-13.916381421661377,-0.2,-0.00825,-0.37525,-0.04083407416281355,10,1,100,0.15753913401362915,-10,-1,-100,6463.814173969557,-0.008702459383030913,0.005638050556364839,0.9999462383481478,218.84511660346433,22.90047684633059,385.0236406781541,-21.54767742967879,-24.465789794921875,4381.2578125,True
1599572787.7705858,0.0,10,0.5,0.5,-14.064607366943362,-0.2,-0.00825,-0.37525,-0.09912176080558886,10,1,100,0.20081575322118977,-10,-1,-100,6462.529999384424,-0.009684405623883665,0.004127879887134318,0.9999445849122589,219.57393041253943,23.02031569029445,396.9067821744111,-22.119456206312105,-23.639892578125,4381.2578125,True
1599572787.850371,0.0,10,0.5,0.5,-13.87475540008545,-0.2,-0.00825,-0.37525,-0.05331207416998313,10,1,100,0.17414209030967104,-10,-1,-100,6461.592019140022,-0.01032764376765113,0.003183045396044779,0.9999416022929615,220.3334820568577,23.12968567228232,405.3844246264031,-22.500549734711228,-23.459564208984375,4381.2578125,True
1599572787.9298089,0.0,10,0.5,0.5,-13.754542094421387,-0.2,-0.00825,-0.37525,-0.05455158810019903,10,1,100,0.18288120200146313,-10,-1,-100,6460.715566047933,-0.010985108635360969,0.002324069028111617,0.9999369610587568,221.33080078595145,23.264368378813682,414.36588673985005,-22.88155382959532,-23.5748291015625,4381.2578125,True
1599572788.008597,0.0,10,0.5,0.5,-13.571302967834473,-0.2,-0.00825,-0.37525,-0.05797258945844013,10,1,100,0.18942375856842766,-10,-1,-100,6459.7771056715865,-0.011636049790600634,0.0015222513577882446,0.9999311401771996,222.56093568016004,23.42365191153938,423.864246423257,-23.26245494134022,-23.98602294921875,4381.2578125,True
1599572788.089386,0.0,10,0.5,0.5,-13.550161354827882,-0.2,-0.00825,-0.37525,-0.020230586643947373,10,1,100,0.16077210131174086,-10,-1,-100,6459.307876596227,-0.011961547118429621,0.001145526514395373,0.9999278019734916,223.2598725115481,23.51208846761944,428.8075457859561,-23.45286276590012,-24.30255126953125,4381.2578125,True
1599572788.1652875,0.0,10,0.5,0.5,-13.183806762695314,-0.2,-0.00825,-0.37525,-0.05932066113914596,10,1,100,0.20112426317448914,-10,-1,-100,6458.369420273579,-0.012618197961218467,0.00045711874252702897,0.9999202828839241,224.81186890847678,23.70493839826608,439.06899537016085,-23.833585172098243,-25.156982421875,4381.2578125,True
1599572788.251096,0.0,10,0.5,0.5,-12.846144395446778,-0.2,-0.00825,-0.37525,-0.05843427410620955,10,1,100,0.20868039741353242,-10,-1,-100,6457.367490193923,-0.013278146937225706,-0.00015228423649807894,0.9999118299247312,226.53584598500524,23.915246857291873,449.77984811937273,-24.21417365259739,-26.30682373046875,4381.2578125,True
1599572788.3300827,0.0,10,0.5,0.5,-11.967699537658692,-0.2,-0.00825,-0.37525,-0.08506419973011635,10,1,100,0.2510542595240063,-10,-1,-100,6455.897312404821,-0.014257637259854232,-0.0009405726249037043,0.9998979123405067,229.33195298188264,24.2504963813207,466.49564846452813,-24.784785041506368,-28.585418701171875,4381.2578125,True
1599572788.4130962,0.0,10,0.5,0.5,-12.298343978118897,-0.2,-0.00825,-0.37525,-0.031018439172197647,10,1,100,0.18961000815616486,-10,-1,-100,6455.427599454415,-0.014583853319303881,-0.001158900999473752,0.9998929783586014,230.28832840080295,24.363848116843325,472.18100607718594,-24.974913183009125,-29.492431640625,4381.2578125,True
1599572788.4938312,0.0,10,0.5,0.5,-11.46450176010132,-0.2,-0.00825,-0.37525,-0.051907393107339134,10,1,100,0.22838763173739812,-10,-1,-100,6454.425673478283,-0.015226995078983003,-0.0015401101037896673,0.9998828764819071,232.17482249582395,24.58572284376461,483.5944561300417,-25.35505431462677,-31.527740478515625,4381.2578125,True
1599572788.5746152,0.0,10,0.5,0.5,-10.148361838531496,-0.2,-0.00825,-0.37525,-0.05888088965651016,10,1,100,0.26840722521945554,-10,-1,-100,6452.892023389344,-0.016169552496077315,-0.0019435336575600955,0.9998673753298478,234.76328961847813,24.8861315375869,500.4407896221825,-25.924985182234426,-35.13323974609375,4381.2578125,True
1599572788.653912,0.0,10,0.5,0.5,-10.715673741912843,-0.2,-0.00825,-0.37525,-0.030386369100354808,10,1,100,0.2084085475951364,-10,-1,-100,6452.359811341041,-0.016475084763330886,-0.0020457217799820775,0.9998621838055682,235.50706062141583,24.971345881819577,505.859634635225,-26.11489189029725,-36.482513427734375,4381.2578125,True
1599572788.7356951,0.0,10,0.5,0.5,-8.628974753570557,-0.2,-0.00825,-0.37525,-0.03641985569311923,10,1,100,0.2746768837900455,-10,-1,-100,6450.763172715786,-0.017349692207155414,-0.0021887165265035316,0.9998470871589733,237.16400071024444,25.157561964936104,521.0103837830112,-26.684432143200365,-40.971466064453125,4381.2578125,True
1599572788.8234606,0.0,10,0.5,0.5,-8.365884216308594,-0.2,-0.00825,-0.37525,-0.023001862225401903,10,1,100,0.2477059422164212,-10,-1,-100,6449.698745080852,-0.017893813520352225,-0.0021926274594941367,0.9998374887063011,237.75132956509142,25.218731341392182,530.0585838686129,-27.06400601658087,-44.332122802734375,4381.2578125,True
1599572788.9002542,0.0,10,0.5,0.5,-7.507822629547121,-0.2,-0.00825,-0.37525,-0.01439623893426565,10,1,100,0.24879803435151632,-10,-1,-100,6448.572304452653,-0.018392708493823143,-0.002114572751550464,0.9998286037398308,237.9061779095816,25.226777704388248,538.1782055994295,-27.443515819097478,-47.98681640625,4381.2578125,True
1599572788.9810383,0.0,10,0.5,0.5,-7.745160010528564,-0.2,-0.00825,-0.37525,-0.0146461334565097,10,1,100,0.22460291997033066,-10,-1,-100,6448.039600936812,-0.018620447283171932,-0.002042921967925757,0.9998245373128265,237.69218569131093,25.19709805719618,541.5830401480457,-27.63325880559946,-49.92431640625,4381.2578125,True
1599572789.064815,0.0,10,0.5,0.5,-6.095738167572021,-0.2,-0.00825,-0.37525,-0.0021158080498120437,10,1,100,0.2489902571450507,-10,-1,-100,6446.913156344672,-0.01904372902114833,-0.0018616000784692692,0.9998169186556691,236.58016683126206,25.059860530474868,546.8034202537249,-28.01274922240295,-54.019989013671875,4381.2578125,True
1599572789.139615,0.0,10,0.5,0.5,-3.7589294250488288,-0.2,-0.00825,-0.37525,0.02216017553138719,10,1,100,0.2642863545789905,-10,-1,-100,6445.19003668474,-0.019562344594086394,-0.0014745173138234044,0.9998075517181662,232.89264115663875,24.629101879257068,549.7696425317804,-28.58209258644835,-60.714202880859375,4381.2578125,True
1599572789.8392112,0.0,10,0.5,0.5,-4.876364881896973,-0.2,-0.00825,-0.37525,0.0003709602943171939,10,1,100,0.22872271032259978,-10,-1,-100,6444.661723790108,-0.019705684978668144,-0.001320222262037873,0.9998049524745815,231.04473704324465,24.418231453971583,549.2194089421729,-28.77192911395916,-63.0924072265625,4381.2578125,True
1599572789.9050345,0.0,10,0.5,0.5,-4.3307661331176766,-0.2,-0.00825,-0.37525,0.0031027739086392885,10,1,100,0.22800738941810292,-10,-1,-100,6444.067490912392,-0.01982483529128398,-0.0011549727082275853,0.9998028015282397,228.85494927925134,24.170983654240384,547.797003155323,-28.96180398865321,-65.54403686523438,4381.2578125,True
1599572789.977848,0.0,10,0.5,0.5,-2.275433332824708,-0.2,-0.00825,-0.37525,0.025483821402380882,10,1,100,0.23668497844527875,-10,-1,-100,6442.874628466321,-0.020007861075534244,-0.0008016318979074566,0.9997995013408851,223.3762458859752,23.561756678840677,542.0903234271995,-29.341691646859765,-70.66744995117188,4381.2578125,True
1599572790.0506535,0.0,10,0.5,0.5,-2.6317524971008304,-0.2,-0.00825,-0.37525,0.01094027206139559,10,1,100,0.22663727025563135,-10,-1,-100,6442.280393556575,-0.020079415978965457,-0.0006136651568614356,0.9997981998728638,220.05270983005775,23.1973330387419,537.6849873655892,-29.53171343136527,-73.33920288085938,4381.2578125,True
1599572790.1209788,0.0,10,0.5,0.5,1.2600557838439939,-0.2,-0.00825,-0.37525,0.056850016646541435,10,1,100,0.2299181087990496,-10,-1,-100,6440.492799806176,-0.02017101503137433,-2.6726856612018526e-05,0.999796544021972,207.62391772139742,21.859652201531613,517.7200013293344,-30.10211865592671,-81.79461669921875,4381.2578125,True
1599572790.2052727,0.0,10,0.5,0.5,-0.17342212219238284,-0.2,-0.00825,-0.37525,0.020134533253404335,10,1,100,0.2200561495022964,-10,-1,-100,6439.902955949074,-0.020162067882844442,0.00017111084943175842,0.9997967102065124,202.67891708269067,21.336077649620083,508.7874956034222,-30.292363955367556,-84.75982666015625,4381.2578125,True
1599572790.2815769,0.0,10,0.5,0.5,2.285247902679443,-0.2,-0.00825,-0.37525,0.044761734131789396,10,1,100,0.21365657396331925,-10,-1,-100,6438.648069668794,-0.02009369410258794,0.0005726981008123963,0.9997979373224358,204.49396034936908,21.53363989980954,520.2141319356547,-30.672824851699335,-90.91021728515625,4381.2578125,True
1599572790.3565967,0.0,10,0.5,0.5,5.290172140502929,-0.2,-0.00825,-0.37525,0.06618252168812148,10,1,100,0.19426766016500702,-10,-1,-100,6436.801378843491,-0.019853726917271223,0.0011300688790774835,0.999802256684702,220.17026331499537,23.22236010453825,571.200563000057,-31.24274834206198,-100.08439636230469,4381.2578125,True
1599572790.4364247,0.0,10,0.5,0.5,5.354772969818116,-0.2,-0.00825,-0.37525,0.048623176893479496,10,1,100,0.19170817638163035,-10,-1,-100,6435.547461603885,-0.0196111857329216,0.0014742546422335417,0.9998065952810067,228.90052928382985,24.17953207376721,601.5416407238276,-31.622132266861783,-106.10930633544922,4381.2578125,True
1599572790.509231,0.0,10,0.5,0.5,8.068182766151429,-0.2,-0.00825,-0.37525,0.062361698630907215,10,1,100,0.1650498655262046,-10,-1,-100,6433.643142976216,-0.019147829596907372,0.0019090138475150258,0.9998148410020017,239.6386053135865,25.370818537523643,641.8172613061622,-32.19040849840401,-114.68172454833984,4381.2578125,True
1599572790.5940042,0.0,10,0.5,0.5,6.455956545639038,-0.2,-0.00825,-0.37525,0.0329734632242187,10,1,100,0.19151348905223103,-10,-1,-100,6432.98151326552,-0.018967551973492112,0.002034007774836172,0.999818030835864,242.5675163827127,25.697440494865013,653.7242380556173,-32.37964376371366,-117.3936767578125,4381.2578125,True
1599572790.6782901,0.0,10,0.5,0.5,9.90665043296814,-0.2,-0.00825,-0.37525,0.05266132707569847,10,1,100,0.1449463467383128,-10,-1,-100,6431.010782843572,-0.018380996597538234,0.0023235698982898715,0.9998283552625464,248.8341739270868,26.397838204372114,683.1082259553741,-32.9469216962397,-125.0834732055664,4381.2578125,True
1599572790.7540882,0.0,10,0.5,0.5,8.458995468330382,-0.2,-0.00825,-0.37525,0.03163438306726571,10,1,100,0.17939371044178465,-10,-1,-100,6430.352081024321,-0.018162234870060585,0.002392491844437921,0.9998321905236394,250.16733290782176,26.545935604267235,690.9556894980157,-33.13590534237849,-127.49776458740234,4381.2578125,True
1599572790.8358698,0.0,10,0.5,0.5,8.945899587631224,-0.2,-0.00825,-0.37525,0.030912100173352816,10,1,100,0.1763949276808174,-10,-1,-100,6429.693868236849,-0.01793777675289527,0.0024456782021348078,0.9998361139823341,251.16662924219102,26.655723177197057,697.9216273387115,-33.32485016869417,-129.83758544921875,4381.2578125,True
1599572790.9146583,0.0,10,0.5,0.5,10.677873544311524,-0.2,-0.00825,-0.37525,0.03317636071616354,10,1,100,0.1499898854654973,-10,-1,-100,6428.318847253104,-0.0174956250255385,0.0025118324019220784,0.9998437846998653,252.26828869600476,26.771476006454222,709.4396004242918,-33.7026566741343,-134.293701171875,4381.2578125,True
1599572790.9954453,0.0,10,0.5,0.5,12.572978326416017,-0.2,-0.00825,-0.37525,0.023973991932241277,10,1,100,0.11466939910920979,-10,-1,-100,6426.281705128262,-0.01677500575198049,0.002486006904367091,0.9998561991365021,252.07454626367849,26.729544291160906,721.6019500996143,-34.269264183731615,-140.41964721679688,4381.2578125,True
1599572791.0772245,0.0,10,0.5,0.5,11.409166763305665,-0.2,-0.00825,-0.37525,0.022262870204124173,10,1,100,0.1596033937609223,-10,-1,-100,6425.620561141055,-0.01653146732933502,0.0024448690762842785,0.9998603568514651,251.6169278227887,26.669502720383317,724.5310764629488,-34.45812834122789,-142.3127899169922,4381.2578125,True
1599572791.1530223,0.0,10,0.5,0.5,12.790807429122925,-0.2,-0.00825,-0.37525,0.012955095367338028,10,1,100,0.13009016032066767,-10,-1,-100,6424.18255091738,-0.016045005029085232,0.0023211529422605096,0.9998685763952356,250.25164867984873,26.49677035075398,729.0515131173324,-34.83587294252549,-145.87582397460938,4381.2578125,True
1599572791.240788,0.0,10,0.5,0.5,13.370002276611327,-0.2,-0.00825,-0.37525,0.006150864978935546,10,1,100,0.12505300458215626,-10,-1,-100,6422.807040899643,-0.015560436723860946,0.002145744285923258,0.9998766266847237,248.43256713867638,26.271246621590873,732.1703570234206,-35.2136554289938,-149.14126586914062,4381.2578125,True
1599572791.3215704,0.0,10,0.5,0.5,14.677273678016663,-0.2,-0.00825,-0.37525,-0.019701420052774643,10,1,100,0.09284494869673857,-10,-1,-100,6420.645387551398,-0.014830802073797852,0.0017506506529250368,0.9998884850482774,245.19708786652714,25.87500061347813,735.1528542448224,-35.78041994618162,-153.48220825195312,4381.2578125,True
1599572791.401941,0.0,10,0.5,0.5,13.827215443038941,-0.2,-0.00825,-0.37525,0.00254718220005766,10,1,100,0.13927223630906282,-10,-1,-100,6419.925163163454,-0.014593488667964451,0.001593878609947484,0.9998922390135222,244.05191735370775,25.735589697690976,735.8873456691856,-35.969366113220545,-154.78054809570312,4381.2578125,True
1599572791.483962,0.0,10,0.5,0.5,15.355090892410278,-0.2,-0.00825,-0.37525,-0.042005883726454786,10,1,100,0.08526302273010841,-10,-1,-100,6417.766931143007,-0.01389073277858498,0.0010467308162404034,0.9999029712414461,240.62971795069433,25.320178871746332,737.9398834283262,-36.53626739761453,-158.22988891601562,4381.2578125,True
1599572791.5643523,0.0,10,0.5,0.5,14.664041307258605,-0.2,-0.00825,-0.37525,-0.009895908805998587,10,1,100,0.12981819089405577,-10,-1,-100,6417.046219299547,-0.01366099282956585,0.0008423933567672497,0.9999063294370844,239.53717812523044,25.18762638930663,738.7083030232467,-36.725250662853526,-159.23114013671875,4381.2578125,True
1599572791.6433823,0.0,10,0.5,0.5,15.338621671676638,-0.2,-0.00825,-0.37525,-0.041183788620420415,10,1,100,0.10306083657909579,-10,-1,-100,6415.5427843594225,-0.013212981693085636,0.0003736059393766122,0.9999126349503642,237.49298226638953,24.939014438346934,740.5912932033681,-37.10323099674869,-161.01144409179688,4381.2578125,True
1599572791.722211,0.0,10,0.5,0.5,15.912262079238893,-0.2,-0.00825,-0.37525,-0.07805007373631988,10,1,100,0.07453898491874883,-10,-1,-100,6413.315710545983,-0.012550704549427569,-0.00038582878452054597,0.999921162368045,234.91326154691347,24.621684375027787,744.739536300556,-37.670205467773805,-163.12527465820312,4381.2578125,True
1599572791.8149617,0.0,10,0.5,0.5,15.462988061141967,-0.2,-0.00825,-0.37525,-0.033708573477553794,10,1,100,0.11688673948262157,-10,-1,-100,6412.535919334739,-0.012338109388024633,-0.0006704852028142321,0.9999236578390981,234.2158206599073,24.534101288399043,746.5919785087885,-37.859189123367756,-163.68182373046875,4381.2578125,True
1599572791.8962998,0.0,10,0.5,0.5,15.785701459121706,-0.2,-0.00825,-0.37525,-0.06996974211719076,10,1,100,0.09054594670786643,-10,-1,-100,6411.029071236029,-0.011909412849127787,-0.0012560412142532088,0.9999282915519778,233.09741931016032,24.3893899613096,751.1309648540246,-38.23713132474186,-164.572509765625,4381.2578125,True
1599572791.9802113,0.0,10,0.5,0.5,15.811811806488038,-0.2,-0.00825,-0.37525,-0.07964104937190707,10,1,100,0.08557827860904671,-10,-1,-100,6409.466560405679,-0.011478729971487026,-0.0018729213721583018,0.9999323631745176,232.38203021530836,24.288435156523764,756.9246537892238,-38.615024486188474,-165.1669921875,4381.2578125,True
1599572792.060004,0.0,10,0.5,0.5,15.798764522552492,-0.2,-0.00825,-0.37525,-0.13092695002301932,10,1,100,0.05954149201085447,-10,-1,-100,6407.114985438297,-0.010854653181882404,-0.0028961441813417535,0.9999368924353086,232.11969602593035,24.223374338731034,768.2388979798271,-39.181731178193566,-165.5044403076172,4381.2578125,True
1599572792.1410844,0.0,10,0.5,0.5,15.602424911880494,-0.2,-0.00825,-0.37525,-0.10802692028961039,10,1,100,0.07491932710152287,-10,-1,-100,6405.551991772605,-0.010431387131740622,-0.003613581111689115,0.9999390622403233,232.50419330635697,24.238466839818972,777.6581448250535,-39.55941932547728,-165.3597869873047,4381.2578125,True
1599572792.2198768,0.0,10,0.5,0.5,15.561199984741211,-0.2,-0.00825,-0.37525,-0.07780635659587246,10,1,100,0.09352158447705022,-10,-1,-100,6404.765857123421,-0.010219710712245667,-0.003986187531366722,0.9999398321008733,232.86613613413573,24.263454316984113,782.9541442521784,-39.74822116457892,-165.17672729492188,4381.2578125,True
1599572792.300658,0.0,10,0.5,0.5,15.300338565826417,-0.2,-0.00825,-0.37525,-0.12376258651705141,10,1,100,0.06518244970443182,-10,-1,-100,6403.134994996013,-0.00977362526745892,-0.004737631761137706,0.9999410138075281,233.92289663584722,24.3471359239423,794.7257097632767,-40.12572850096611,-164.58892822265625,4381.2578125,True
1599572792.3834362,0.0,10,0.5,0.5,15.018406260681154,-0.2,-0.00825,-0.37525,-0.13589427683861116,10,1,100,0.060198010230652216,-10,-1,-100,6401.572006507078,-0.00932652278381036,-0.005525792461509709,0.9999412390687942,235.41034984906653,24.473758347082878,808.0627035154608,-40.503090810419685,-163.70626831054688,4381.2578125,True
1599572792.476189,0.0,10,0.5,0.5,14.676061669921875,-0.2,-0.00825,-0.37525,-0.14786176113107186,10,1,100,0.054420511400345394,-10,-1,-100,6399.878648865153,-0.008871483691168658,-0.006345308241035466,0.9999405151509981,237.30356209308772,24.640024420502222,822.9224981016582,-40.88028788282431,-162.52894592285156,4381.2578125,True
1599572792.5579708,0.0,10,0.5,0.5,13.78537105064392,-0.2,-0.00825,-0.37525,-0.20364307553672528,10,1,100,0.01871906184644298,-10,-1,-100,6397.397698929068,-0.008137199972824286,-0.00759131734049172,0.9999380770215914,240.8266117806533,24.954440416624855,847.8840708005475,-41.44573006937756,-160.21041870117188,4381.2578125,True
1599572792.644739,0.0,10,0.5,0.5,13.552280286026,-0.2,-0.00825,-0.37525,-0.1734799380234167,10,1,100,0.03513872905275449,-10,-1,-100,6395.776612884947,-0.007622951298547328,-0.008443292100280081,0.9999352986228706,243.56025722815718,25.199533858926525,866.1084751935247,-41.822427324240714,-158.29696655273438,4381.2578125,True
1599572792.732085,0.0,10,0.5,0.5,13.65208573036194,-0.2,-0.00825,-0.37525,-0.13628562069756048,10,1,100,0.05673605725796916,-10,-1,-100,6394.927985032671,-0.007356078358424297,-0.008872618263582202,0.99993358017237,245.01973588683978,25.33031458474805,875.6253660202836,-42.01068967113255,-157.22999572753906,4381.2578125,True
1599572792.807877,0.0,10,0.5,0.5,12.69187321853638,-0.2,-0.00825,-0.37525,-0.18628145029736062,10,1,100,0.02015403412530036,-10,-1,-100,6393.2375663238345,-0.00678504214300701,-0.009710498156537468,0.9999298322525785,248.07793887775227,25.60370306380234,895.3168671869742,-42.38703121382983,-154.87530517578125,4381.2578125,True
1599572792.8906584,0.0,10,0.5,0.5,12.043624531555178,-0.2,-0.00825,-0.37525,-0.1965064159518885,10,1,100,0.011511898570269255,-10,-1,-100,6391.546661105007,-0.006191620431062357,-0.010558036313552165,0.9999250930472939,251.25237959341493,25.88615394278024,915.6462572400151,-42.76311652825723,-152.22714233398438,4381.2578125,True
1599572792.9812849,0.0,10,0.5,0.5,11.334349921798706,-0.2,-0.00825,-0.37525,-0.20577760199355027,10,1,100,0.0019086872755032375,-10,-1,-100,6389.794234579778,-0.0055690833472973635,-0.011405843700187714,0.9999194427753457,254.4484667433383,26.168867201963998,936.2750059469045,-43.13893480785231,-149.28573608398438,4381.2578125,True
1599572793.060074,0.0,10,0.5,0.5,9.570352463531496,-0.2,-0.00825,-0.37525,-0.2545473731551651,10,1,100,-0.04755650072727544,-10,-1,-100,6387.192697786959,-0.00455787729274433,-0.01261285536897244,0.9999100667730202,259.04840492604404,26.572515167720674,966.9035069237876,-43.702152242068955,-144.32354736328125,4381.2578125,True
1599572793.1408584,0.0,10,0.5,0.5,9.301655948638917,-0.2,-0.00825,-0.37525,-0.21967726111600752,10,1,100,-0.025389474565037665,-10,-1,-100,6385.439787400188,-0.003845264602279644,-0.013385295260386572,0.999903019202828,261.8049259731176,26.81237544420892,986.4149063440126,-44.07729677801575,-140.64939880371094,4381.2578125,True
1599572793.219648,0.0,10,0.5,0.5,8.378616072463988,-0.2,-0.00825,-0.37525,-0.22206061075178388,10,1,100,-0.03673304770442276,-10,-1,-100,6383.686877914821,-0.0030997009102856823,-0.014101318646088977,0.9998957669010846,264.1502633860829,27.01494681422808,1004.5506440801553,-44.45219219519097,-136.68240356445312,4381.2578125,True
1599572793.3024666,0.0,10,0.5,0.5,7.394681724166871,-0.2,-0.00825,-0.37525,-0.22396968810603518,10,1,100,-0.04767288663041986,-10,-1,-100,6381.8680503970245,-0.002328123401758039,-0.014761808312507467,0.9998883281930891,265.9313030227383,27.167144126556902,1020.6833455986047,-44.82686664534562,-132.42294311523438,4381.2578125,True
1599572793.3862782,0.0,10,0.5,0.5,7.680056193542481,-0.2,-0.00825,-0.37525,-0.1928150515278299,10,1,100,-0.01461665595466951,-10,-1,-100,6380.96425227623,-0.0019331490004119213,-0.01507137813120289,0.999884551583916,266.5593245124489,27.219920066806107,1027.785643310226,-45.01413355228293,-130.18365478515625,4381.2578125,True
1599572793.464035,0.0,10,0.5,0.5,4.378979357147218,-0.2,-0.00825,-0.37525,-0.2513492554702457,10,1,100,-0.10830110086321704,-10,-1,-100,6378.23430111981,-0.0007280446372672119,-0.015878134310592772,0.9998736694212029,267.13535279637364,27.26140983254331,1044.130108444362,-45.57573139125275,-123.0274658203125,4381.2578125,True
1599572793.5501823,0.0,10,0.5,0.5,4.081099342346192,-0.2,-0.00825,-0.37525,-0.22092444352646473,10,1,100,-0.07817125515484737,-10,-1,-100,6376.4193783770315,8.732899855072681e-05,-0.01632820087217619,0.9998666822281478,266.2108279004284,27.17041851444032,1049.9278213368734,-45.95004239899961,-117.89205932617188,4381.2578125,True
1599572793.6282094,0.0,10,0.5,0.5,4.4357746246337895,-0.2,-0.00825,-0.37525,-0.19847395772125703,10,1,100,-0.042361311195575325,-10,-1,-100,6375.511672903434,0.000496266079340039,-0.016526479163924142,0.9998633052604854,265.28909498426594,27.0823181554508,1050.9949450912043,-46.13719951593301,-115.21508026123047,4381.2578125,True
1599572793.708287,0.0,10,0.5,0.5,2.201693485069275,-0.2,-0.00825,-0.37525,-0.21180672714734167,10,1,100,-0.08826077297713686,-10,-1,-100,6373.634247203008,0.0012786755251423848,-0.016821742804834516,0.9998576868524388,262.41927205566975,26.808481063023866,1048.962023834941,-46.511567938850405,-109.64202880859375,4381.2578125,True
1599572793.7860498,0.0,10,0.5,0.5,-0.8646512811660765,-0.2,-0.00825,-0.37525,-0.21779449495786868,10,1,100,-0.13691806567966386,-10,-1,-100,6370.835926278611,0.0024255046859345767,-0.017138904270765754,0.9998501762201255,255.24201391347938,26.11426979142044,1033.9931105219334,-47.07341075387525,-100.7372055053711,4381.2578125,True
1599572793.8698611,0.0,10,0.5,0.5,-3.062079089736938,-0.2,-0.00825,-0.37525,-0.19934961639406315,10,1,100,-0.1375161583906419,-10,-1,-100,6367.93896704365,0.0034662460494516135,-0.017254340288695394,0.9998451244465447,245.8592463277973,25.1893406951771,1009.3236066644273,-47.63576640456145,-91.17803955078125,4381.2578125,True
1599572793.94662,0.0,10,0.5,0.5,-1.3876371788024902,-0.2,-0.00825,-0.37525,-0.1880095998060255,10,1,100,-0.06797808172378049,-10,-1,-100,6366.952153101913,0.0037729155708209105,-0.01725197153154043,0.9998440551337846,241.84003665179864,24.784850088130046,997.221637492355,-47.82335791167928,-87.92938232421875,4381.2578125,True
1599572794.7505107,0.0,10,0.5,0.5,-2.0558288700103757,-0.2,-0.00825,-0.37525,-0.1863762742958539,10,1,100,-0.07002011099648542,-10,-1,-100,6365.965339176939,0.004063344328932952,-0.017231454541969674,0.9998432708215986,237.4236915325606,24.336016126721177,983.3371379488478,-48.011025191661346,-84.7242431640625,4381.2578125,True
1599572794.8305342,0.0,10,0.5,0.5,-2.703540841293335,-0.2,-0.00825,-0.37525,-0.18507925383978474,10,1,100,-0.07152321075437479,-10,-1,-100,6364.979988525156,0.004334523156616331,-0.017198166060126648,0.9998427051257477,233.08863447967212,23.891401033643383,969.6353175281408,-48.19876003343352,-81.58200073242188,4381.2578125,True
1599572794.9242182,0.0,10,0.5,0.5,-3.3333805080413814,-0.2,-0.00825,-0.37525,-0.18310201079692595,10,1,100,-0.07248772448288164,-10,-1,-100,6364.008309250814,0.004583760718807306,-0.0171477139964728,0.9998424601117758,228.7292172852582,23.439936372970912,955.6758621805819,-48.3865556868888,-78.51025390625,4381.2578125,True
1599572795.014822,0.0,10,0.5,0.5,-5.6296333324432375,-0.2,-0.00825,-0.37525,-0.17179538674753608,10,1,100,-0.09829440289795024,-10,-1,-100,6362.064949132735,0.005039022024827708,-0.016997173414642783,0.9998428398268128,235.19970168585562,24.08020920727986,991.2935332089644,-48.761902841448034,-72.58883666992188,4381.2578125,True
1599572795.1075826,0.0,10,0.5,0.5,-9.741434029006959,-0.2,-0.00825,-0.37525,-0.13748195959261536,10,1,100,-0.12206389546611798,-10,-1,-100,6358.118649553042,0.00566373944759133,-0.016547360785112535,0.9998470417551462,252.23627923333143,25.741123743967467,1081.4412464278746,-49.511006809761255,-61.650634765625,4381.2578125,True
1599572795.206026,0.0,10,0.5,0.5,-7.147537687301636,-0.2,-0.00825,-0.37525,-0.16780164110798962,10,1,100,-0.07077861210956084,-10,-1,-100,6357.147453470039,0.005760365064635885,-0.016413874444849406,0.9998486900126594,255.5436433801386,26.05488670655501,1100.2503745801864,-49.69798239798296,-59.105194091796875,4381.2578125,True
1599572795.3142457,0.0,10,0.5,0.5,-7.659397046089172,-0.2,-0.00825,-0.37525,-0.16540741092658906,10,1,100,-0.06975525419738454,-10,-1,-100,6356.113757297047,0.005834117736397245,-0.016270859865432988,0.999850599934549,258.50671561446796,26.33323742736375,1117.6844233933873,-49.884851759056644,-56.635406494140625,4381.2578125,True
1599572795.413525,0.0,10,0.5,0.5,-10.777476622962952,-0.2,-0.00825,-0.37525,-0.12967017711733642,10,1,100,-0.07181717906299848,-10,-1,-100,6353.136688433588,0.005915769080221104,-0.015816463470369767,0.9998574114139875,265.5202989538656,26.981227924184275,1162.3890910383213,-50.44490170688499,-49.679931640625,4381.2578125,True
1599572795.5281901,0.0,10,0.5,0.5,-9.456347409057617,-0.2,-0.00825,-0.37525,-0.15655359742626,10,1,100,-0.061704052701791946,-10,-1,-100,6352.102990390034,0.005894887094600655,-0.015648972787484686,0.999860170202233,267.29979000035837,27.143283827429187,1174.9990782395719,-50.63142550540071,-47.512542724609375,4381.2578125,True
1599572795.6179495,0.0,10,0.5,0.5,-12.158559355926513,-0.2,-0.00825,-0.37525,-0.11686877352065561,10,1,100,-0.0413103948085706,-10,-1,-100,6349.063414968899,0.0056882987258753724,-0.015137396828902945,0.9998692426886875,271.2402081111911,27.500222100877593,1206.9935079890147,-51.19062359991909,-41.4638671875,4381.2578125,True
1599572795.7047172,0.0,10,0.5,0.5,-12.029701068878175,-0.2,-0.00825,-0.37525,-0.12839863851697808,10,1,100,-0.03400835411236811,-10,-1,-100,6346.995525679202,0.005432367672382316,-0.014779067070797602,0.9998760265942919,272.89523163797344,27.651528445944045,1224.2134682032486,-51.56317741726703,-37.808807373046875,4381.2578125,True
1599572795.7914844,0.0,10,0.5,0.5,-12.625902305603027,-0.2,-0.00825,-0.37525,-0.12332965897675821,10,1,100,-0.0218628679413947,-10,-1,-100,6344.928123497521,0.0050880450009766435,-0.014409460556219084,0.9998832328049846,273.94666677999834,27.751330098131458,1238.8449742972157,-51.93558720342764,-34.45538330078125,4381.2578125,True
1599572795.8802485,0.0,10,0.5,0.5,-13.16212617111206,-0.2,-0.00825,-0.37525,-0.11832159189489581,10,1,100,-0.00898499472432008,-10,-1,-100,6342.8582796845585,0.004657267796048662,-0.014030461938134325,0.9998907220264015,274.5308807024286,27.812809181090714,1251.4516749821325,-52.307887533448145,-31.403289794921875,4381.2578125,True
1599572795.9700103,0.0,10,0.5,0.5,-14.364678961181642,-0.2,-0.00825,-0.37525,-0.09114777123400898,10,1,100,0.036973398146949825,-10,-1,-100,6339.693698829855,0.00384778175903237,-0.013441716872102244,0.9999022526342588,274.80495432380286,27.85855132563732,1267.7286227812685,-52.86618525691293,-27.389404296875,4381.2578125,True
1599572796.051792,0.0,10,0.5,0.5,-13.578955110931396,-0.2,-0.00825,-0.37525,-0.1274055510656006,10,1,100,-0.009802052079179106,-10,-1,-100,6338.598473369842,0.0035381996731330906,-0.01323934249830804,0.9999060960676684,274.79270715057277,27.86655867515409,1272.700308844293,-53.0522518036104,-26.201751708984375,4381.2578125,True
1599572796.1385908,0.0,10,0.5,0.5,-13.802545074462891,-0.2,-0.00825,-0.37525,-0.12474626964563057,10,1,100,-0.0040855450094314585,-10,-1,-100,6337.56379541324,0.003206725476021911,-0.013034197798574313,0.9999099092415622,274.7509796146072,27.872948292354398,1277.5445135439702,-53.23830377093881,-25.08917236328125,4381.2578125,True
1599572796.2233307,0.0,10,0.5,0.5,-15.074364952850342,-0.2,-0.00825,-0.37525,-0.07383373646433028,10,1,100,0.08418926256342127,-10,-1,-100,6334.335249617463,0.002105208536702735,-0.0123879338395739,0.9999210504795882,274.5530327252746,27.891548622473906,1291.7869546979216,-53.79637671697955,-22.2012939453125,4381.2578125,True
1599572796.3056593,0.0,10,0.5,0.5,-14.91109585723877,-0.2,-0.00825,-0.37525,-0.08928169424913424,10,1,100,0.06716856019259565,-10,-1,-100,6332.1423605344025,0.0012619530763288943,-0.01194438706218616,0.999927866944482,274.4640389454671,27.91277278028446,1301.5246128894655,-54.16835391722748,-20.650665283203125,4381.2578125,True
1599572796.3874068,0.0,10,0.5,0.5,-15.073199634552003,-0.2,-0.00825,-0.37525,-0.08105604529870059,10,1,100,0.08294783868493447,-10,-1,-100,6330.0105075817555,0.00035613995878949723,-0.011469904161746257,0.9999341550636475,274.4994269646183,27.94930863384403,1311.8901977254218,-54.54026616224394,-19.39898681640625,4381.2578125,True
1599572796.4695563,0.0,10,0.5,0.5,-15.174880798339844,-0.2,-0.00825,-0.37525,-0.07299569827745678,10,1,100,0.10055581519467637,-10,-1,-100,6327.816645935294,-0.0006223638007568709,-0.010969079341722072,0.9999396441594336,274.70454034775025,28.005244434781474,1323.1147337761874,-54.912102863107876,-18.446044921875,4381.2578125,True
1599572796.561307,0.0,10,0.5,0.5,-15.045993914794922,-0.2,-0.00825,-0.37525,-0.09419810337252318,10,1,100,0.06038439552241187,-10,-1,-100,6326.657948321779,-0.0011409809828451353,-0.010710322567552673,0.9999419918939776,274.8832407874308,28.041652190188334,1329.114968316257,-55.0979890127668,-18.08148193359375,4381.2578125,True
1599572796.639884,0.0,10,0.5,0.5,-15.29770793838501,-0.2,-0.00825,-0.37525,-0.027294597963795658,10,1,100,0.1896537923628329,-10,-1,-100,6323.367894615512,-0.0027816517117880872,-0.00987057430959501,0.9999474157057227,275.7827103120086,28.190362532706647,1348.9867141724048,-55.65549523625059,-17.43438720703125,4381.2578125,True
1599572796.7216687,0.0,10,0.5,0.5,-15.103125565338136,-0.2,-0.00825,-0.37525,-0.04464162866617031,10,1,100,0.15600681010440792,-10,-1,-100,6321.111542073777,-0.0039601346296480305,-0.00926899334169747,0.9999492002577665,276.7148183078597,28.325374654517397,1363.971735789177,-56.02701836792427,-17.37493896484375,4381.2578125,True
1599572796.8034477,0.0,10,0.5,0.5,-15.045395632934571,-0.2,-0.00825,-0.37525,-0.06991076196559359,10,1,100,0.10674893240893613,-10,-1,-100,6320.013885483029,-0.004575849846447602,-0.008956149554145771,0.9999494232126676,277.2885604608917,28.404467552268027,1372.0352802695845,-56.21272899629881,-17.456634521484375,4381.2578125,True
1599572796.8862276,0.0,10,0.5,0.5,-14.68784917831421,-0.2,-0.00825,-0.37525,0.016191508815816477,10,1,100,0.25248796728116574,-10,-1,-100,6316.598362652352,-0.006452833422735227,-0.007893075983193186,0.999948028795668,279.44261988327895,28.688419837219087,1398.5663030238093,-56.7696286133471,-18.145721435546875,4381.2578125,True
1599572796.9705982,0.0,10,0.5,0.5,-14.475783489227295,-0.2,-0.00825,-0.37525,-0.006046680738541352,10,1,100,0.21217798011012873,-10,-1,-100,6314.341047853231,-0.00778364494226376,-0.0071336710660169205,0.9999442612508631,281.21860195658746,28.914569658982753,1418.1374867919246,-57.14067843090546,-18.975433349609375,4381.2578125,True
1599572797.0471745,0.0,10,0.5,0.5,-14.145108245849611,-0.2,-0.00825,-0.37525,0.01108338764307329,10,1,100,0.22857767181338529,-10,-1,-100,6312.021727772779,-0.009132570456939045,-0.006292939180326144,0.9999384956452682,283.2618808699868,29.169711133774985,1439.2254235338123,-57.51153381861256,-20.10028076171875,4381.2578125,True
1599572797.1354594,0.0,10,0.5,0.5,-14.181812490844727,-0.2,-0.00825,-0.37525,-0.0224915314107816,10,1,100,0.16927053168728937,-10,-1,-100,6310.863047186751,-0.009809494397321485,-0.005839404907150707,0.9999348354617911,284.37336934697896,29.3070400059346,1450.2939718924067,-57.69688305182922,-20.77325439453125,4381.2578125,True
