Timestamp,Input Throttle,horizon,dT,dt,Input Roll,Roll P,Roll I,Roll D,Input Pitch,Pitch P,Pitch I,Pitch D,Input Yaw,Yaw P,Yaw I,Yaw D,Altitude,Direction X,Direction Y,Direction Z,Drag X,Drag Y,Drag Z,Vertical Velocity,Roll,Mass,Has Fuel
1599574071.2424173,0.0,10,0.5,0.5,-10.811880569458008,-0.2,-0.03,-0.2505,-0.06717542271406739,10,1,100,0.6903720587115304,-10,-1,-100,6483.617967165541,-0.06725798552060959,-0.007002516237850949,0.9977110444161917,205.07327350783777,21.49878266500924,-156.7652800788286,9.590824131801526,-35.944610595703125,4381.2578125,True
1599574071.3122303,0.0,10,0.5,0.5,-10.973986450195312,-0.2,-0.03,-0.2505,-0.06908091636890921,10,1,100,0.6894867628496868,-10,-1,-100,6483.776675219531,-0.06735054105780532,-0.006987566259365628,0.9977049055392039,204.84261711015407,21.47777434390485,-153.51314966887722,9.400810207705014,-35.942962646484375,4381.2578125,True
1599574071.3860328,0.0,10,0.5,0.5,-11.137284545898439,-0.2,-0.03,-0.2505,-0.06771726576056485,10,1,100,0.708076552106498,-10,-1,-100,6484.156592011452,-0.0675424527748108,-0.006955226213158236,0.9976921578831248,204.38111653601402,21.43560461403928,-147.0254567123963,9.02079806218098,-35.939544677734375,4381.2578125,True
1599574071.4578404,0.0,10,0.5,0.5,-11.15577998352051,-0.2,-0.03,-0.2505,-0.018528049710829067,10,1,100,0.7014798660348942,-10,-1,-100,6484.697140659555,-0.06759554586891502,-0.006472328546869229,0.9976918117043282,203.75663460274947,21.37897279974104,-137.38153932010985,8.450805797827,-36.256591796875,4381.2578125,True
1599574071.5386245,0.0,10,0.5,0.5,-11.286362670898438,-0.2,-0.03,-0.2505,-0.04434000128947313,10,1,100,0.7021371248646409,-10,-1,-100,6484.856804616982,-0.06758833690212662,-0.006262100838642469,0.9976936417597796,203.59194442218916,21.364401622102243,-134.20540717345202,8.260811296878103,-36.50091552734375,4381.2578125,True
1599574071.6189182,0.0,10,0.5,0.5,-11.189476699829102,-0.2,-0.03,-0.2505,-0.001500631069079765,10,1,100,0.6975784650374518,-10,-1,-100,6485.175624041236,-0.0674788969912517,-0.005675843101124891,0.997704557103923,203.31711545847782,21.340386608206657,-127.89835940816204,7.880820607348593,-37.208099365234375,4381.2578125,True
1599574071.6927233,0.0,10,0.5,0.5,-10.799263610839844,-0.2,-0.03,-0.2505,0.0792186073862009,10,1,100,0.66818558185678,-10,-1,-100,6485.59008227475,-0.06705085368245817,-0.004403910405514428,0.9977398401354903,202.9724011509241,21.309499496969586,-118.49844109185568,7.310815758615095,-38.819061279296875,4381.2578125,True
1599574071.7670352,0.0,10,0.5,0.5,-10.707095108032227,-0.2,-0.03,-0.2505,0.07418682084134312,10,1,100,0.6660887690426713,-10,-1,-100,6485.909324191278,-0.06658170614553355,-0.003289347914089519,0.9977755542190087,202.70903288951905,21.283799932393002,-112.22411374606656,6.9307882166475006,-40.26025390625,4381.2578125,True
1599574071.8458662,0.0,10,0.5,0.5,-10.435584716796875,-0.2,-0.03,-0.2505,0.10505873656722445,10,1,100,0.6491354245671399,-10,-1,-100,6486.165062724263,-0.0659405582475104,-0.00199246518990969,0.9978215636377447,202.33778063033233,21.24532358421866,-105.90411025193418,6.550730790065178,-41.99554443359375,4381.2578125,True
1599574071.9207082,0.0,10,0.5,0.5,-10.573714538574219,-0.2,-0.03,-0.2505,0.05370847222861764,10,1,100,0.6772717051419479,-10,-1,-100,6486.26118407934,-0.0655535349288535,-0.0012784901481063533,0.9978482347137128,202.08461016111733,21.21841292321003,-102.71628486052141,6.360687745636314,-42.9735107421875,4381.2578125,True
1599574071.9945107,0.0,10,0.5,0.5,-9.439240829467773,-0.2,-0.03,-0.2505,0.24536278240062132,10,1,100,0.5645597825842483,-10,-1,-100,6486.674998146715,-0.0641174475841601,0.0011140522461404465,0.9979417376795527,200.89573467988993,21.090228788679426,-92.99235708540164,5.790481452286547,-46.348724365234375,4381.2578125,True
1599574072.0713058,0.0,10,0.5,0.5,-9.680344589233398,-0.2,-0.03,-0.2505,0.10244877366894364,10,1,100,0.6441874337673451,-10,-1,-100,6486.772071546642,-0.06353865640695466,0.00198249382654593,0.9979774089929224,200.3083481246412,21.02667081975169,-89.68689906394184,5.600379814607415,-47.62103271484375,4381.2578125,True
1599574072.157232,0.0,10,0.5,0.5,-8.71837077331543,-0.2,-0.03,-0.2505,0.22160226237499298,10,1,100,0.5579884581948784,-10,-1,-100,6486.965226151748,-0.062232320908518976,0.003847045105982353,0.9980542763188239,198.74784926012106,20.85799501653154,-82.96441511227094,5.220112586644133,-50.386077880859375,4381.2578125,True
1599574072.237027,0.0,10,0.5,0.5,-7.249783309936523,-0.2,-0.03,-0.2505,0.3561827389650178,10,1,100,0.4265995489929443,-10,-1,-100,6487.25443141954,-0.05985512594616558,0.006755730355089199,0.9981842134622938,195.17875183398806,20.473714875191128,-72.59127612400596,4.649512842075772,-55.0872802734375,4381.2578125,True
1599574072.3148189,0.0,10,0.5,0.5,-6.79301010131836,-0.2,-0.03,-0.2505,0.29217508828103184,10,1,100,0.45884589746241344,-10,-1,-100,6487.448517198907,-0.057994224984587436,0.008806076430875588,0.9982780789370919,191.7514191522016,20.106618309037678,-65.49157924609686,4.268938707728328,-58.58990478515625,4381.2578125,True
1599574072.391613,0.0,10,0.5,0.5,-6.765251052856446,-0.2,-0.03,-0.2505,0.20196782701360996,10,1,100,0.5322910777411036,-10,-1,-100,6487.544090885087,-0.056978902214702254,0.009836263054368908,0.9983269267286807,189.66258651129942,19.883662375893202,-61.89524969908734,4.078586920444213,-60.452056884765625,4381.2578125,True
1599574072.4659276,0.0,10,0.5,0.5,-5.383965087890626,-0.2,-0.03,-0.2505,0.32151688373701154,10,1,100,0.3931969093829846,-10,-1,-100,6487.675171022653,-0.05480093452498423,0.01184550404034331,0.9984270336931079,184.6326469182616,19.34872067492396,-54.63656100265201,3.6977333699525876,-64.39883422851562,4381.2578125,True
1599574072.54272,0.0,10,0.5,0.5,-4.384788024902344,-0.2,-0.03,-0.2505,0.34527754334943206,10,1,100,0.34561832382614843,-10,-1,-100,6487.805267333286,-0.05239956759213977,0.013873320556391264,0.9985298274427743,178.37972993902122,18.686673434419713,-47.35349024995979,3.316652760227462,-68.64102172851562,4381.2578125,True
1599574072.623504,0.0,10,0.5,0.5,-2.2454388122558595,-0.2,-0.03,-0.2505,0.4682959490945944,10,1,100,0.14396219888738093,-10,-1,-100,6487.969398652669,-0.048396162097886365,0.016819536833690443,0.9986865948208653,166.40078192728478,17.425178339561427,-36.560164660452735,2.744461674332263,-75.55972290039062,4381.2578125,True
1599574072.7032902,0.0,10,0.5,0.5,-2.772033203125,-0.2,-0.03,-0.2505,0.277419517432276,10,1,100,0.3859722645777299,-10,-1,-100,6488.003927643294,-0.04697274351497701,0.017745573159738074,0.9987385323496378,161.68888482926232,16.930358338483916,-33.0560845813082,2.5535767217852894,-78.01443481445312,4381.2578125,True
1599574072.7880874,0.0,10,0.5,0.5,0.23658813476562512,-0.2,-0.03,-0.2505,0.47115131043555475,10,1,100,0.03335243128441567,-10,-1,-100,6488.167093665339,-0.04248998340186008,0.020331327880440415,0.9988900031620737,145.3640289869448,15.218950946300307,-23.054218970908657,1.980608042520481,-85.82443237304688,4381.2578125,True
1599574072.8688707,0.0,10,0.5,0.5,-0.3615105133056642,-0.2,-0.03,-0.2505,0.30002929763079567,10,1,100,0.309628767924586,-10,-1,-100,6488.200655252556,-0.04094601132683015,0.021108889077731733,0.9989383559351033,148.0072299484421,15.495660684643605,-21.210338270629286,1.789560263140889,-88.57666015625,4381.2578125,True
1599574072.9456656,0.0,10,0.5,0.5,2.967635395050049,-0.2,-0.03,-0.2505,0.4609619921324677,10,1,100,-0.07430887229868882,-10,-1,-100,6488.301355192438,-0.03607259693393692,0.023261399756874326,0.9990784128544629,160.31131145606014,16.782866770861403,-15.618751439351897,1.2164383155938099,-97.22418975830078,4381.2578125,True
1599574073.0209742,0.0,10,0.5,0.5,2.256588161468506,-0.2,-0.03,-0.2505,0.3145030210012229,10,1,100,0.23291927014117134,-10,-1,-100,6488.273407530389,-0.03445898489346415,0.023869133041582738,0.9991210351343601,164.63339242190315,17.23435883930731,-13.522162792451116,1.0254402202542212,-100.14237976074219,4381.2578125,True
1599574073.09633,0.0,10,0.5,0.5,5.629527030944825,-0.2,-0.03,-0.2505,0.4327456420615914,10,1,100,-0.1625959716256412,-10,-1,-100,6488.311657810351,-0.029419559150656697,0.025480993125787832,0.9992423172227568,175.59281955660217,18.378861465892275,-6.366273989986058,0.45256348109542355,-108.95210266113281,4381.2578125,True
1599574073.1691318,0.0,10,0.5,0.5,6.1223482933044435,-0.2,-0.03,-0.2505,0.3661509932172978,10,1,100,-0.02991099332115399,-10,-1,-100,6488.318304314627,-0.026070467065267017,0.02632575556130351,0.999313406965565,181.96131553796994,19.04474863590883,-1.029806004264945,0.07063505275609527,-114.60930633544922,4381.2578125,True
1599574073.2459297,0.0,10,0.5,0.5,7.288883991241455,-0.2,-0.03,-0.2505,0.3580858468036823,10,1,100,-0.06094061085997432,-10,-1,-100,6488.322041398031,-0.02277184904196843,0.02700541145118768,0.9993758805592429,186.30705602173822,19.49888459695149,4.649104503534781,-0.31140476389772465,-119.9837646484375,4381.2578125,True
1599574073.3267121,0.0,10,0.5,0.5,8.398455223083497,-0.2,-0.03,-0.2505,0.3509711598490092,10,1,100,-0.08804561673311273,-10,-1,-100,6488.327756633982,-0.019555813590562104,0.027544819735666404,0.9994292636602857,189.4659107916854,19.828867125590094,10.531807607137273,-0.6935804053662609,-125.06504821777344,4381.2578125,True
1599574073.4069622,0.0,10,0.5,0.5,9.451176704406738,-0.2,-0.03,-0.2505,0.34221666365656184,10,1,100,-0.11682480142717333,-10,-1,-100,6488.268553266884,-0.016400374004793602,0.027943175938734563,0.9994749654948641,191.42575515563382,20.033331391983456,16.508209936002643,-1.0758772202201219,-129.85153198242188,4381.2578125,True
1599574073.4917345,0.0,10,0.5,0.5,9.443297874450684,-0.2,-0.03,-0.2505,0.3206602693006936,10,1,100,0.026902997336469475,-10,-1,-100,6488.24164590158,-0.014867495995667255,0.02809923832092041,0.9994945674532717,191.90550355773223,20.08318827703753,19.492000571935268,-1.2670698897372303,-132.13401794433594,4381.2578125,True
1599574073.5730324,0.0,10,0.5,0.5,11.918885276794434,-0.2,-0.03,-0.2505,0.3423243381489336,10,1,100,-0.3097630333177356,-10,-1,-100,6488.153629484354,-0.010442556842804448,0.02842864687138138,0.9995412773085697,191.67467460388042,20.057581359264464,28.290260340988812,-1.8408023011549173,-138.53799438476562,4381.2578125,True
1599574073.6498601,0.0,10,0.5,0.5,12.229756492614747,-0.2,-0.03,-0.2505,0.320505453467835,10,1,100,-0.1810111731903818,-10,-1,-100,6488.033452772186,-0.007619490365504254,0.02852239449379869,0.9995641131907999,190.4045334237129,19.923280839118792,33.948772034840125,-2.223390281185989,-142.4379425048828,4381.2578125,True
1599574073.7256715,0.0,10,0.5,0.5,13.03778712463379,-0.2,-0.03,-0.2505,0.3186356012827393,10,1,100,-0.1954521837931131,-10,-1,-100,6487.9748166126665,-0.004952081217898635,0.028583881398480768,0.9995791307424386,188.49136057743138,19.72121144684203,39.39748557820528,-2.6060268836350717,-146.0414581298828,4381.2578125,True
1599574073.8134372,0.0,10,0.5,0.5,13.043062469482424,-0.2,-0.03,-0.2505,0.31687724279902896,10,1,100,-0.07157018919909179,-10,-1,-100,6487.88300658064,-0.0036816551397628457,0.028618954887756558,0.9995836137295191,187.33619363015637,19.59916359714761,42.03407373093171,-2.797356096026735,-147.7318115234375,4381.2578125,True
1599574073.8942208,0.0,10,0.5,0.5,14.847114585876465,-0.2,-0.03,-0.2505,0.3127292442322688,10,1,100,-0.3506306243808923,-10,-1,-100,6487.732597990194,-1.7788685035488065e-05,0.02860881278026748,0.9995906839876342,183.40922732804844,19.18364977560486,49.60915293750917,-3.3713655838305585,-152.359375,4381.2578125,True
1599574073.9740143,0.0,10,0.5,0.5,15.04096263885498,-0.2,-0.03,-0.2505,0.31093457404358554,10,1,100,-0.23602670269803705,-10,-1,-100,6487.549498784356,0.002244416285358315,0.02858043402660349,0.9995889762229218,180.6768878520381,18.89381136864314,54.42602283781805,-3.75404767361001,-155.07376098632812,4381.2578125,True
1599574074.7878284,0.0,10,0.5,0.5,15.043781295776368,-0.2,-0.03,-0.2505,0.3110681429986066,10,1,100,-0.1317614457670685,-10,-1,-100,6487.5187445655465,0.0033273594832978533,0.02855379971516796,0.9995867191998377,179.29009580979996,18.746528739743884,56.76564134774984,-3.945390620317585,-156.31988525390625,4381.2578125,True
1599574074.8666196,0.0,10,0.5,0.5,15.862296333312988,-0.2,-0.03,-0.2505,0.32074516541764964,10,1,100,-0.24781226056440606,-10,-1,-100,6487.336639085435,0.00534313415365026,0.02861615201015971,0.9995761935748307,176.5253615111897,18.452480286440096,61.32156662383959,-4.32808795289569,-158.5877227783203,4381.2578125,True
1599574074.9523902,0.0,10,0.5,0.5,15.855685295104982,-0.2,-0.03,-0.2505,0.3149619287995454,10,1,100,-0.15542062178445393,-10,-1,-100,6487.243393497076,0.006313097185294509,0.0286192870979199,0.999570448347657,175.19695817304034,18.31088551344016,63.55617947943442,-4.519446918728585,-159.61083984375,4381.2578125,True
1599574075.0511236,0.0,10,0.5,0.5,16.11625419616699,-0.2,-0.03,-0.2505,0.31384104316543837,10,1,100,-0.16404227594153475,-10,-1,-100,6487.151126759942,0.007252611823499026,0.028611332661792572,0.9995643007155937,173.93051376725134,18.175636592302762,65.77398544853207,-4.710816370199933,-160.55996704101562,4381.2578125,True
1599574075.15385,0.0,10,0.5,0.5,17.045137908935548,-0.2,-0.03,-0.2505,0.32596082912745095,10,1,100,-0.35496484572144965,-10,-1,-100,6486.812813530676,0.009822266576394026,0.02871381568829432,0.9995394138641662,170.49658865397373,17.807464710812102,72.3528728050537,-5.285012046106957,-162.9603271484375,4381.2578125,True
1599574075.2525895,0.0,10,0.5,0.5,16.810734344482423,-0.2,-0.03,-0.2505,0.3199374718506456,10,1,100,-0.18695202812154466,-10,-1,-100,6486.721042058431,0.010612504534100163,0.02875196503821867,0.9995302392894148,169.51524829022588,17.70166363317555,74.54873545939364,-5.476446314137036,-163.61209106445312,4381.2578125,True
1599574075.3403978,0.0,10,0.5,0.5,17.390713150024418,-0.2,-0.03,-0.2505,0.33934391930925467,10,1,100,-0.3458168486938684,-10,-1,-100,6486.380790773546,0.012758553778218136,0.028962859814551413,0.9994990605582633,167.18567219943068,17.4482625152218,81.25868107877525,-6.050866912453047,-165.12091064453125,4381.2578125,True
1599574075.4291165,0.0,10,0.5,0.5,17.355761642456056,-0.2,-0.03,-0.2505,0.3395372146226704,10,1,100,-0.2708477708823145,-10,-1,-100,6486.1342689757,0.01401186998822388,0.02915599504277944,0.9994766607842818,166.20769043437275,17.33928339769849,85.91407333214897,-6.433914302586048,-165.7552490234375,4381.2578125,True
1599574075.526239,0.0,10,0.5,0.5,17.402627487182617,-0.2,-0.03,-0.2505,0.3486916853548942,10,1,100,-0.2685523955137943,-10,-1,-100,6485.823784089647,0.01511429628930802,0.029414306765866025,0.9994530287137872,165.7420220231281,17.28363908543808,90.79367050590736,-6.817043100292455,-166.09197998046875,4381.2578125,True
1599574075.6101081,0.0,10,0.5,0.5,17.377044357299802,-0.2,-0.03,-0.2505,0.35963610374814825,10,1,100,-0.2641424553852285,-10,-1,-100,6485.576779600582,0.01606265521187542,0.029747898050441958,0.99942836345039,165.79979516564808,17.282338101529962,95.95156108308716,-7.200250509024587,-166.1309814453125,4381.2578125,True
1599574075.7038598,0.0,10,0.5,0.5,17.359016044616702,-0.2,-0.03,-0.2505,0.34666266147535973,10,1,100,-0.2167874622520428,-10,-1,-100,6485.423492930713,0.016481737713974532,0.029932161139373057,0.9994160385202223,166.0344588394262,17.302991971582532,98.65572389678113,-7.3918818025806985,-166.0390167236328,4381.2578125,True
1599574075.7861574,0.0,10,0.5,0.5,17.22774816131592,-0.2,-0.03,-0.2505,0.37521837899670235,10,1,100,-0.2552337868473959,-10,-1,-100,6485.111547913868,0.017200275322903594,0.03035801741457335,0.9993910852651594,166.90565633660387,17.385750479252724,104.34036502534313,-7.77519421884777,-165.63177490234375,4381.2578125,True
1599574075.8683789,0.0,10,0.5,0.5,16.82453887176514,-0.2,-0.03,-0.2505,0.41457371619420424,10,1,100,-0.2705372258532712,-10,-1,-100,6484.584790388006,0.01798183428455683,0.0311013517616378,0.9993544714236093,169.19807369251532,17.61104937951667,113.63894398495593,-8.35026556268852,-164.46339416503906,4381.2578125,True
1599574075.9522314,0.0,10,0.5,0.5,16.889388816833495,-0.2,-0.03,-0.2505,0.37028386290707305,10,1,100,-0.2138251490125151,-10,-1,-100,6484.429548825137,0.018166170153780845,0.03137221880666455,0.9993426710338607,170.21249869902525,17.711693707019865,116.96012966878831,-8.541976645291225,-163.92535400390625,4381.2578125,True
1599574076.0379663,0.0,10,0.5,0.5,16.448997611999513,-0.2,-0.03,-0.2505,0.4084630397020317,10,1,100,-0.22186838023174482,-10,-1,-100,6484.11906326632,0.018396947083859052,0.03196303510378406,0.999319726976781,172.58339000753318,17.94766196588103,123.94605744754132,-8.925417598597505,-162.62620544433594,4381.2578125,True
1599574076.1287522,0.0,10,0.5,0.5,16.054382102966308,-0.2,-0.03,-0.2505,0.41912528142861843,10,1,100,-0.205120728166246,-10,-1,-100,6483.7460738257505,0.018446697746509737,0.03259411646284759,0.9992984253536353,175.36746123549312,18.225270087831206,131.39344629774743,-9.308868667651188,-161.03009033203125,4381.2578125,True
1599574076.211075,0.0,10,0.5,0.5,15.59381524658203,-0.2,-0.03,-0.2505,0.4281257088422128,10,1,100,-0.19031121072799667,-10,-1,-100,6483.309603300993,0.018350171651105904,0.03324615599173382,0.9992787220351228,178.50046829462792,18.537745556273556,139.29079521562852,-9.692310591706393,-159.13742065429688,4381.2578125,True
1599574076.295846,0.0,10,0.5,0.5,15.063719261169432,-0.2,-0.03,-0.2505,0.43815627323986217,10,1,100,-0.1680603536126633,-10,-1,-100,6482.937580473139,0.01805505684707858,0.03392621224326613,0.9992612406398406,181.90152553286637,18.87671573422419,147.60511869679738,-10.075723288825225,-156.9481658935547,4381.2578125,True
1599574076.3743439,0.0,10,0.5,0.5,13.8562347946167,-0.2,-0.03,-0.2505,0.48315689558840025,10,1,100,-0.11292138662750625,-10,-1,-100,6482.2823659243295,0.017281831700953355,0.03494920520491813,0.9992396566132693,187.28338600554662,19.41221128174855,160.72260225777325,-10.650745758338267,-153.10916137695312,4381.2578125,True
1599574076.460661,0.0,10,0.5,0.5,14.1358245010376,-0.2,-0.03,-0.2505,0.41851804001849546,10,1,100,-0.15212364581705806,-10,-1,-100,6482.064120426774,0.016933313437643035,0.03528654112083986,0.9992337679000594,189.0951835277735,19.59220393862495,165.2246806777708,-10.842385408096403,-151.6815643310547,4381.2578125,True
1599574076.542956,0.0,10,0.5,0.5,13.064074531555177,-0.2,-0.03,-0.2505,0.45677608059318453,10,1,100,-0.09542244982855445,-10,-1,-100,6481.628599369782,0.016100221727260194,0.035935975374110966,0.9992243934843886,192.64903040394097,19.9448746355696,174.33836696258538,-11.225598461388596,-148.60494995117188,4381.2578125,True
1599574076.626731,0.0,10,0.5,0.5,12.26371775817871,-0.2,-0.03,-0.2505,0.45657368481041416,10,1,100,-0.06669011257369006,-10,-1,-100,6481.191115858033,0.01508200939367404,0.036519072175209756,0.999219140309127,195.9856745014067,20.27567680677826,183.47454480468656,-11.608709098520832,-145.23370361328125,4381.2578125,True
1599574076.7055213,0.0,10,0.5,0.5,10.519818588256836,-0.2,-0.03,-0.2505,0.4858755451106106,10,1,100,0.03403175011949747,-10,-1,-100,6480.475303366198,0.01324263421677513,0.037309939765518954,0.999215993183503,200.22269304325863,20.696140350019164,196.82216186593834,-12.183162872343802,-139.62393188476562,4381.2578125,True
1599574076.7873032,0.0,10,0.5,0.5,10.941959030151367,-0.2,-0.03,-0.2505,0.4310197350757935,10,1,100,-0.07275025685560571,-10,-1,-100,6480.192098799394,0.012545528846702316,0.03752457694911636,0.9992169513327657,201.34271947109926,20.807706880147737,201.06979710752563,-12.374590502721176,-137.60708618164062,4381.2578125,True
1599574076.8601384,0.0,10,0.5,0.5,8.444126022338867,-0.2,-0.03,-0.2505,0.4618175659788587,10,1,100,0.11092930028910701,-10,-1,-100,6479.475281919469,0.010247092210145168,0.03799408888955782,0.9992254231707124,203.48707146587836,21.024014459705434,212.75854998997931,-12.948715084993642,-131.11630249023438,4381.2578125,True
1599574076.9349532,0.0,10,0.5,0.5,7.860948947906495,-0.2,-0.03,-0.2505,0.43353713672402694,10,1,100,0.06898528693182218,-10,-1,-100,6478.913243409828,0.008546322530044635,0.038158340338746335,0.9992351582254325,203.64575407592417,21.044266348400832,219.30083733921458,-13.331359063762262,-126.42243194580078,4381.2578125,True
1599574077.011747,0.0,10,0.5,0.5,6.686524108886719,-0.2,-0.03,-0.2505,0.41817859099385746,10,1,100,0.09746381799861391,-10,-1,-100,6478.3521731842775,0.006750272879542831,0.038162978309665356,0.9992487282466702,203.080821152047,20.996224564214096,225.05761572499262,-13.713956214580229,-121.4359359741211,4381.2578125,True
1599574077.0875456,0.0,10,0.5,0.5,5.444316764831544,-0.2,-0.03,-0.2505,0.40052561659031527,10,1,100,0.12443214342597535,-10,-1,-100,6477.789628396975,0.004882879237721144,0.03800224322290687,0.9992657239195073,201.28359348947913,20.826941997017222,229.38257796414715,-14.096551621793477,-116.15686798095703,4381.2578125,True
1599574077.1623447,0.0,10,0.5,0.5,4.134301517486572,-0.2,-0.03,-0.2505,0.38155541102057455,10,1,100,0.15099324673998776,-10,-1,-100,6477.226098136278,0.0029557587855825493,0.03767995851978366,0.9992854868434491,197.8716283395617,20.495254468513767,231.71339971598263,-14.479204583525288,-110.58517456054688,4381.2578125,True
1599574077.237144,0.0,10,0.5,0.5,2.7606249847412108,-0.2,-0.03,-0.2505,0.3591271442541094,10,1,100,0.1736468055962557,-10,-1,-100,6476.6630496352445,0.0010109133603226376,0.03718059658878118,0.9993080512492032,192.78622833665048,19.99239387292214,231.82838972407023,-14.861973785148736,-104.72099304199219,4381.2578125,True
1599574077.3119457,0.0,10,0.5,0.5,1.3150689010620118,-0.2,-0.03,-0.2505,0.33557082861476,10,1,100,0.19415902853073236,-10,-1,-100,6476.038471111911,-0.0009291277801567787,0.03651076100435944,0.9993328279669645,186.7801479057992,19.393053926766104,230.49877315528707,-15.244901418536294,-98.56416320800781,4381.2578125,True
1599574077.3883631,0.0,10,0.5,0.5,1.2709612045288083,-0.2,-0.03,-0.2505,0.35881104222575955,10,1,100,0.10755558890064143,-10,-1,-100,6475.756697741337,-0.0018900163207668606,0.03611257170077581,0.9993459411052128,182.9439529868333,19.005283115361976,228.65505830364498,-15.436436941695279,-95.37599182128906,4381.2578125,True
1599574077.461128,0.0,10,0.5,0.5,-1.0514561157226563,-0.2,-0.03,-0.2505,0.2981331988264673,10,1,100,0.22012491784307425,-10,-1,-100,6475.131624123198,-0.00377147977923956,0.035199334212501154,0.999373194963359,173.73423591870792,18.06389620898487,222.64215837947071,-15.819660419090534,-88.780029296875,4381.2578125,True
1599574077.5339396,0.0,10,0.5,0.5,-2.655100883483887,-0.2,-0.03,-0.2505,0.27258284797129273,10,1,100,0.2327828571230931,-10,-1,-100,6474.444536095834,-0.0055815059040367175,0.03413876112952535,0.9994015167991214,166.08001450997503,17.272856211368875,218.09743471605586,-16.203036273991167,-81.8912353515625,4381.2578125,True
1599574077.6067455,0.0,10,0.5,0.5,-5.958796730041504,-0.2,-0.03,-0.2505,0.17337241897077135,10,1,100,0.33729749390787295,-10,-1,-100,6473.474202902522,-0.008160638138486005,0.03227576880483315,0.9994456857344624,186.2770680899882,19.359081237984064,253.48481624553125,-16.77771996929975,-71.09835815429688,4381.2578125,True
1599574077.6805868,0.0,10,0.5,0.5,-6.613674003601075,-0.2,-0.03,-0.2505,0.20915905949570873,10,1,100,0.2540180123265563,-10,-1,-100,6472.786135934177,-0.00973148330965645,0.03091267098723487,0.9994747145401073,197.11490638192475,20.467237885519683,274.48627083364806,-17.16040614651107,-64.04299926757812,4381.2578125,True
1599574077.7533588,0.0,10,0.5,0.5,-8.08548341369629,-0.2,-0.03,-0.2505,0.18863396007428407,10,1,100,0.257429748243079,-10,-1,-100,6472.0980717261555,-0.011173923968289153,0.029493486312270313,0.9995025150985357,206.10301729860046,21.381834462972684,293.53941196317527,-17.542725311082144,-57.268218994140625,4381.2578125,True
1599574077.8262043,0.0,10,0.5,0.5,-8.057072502136231,-0.2,-0.03,-0.2505,0.25083006297939914,10,1,100,0.1885327198363978,-10,-1,-100,6471.75428603543,-0.011842602311669205,0.028776618899619393,0.9995157122202701,209.59443340792072,21.7361914687729,301.83564767206616,-17.73376046555199,-53.991485595703125,4381.2578125,True
1599574077.8990088,0.0,10,0.5,0.5,-12.991250289916993,-0.2,-0.03,-0.2505,-0.004277999038720504,10,1,100,0.3836399200240447,-10,-1,-100,6470.253176377504,-0.01420898855140296,0.025814143982793185,0.9995657730308606,217.905677583382,22.585866447043866,327.6327485966228,-18.49729763029769,-41.630767822265625,4381.2578125,True
1599574077.9733303,0.0,10,0.5,0.5,-11.409768249511721,-0.2,-0.03,-0.2505,0.20781894776533694,10,1,100,0.20460062727558143,-10,-1,-100,6469.909395216033,-0.014717014519504903,0.025059926133476237,0.9995776155886131,218.93758528396043,22.695926392099075,332.6617754810131,-18.688086827928316,-38.727294921875,4381.2578125,True
1599574078.0456455,0.0,10,0.5,0.5,-12.154870895385743,-0.2,-0.03,-0.2505,0.19969182810217137,10,1,100,0.20764916342951856,-10,-1,-100,6469.502627207781,-0.015192272157469891,0.02431140942848233,0.999588990654806,219.49907657670423,22.759805314034196,337.00402409343627,-18.878860663645195,-35.898345947265625,4381.2578125,True
1599574078.1184514,0.0,10,0.5,0.5,-15.257134109497072,-0.2,-0.03,-0.2505,0.04615262328019648,10,1,100,0.3051811254259092,-10,-1,-100,6468.345812263084,-0.0164980122606986,0.022246219063357074,0.9996163870849811,218.71160389817496,22.708778780413965,346.2454860491012,-19.451193264108902,-27.856353759765625,4381.2578125,True
1599574078.190259,0.0,10,0.5,0.5,-15.69254591369629,-0.2,-0.03,-0.2505,0.1008155942284169,10,1,100,0.25550229063707175,-10,-1,-100,6467.594791139476,-0.017220142951062604,0.020878315151533773,0.999633714233958,216.46526104098444,22.50449784672309,349.6055062961296,-19.832838201478054,-22.86773681640625,4381.2578125,True
1599574078.2670527,0.0,10,0.5,0.5,-16.754387725830078,-0.2,-0.03,-0.2505,0.09709263802447718,10,1,100,0.2572838387662888,-10,-1,-100,6466.782251167693,-0.017880595231502924,0.01961394019262311,0.9996477267839342,213.1541996605046,22.192984142511065,351.0867854997912,-20.21460203903665,-18.17572021484375,4381.2578125,True
1599574078.992632,0.0,10,0.5,0.5,-16.776935028076174,-0.2,-0.03,-0.2505,0.15616086907203927,10,1,100,0.22659789880337775,-10,-1,-100,6466.374519673875,-0.018190862314669962,0.019014696713079343,0.999653706959144,211.1767477788633,22.00405770425425,351.2195773450318,-20.40553562785037,-15.94097900390625,4381.2578125,True
1599574079.0584557,0.0,10,0.5,0.5,-17.355823623657226,-0.2,-0.03,-0.2505,0.1488881978752765,10,1,100,0.22758871278136283,-10,-1,-100,6465.969718283974,-0.018472812313552422,0.01841587024087967,0.9996597475783945,209.1131983377109,21.805897327370495,351.1490364734146,-20.596504822722558,-13.780670166015625,4381.2578125,True
1599574079.1302645,0.0,10,0.5,0.5,-18.81174984741211,-0.2,-0.03,-0.2505,0.08387327943400272,10,1,100,0.25809419264965405,-10,-1,-100,6465.092738389387,-0.018998506375881036,0.017291798553728713,0.9996699707694849,205.15368479773895,21.425067483827902,351.10945234140235,-20.978542516098837,-9.682342529296875,4381.2578125,True
1599574079.2001157,0.0,10,0.5,0.5,-19.640540802001954,-0.2,-0.03,-0.2505,0.07968306532702073,10,1,100,0.256842112302284,-10,-1,-100,6464.279727437883,-0.01945791426356042,0.016242914789672134,0.9996787270376655,200.74324309677544,20.992752609445386,350.0456339273071,-21.360704691421795,-5.880645751953125,4381.2578125,True
1599574079.2738771,0.0,10,0.5,0.5,-19.638809646606443,-0.2,-0.03,-0.2505,0.1293008318305942,10,1,100,0.23516374781029908,-10,-1,-100,6463.80999136914,-0.019671558746112823,0.015751848976116773,0.9996824040815823,198.52053358222895,20.772583940731163,349.38204449910324,-21.551826099213503,-4.0909423828125,4381.2578125,True
1599574079.344691,0.0,10,0.5,0.5,-20.8155719909668,-0.2,-0.03,-0.2505,0.07769008299312344,10,1,100,0.2606107757942573,-10,-1,-100,6462.93351077952,-0.020092151648110346,0.014845384424368235,0.9996879113020434,194.58634005776554,20.38078234485097,348.7659798380305,-21.93412634888285,-0.733642578125,4381.2578125,True
1599574079.4145436,0.0,10,0.5,0.5,-22.106863037109378,-0.2,-0.03,-0.2505,0.034527828503211705,10,1,100,0.28023346541558514,-10,-1,-100,6461.589256940992,-0.020648010430912342,0.013638227556242282,0.9996937823225516,188.62152887290455,19.773210685187742,347.2692416828097,-22.50766972791498,3.74652099609375,4381.2578125,True
1599574079.4843173,0.0,10,0.5,0.5,-22.282284667968753,-0.2,-0.03,-0.2505,0.07834336230815236,10,1,100,0.26331986835622834,-10,-1,-100,6460.712297971826,-0.02099461686176233,0.012948838148783823,0.9996957305367591,186.55062901550357,19.559125122454525,349.53112049558376,-22.890039060648135,6.36309814453125,4381.2578125,True
1599574079.556127,0.0,10,0.5,0.5,-22.774887466430666,-0.2,-0.03,-0.2505,0.0811638810395558,10,1,100,0.26772831895382293,-10,-1,-100,6459.774309080443,-0.02134570261833039,0.012356213749483957,0.9996957962107809,192.07417664194259,20.135023557114586,366.1432744170284,-23.272261515241567,8.683624267578125,4381.2578125,True
1599574079.6319234,0.0,10,0.5,0.5,-23.20028953552246,-0.2,-0.03,-0.2505,0.08462317907063484,10,1,100,0.270895797083112,-10,-1,-100,6458.835836160812,-0.021689916234870106,0.011856659824404843,0.9996944368913596,196.8433001521755,20.62647592893441,381.6607476021573,-23.6543045740627,10.7081298828125,4381.2578125,True
1599574079.7087176,0.0,10,0.5,0.5,-23.185827102661133,-0.2,-0.03,-0.2505,0.11023972682738654,10,1,100,0.2556423264250911,-10,-1,-100,6458.365625224775,-0.021860706770284778,0.011642449672456317,0.9996932343799911,198.96883426048024,20.84331556285678,389.03262491594216,-23.84525900052718,11.609405517578125,4381.2578125,True
1599574079.794489,0.0,10,0.5,0.5,-23.754836364746094,-0.2,-0.03,-0.2505,0.09215350748189477,10,1,100,0.27759633267666356,-10,-1,-100,6457.36563513556,-0.02221221654617094,0.011289995037581026,0.9996895285278111,202.74506234567863,21.224304513498367,403.04646837264374,-24.227037084925655,13.190155029296875,4381.2578125,True
1599574079.8723478,0.0,10,0.5,0.5,-24.258158340454102,-0.2,-0.03,-0.2505,0.0886937909973743,10,1,100,0.3017488316961119,-10,-1,-100,6455.893977636588,-0.022747939602396423,0.010944607833474482,0.9996813226239736,207.33330830468662,21.67724903417609,422.35316683156856,-24.799394168935027,15.00677490234375,4381.2578125,True
1599574079.9471219,0.0,10,0.5,0.5,-24.083357452392576,-0.2,-0.03,-0.2505,0.115241993411168,10,1,100,0.2682412469007485,-10,-1,-100,6455.425237049698,-0.02292693757971036,0.010877736934157799,0.9996779633323959,208.60208709325767,21.799757417372543,428.35788544647784,-24.990102763789253,15.4644775390625,4381.2578125,True
1599574080.0250864,0.0,10,0.5,0.5,-24.451782501220702,-0.2,-0.03,-0.2505,0.11738155754483064,10,1,100,0.31275498974235805,-10,-1,-100,6453.890602198779,-0.023491179745541164,0.010841273224953669,0.9996652596089476,211.69864019827259,22.090573568245386,445.1430445611984,-25.5620208735502,16.3946533203125,4381.2578125,True
1599574080.101881,0.0,10,0.5,0.5,-24.353391136169435,-0.2,-0.03,-0.2505,0.12504162742117547,10,1,100,0.2779535102584235,-10,-1,-100,6453.358389180386,-0.023684277700079373,0.010882225557054107,0.9996602583661865,212.50826830222317,22.163657327144772,450.3392007990394,-25.752597110590195,16.557052612304688,4381.2578125,True
1599574080.181668,0.0,10,0.5,0.5,-24.38457891082764,-0.2,-0.03,-0.2505,0.15095656063111051,10,1,100,0.32230848752965935,-10,-1,-100,6451.825719011598,-0.024259782792078098,0.011158648123478745,0.999643410177318,214.3070567958833,22.316231761923383,464.7376681674812,-26.324163306576907,16.6014404296875,4381.2578125,True
1599574080.2720122,0.0,10,0.5,0.5,-24.352274978637695,-0.2,-0.03,-0.2505,0.13983801968272966,10,1,100,0.28693032375165956,-10,-1,-100,6451.293022035854,-0.024458066139221336,0.011311117883818375,0.9996368648729136,214.6996571192106,22.345403261241426,469.13034147916363,-26.514637872057996,16.46881103515625,4381.2578125,True
1599574080.3607736,0.0,10,0.5,0.5,-24.037253074645996,-0.2,-0.03,-0.2505,0.1917657155251386,10,1,100,0.33184503558768075,-10,-1,-100,6449.634876099648,-0.025043490699426782,0.011923285555662634,0.9996152554033706,215.2549436788757,22.36866831595367,481.01494398802606,-27.085946754518417,15.628494262695312,4381.2578125,True
1599574080.439595,0.0,10,0.5,0.5,-24.07606455230713,-0.2,-0.03,-0.2505,0.1599801933341309,10,1,100,0.29500790203437716,-10,-1,-100,6449.103159596561,-0.025237450187237068,0.012191235899415365,0.9996071452702264,215.22559819239368,22.35453676543636,484.51307915953566,-27.27635152464063,15.201141357421875,4381.2578125,True
1599574080.527125,0.0,10,0.5,0.5,-23.419947677612306,-0.2,-0.03,-0.2505,0.2394035863618136,10,1,100,0.3382086144464118,-10,-1,-100,6447.443562657922,-0.025803285712671854,0.013156553806646772,0.9995804597621759,214.45543010561568,22.243661678786964,493.4553338727887,-27.847498528059706,13.4771728515625,4381.2578125,True
1599574080.6118624,0.0,10,0.5,0.5,-23.532274642944337,-0.2,-0.03,-0.2505,0.18582351320606116,10,1,100,0.30150755334688106,-10,-1,-100,6446.911362666171,-0.025980451472214665,0.013545647508046491,0.9995706736268766,213.95510690091,22.1825270376078,495.86262952877524,-28.037864928792825,12.755462646484375,4381.2578125,True
1599574080.691316,0.0,10,0.5,0.5,-22.53750036621094,-0.2,-0.03,-0.2505,0.2937314098134072,10,1,100,0.3392587123687238,-10,-1,-100,6445.190744778258,-0.02648127794024666,0.01487829933986714,0.9995385826106987,211.65016215951337,21.92065294047648,501.10694000912537,-28.60894161914068,10.148895263671875,4381.2578125,True
1599574080.7712696,0.0,10,0.5,0.5,-22.22753691101074,-0.2,-0.03,-0.2505,0.27598670763740735,10,1,100,0.3211595329601528,-10,-1,-100,6444.06287839124,-0.026768642790799782,0.01592490944764374,0.9995148008019806,209.37244743055626,21.674675635024517,502.71761769399416,-28.989656766938264,8.0438232421875,4381.2578125,True
1599574080.8538802,0.0,10,0.5,0.5,-21.6519619140625,-0.2,-0.03,-0.2505,0.301057016402954,10,1,100,0.31797702385158455,-10,-1,-100,6442.875447001541,-0.0269974592037601,0.017099696741206084,0.9994892383452161,206.43165510399479,21.365719542266078,502.57900934818343,-29.370381616519666,5.64508056640625,4381.2578125,True
1599574080.9326682,0.0,10,0.5,0.5,-21.00769352722168,-0.2,-0.03,-0.2505,0.32728109789685567,10,1,100,0.3126604082154748,-10,-1,-100,6441.686555635999,-0.02715395372843374,0.01840039645482891,0.9994618993274427,202.75741825606616,20.987763681874444,500.44936038747886,-29.7511223258138,2.952728271484375,4381.2578125,True
1599574081.008868,0.0,10,0.5,0.5,-20.29618020629883,-0.2,-0.03,-0.2505,0.35406736965492924,10,1,100,0.3060997468229052,-10,-1,-100,6440.498157455353,-0.02723342485090609,0.019819527600561444,0.9994326024783167,204.82262790559844,21.212173966119664,512.4468069813829,-30.131788854320757,-0.03314208984375,4381.2578125,True
1599574081.0946095,0.0,10,0.5,0.5,-19.51691374206543,-0.2,-0.03,-0.2505,0.3819029752044768,10,1,100,0.2957926116824262,-10,-1,-100,6439.244334695162,-0.027209266786368577,0.02135482425669865,0.999401634620393,210.31742655110807,21.801027707210515,533.2920880077565,-30.512225581692004,-3.31243896484375,4381.2578125,True
1599574081.1783843,0.0,10,0.5,0.5,-19.490796340942385,-0.2,-0.03,-0.2505,0.31831800191222964,10,1,100,0.2926986782936641,-10,-1,-100,6438.649163716473,-0.02715667715084832,0.02216337263564579,0.9993854610707213,213.07263973836066,22.099931076592597,543.8774582448243,-30.702348102032794,-5.0621337890625,4381.2578125,True
1599574081.2591693,0.0,10,0.5,0.5,-17.303993118286133,-0.2,-0.03,-0.2505,0.5208806660087006,10,1,100,0.25851350685725916,-10,-1,-100,6436.797737606801,-0.02679617302690675,0.024730586210947487,0.9993349604695989,221.43626935417373,23.02128373539971,576.4561105636353,-31.272285393943303,-10.751434326171875,4381.2578125,True
1599574081.3349662,0.0,10,0.5,0.5,-16.777333511352538,-0.2,-0.03,-0.2505,0.4656581688625569,10,1,100,0.2505359796090286,-10,-1,-100,6435.491681409301,-0.026394502009394437,0.02655099462324633,0.9992989417327491,227.33594611712644,23.6801712612192,599.5024931109049,-31.651838668224745,-14.91119384765625,4381.2578125,True
1599574081.4087687,0.0,10,0.5,0.5,-15.727890380859375,-0.2,-0.03,-0.2505,0.4910205729929691,10,1,100,0.22660987228494425,-10,-1,-100,6434.237386905123,-0.025811299002985455,0.028424301907597573,0.9992626461070404,232.8056208249142,24.300939515943067,621.7954901154683,-32.031045238686644,-19.36468505859375,4381.2578125,True
1599574081.4837103,0.0,10,0.5,0.5,-14.60843682861328,-0.2,-0.03,-0.2505,0.514750960969005,10,1,100,0.20121308980314195,-10,-1,-100,6432.924010349903,-0.02505038838593293,0.030329513280063072,0.9992259997947954,238.43516653537364,24.942293961007763,644.8830279857871,-32.40989191644428,-24.112060546875,4381.2578125,True
1599574081.5585465,0.0,10,0.5,0.5,-14.575921798706055,-0.2,-0.03,-0.2505,0.43181387693625645,10,1,100,0.22851696701104507,-10,-1,-100,6432.324939993443,-0.02460816933555186,0.031293503569333816,0.9992072631022598,241.09834561071168,25.247485991621655,656.1532221177882,-32.59918027123848,-26.595855712890625,4381.2578125,True
1599574081.6343086,0.0,10,0.5,0.5,-11.538504516601563,-0.2,-0.03,-0.2505,0.6505043462199214,10,1,100,0.09275027911715022,-10,-1,-100,6430.294814403169,-0.022973873466583885,0.03414398210386627,0.999152835968568,247.7069912460285,26.013590031603737,686.6607576202055,-33.16655629014406,-34.488616943359375,4381.2578125,True
1599574081.7150917,0.0,10,0.5,0.5,-12.143758041381837,-0.2,-0.03,-0.2505,0.4695127868768844,10,1,100,0.18521374043522143,-10,-1,-100,6429.63665945665,-0.02233238467562926,0.035074453609083935,0.9991351496663121,249.3521655204318,26.207071385873885,695.4194222958189,-33.35554047734726,-37.2666015625,4381.2578125,True
1599574081.7989032,0.0,10,0.5,0.5,-10.116855514526367,-0.2,-0.03,-0.2505,0.5815742163780866,10,1,100,0.09417688726626527,-10,-1,-100,6428.314001081279,-0.020925988536000733,0.036923918830061596,0.999098957672373,251.62396323091411,26.479039278213587,710.2263351117269,-33.73334825394632,-43.042694091796875,4381.2578125,True
1599574081.8781834,0.0,10,0.5,0.5,-7.282241088867188,-0.2,-0.03,-0.2505,0.6721880649748894,10,1,100,-0.03757738690841658,-10,-1,-100,6426.283856308553,-0.018455414495036696,0.03941346366253086,0.9990525394382114,252.0344633098313,26.54725335308101,724.12399716707,-34.299826380135,-52.260223388671875,4381.2578125,True
1599574081.9549847,0.0,10,0.5,0.5,-7.99408073425293,-0.2,-0.03,-0.2505,0.5125772299671322,10,1,100,0.10937026603374624,-10,-1,-100,6425.560263763764,-0.017553283895717534,0.04020926170160891,0.9990370851464364,251.25310531682348,26.466507071602255,726.120627236751,-34.48864114943373,-55.47955322265625,4381.2578125,True
1599574082.0307822,0.0,10,0.5,0.5,-5.648650238037109,-0.2,-0.03,-0.2505,0.5885503057438637,10,1,100,-0.011750574816361187,-10,-1,-100,6424.1882648587925,-0.01564079697338562,0.04160697343595383,0.9990116241723802,248.15497735372364,26.134638852800844,725.5669089094671,-34.866335716494994,-62.14019775390625,4381.2578125,True
1599574082.109571,0.0,10,0.5,0.5,-2.412955535888672,-0.2,-0.03,-0.2505,0.6398285687559571,10,1,100,-0.15713897333882176,-10,-1,-100,6422.0853186309105,-0.012590601035655622,0.04332844432435459,0.9989815427113717,239.31831933429694,25.183665119566843,711.9517029433867,-35.43323097513193,-72.68408203125,4381.2578125,True
1599574082.1933486,0.0,10,0.5,0.5,-1.5482137451171871,-0.2,-0.03,-0.2505,0.5668084772496009,10,1,100,-0.08811497194194207,-10,-1,-100,6420.651273516123,-0.010457735560394293,0.044214346618569225,0.9989673304568283,230.42328247989738,24.2361075177961,693.3890063618076,-35.81151544022968,-80.081787109375,4381.2578125,True
1599574082.273148,0.0,10,0.5,0.5,0.2465196075439453,-0.2,-0.03,-0.2505,0.5482184786899957,10,1,100,-0.10884116533293228,-10,-1,-100,6419.210377945332,-0.008344304791550074,0.04483635776757614,0.9989594954750085,219.03587816929476,23.03788810984984,666.6696879382005,-36.190129142836234,-87.77481079101562,4381.2578125,True
1599574082.3532922,0.0,10,0.5,0.5,2.1088546028137207,-0.2,-0.03,-0.2505,0.5315164754989479,10,1,100,-0.128914561434375,-10,-1,-100,6417.706965549383,-0.006255706022218926,0.04523679801540244,0.998956704891397,207.06093606792496,21.795753918676862,637.380319990801,-36.56902713166291,-95.76248931884766,4381.2578125,True
1599574083.1637537,0.0,10,0.5,0.5,4.021668979644776,-0.2,-0.03,-0.2505,0.5118910409283911,10,1,100,-0.1445169183214533,-10,-1,-100,6416.2694564239355,-0.004231824317774746,0.04540974584056122,0.9989594819839488,219.93707933108675,23.190492179248523,684.620193078139,-36.947543732439044,-103.98941040039062,4381.2578125,True
1599574083.2700293,0.0,10,0.5,0.5,4.02479082107544,-0.2,-0.03,-0.2505,0.4961407210740095,10,1,100,-0.0505532243492178,-10,-1,-100,6415.489661806379,-0.0032631854854356405,0.04541354480681419,0.9989629430407152,225.91016027329295,23.845760156249575,707.1118337389156,-37.13657097885012,-108.10808563232422,4381.2578125,True
1599574083.3717248,0.0,10,0.5,0.5,6.846208812713623,-0.2,-0.03,-0.2505,0.48225929694286207,10,1,100,-0.1576191730021852,-10,-1,-100,6413.9798672823235,-0.0014266135584551079,0.04528140447385398,0.9989732524860864,235.6652476678125,24.932107150712042,745.7579352666962,-37.51418840394618,-116.18937683105469,4381.2578125,True
1599574083.4584923,0.0,10,0.5,0.5,10.265699600219728,-0.2,-0.03,-0.2505,0.4392447365658847,10,1,100,-0.24889096283184342,-10,-1,-100,6411.759098627954,0.0010550141236354096,0.04476263772624146,0.9989970936939647,245.98052450888386,26.10187750291954,791.0466770443118,-38.0797059900755,-127.78630065917969,4381.2578125,True
1599574083.5622168,0.0,10,0.5,0.5,9.262064102172852,-0.2,-0.03,-0.2505,0.4637108117993428,10,1,100,-0.08513369459054307,-10,-1,-100,6410.97977476276,0.0018046000973252659,0.0445085875722945,0.9990073718701018,248.24372908362488,26.36191566233433,802.5700908707221,-38.26803101073074,-131.5039825439453,4381.2578125,True
1599574083.6659381,0.0,10,0.5,0.5,11.807241065979003,-0.2,-0.03,-0.2505,0.427696568744247,10,1,100,-0.15825219652434375,-10,-1,-100,6409.406959836488,0.0031331574691751025,0.043946322199232134,0.9990289806053849,250.76163155694707,26.656950298200975,819.2867528025671,-38.64453152363171,-138.714599609375,4381.2578125,True
1599574083.7587094,0.0,10,0.5,0.5,16.322367126464844,-0.2,-0.03,-0.2505,0.3332018675996714,10,1,100,-0.25664359778133816,-10,-1,-100,6406.27840420336,0.0052183369509725755,0.04257400244171268,0.9990796881508297,248.88262069757837,26.466380691599515,830.2353053829058,-39.39743659200862,-152.23660278320312,4381.2578125,True
1599574083.8584247,0.0,10,0.5,0.5,14.61208945465088,-0.2,-0.03,-0.2505,0.4301413545352314,10,1,100,-0.0929487700716973,-10,-1,-100,6405.4990694533335,0.005609629920712972,0.0422083929450934,0.9990930805571347,247.20875105942733,26.283947381227208,828.9186883666518,-39.58572558805429,-155.42933654785156,4381.2578125,True
1599574083.946199,0.0,10,0.5,0.5,15.442858360290527,-0.2,-0.03,-0.2505,0.42528132494034987,10,1,100,-0.09291744776864103,-10,-1,-100,6404.716805296252,0.005950459358193632,0.04183366218246192,0.9991068695298968,245.13593239325994,26.05783981750281,826.2115642866727,-39.77405930634286,-158.5469970703125,4381.2578125,True
1599574084.040979,0.0,10,0.5,0.5,18.884328742980955,-0.2,-0.03,-0.2505,0.34050062766396777,10,1,100,-0.14239632997088753,-10,-1,-100,6402.301653403207,0.00669711708124216,0.040724993964452665,0.9991479487490305,236.93146458621445,25.16865399388437,810.9348476076599,-40.33937829023203,-167.44850158691406,4381.2578125,True
1599574084.1336958,0.0,10,0.5,0.5,18.13864649963379,-0.2,-0.03,-0.2505,0.4087555482978782,10,1,100,-0.08455805050102573,-10,-1,-100,6401.52231868438,0.006838318995102569,0.04034171468479884,0.9991625410560643,233.66468474553494,24.818146553304675,803.8450690252561,-40.527930382332485,-170.26556396484375,4381.2578125,True
1599574084.219052,0.0,10,0.5,0.5,20.068223838806155,-0.2,-0.03,-0.2505,0.36603122287403267,10,1,100,-0.08703224749839206,-10,-1,-100,6399.883570741629,0.006979113304667292,0.03960948331867474,0.9991908630530548,226.54123267472872,24.061334736352563,787.3011441519023,-40.90519886735952,-175.673828125,4381.2578125,True
1599574084.3043385,0.0,10,0.5,0.5,-139.86334262847902,-0.2,-0.03,-0.2505,0.32622880280802846,10,1,100,-0.061513158168548625,-10,-1,-100,6397.351232302724,0.006865805229645642,0.03858725467749655,0.9992316470643845,214.8774898038415,22.84374718628297,758.1446883236982,-41.47146388695604,176.7778778076172,4381.2578125,True
1599574084.3991547,0.0,10,0.5,0.5,-49.357217506408695,-0.2,-0.03,-0.2505,0.3257996921764097,10,1,100,-0.015568473603480515,-10,-1,-100,6394.880914176931,0.006337580375590704,0.03766014049777108,0.9992705083673145,224.77002247526087,23.947262291539932,804.9803824378411,-42.0373601917317,169.90579223632812,4381.2578125,True
1599574084.4799044,0.0,10,0.5,0.5,-49.940802963256836,-0.2,-0.03,-0.2505,0.35701323360869075,10,1,100,-0.008655241732227384,-10,-1,-100,6393.183584587532,0.005789726067391227,0.03710752570852182,0.9992945064433487,231.32663931973298,24.69360396907783,836.6505596006356,-42.41416019381922,165.3975830078125,4381.2578125,True
1599574084.5706978,0.0,10,0.5,0.5,-51.96081407165528,-0.2,-0.03,-0.2505,0.4115346063472398,10,1,100,-0.06383918514918166,-10,-1,-100,6393.183584587532,0.005789726067391227,0.03710752570852182,0.9992945064433487,231.32663931973298,24.69360396907783,836.6505596006356,-42.41416019381922,165.3975830078125,4381.2578125,True
1599574084.655436,0.0,10,0.5,0.5,-49.61273110961914,-0.2,-0.03,-0.2505,0.3314234739766832,10,1,100,0.06063219899410083,-10,-1,-100,6390.588771641371,0.004655752967363008,0.03638545977469013,0.9993269846658256,241.00554711420057,25.812690617923405,884.4388989821871,-42.97861954886443,158.16024780273438,4381.2578125,True
1599574084.7352293,0.0,10,0.5,0.5,-51.20564370727539,-0.2,-0.03,-0.2505,0.38062172535102184,10,1,100,-0.0026003455873002054,-10,-1,-100,6389.736695981235,0.004200221085335191,0.036181918977034426,0.9993363932540302,243.9616221375874,26.159531037782894,899.5931601351205,-43.16657555141588,155.60479736328125,4381.2578125,True
1599574084.8155234,0.0,10,0.5,0.5,-49.128926315307616,-0.2,-0.03,-0.2505,0.3483257533670151,10,1,100,0.1277060279844356,-10,-1,-100,6387.141907877871,0.0026027790772353747,0.035708760755645594,0.9993588494361628,252.84500409400002,27.20256513812375,945.7126680251533,-43.729852911370635,147.50277709960938,4381.2578125,True
1599574084.902838,0.0,10,0.5,0.5,-50.79438124084473,-0.2,-0.03,-0.2505,0.38077624622489,10,1,100,0.03507243430826953,-10,-1,-100,6386.230759999016,0.0019957259944561045,0.035579189490751714,0.9993648674798089,255.40005502818613,27.50483488036013,959.7603943427868,-43.91742986792598,144.656494140625,4381.2578125,True
1599574084.9911165,0.0,10,0.5,0.5,-49.781425933837895,-0.2,-0.03,-0.2505,0.377695614851138,10,1,100,0.12016659042608012,-10,-1,-100,6384.470974025782,0.0006745503100282956,0.0354380696960629,0.999371646685104,259.6462515728732,28.009823254836707,984.8410199694036,-44.29235692609469,138.74691772460938,4381.2578125,True
1599574085.072898,0.0,10,0.5,0.5,-49.39556929016114,-0.2,-0.03,-0.2505,0.38088303239512467,10,1,100,0.15204162621332457,-10,-1,-100,6382.718524864875,-0.0008106881205309583,0.03534321335582634,0.9993749046551328,262.5257876054473,28.35512108188833,1004.9883072749043,-44.667053617209056,132.54660034179688,4381.2578125,True
1599574085.1517196,0.0,10,0.5,0.5,-48.95012316894532,-0.2,-0.03,-0.2505,0.3964284775615283,10,1,100,0.17974478917398531,-10,-1,-100,6380.909940277692,-0.0024056701739315614,0.03540218097527209,0.9993702508746237,263.7849344256294,28.510442703847183,1019.0949842316588,-45.04162413252993,126.0576171875,4381.2578125,True
1599574085.2264867,0.0,10,0.5,0.5,-45.79433419799805,-0.2,-0.03,-0.2505,0.4195626901759999,10,1,100,0.31622022571684366,-10,-1,-100,6378.183916201931,-0.005087911031591206,0.035668994447356356,0.9993507072076594,262.06624224312736,28.326553526838378,1026.3712424964713,-45.603506050632866,115.7821044921875,4381.2578125,True
1599574085.3012865,0.0,10,0.5,0.5,-46.59805509185791,-0.2,-0.03,-0.2505,0.40979530599990244,10,1,100,0.1544142105184704,-10,-1,-100,6377.265975653892,-0.006044961226380961,0.03582456788042336,0.9993398114655259,260.412816915471,28.14325113109205,1024.5360513993392,-45.7908690626059,112.21290588378906,4381.2578125,True
1599574085.3770845,0.0,10,0.5,0.5,-44.01956530761719,-0.2,-0.03,-0.2505,0.44004445194515923,10,1,100,0.2817361521838441,-10,-1,-100,6375.388609429472,-0.008061720248335251,0.03624215683528488,0.9993105196757233,255.3223032788733,27.58161819459638,1013.6655751277308,-46.16578555034856,104.85881042480469,4381.2578125,True
1599574085.4518867,0.0,10,0.5,0.5,-42.23777337646485,-0.2,-0.03,-0.2505,0.460623383455813,10,1,100,0.3228526392510578,-10,-1,-100,6373.576702579274,-0.01025633156316316,0.03680965105241333,0.9992696619292842,247.70968326078386,26.752651807388528,992.4060816772055,-46.54103261796851,97.21757507324219,4381.2578125,True
1599574085.5241656,0.0,10,0.5,0.5,-38.56358349609375,-0.2,-0.03,-0.2505,0.5336934221886463,10,1,100,0.4820717395951916,-10,-1,-100,6370.697042359272,-0.013685322684743817,0.037989442337121565,0.9991844245252869,231.29167600276216,25.00046169073857,939.3037333859286,-47.10464048875031,85.21870422363281,4381.2578125,True
1599574085.5969718,0.0,10,0.5,0.5,-37.59355687713623,-0.2,-0.03,-0.2505,0.5306802737881615,10,1,100,0.40993051326433083,-10,-1,-100,6368.785133907921,-0.016130498425200153,0.039032944407433656,0.9991077200539694,241.97690130398234,26.20258485308194,991.5747855037594,-47.48022374264641,76.86224365234375,4381.2578125,True
1599574085.6707742,0.0,10,0.5,0.5,-37.544431388854974,-0.2,-0.03,-0.2505,0.4931782929422741,10,1,100,0.3047627544398384,-10,-1,-100,6367.799412534689,-0.017380284674935586,0.039637633569434956,0.9990629528261136,249.1845828290577,27.015460450970483,1025.6776383790395,-47.667738868410034,72.57701110839844,4381.2578125,True
1599574085.7435791,0.0,10,0.5,0.5,-34.444728195190436,-0.2,-0.03,-0.2505,0.5917807409191871,10,1,100,0.46736393733180037,-10,-1,-100,6365.888069575303,-0.019977032009468005,0.04108004738551836,0.9989561291162371,261.995419820733,28.48102240175715,1087.9863894986418,-48.04221811042994,63.79362487792969,4381.2578125,True
1599574085.818379,0.0,10,0.5,0.5,-30.244477195739748,-0.2,-0.03,-0.2505,0.7358705384566626,10,1,100,0.6399359624445994,-10,-1,-100,6362.974046501564,-0.023887773830687017,0.04369611085258082,0.9987592423391,277.4253749966456,30.273994412365354,1167.192120316837,-48.60270920576646,50.085235595703125,4381.2578125,True
1599574085.9021556,0.0,10,0.5,0.5,-29.154566680908204,-0.2,-0.03,-0.2505,0.7074114129883169,10,1,100,0.5383780795881978,-10,-1,-100,6361.031602081377,-0.02649876101881869,0.045808037502473774,0.9985987379146037,284.37977360000133,31.08771620120328,1206.7657325359398,-48.97576333422107,40.592498779296875,4381.2578125,True
1599574085.9799473,0.0,10,0.5,0.5,-29.090191154479985,-0.2,-0.03,-0.2505,0.6265507972478556,10,1,100,0.4209027804984159,-10,-1,-100,6360.059183250763,-0.027782525660990477,0.046983414444256626,0.9985092338256346,286.41624631093435,31.32764480895828,1220.6125457685935,-49.16220098218642,35.74031066894531,4381.2578125,True
1599574086.0552568,0.0,10,0.5,0.5,-25.598916908264158,-0.2,-0.03,-0.2505,0.8012984627069399,10,1,100,0.5666024471536821,-10,-1,-100,6358.054828640656,-0.030253495382895068,0.049630268240962803,0.9983093521005636,287.3038793343028,31.43979615403585,1234.8984578466006,-49.53507719625149,25.82550048828125,4381.2578125,True
1599574086.1280644,0.0,10,0.5,0.5,-23.229628967285155,-0.2,-0.03,-0.2505,0.8557522673836201,10,1,100,0.5768259907109999,-10,-1,-100,6356.049076403491,-0.032570765040459845,0.05251898291651957,0.9980886241702656,283.61890488249395,31.034842425349684,1229.5553065584777,-49.908186426556426,15.62841796875,4381.2578125,True
1599574086.2015703,0.0,10,0.5,0.5,-20.795598190307615,-0.2,-0.03,-0.2505,0.9134397126202023,10,1,100,0.5839983596119684,-10,-1,-100,6354.043871763861,-0.034720296223898335,0.055654721372738976,0.9978462070975905,275.07995008033265,30.101729018330406,1202.8710707195016,-50.281756286357364,5.14959716796875,4381.2578125,True
1599574086.2943223,0.0,10,0.5,0.5,-15.826051055908202,-0.2,-0.03,-0.2505,1.1765173803795277,10,1,100,0.6599735608698365,-10,-1,-100,6351.006373483804,-0.037342859161495094,0.06087987597591383,0.9974463151321991,252.97210102344164,27.73839006158799,1120.6676114838751,-50.843224564517676,-11.09521484375,4381.2578125,True
1599574086.3701196,0.0,10,0.5,0.5,-14.568624420166017,-0.2,-0.03,-0.2505,1.060182196261208,10,1,100,0.5459855172380845,-10,-1,-100,6348.938289102167,-0.03866924549313372,0.06455161445623461,0.9971648702817831,268.7911692919653,29.57182512763719,1201.017955523643,-51.217207531619906,-22.277923583984375,4381.2578125,True
1599574086.4462867,0.0,10,0.5,0.5,-11.907326629638671,-0.2,-0.03,-0.2505,1.1098296391637916,10,1,100,0.5155761000137422,-10,-1,-100,6346.933209630661,-0.039578112231613054,0.06831770012832354,0.9968782598097714,284.6433560999025,31.447119672202305,1282.637650030593,-51.59014141795604,-33.7432861328125,4381.2578125,True
1599574086.5240788,0.0,10,0.5,0.5,-11.830043136596679,-0.2,-0.03,-0.2505,0.9440335068265685,10,1,100,0.45859674247506044,-10,-1,-100,6345.899907533894,-0.03986618071846382,0.07020810402119428,0.9967354261611614,290.6735463081787,32.18024466994379,1315.2754366350157,-51.77626894992904,-39.582122802734375,4381.2578125,True
1599574086.6028671,0.0,10,0.5,0.5,-4.899556015014649,-0.2,-0.03,-0.2505,1.3643890939278358,10,1,100,0.46376927959180525,-10,-1,-100,6342.736973769963,-0.040157003181472195,0.07572158739141949,0.9963200571595491,302.7321929735993,33.68207742440005,1386.8048987511397,-52.33370808498929,-57.524383544921875,4381.2578125,True
1599574086.679662,0.0,10,0.5,0.5,-3.5228874359130864,-0.2,-0.03,-0.2505,1.1981989529282324,10,1,100,0.40576142624918254,-10,-1,-100,6340.668822685257,-0.039879252908955255,0.07919391146750161,0.9960612278238227,302.6692026407689,33.73706789462229,1397.8640809362719,-52.70511028230634,-69.84042358398438,4381.2578125,True
1599574087.4366856,0.0,10,0.5,0.5,-3.4546150665283206,-0.2,-0.03,-0.2505,1.0351131735553802,10,1,100,0.40666751549601654,-10,-1,-100,6339.5739342327,-0.03962282575264731,0.08083762092967305,0.9959394111700802,299.91991147312467,33.45012837566846,1390.843591549482,-52.890925190992306,-76.10488891601562,4381.2578125,True
1599574087.5094912,0.0,10,0.5,0.5,3.9704199981689454,-0.2,-0.03,-0.2505,1.3595342173100762,10,1,100,0.30906013195793763,-10,-1,-100,6336.410249169217,-0.03849160639648332,0.0852504079235212,0.9956157713625731,280.5131888053166,31.343937008414617,1317.0527377245032,-53.44937536394036,-95.3251953125,4381.2578125,True
1599574087.5832942,0.0,10,0.5,0.5,2.469494270324707,-0.2,-0.03,-0.2505,1.0641642723118703,10,1,100,0.3734577110737485,-10,-1,-100,6335.3147951992,-0.038041168509192896,0.0865444692000517,0.9955214333952517,270.3832107532888,30.247120057104365,1274.7675060231563,-53.635940725455704,-101.87416076660156,4381.2578125,True
1599574087.6600885,0.0,10,0.5,0.5,7.178286224365235,-0.2,-0.03,-0.2505,1.190954413478769,10,1,100,0.31439726325189443,-10,-1,-100,6333.184860532405,-0.037089793264667714,0.0888425939290662,0.995354881808262,266.8638610700478,29.96693096100196,1268.5821311334648,-54.00922629658633,-115.18559265136719,4381.2578125,True
1599574087.7378805,0.0,10,0.5,0.5,13.145824165344239,-0.2,-0.03,-0.2505,1.2679997202976594,10,1,100,0.26582514942748464,-10,-1,-100,6329.8958287897985,-0.03578118791938585,0.09160203931510899,0.9951526380331767,294.78015319725023,33.34572575747082,1418.2619195221173,-54.56680191850099,-135.03253173828125,4381.2578125,True
1599574087.816709,0.0,10,0.5,0.5,14.350310447692872,-0.2,-0.03,-0.2505,1.14984393809079,10,1,100,0.32205801598382,-10,-1,-100,6327.702736076666,-0.0351041742753164,0.09300855331568618,0.9950462833248368,305.07915672772594,34.649806412319926,1479.3731754808016,-54.937411945697846,-147.91673278808594,4381.2578125,True
1599574087.8964567,0.0,10,0.5,0.5,14.350362350463868,-0.2,-0.03,-0.2505,1.0778084249000566,10,1,100,0.36253867797167855,-10,-1,-100,6326.607638245565,-0.03485995431806817,0.09360646416096836,0.9949988007290378,307.683488424321,34.99800217255817,1497.8360990600506,-55.12257289121542,-154.2444305419922,4381.2578125,True
1599574087.9682658,0.0,10,0.5,0.5,21.4699500579834,-0.2,-0.03,-0.2505,1.1815535546463567,10,1,100,0.35806791343908523,-10,-1,-100,6323.255900550634,-0.034601582095649425,0.09507016723252522,0.994869033500821,303.865013166224,34.66469767619412,1496.771959244185,-55.67831615179664,-172.7642364501953,4381.2578125,True
1599574088.0400727,0.0,10,0.5,0.5,-139.56215814971924,-0.2,-0.03,-0.2505,1.1223277333730475,10,1,100,0.41520798359074085,-10,-1,-100,6321.000245871954,-0.034890939439031814,0.09583978795580925,0.9947850810047603,292.5136131400356,33.42946808330057,1452.377208375676,-56.049515233468384,175.27670288085938,4381.2578125,True
1599574088.1158702,0.0,10,0.5,0.5,-47.82888436126709,-0.2,-0.03,-0.2505,1.1256334743896392,10,1,100,0.4627233533764095,-10,-1,-100,6318.744614301249,-0.03559073680719683,0.0965512060766143,0.9946914919002131,275.22245905923586,31.545039931167064,1377.5127649780309,-56.421479639978784,163.6287078857422,4381.2578125,True
1599574088.1873071,0.0,10,0.5,0.5,-46.299965026855475,-0.2,-0.03,-0.2505,1.1358686582443216,10,1,100,0.5159088711902812,-10,-1,-100,6316.489032567712,-0.03671431959120182,0.09727521759001681,0.9945801077740144,276.83972261492687,31.878302311852106,1396.6558000753103,-56.793606001799425,152.2032928466797,4381.2578125,True
1599574088.2631075,0.0,10,0.5,0.5,-47.25007128143311,-0.2,-0.03,-0.2505,1.108335174965935,10,1,100,0.48264793029297126,-10,-1,-100,6315.392029954237,-0.03743603039228667,0.09766816221179708,0.9945146925604658,286.7089940055604,33.106599580327014,1452.121564997405,-56.97917751012478,146.4388427734375,4381.2578125,True
1599574088.3398921,0.0,10,0.5,0.5,-44.141552940368655,-0.2,-0.03,-0.2505,1.1682895774271025,10,1,100,0.6040474244756087,-10,-1,-100,6313.074068060145,-0.0391967225003916,0.09855913575007315,0.9943589461082079,302.6549751479148,35.14701898887219,1544.7422861242515,-57.3494542195471,134.72340393066406,4381.2578125,True
1599574088.4206815,0.0,10,0.5,0.5,-39.64052730560303,-0.2,-0.03,-0.2505,1.273445357137584,10,1,100,0.7990472723819146,-10,-1,-100,6309.596363864606,-0.04256902707600686,0.10031415090355575,0.9940447419821206,317.88358704474774,37.173244696564915,1640.955036159582,-57.90334579665522,116.64230346679688,4381.2578125,True
1599574088.4975157,0.0,10,0.5,0.5,-42.08837525939941,-0.2,-0.03,-0.2505,1.1799878494313563,10,1,100,0.6041925437687176,-10,-1,-100,6308.437524444191,-0.043858370762981366,0.10104957683032469,0.9939141946548651,319.7977505657592,37.45841841836843,1657.0595574490703,-58.087803079536265,110.4781494140625,4381.2578125,True
1599574088.5743115,0.0,10,0.5,0.5,-38.72265490722656,-0.2,-0.03,-0.2505,1.2975978522309513,10,1,100,0.78897284826251,-10,-1,-100,6306.118990852032,-0.04670297944395303,0.10277873902782439,0.9936072476159319,317.7888600759251,37.314528965563355,1659.1888314960586,-58.456886714343405,97.944580078125,4381.2578125,True
1599574088.6544926,0.0,10,0.5,0.5,-33.90050347137451,-0.2,-0.03,-0.2505,1.4989526986577104,10,1,100,1.0294080182380294,-10,-1,-100,6302.578553892556,-0.05146421723991505,0.10617232127878362,0.9930150414460789,299.3846471104534,35.28259446510717,1581.3667645902,-59.011784239831314,78.63404846191406,4381.2578125,True
1599574088.7392676,0.0,10,0.5,0.5,-36.47549768066406,-0.2,-0.03,-0.2505,1.3102390653624263,10,1,100,0.7358599316803777,-10,-1,-100,6301.419506790466,-0.05310890148306383,0.1075303940614096,0.9927822817396874,289.1013053007046,34.13595463513967,1533.038090605799,-59.19722138871039,72.06150817871094,4381.2578125,True
