Timestamp,Input Throttle,horizon,dT,dt,Input Roll,Roll P,Roll I,Roll D,Input Pitch,Pitch P,Pitch I,Pitch D,Input Yaw,Yaw P,Yaw I,Yaw D,Altitude,Direction X,Direction Y,Direction Z,Drag X,Drag Y,Drag Z,Vertical Velocity,Roll,Mass,Has Fuel
1599571017.2344391,0.0,10,0.5,0.5,-8.122626388549804,-0.15025,-0.0155,-0.5,-0.06857245413089522,10,1,100,0.681592275576923,-10,-1,-100,6483.617967202212,-0.06725846682484843,-0.00700211315553482,0.9977110147992392,205.07321814260118,21.498775664885436,-156.76524561572154,9.59082467943654,-35.94464111328125,4381.2578125,True
1599571017.3067586,0.0,10,0.5,0.5,-8.207786325073242,-0.15025,-0.0155,-0.5,-0.0673294468159239,10,1,100,0.6999197147411471,-10,-1,-100,6483.997883157455,-0.06744582318675914,-0.006971277736853204,0.9976985828502394,204.61196322973925,21.456720992768343,-150.26659314726732,9.210802371817076,-35.9412841796875,4381.2578125,True
1599571017.3875442,0.0,10,0.5,0.5,-8.264260348510742,-0.15025,-0.0155,-0.5,-0.052146960430029476,10,1,100,0.7007137389988602,-10,-1,-100,6484.316760555608,-0.06756205116976012,-0.006798885409328282,0.9976919085564068,204.14933313847303,21.414340238271315,-143.7892673115237,8.83079866378505,-35.980712890625,4381.2578125,True
1599571017.4603503,0.0,10,0.5,0.5,-8.188294496154784,-0.15025,-0.0155,-0.5,-0.03422846490226869,10,1,100,0.6997245789763951,-10,-1,-100,6484.697141182376,-0.06759730056212973,-0.006473088892772048,0.997691687886042,203.7562317569485,21.37892919456609,-137.3812743668745,8.450806279688473,-36.256622314453125,4381.2578125,True
1599571017.530161,0.0,10,0.5,0.5,-8.04452004852295,-0.15025,-0.0155,-0.5,-0.015436724351580847,10,1,100,0.697612199097202,-10,-1,-100,6485.0169501691125,-0.0675486899194166,-0.00600019161008488,0.9976979363468749,203.44614478271458,21.351623578075017,-131.0450787466922,8.070816956395223,-36.8179931640625,4381.2578125,True
1599571017.600972,0.0,10,0.5,0.5,-8.153891650390625,-0.15025,-0.0155,-0.5,-0.028529908065339067,10,1,100,0.7013672059051179,-10,-1,-100,6485.175624292577,-0.06747722695164078,-0.005683859212666998,0.9977046244191552,203.31694342531762,21.340367842822168,-127.89825537711623,7.880820917541295,-37.208221435546875,4381.2578125,True
1599571017.6777663,0.0,10,0.5,0.5,-7.780206005859375,-0.15025,-0.0155,-0.5,0.02644438222720035,10,1,100,0.6878875638088948,-10,-1,-100,6485.493928890326,-0.06722837548283198,-0.0048913508857979585,0.9977256237144815,203.0859265779695,21.3199466121726,-121.62876376520441,7.500821661989939,-38.20880126953125,4381.2578125,True
1599571017.7495747,0.0,10,0.5,0.5,-7.519126368713378,-0.15025,-0.0155,-0.5,0.05698408275604636,10,1,100,0.6758643841977265,-10,-1,-100,6485.750194782973,-0.06683172853701078,-0.0038888084466676878,0.9977566823778332,202.84931915698678,21.297726020926174,-115.3648333269383,7.120805719736179,-39.503143310546875,4381.2578125,True
1599571017.825372,0.0,10,0.5,0.5,-7.211863041687012,-0.15025,-0.0155,-0.5,0.09013578610526268,10,1,100,0.6622030842262663,-10,-1,-100,6486.005458127242,-0.06628619065149004,-0.002672491827513959,0.9977970729143005,202.5420052384782,21.26670763716328,-109.07196972741012,6.740764454419864,-41.09130859375,4381.2578125,True
1599571017.9001727,0.0,10,0.5,0.5,-6.8578125198364255,-0.15025,-0.0155,-0.5,0.12174251388068419,10,1,100,0.643815686715002,-10,-1,-100,6486.261184778414,-0.06556282878668561,-0.001276986019572634,0.997847626037259,202.08428191418827,21.21838330562502,-102.71612806777742,6.360688387341319,-42.97357177734375,4381.2578125,True
1599571017.9824705,0.0,10,0.5,0.5,-5.677281013488769,-0.15025,-0.0155,-0.5,0.24765081898252225,10,1,100,0.5658427877730707,-10,-1,-100,6486.675001154072,-0.06413677998394886,0.001137437475863074,0.9979404690106914,200.89530650229125,21.0901869842464,-92.99216645124584,5.790481972884635,-46.3485107421875,4381.2578125,True
1599571018.0582683,0.0,10,0.5,0.5,-5.6463220687866205,-0.15025,-0.0155,-0.5,0.2042232652378554,10,1,100,0.5763572900061102,-10,-1,-100,6486.868656380451,-0.06293879626252571,0.0029301723916427477,0.9980130870959457,199.59616661681906,20.949653142699784,-86.34394607698417,5.410258176040937,-48.9664306640625,4381.2578125,True
1599571018.130077,0.0,10,0.5,0.5,-5.041017674255372,-0.15025,-0.0155,-0.5,0.23317136466543964,10,1,100,0.5402455933770937,-10,-1,-100,6487.061801441596,-0.06152552929817201,0.004814094627940039,0.9980939002606383,197.7389551235274,20.749145933832228,-79.5447028134125,5.029943085992725,-51.8792724609375,4381.2578125,True
1599571018.2098632,0.0,10,0.5,0.5,-4.386927633666992,-0.15025,-0.0155,-0.5,0.26215480112642997,10,1,100,0.5016768298954941,-10,-1,-100,6487.254439012846,-0.059895603773355545,0.00677967973782179,0.9981816230482696,195.17502830028604,20.473314632016283,-72.58990307886641,4.649513689330079,-55.087066650390625,4381.2578125,True
1599571018.2946367,0.0,10,0.5,0.5,-4.846778675842285,-0.15025,-0.0155,-0.5,0.17810578666115967,10,1,100,0.565030195785296,-10,-1,-100,6487.3519722810015,-0.058996794528692206,0.007790445371093112,0.9982277732042216,193.57894470649578,20.302147542035165,-69.05674100523785,4.459246846498532,-56.80157470703125,4381.2578125,True
1599571018.3774147,0.0,10,0.5,0.5,-2.040008531188965,-0.15025,-0.0155,-0.5,0.41244070266323485,10,1,100,0.3208765950915614,-10,-1,-100,6487.578632750781,-0.05596789147759224,0.010827103695012108,0.9983738623126758,187.29034601624798,19.63105941919332,-58.27280747932191,3.888187481496117,-62.38873291015625,4381.2578125,True
1599571018.460194,0.0,10,0.5,0.5,-3.487390237426758,-0.15025,-0.0155,-0.5,0.22185058085965054,10,1,100,0.49935850557446143,-10,-1,-100,6487.675177494646,-0.0548473691041405,0.01184005473408072,0.9984245485795349,184.62943212738537,19.34837372421112,-54.63562690319982,3.697734636455118,-64.39898681640625,4381.2578125,True
1599571018.5429723,0.0,10,0.5,0.5,-1.693697953796387,-0.15025,-0.0155,-0.5,0.3488441807660282,10,1,100,0.3438016871714904,-10,-1,-100,6487.805272645783,-0.052425814966774356,0.013900196218183003,0.9985280759548855,178.3799101056486,18.68668084841654,-47.35355927021394,3.31665427774363,-68.64077758789062,4381.2578125,True
1599571018.6447,0.0,10,0.5,0.5,0.7300705963134768,-0.15025,-0.0155,-0.5,0.46053108051512603,10,1,100,0.14812315494530837,-10,-1,-100,6487.969404555974,-0.04845860265217642,0.016772215742663375,0.9986843628534894,166.39750743206034,17.424823507975074,-36.55947422934194,2.744463834998611,-75.5604248046875,4381.2578125,True
1599571018.7319045,0.0,10,0.5,0.5,0.5642083282470702,-0.15025,-0.0155,-0.5,0.377319961217993,10,1,100,0.22415209506684808,-10,-1,-100,6488.100474081119,-0.045559425083646216,0.01860900085533507,0.9987882878133952,156.6174339900216,16.398250087971178,-29.62673950984139,2.3626317521582556,-80.5439453125,4381.2578125,True
1599571019.614954,0.0,10,0.5,0.5,-0.17650087585449215,-0.15025,-0.0155,-0.5,0.2904153492970424,10,1,100,0.3467134057860785,-10,-1,-100,6488.134029032895,-0.044056187758523616,0.019470685406778054,0.9988392987512937,151.164498524488,15.82657648419077,-26.285054599771044,2.171636855426536,-83.14727783203125,4381.2578125,True
1599571019.6837704,0.0,10,0.5,0.5,3.5842758987426757,-0.15025,-0.0155,-0.5,0.4638986817534154,10,1,100,-0.015734075850050766,-10,-1,-100,6488.23471043224,-0.03941288635010683,0.02181448961411969,0.9989848609625819,151.61370794212576,15.87319088386693,-19.408661794385075,1.5985082970016489,-90.84494018554688,4381.2578125,True
1599571019.761562,0.0,10,0.5,0.5,3.010792151260376,-0.15025,-0.0155,-0.5,0.3823711285292665,10,1,100,0.08912617653339172,-10,-1,-100,6488.301360014477,-0.03616636546404324,0.02318689357582666,0.9990767547968596,158.46578084974757,16.58970709966243,-15.438737315370643,1.2164234851385998,-95.78217315673828,4381.2578125,True
1599571019.8473353,0.0,10,0.5,0.5,2.196673035812378,-0.15025,-0.0155,-0.5,0.3165468413386612,10,1,100,0.22640924150098768,-10,-1,-100,6488.273410806898,-0.034486064488994606,0.023819428385693054,0.9991212870254741,161.9525153052695,16.953799859776595,-13.301493943753673,1.0254060511667564,-98.221923828125,4381.2578125,True
1599571019.9241285,0.0,10,0.5,0.5,5.583589593887329,-0.15025,-0.0155,-0.5,0.4283239485643772,10,1,100,-0.14722003829638097,-10,-1,-100,6488.311663824832,-0.029584987912869187,0.025395124870670947,0.9992396189718452,170.988518801038,17.896172174106688,-6.19764500880541,0.4524430679121685,-105.20375061035156,4381.2578125,True
1599571020.0059114,0.0,10,0.5,0.5,4.965463304519654,-0.15025,-0.0155,-0.5,0.3660408967652445,10,1,100,-0.029652317335984335,-10,-1,-100,6488.318310186267,-0.026224999222045887,0.026245362404750026,0.9993114781528565,176.34547440618275,18.455481275303146,-0.9956750156700661,0.07046969537488401,-109.50634765625,4381.2578125,True
1599571020.0897253,0.0,10,0.5,0.5,5.494209833145142,-0.15025,-0.0155,-0.5,0.3577630115018899,10,1,100,-0.05765064846220691,-10,-1,-100,6488.3220465448685,-0.02294297275856409,0.026929035516328022,0.999374027602859,180.5784030564978,18.89783371164327,4.508710375606024,-0.3115865886718283,-113.51559448242188,4381.2578125,True
1599571020.1790416,0.0,10,0.5,0.5,5.981071064758301,-0.15025,-0.0155,-0.5,0.35036954016023575,10,1,100,-0.08785551738376557,-10,-1,-100,6488.327759835054,-0.01971372661642608,0.027469625895763666,0.999428230858044,184.22318618636382,19.278626020387403,10.242802259006512,-0.6937583026854455,-117.23009490966797,4381.2578125,True
1599571020.2618222,0.0,10,0.5,0.5,6.4227251686096185,-0.15025,-0.0155,-0.5,0.3415209946963936,10,1,100,-0.11851306260475428,-10,-1,-100,6488.2685540791135,-0.016529081610973766,0.027868294527690612,0.9994749359644871,187.22337712310875,19.59214866366016,16.147850967495756,-1.0760387290555218,-120.64968872070312,4381.2578125,True
1599571020.3406098,0.0,10,0.5,0.5,5.822645113372802,-0.15025,-0.0155,-0.5,0.31954073481767564,10,1,100,0.025802592197978952,-10,-1,-100,6488.240179890534,-0.014974937123352147,0.028020812668013102,0.9994951652287148,188.37962364203892,19.713018782674748,19.135701187561903,-1.2672220774962812,-122.24880981445312,4381.2578125,True
1599571020.427381,0.0,10,0.5,0.5,7.0233559364318845,-0.15025,-0.0155,-0.5,0.32985052706267654,10,1,100,-0.1553700551235771,-10,-1,-100,6488.181982081267,-0.011942858511645888,0.028244634714340213,0.9995296937762401,190.12783070846223,19.89579899206977,25.14578956970067,-1.6496749794797092,-125.22555541992188,4381.2578125,True
1599571020.5032265,0.0,10,0.5,0.5,8.89543881225586,-0.15025,-0.0155,-0.5,0.321743203633367,10,1,100,-0.4930923846532183,-10,-1,-100,6488.003142177942,-0.0061454143500497115,0.028366430044091534,0.999578701018094,191.93567734629855,20.084458362924373,37.17144521243675,-2.41490005228722,-130.29319763183594,4381.2578125,True
1599571020.582016,0.0,10,0.5,0.5,6.422762505340576,-0.15025,-0.0155,-0.5,0.3102188647012321,10,1,100,0.08332528430639358,-10,-1,-100,6488.003142177942,-0.0061454143500497115,0.028366430044091534,0.999578701018094,191.93567734629855,20.084458362924373,37.17144521243675,-2.41490005228722,-130.29319763183594,4381.2578125,True
1599571020.660806,0.0,10,0.5,0.5,8.44232420387268,-0.15025,-0.0155,-0.5,0.306007986267226,10,1,100,-0.35517336300011215,-10,-1,-100,6487.853675537044,-0.0021863547846396538,0.02832344066153851,0.9995964198424523,192.3090964947696,20.12265210619095,46.110000324968134,-2.9890599422269326,-133.31675720214844,4381.2578125,True
1599571020.739595,0.0,10,0.5,0.5,7.54382938041687,-0.15025,-0.0155,-0.5,0.30885943332007715,10,1,100,-0.09806097286140211,-10,-1,-100,6487.761382927187,-0.0009539584625318331,0.02830618709399273,0.99959884440482,192.34297558428696,20.125725248872776,49.07576032342657,-3.180485673906196,-134.17625427246094,4381.2578125,True
1599571020.8303537,0.0,10,0.5,0.5,8.548548345565795,-0.15025,-0.0155,-0.5,0.2798047766465508,10,1,100,-0.38022108780676156,-10,-1,-100,6487.549460076145,0.002705465575750965,0.028023722369897853,0.999603597152668,192.29790874210477,20.118904043150007,57.94016520602037,-3.7548641015417163,-136.31321716308594,4381.2578125,True
1599571020.900165,0.0,10,0.5,0.5,8.206793085098266,-0.15025,-0.0155,-0.5,0.28802602341815187,10,1,100,-0.2610095205072994,-10,-1,-100,6487.426910857903,0.004922172758014947,0.027840058173221476,0.9996002717968078,192.1995240862571,20.106571916827757,63.829011967329485,-4.137858517261579,-137.36692810058594,4381.2578125,True
1599571020.9769611,0.0,10,0.5,0.5,7.987520563888549,-0.15025,-0.0155,-0.5,0.2925189882143827,10,1,100,-0.16059174346033728,-10,-1,-100,6487.336586683872,0.005999140272812929,0.02771310765379333,0.9995979161543688,192.2144726410909,20.106914474528605,66.79474532317299,-4.329376124730375,-137.78309631347656,4381.2578125,True
1599571021.053756,0.0,10,0.5,0.5,8.333301403045654,-0.15025,-0.0155,-0.5,0.26886914374431825,10,1,100,-0.3804285523909929,-10,-1,-100,6487.060251824558,0.008953342761190475,0.027382478157532582,0.9995849326312162,192.32645138343017,20.11415027864957,75.7263872243195,-4.904000415308543,-138.58587646484375,4381.2578125,True
1599571021.1275582,0.0,10,0.5,0.5,8.067167977142333,-0.15025,-0.0155,-0.5,0.27223770471873854,10,1,100,-0.2872990862629542,-10,-1,-100,6486.813211020199,0.010769184036395015,0.027112970821035868,0.9995743651617162,192.51680068358624,20.130449959819835,81.7401539184519,-5.287135410384104,-138.75112915039062,4381.2578125,True
1599571021.20136,0.0,10,0.5,0.5,7.809219014739989,-0.15025,-0.0155,-0.5,0.26063772524478,10,1,100,-0.3727805720934974,-10,-1,-100,6486.474394819001,0.013173649502167947,0.02676333510340921,0.9995549904097004,192.99963808034835,20.17482665091704,90.88266184553913,-5.861901923847716,-138.44216918945312,4381.2578125,True
1599571021.2781575,0.0,10,0.5,0.5,7.984184746551513,-0.15025,-0.0155,-0.5,0.2954531670463526,10,1,100,-0.13484567631758562,-10,-1,-100,6486.474394819001,0.013173649502167947,0.02676333510340921,0.9995549904097004,192.99963808034835,20.17482665091704,90.88266184553913,-5.861901923847716,-138.44216918945312,4381.2578125,True
1599571021.3499637,0.0,10,0.5,0.5,7.622060670471191,-0.15025,-0.0155,-0.5,0.26798865050362913,10,1,100,-0.29427076030459276,-10,-1,-100,6486.227848996059,0.014605405662184177,0.026515115039330527,0.9995417103852616,193.45529751578658,20.21813228685126,97.07439575299296,-6.2451134550279885,-137.8658447265625,4381.2578125,True
1599571021.4397259,0.0,10,0.5,0.5,6.997981607818603,-0.15025,-0.0155,-0.5,0.25648813097314077,10,1,100,-0.3555638239797984,-10,-1,-100,6485.825071132043,0.016445347459235135,0.02618659327171343,0.999521792098485,194.27985726174634,20.297911006306258,106.4995185739406,-6.819965179367575,-136.44488525390625,4381.2578125,True
1599571021.5115306,0.0,10,0.5,0.5,6.856483328247069,-0.15025,-0.0155,-0.5,0.2646336417224914,10,1,100,-0.28851238025057035,-10,-1,-100,6485.578032763791,0.017491525329703137,0.025963929805591826,0.999509840317088,194.8767855078237,20.35645888445956,112.85782968933567,-7.203211536149297,-135.127197265625,4381.2578125,True
1599571021.5863435,0.0,10,0.5,0.5,6.4670110771179194,-0.15025,-0.0155,-0.5,0.2652252494236428,10,1,100,-0.28224583704147266,-10,-1,-100,6485.267514303443,0.01836885892478022,0.02576901604939029,0.9994991459894539,195.43798150892817,20.41200166612351,119.23538681981786,-7.586456776692328,-133.51275634765625,4381.2578125,True
1599571021.664134,0.0,10,0.5,0.5,6.027593435668945,-0.15025,-0.0155,-0.5,0.2616916380523123,10,1,100,-0.27683830984847424,-10,-1,-100,6484.958455354907,0.019103036133687554,0.025561747718849986,0.9994907058417467,195.89793742680794,20.458086145178,125.5869367255702,-7.969691869603632,-131.60226440429688,4381.2578125,True
1599571021.7389336,0.0,10,0.5,0.5,6.280552890777588,-0.15025,-0.0155,-0.5,0.2705881543172271,10,1,100,-0.23918168924551964,-10,-1,-100,6484.80270296603,0.01941524535141675,0.025456270575725637,0.9994873818794912,196.06428522503091,20.475029934182935,128.73318492152393,-8.161303052376873,-130.53598022460938,4381.2578125,True
1599571021.811234,0.0,10,0.5,0.5,5.271334341430664,-0.15025,-0.0155,-0.5,0.257846390204932,10,1,100,-0.26506891043349823,-10,-1,-100,6484.429181126528,0.01992221382826255,0.0252465997146627,0.9994827235120317,196.206954144497,20.490419268673435,134.9136485528118,-8.544508771080404,-128.18130493164062,4381.2578125,True
1599571021.887032,0.0,10,0.5,0.5,2.793264247131348,-0.15025,-0.0155,-0.5,0.2270387207820947,10,1,100,-0.27953722170018724,-10,-1,-100,6483.747053001542,0.02050465266321311,0.02477786182661866,0.999482674578435,195.36349281795023,20.41019705701095,146.46770607800096,-9.310838171741906,-122.58456420898438,4381.2578125,True
1599571021.9608345,0.0,10,0.5,0.5,4.536590592956543,-0.15025,-0.0155,-0.5,0.2595204193445505,10,1,100,-0.22834212259053274,-10,-1,-100,6483.52878551872,0.020559882095237837,0.024649147468959513,0.9994847226332594,194.8263232759681,20.357766024423583,149.0928906187248,-9.502403060411782,-121.00057983398438,4381.2578125,True
1599571022.045608,0.0,10,0.5,0.5,3.0974839916229246,-0.15025,-0.0155,-0.5,0.24145065050698994,10,1,100,-0.22463113738978946,-10,-1,-100,6483.156209209934,0.02056963968380531,0.02436978577950469,0.9994913723811424,193.2371382500589,20.201316144936467,153.88667731260094,-9.88551856415047,-117.61101531982422,4381.2578125,True
1599571022.11941,0.0,10,0.5,0.5,2.3640067382812493,-0.15025,-0.0155,-0.5,0.2334479927767516,10,1,100,-0.21156952501287815,-10,-1,-100,6482.718681967817,0.020453044660729607,0.0240452451272926,0.9995016253868098,191.43895196793147,20.02589662430929,158.41366014802378,-10.268625102746816,-113.92632293701172,4381.2578125,True
1599571022.1952088,0.0,10,0.5,0.5,0.21554192276000972,-0.15025,-0.0155,-0.5,0.20220549897064283,10,1,100,-0.17984263493592872,-10,-1,-100,6482.0648159196135,0.020053306876326202,0.0234684308360552,0.9995234352617338,187.01416742269342,19.58640867158236,163.49448775708848,-10.843316672289951,-107.84603881835938,4381.2578125,True
1599571022.2700071,0.0,10,0.5,0.5,1.7975660591125489,-0.15025,-0.0155,-0.5,0.23541735353484827,10,1,100,-0.19950741242021772,-10,-1,-100,6481.846529935836,0.019865399631801107,0.023248451215000937,0.9995323283483994,185.00350508701064,19.384466150599867,164.6225659333435,-11.034904435347828,-105.67181396484375,4381.2578125,True
1599571022.3477995,0.0,10,0.5,0.5,-0.10968489303588846,-0.15025,-0.0155,-0.5,0.20387504933042028,10,1,100,-0.16944384490985792,-10,-1,-100,6481.40995288128,0.01941911163731857,0.022764190138175527,0.9995522446328508,180.48291085011073,18.928222422833354,166.23576301366433,-11.418138000041244,-101.1370849609375,4381.2578125,True
1599571022.428584,0.0,10,0.5,0.5,-0.9338869152069091,-0.15025,-0.0155,-0.5,0.19069907620698462,10,1,100,-0.1546673050449121,-10,-1,-100,6480.973368504667,0.018878108322914446,0.022206902881676843,0.9995751449943882,175.28464211932186,18.399500639021067,166.92836848887134,-11.801468498662901,-96.45983123779297,4381.2578125,True
1599571023.0818808,0.0,10,0.5,0.5,-0.23078607711791999,-0.15025,-0.0155,-0.5,0.21197983073562765,10,1,100,-0.17530775206346694,-10,-1,-100,6480.693550325814,0.01857413203527099,0.021896789366790407,0.9995876811138493,172.2318157643177,18.086372142813367,166.71634983496628,-11.99317747121086,-94.02837371826172,4381.2578125,True
1599571023.144165,0.0,10,0.5,0.5,-2.2634958892822263,-0.15025,-0.0155,-0.5,0.16921113659632891,10,1,100,-0.1341267908727204,-10,-1,-100,6480.193967580213,0.017924182229603014,0.02122929757127178,0.9996139457890882,165.5622607511212,17.397171474935096,165.44743541890233,-12.37668908746165,-89.11972045898438,4381.2578125,True
1599571023.2123678,0.0,10,0.5,0.5,0.13028528442382814,-0.15025,-0.0155,-0.5,0.23555858593385243,10,1,100,-0.19892196827965217,-10,-1,-100,6480.193967580213,0.017924182229603014,0.02122929757127178,0.9996139457890882,165.5622607511212,17.397171474935096,165.44743541890233,-12.37668908746165,-89.11972045898438,4381.2578125,True
1599571023.2831786,0.0,10,0.5,0.5,-3.0453173248291017,-0.15025,-0.0155,-0.5,0.1521352477687163,10,1,100,-0.11959882483435604,-10,-1,-100,6479.695356445503,0.01720540862594906,0.020474129555457223,0.999642328001851,158.45636084965253,16.655660429087284,163.31707164230411,-12.760308704073108,-84.31582641601562,4381.2578125,True
1599571023.3505087,0.0,10,0.5,0.5,-3.6908498504638674,-0.15025,-0.0155,-0.5,0.13630413560298743,10,1,100,-0.10725231208907554,-10,-1,-100,6479.196741868043,0.016442786573551357,0.019647489446767818,0.9996717515905587,161.33009292119755,16.9557923059021,171.34481796548656,-13.143940946613125,-79.71664428710938,4381.2578125,True
1599571023.4223158,0.0,10,0.5,0.5,-5.794493748855591,-0.15025,-0.0155,-0.5,0.060198273721861345,10,1,100,-0.046044673042455186,-10,-1,-100,6478.353843477787,0.015196812401048037,0.018208419963887883,0.9997187156071782,174.16663020347687,18.290103945210767,193.1892424965041,-13.719112151942824,-73.03536987304688,4381.2578125,True
1599571023.5031,0.0,10,0.5,0.5,-5.244683838653565,-0.15025,-0.0155,-0.5,0.08848020614419032,10,1,100,-0.0753631594221536,-10,-1,-100,6477.79125919682,0.014335418695187443,0.01716258966071221,0.9997499393783286,181.5278661505407,19.047737708782005,207.06386938710804,-14.102328471812893,-68.84091186523438,4381.2578125,True
1599571023.5739117,0.0,10,0.5,0.5,-5.747138237762451,-0.15025,-0.0155,-0.5,0.07050877649806823,10,1,100,-0.06413540851758698,-10,-1,-100,6477.229653712129,0.013455461125437333,0.016054190789383527,0.9997805826900221,188.0588561284208,19.715180126024414,220.43122615608436,-14.48534420613355,-64.9359130859375,4381.2578125,True
1599571023.6477141,0.0,10,0.5,0.5,-5.055110251617431,-0.15025,-0.0155,-0.5,0.11782137978160702,10,1,100,-0.10265101240306335,-10,-1,-100,6476.94836418482,0.013011468768720075,0.015483210263867456,0.9997954650229243,190.89508224580553,20.003254903445566,226.7601962815234,-14.67677793038726,-63.094573974609375,4381.2578125,True
1599571023.7155323,0.0,10,0.5,0.5,-7.494564386749267,-0.15025,-0.0155,-0.5,-0.025545642855871464,10,1,100,0.002143657671388105,-10,-1,-100,6476.041022398393,0.011660985664544463,0.013667419562034232,0.9998385985027015,197.91234349059485,20.710818803263404,244.44555546518168,-15.250800490319168,-58.017822265625,4381.2578125,True
1599571023.7943242,0.0,10,0.5,0.5,-7.8806202037811275,-0.15025,-0.0155,-0.5,-0.05745351238097854,10,1,100,0.0173257261488384,-10,-1,-100,6475.072656723205,0.010301815967915604,0.011734392367702729,0.9998780808796259,203.05420445445603,21.22424597751765,260.3972335019912,-15.82444097112519,-53.612060546875,4381.2578125,True
1599571023.864137,0.0,10,0.5,0.5,-5.7403846298217776,-0.15025,-0.0155,-0.5,0.13483296735226294,10,1,100,-0.11776401190731198,-10,-1,-100,6475.072656723205,0.010301815967915604,0.011734392367702729,0.9998780808796259,203.05420445445603,21.22424597751765,260.3972335019912,-15.82444097112519,-53.612060546875,4381.2578125,True
1599571023.931954,0.0,10,0.5,0.5,-7.463810441589355,-0.15025,-0.0155,-0.5,-0.006125729651507206,10,1,100,-0.01671592073135017,-10,-1,-100,6474.448082351708,0.009390126381099304,0.0104615813996717,0.9999011855384334,205.66295136891603,21.483236025796685,270.23083131951654,-16.20668096841313,-51.046295166015625,4381.2578125,True
1599571024.003765,0.0,10,0.5,0.5,-8.378991799926757,-0.15025,-0.0155,-0.5,-0.10004577098169969,10,1,100,0.044546942415640736,-10,-1,-100,6473.478273850866,0.008012140778883207,0.00846045079497956,0.9999321108817764,208.66263079057055,21.780687140605444,284.0558716129845,-16.779800858062725,-47.7567138671875,4381.2578125,True
1599571024.0885353,0.0,10,0.5,0.5,-7.975002235412598,-0.15025,-0.0155,-0.5,-0.05066654032413731,10,1,100,0.009030287586940175,-10,-1,-100,6472.791215727804,0.007090662791535912,0.00710106477738316,0.9999496474224111,210.20523607107776,21.93426043312018,292.8007817845307,-17.161741765690458,-45.9356689453125,4381.2578125,True
1599571024.1613405,0.0,10,0.5,0.5,-7.636516403198241,-0.15025,-0.0155,-0.5,0.010167630600694713,10,1,100,-0.030963806740097466,-10,-1,-100,6472.446957241744,0.006625040136722363,0.006429703064947984,0.9999573829727362,210.87471486575132,22.00125968884995,297.0686995952218,-17.35267498811049,-45.136474609375,4381.2578125,True
1599571024.2356508,0.0,10,0.5,0.5,-8.174811906433106,-0.15025,-0.0155,-0.5,-0.06910800125777611,10,1,100,0.027281600955929894,-10,-1,-100,6471.697409450659,0.005680035628077366,0.005109394597565307,0.9999708152151793,212.23478531806384,22.13895942405066,305.70340271669113,-17.734470580822283,-43.7606201171875,4381.2578125,True
1599571024.3084562,0.0,10,0.5,0.5,-8.505023547363281,-0.15025,-0.0155,-0.5,-0.16082008406875697,10,1,100,0.09074233656741049,-10,-1,-100,6470.665141877602,0.0042518933719931,0.003086325415356817,0.9999861979038429,214.12810749480286,22.33328839926567,318.61145019007625,-18.30699405054773,-42.254638671875,4381.2578125,True
1599571024.3832572,0.0,10,0.5,0.5,-8.198873568725585,-0.15025,-0.0155,-0.5,-0.1049779075014112,10,1,100,0.055670432760889066,-10,-1,-100,6469.9146352777025,0.003280784599024366,0.0017666167324831758,0.9999930577347701,215.2601175394488,22.450726013224603,327.1279059773527,-18.68856753758549,-41.62152099609375,4381.2578125,True
1599571024.4608915,0.0,10,0.5,0.5,-8.134716020202637,-0.15025,-0.0155,-0.5,-0.1140749266679461,10,1,100,0.0690185331822683,-10,-1,-100,6469.1641360736685,0.002285458150830883,0.0004966510224762614,0.9999972650056611,216.32995928626113,22.562304557529064,335.6270775786988,-19.07005561097829,-41.2845458984375,4381.2578125,True
1599571024.5313485,0.0,10,0.5,0.5,-8.029511561584473,-0.15025,-0.0155,-0.5,-0.05636366465106417,10,1,100,0.026118745029143808,-10,-1,-100,6468.757395344088,0.0017791372061504067,-0.00012124199688604516,0.9999984099843259,216.84860775740773,22.616477594788982,339.87941592096877,-19.26076768498758,-41.22711181640625,4381.2578125,True
1599571024.6052098,0.0,10,0.5,0.5,-7.842783778381348,-0.15025,-0.0155,-0.5,-0.19666404130840595,10,1,100,0.14579030064212267,-10,-1,-100,6467.600169388694,0.0002386700951972249,-0.0019476430437688956,0.9999980748597267,218.35154914866374,22.773041529722864,352.6609508590212,-19.83277544517911,-41.4996337890625,4381.2578125,True
1599571024.6770182,0.0,10,0.5,0.5,-7.842578982543945,-0.15025,-0.0155,-0.5,-0.07908107916441018,10,1,100,0.05059014510010896,-10,-1,-100,6467.194411631674,-0.00028715027722125356,-0.002526633398342915,0.9999967668289677,218.83229551664138,22.822756871062484,356.92410334933146,-20.023401951247603,-41.738372802734375,4381.2578125,True
1599571024.7488258,0.0,10,0.5,0.5,-7.2220238555908205,-0.15025,-0.0155,-0.5,-0.2064221483899336,10,1,100,0.17569371780152615,-10,-1,-100,6465.974216734292,-0.0018936764797433715,-0.004198826882007678,0.9999893918648363,220.17829510762544,22.959834919925765,369.65536440652863,-20.595155463058624,-42.898468017578125,4381.2578125,True
1599571024.8227496,0.0,10,0.5,0.5,-7.06640218963623,-0.15025,-0.0155,-0.5,-0.15524349411550345,10,1,100,0.1366445803648163,-10,-1,-100,6465.097283664276,-0.0029901573987400924,-0.005242233848592654,0.99998178880568,220.95091956772052,23.03584233373638,378.0108859323591,-20.97622316848396,-44.041412353515625,4381.2578125,True
1599571024.9005435,0.0,10,0.5,0.5,-6.70567919921875,-0.15025,-0.0155,-0.5,-0.15862397931006325,10,1,100,0.1505691335118917,-10,-1,-100,6464.284321041661,-0.004104380698992091,-0.0062102961394150166,0.9999722927566237,221.5664610845477,23.092984825855083,386.15026636164737,-21.357216893871872,-45.479522705078125,4381.2578125,True
1599571024.978335,0.0,10,0.5,0.5,-6.297278601074218,-0.15025,-0.0155,-0.5,-0.16016116841231248,10,1,100,0.16438206512510906,-10,-1,-100,6463.4073979591485,-0.005233129058581598,-0.007092836305451827,0.9999611522621269,221.9582027081966,23.12384476085484,393.9406470901286,-21.738146345189758,-47.21258544921875,4381.2578125,True
1599571025.0531352,0.0,10,0.5,0.5,-5.8396830520629885,-0.15025,-0.0155,-0.5,-0.1624965764128611,10,1,100,0.17788513429423164,-10,-1,-100,6462.530966893886,-0.006372098046394393,-0.007905283591942081,0.9999484501002129,222.0497865450808,23.1200871801263,401.22335007714776,-22.119024312093998,-49.240692138671875,4381.2578125,True
1599571025.127935,0.0,10,0.5,0.5,-5.332616662597656,-0.15025,-0.0155,-0.5,-0.1614939721638454,10,1,100,0.1908416124500258,-10,-1,-100,6461.593504376477,-0.007515652389987438,-0.00862476507829917,0.9999345620571863,221.74803265072077,23.071733947566237,407.7991349479655,-22.499867379440733,-51.563323974609375,4381.2578125,True
1599571025.2157004,0.0,10,0.5,0.5,-4.77677599029541,-0.15025,-0.0155,-0.5,-0.1599734793121591,10,1,100,0.20314663787641654,-10,-1,-100,6460.717079156544,-0.008657296172594656,-0.009255569783780483,0.9999196896005987,221.09099341703364,22.98270036007345,413.70258871571644,-22.880695958233986,-54.180389404296875,4381.2578125,True
1599571025.2895021,0.0,10,0.5,0.5,-5.142670802307128,-0.15025,-0.0155,-0.5,-0.12883901800601796,10,1,100,0.15259332487290314,-10,-1,-100,6460.247861765325,-0.009225630625547982,-0.009537122394338342,0.9999119616426221,220.66090568365394,22.92627807757716,416.45170088096677,-23.071110858015338,-55.59930419921875,4381.2578125,True
1599571025.3653336,0.0,10,0.5,0.5,-2.775077291870117,-0.15025,-0.0155,-0.5,-0.17928870624376986,10,1,100,0.28143254287938324,-10,-1,-100,6458.838745924528,-0.01090355959389928,-0.010243152951191001,0.9998880888408468,218.5281455059433,22.664920787409745,423.0074186786218,-23.642396865442507,-60.297149658203125,4381.2578125,True
1599571025.4381053,0.0,10,0.5,0.5,-2.8193063766479494,-0.15025,-0.0155,-0.5,-0.15005089354083523,10,1,100,0.23548794916931798,-10,-1,-100,6457.8998246670235,-0.012001142140773417,-0.01061165924202363,0.9998716744039947,216.25525218503236,22.399871234565392,425.609242955434,-24.023323726408414,-63.796661376953125,4381.2578125,True
1599571025.516487,0.0,10,0.5,0.5,-3.3254164138793945,-0.15025,-0.0155,-0.5,-0.13116871131816774,10,1,100,0.18650099978871776,-10,-1,-100,6457.367620376521,-0.012542959469141218,-0.010767658735443877,0.9998633565108349,214.77620157783477,22.23167380010733,426.1821947297659,-24.213819742401046,-65.65664672851562,4381.2578125,True
1599571025.5972726,0.0,10,0.5,0.5,-1.6583854537963867,-0.15025,-0.0155,-0.5,-0.13888696430634373,10,1,100,0.244998420380958,-10,-1,-100,6456.428698095027,-0.013557634243051042,-0.010973670727669851,0.9998478729809313,211.0448972224459,21.81626273013316,425.63990070463876,-24.594895830912492,-69.59628295898438,4381.2578125,True
1599571025.6740654,0.0,10,0.5,0.5,0.6123135848999026,-0.15025,-0.0155,-0.5,-0.14037995683792853,10,1,100,0.3063278029183861,-10,-1,-100,6454.895555658848,-0.015027998899814491,-0.011169316619181437,0.9998246874404172,203.27555485722417,20.976260642075022,419.9231684688201,-25.166765531330274,-76.05673217773438,4381.2578125,True
1599571025.7448754,0.0,10,0.5,0.5,2.059677200317383,-0.15025,-0.0155,-0.5,-0.1228759034999873,10,1,100,0.30617303170649934,-10,-1,-100,6453.361432123929,-0.016353356469308817,-0.011183540562501808,0.9998037288151483,192.5147336413607,19.845934212729226,407.16383115678485,-25.738976158615362,-83.1773681640625,4381.2578125,True
1599571026.4100718,0.0,10,0.5,0.5,-1.4448953796386719,-0.15025,-0.0155,-0.5,-0.12186257959365525,10,1,100,0.17474929749813944,-10,-1,-100,6453.361432123929,-0.016353356469308817,-0.011183540562501808,0.9998037288151483,192.5147336413607,19.845934212729226,407.16383115678485,-25.738976158615362,-83.1773681640625,4381.2578125,True
1599571026.480308,0.0,10,0.5,0.5,1.7745597015380858,-0.15025,-0.0155,-0.5,-0.11397418276960684,10,1,100,0.2604981296574786,-10,-1,-100,6452.359024183941,-0.017123817435827433,-0.011108847630491768,0.9997916624881141,192.87809547795456,19.88398671694377,414.278639126889,-26.120529605387706,-88.04757690429688,4381.2578125,True
1599571026.5476096,0.0,10,0.5,0.5,-0.6039940765380859,-0.15025,-0.0155,-0.5,-0.12169188422583008,10,1,100,0.18441284951020104,-10,-1,-100,6452.359024183941,-0.017123817435827433,-0.011108847630491768,0.9997916624881141,192.87809547795456,19.88398671694377,414.278639126889,-26.120529605387706,-88.04757690429688,4381.2578125,True
1599571026.6179378,0.0,10,0.5,0.5,2.5396581489562986,-0.15025,-0.0155,-0.5,-0.10811469283631964,10,1,100,0.264311090878302,-10,-1,-100,6451.294599949266,-0.01784246824711632,-0.01098373381981739,0.999780477864129,201.6393687436294,20.799254436583077,439.7423808619955,-26.50180509815587,-92.80137634277344,4381.2578125,True
1599571026.6867497,0.0,10,0.5,0.5,3.2403098022460934,-0.15025,-0.0155,-0.5,-0.10174182824983433,10,1,100,0.2602858307624163,-10,-1,-100,6450.230660448899,-0.018451360403942196,-0.01081074375803129,0.9997713114100854,209.88066206512335,21.670847651554375,464.6381427082855,-26.88275949223689,-97.44557189941406,4381.2578125,True
1599571026.7565632,0.0,10,0.5,0.5,3.978783026123047,-0.15025,-0.0155,-0.5,-0.09487402178685089,10,1,100,0.26157723813371514,-10,-1,-100,6449.1037283425685,-0.019009777158241124,-0.01059052946964695,0.9997632064933909,217.29623453757588,22.464587423588142,488.2236491376496,-27.263367099271264,-102.06378173828125,4381.2578125,True
1599571026.8323288,0.0,10,0.5,0.5,6.074979135131835,-0.15025,-0.0155,-0.5,-0.07709982460034542,10,1,100,0.2759291673319988,-10,-1,-100,6447.445548702031,-0.019641529350299575,-0.010228770260122387,0.9997547612208441,227.09225693544744,23.525195722081502,521.4669706196628,-27.83362284420232,-108.74734497070312,4381.2578125,True
1599571026.9031715,0.0,10,0.5,0.5,5.471766884994507,-0.15025,-0.0155,-0.5,-0.08470698362154724,10,1,100,0.24846758895960844,-10,-1,-100,6446.3229997646995,-0.019959745567075384,-0.009969544141179457,0.9997510773920248,232.54232665954345,24.120365158932167,541.646425875337,-28.213381442068137,-112.85619354248047,4381.2578125,True
1599571026.97605,0.0,10,0.5,0.5,4.7482335685729975,-0.15025,-0.0155,-0.5,-0.09621003872219071,10,1,100,0.23089551854493978,-10,-1,-100,6445.784429321182,-0.02008346684098911,-0.009839370103588544,0.9997498893001247,234.8171348229495,24.370173578106098,550.8139387498524,-28.40315278630537,-114.79981231689453,4381.2578125,True
1599571027.0498526,0.0,10,0.5,0.5,7.3381480098724365,-0.15025,-0.0155,-0.5,-0.06869208403162508,10,1,100,0.2447376009489982,-10,-1,-100,6444.067635382642,-0.02031718195918287,-0.009472075887242202,0.9997487143755793,240.07421870746222,24.94951759184934,575.0124141679345,-28.97210585083261,-120.18492889404297,4381.2578125,True
1599571027.1256497,0.0,10,0.5,0.5,7.769433442687989,-0.15025,-0.0155,-0.5,-0.06818344889007799,10,1,100,0.22628790915233615,-10,-1,-100,6442.280520312954,-0.02035832229985311,-0.009135103975345334,0.9997510132970584,243.50229834341576,25.32501410636789,595.267421607281,-29.540632627639404,-124.9007797241211,4381.2578125,True
1599571027.2054362,0.0,10,0.5,0.5,7.279076221466065,-0.15025,-0.0155,-0.5,-0.08192696837840328,10,1,100,0.21447280552046544,-10,-1,-100,6441.092035281821,-0.020284671698508554,-0.008955569174957646,0.9997541347125484,245.2059918623845,25.50673236542481,607.5271636549585,-29.91946953975669,-127.67340087890625,4381.2578125,True
1599571027.2750793,0.0,10,0.5,0.5,7.56391558303833,-0.15025,-0.0155,-0.5,-0.08275745328006268,10,1,100,0.20633356229507074,-10,-1,-100,6439.9030585937435,-0.020140849982271114,-0.008801863108670772,0.9997584075004361,246.41624956535995,25.630870463547872,618.6704621731435,-30.29819047585613,-130.14895629882812,4381.2578125,True
1599571027.3458898,0.0,10,0.5,0.5,6.391395011138916,-0.15025,-0.0155,-0.5,-0.09789736145656792,10,1,100,0.22101743717345906,-10,-1,-100,6439.9030585937435,-0.020140849982271114,-0.008801863108670772,0.9997584075004361,246.41624956535995,25.630870463547872,618.6704621731435,-30.29819047585613,-130.14895629882812,4381.2578125,True
1599571027.422685,0.0,10,0.5,0.5,8.502032203674315,-0.15025,-0.0155,-0.5,-0.07967765790484188,10,1,100,0.1829562809996913,-10,-1,-100,6438.050497009535,-0.019792750033659448,-0.008638212958847032,0.999766786967332,247.56692532912737,25.737399823761496,633.8559195074181,-30.866093722634588,-133.30581665039062,4381.2578125,True
1599571027.5056548,0.0,10,0.5,0.5,8.106625402069092,-0.15025,-0.0155,-0.5,-0.08907824877826723,10,1,100,0.1830089160829181,-10,-1,-100,6436.801455501118,-0.019475554590560253,-0.008576875040401303,0.9997735443528857,248.04246673214246,25.772109260718725,643.3035716073393,-31.244593771573413,-135.0396728515625,4381.2578125,True
1599571027.5784605,0.0,10,0.5,0.5,7.782247959136963,-0.15025,-0.0155,-0.5,-0.09325478475737975,10,1,100,0.19448044322158323,-10,-1,-100,6436.145196364843,-0.01929105827315583,-0.008560912400196432,0.9997772581178158,248.2261493198557,25.782332668648113,647.9033742719489,-31.43381552540459,-135.79544067382812,4381.2578125,True
1599571027.65384,0.0,10,0.5,0.5,8.631534323883056,-0.15025,-0.0155,-0.5,-0.09479960926502518,10,1,100,0.14451725821929617,-10,-1,-100,6434.233055192046,-0.018669442185564787,-0.008561961002679622,0.9997890501262096,248.67115103750217,25.797079460572036,661.4791780779899,-32.00136954618431,-137.61819458007812,4381.2578125,True
1599571027.7256577,0.0,10,0.5,0.5,8.057320489120483,-0.15025,-0.0155,-0.5,-0.09661398621601039,10,1,100,0.18035573449025194,-10,-1,-100,6433.635876289918,-0.018431313984201173,-0.008580688234617388,0.999793307866299,248.8113992995214,25.79981624846128,666.0000022629877,-32.190516485642384,-138.0776824951172,4381.2578125,True
1599571027.813422,0.0,10,0.5,0.5,8.471292121887206,-0.15025,-0.0155,-0.5,-0.10635343170717643,10,1,100,0.11676481893615145,-10,-1,-100,6431.668554633274,-0.017638236525975872,-0.008687397660725021,0.9998066921831129,249.29077796912784,25.811233326471683,679.7720197220058,-32.75783573029696,-139.01214599609375,4381.2578125,True
1599571027.8879297,0.0,10,0.5,0.5,8.197829151535034,-0.15025,-0.0155,-0.5,-0.10779660981937164,10,1,100,0.1307040048642823,-10,-1,-100,6430.352123997756,-0.017046412295511522,-0.008798239374776024,0.9998159884757574,249.7018370826614,25.826665999387032,689.2499519500753,-33.13593883795041,-139.2652587890625,4381.2578125,True
1599571027.9627314,0.0,10,0.5,0.5,8.065795708465576,-0.15025,-0.0155,-0.5,-0.11134137427856339,10,1,100,0.11944050457976327,-10,-1,-100,6428.973192594363,-0.01640900563796134,-0.008931535941361014,0.999825470869642,250.20964496807684,25.85144128755507,699.0388739733871,-33.51394458553931,-139.22259521484375,4381.2578125,True
1599571028.037606,0.0,10,0.5,0.5,8.019034533691405,-0.15025,-0.0155,-0.5,-0.10584557813051132,10,1,100,0.1461644390300107,-10,-1,-100,6428.318883757573,-0.016076013231609378,-0.00900277470348653,0.999830241514136,250.50193994973827,25.867715435394235,704.0586994654032,-33.70290819858485,-139.09034729003906,4381.2578125,True
1599571028.114042,0.0,10,0.5,0.5,7.274874196624756,-0.15025,-0.0155,-0.5,-0.13629564259158905,10,1,100,0.019359653623063827,-10,-1,-100,6425.561508595478,-0.014624217391908678,-0.009344173335433326,0.9998493980046952,251.91001380937303,25.958598329996178,724.9526481843417,-34.458476605343606,-137.8229217529297,4381.2578125,True
1599571028.1868458,0.0,10,0.5,0.5,7.594493395233155,-0.15025,-0.0155,-0.5,-0.11300152299519572,10,1,100,0.12086278710273836,-10,-1,-100,6424.902804275276,-0.014232173871623593,-0.0094422779952116,0.9998541336680812,252.3082597085887,25.986751896754576,730.3463173033272,-34.64729237722852,-137.32159423828125,4381.2578125,True
1599571028.2642117,0.0,10,0.5,0.5,7.055228192138672,-0.15025,-0.0155,-0.5,-0.12283674595322183,10,1,100,0.07152450163866521,-10,-1,-100,6423.524361662916,-0.01343229587274743,-0.009620144199140845,0.9998635038109825,253.13078253507203,26.04713711589914,741.2576989124548,-35.02482731271295,-136.0972137451172,4381.2578125,True
1599571028.3387692,0.0,10,0.5,0.5,7.198961882019042,-0.15025,-0.0155,-0.5,-0.11402840307083192,10,1,100,0.1059749711358117,-10,-1,-100,6422.807552796672,-0.013023814013486625,-0.009700816477274124,0.9998681285190645,253.54441198839498,26.078459715658248,746.7448407926438,-35.21354553455847,-135.374267578125,4381.2578125,True
1599571028.4215946,0.0,10,0.5,0.5,6.47615782623291,-0.15025,-0.0155,-0.5,-0.12814534963678512,10,1,100,0.05049530002362643,-10,-1,-100,6421.369540865184,-0.01215380371701118,-0.009901454513379336,0.9998771155765732,254.3454612835339,26.140715481795834,757.690220266539,-35.59088292507989,-133.70779418945312,4381.2578125,True
1599571028.498379,0.0,10,0.5,0.5,6.027767455291748,-0.15025,-0.0155,-0.5,-0.12639596095592948,10,1,100,0.03937968471879595,-10,-1,-100,6419.925181771163,-0.011267757525142821,-0.01006673147318475,0.9998858427629633,255.04938823670636,26.196810302423444,768.40704052864,-35.9680899730705,-131.7461395263672,4381.2578125,True
1599571028.5721443,0.0,10,0.5,0.5,5.531848804473877,-0.15025,-0.0155,-0.5,-0.12893672731403974,10,1,100,0.024839241521233416,-10,-1,-100,6418.480335514643,-0.010336587463883797,-0.01023873018241016,0.999894156080459,255.58237302786975,26.24009549024003,778.661372979661,-36.34517324486514,-129.4901885986328,4381.2578125,True
1599571028.647012,0.0,10,0.5,0.5,4.085524426651001,-0.15025,-0.0155,-0.5,-0.13382767618650543,10,1,100,-0.04020613612285473,-10,-1,-100,6416.256671498064,-0.008905385474213058,-0.010438145514617778,0.9999058651832039,255.86166437086703,26.262483917054904,792.5227803003597,-36.910593608739084,-125.55394744873047,4381.2578125,True
1599571028.7197928,0.0,10,0.5,0.5,4.086925948715209,-0.15025,-0.0155,-0.5,-0.12533421404883738,10,1,100,-0.006007721153375875,-10,-1,-100,6414.815246282029,-0.007922588371345192,-0.010540728064336957,0.9999130590433211,255.55573621192644,26.23522136555835,800.2577339142779,-37.28743331036057,-122.56207275390625,4381.2578125,True
1599571028.796587,0.0,10,0.5,0.5,2.28018073310852,-0.15025,-0.0155,-0.5,-0.12284037455269611,10,1,100,-0.07086326013579154,-10,-1,-100,6412.532505459967,-0.0064472555755039134,-0.010609850757641311,0.9999229290112537,254.07582861387195,26.102892189124635,808.6094980123266,-37.85260298367175,-117.52268981933594,4381.2578125,True
1599571028.8703892,0.0,10,0.5,0.5,3.5786367206573484,-0.15025,-0.0155,-0.5,-0.11666638398843784,10,1,100,0.02098764930692887,-10,-1,-100,6411.745876125409,-0.005949805626633033,-0.010615101404557327,0.9999259569764033,253.2499225268246,26.02809294973485,810.3078131566847,-38.04098692362162,-115.69599914550781,4381.2578125,True
1599571028.9432228,0.0,10,0.5,0.5,1.9387206516265865,-0.15025,-0.0155,-0.5,-0.11238167438719127,10,1,100,-0.037156847475076644,-10,-1,-100,6410.246837539133,-0.004976877894882432,-0.010579767425315896,0.9999316472677747,251.00187939595773,25.821756490326045,811.7135027075356,-38.417777191918184,-111.82215881347656,4381.2578125,True
1599571029.0206025,0.0,10,0.5,0.5,1.1262770111083986,-0.15025,-0.0155,-0.5,-0.10696468016390463,10,1,100,-0.04696984031832063,-10,-1,-100,6408.676999183255,-0.004011603018331251,-0.01049736614267553,0.9999368541789475,247.85109250760308,25.52715706341445,810.0476080011555,-38.79463583018684,-107.65477752685547,4381.2578125,True
1599571029.104346,0.0,10,0.5,0.5,1.7394118160247802,-0.15025,-0.0155,-0.5,-0.10883856450178708,10,1,100,-0.00454581594452174,-10,-1,-100,6407.9045321750455,-0.0035283176183687277,-0.01043869372339819,0.9999392904812437,245.89463560297153,25.341583186169668,807.8949669981604,-38.98310590751427,-105.46105194091797,4381.2578125,True
1599571029.8178337,0.0,10,0.5,0.5,-0.20613144264221184,-0.15025,-0.0155,-0.5,-0.09701049653562362,10,1,100,-0.05839117442941559,-10,-1,-100,6406.335672428249,-0.0026080962652629603,-0.010277156472320826,0.9999437873644271,241.1363040598117,24.88318259672887,800.6087481078004,-39.360156585901755,-100.85353088378906,4381.2578125,True
1599571029.8886454,0.0,10,0.5,0.5,-1.139883168411255,-0.15025,-0.0155,-0.5,-0.09058506675163164,10,1,100,-0.06575075207848505,-10,-1,-100,6404.769255318912,-0.0017133040633132205,-0.010071549880615167,0.9999478128743463,236.11183797069356,24.394142166443892,792.1379741736787,-39.737368719893496,-95.95297241210938,4381.2578125,True
1599571029.9550178,0.0,10,0.5,0.5,-2.1221148853302,-0.15025,-0.0155,-0.5,-0.08339857838525985,10,1,100,-0.07377514818783247,-10,-1,-100,6403.141803998384,-0.0008355934182392346,-0.009819298704454433,0.9999514403992786,229.79650492810322,23.764632209897893,778.9766775548138,-40.11476882805006,-90.75953674316406,4381.2578125,True
1599571030.0278232,0.0,10,0.5,0.5,-3.0340783000946043,-0.15025,-0.0155,-0.5,-0.07664278784359971,10,1,100,-0.07622177213473803,-10,-1,-100,6401.502635082696,-2.406988142341928e-05,-0.00952894447709136,0.9999545982882388,222.5998552094615,23.03285699729294,762.3829131890841,-40.49236980854258,-85.45596313476562,4381.2578125,True
1599571030.1041348,0.0,10,0.5,0.5,-3.7908456161499022,-0.15025,-0.0155,-0.5,-0.0699169635689961,10,1,100,-0.08037428119015183,-10,-1,-100,6399.878604212077,0.0007433549474649113,-0.009204668777935377,0.9999573598389636,214.9579700554449,22.241207691312272,743.7592880805696,-40.870141984715985,-80.30963134765625,4381.2578125,True
1599571030.178124,0.0,10,0.5,0.5,-4.449032037353515,-0.15025,-0.0155,-0.5,-0.06358592276209596,10,1,100,-0.082486936148642,-10,-1,-100,6398.256527577643,0.0014523417066962042,-0.008853532370718483,0.999959752024114,223.0515992682397,23.06348800380418,779.599544011877,-41.24767845038769,-75.44094848632812,4381.2578125,True
1599571030.24944,0.0,10,0.5,0.5,-6.4659099128723145,-0.15025,-0.0155,-0.5,-0.036628140428501106,10,1,100,-0.11641258469111006,-10,-1,-100,6395.779957672115,0.00239810865885418,-0.008290843359658556,0.9999627548020206,234.80984767921836,24.236212906541635,833.0571210406392,-41.813189703040635,-68.69586181640625,4381.2578125,True
1599571030.3215714,0.0,10,0.5,0.5,-4.530674180603027,-0.15025,-0.0155,-0.5,-0.0712560997561884,10,1,100,-0.05376624033546258,-10,-1,-100,6394.931323160534,0.002680795562777829,-0.008096220487169323,0.999963631613157,238.09465464366016,24.5576554660871,848.8831809570128,-42.001491690316996,-66.59750366210938,4381.2578125,True
1599571030.3973365,0.0,10,0.5,0.5,-7.351710041046143,-0.15025,-0.0155,-0.5,-0.02635024834984867,10,1,100,-0.10812659928675131,-10,-1,-100,6392.395672680461,0.0034250072173040796,-0.007513313360247066,0.9999659091428628,246.2738624589667,25.343663030318638,890.9729689563459,-42.56584766999467,-60.75341796875,4381.2578125,True
1599571030.476158,0.0,10,0.5,0.5,-6.791634038925171,-0.15025,-0.0155,-0.5,-0.040912463492684445,10,1,100,-0.08022501054098494,-10,-1,-100,6390.6461573925335,0.0038411519053340357,-0.0071184943396002745,0.9999672857600778,250.50312300461118,25.740853246564395,915.0275405043224,-42.94167380917026,-57.232818603515625,4381.2578125,True
1599571030.5469363,0.0,10,0.5,0.5,-7.200052664184571,-0.15025,-0.0155,-0.5,-0.03766806741627142,10,1,100,-0.07767205644397454,-10,-1,-100,6388.94888898998,0.004189557066730535,-0.006733091810484707,0.9999685560487671,253.91096475858944,26.055744500662044,936.3420455160428,-43.31721600683035,-54.0125732421875,4381.2578125,True
1599571030.6227663,0.0,10,0.5,0.5,-6.636241567230225,-0.15025,-0.0155,-0.5,-0.05563140448323909,10,1,100,-0.0597824837530508,-10,-1,-100,6388.037755170371,0.004337476867780779,-0.006549250816135567,0.9999691463281097,255.34833356452847,26.187161357779555,946.0997699680267,-43.50489238582717,-52.51513671875,4381.2578125,True
1599571030.6985316,0.0,10,0.5,0.5,-8.583554251861571,-0.15025,-0.0155,-0.5,-0.01219816242245119,10,1,100,-0.08506289353965468,-10,-1,-100,6385.439605716267,0.004696270611403678,-0.005990477074415076,0.9999710291937288,258.77783662784185,26.497820010653,972.3593048684776,-44.06759293784039,-48.4725341796875,4381.2578125,True
1599571030.7823393,0.0,10,0.5,0.5,-8.136600883483887,-0.15025,-0.0155,-0.5,-0.02797737171624176,10,1,100,-0.0674580811906898,-10,-1,-100,6383.686672681826,0.004857374026043321,-0.005629429049730943,0.9999723573410144,260.47370872028574,26.65081448932012,987.8322793329072,-44.44248888602357,-46.152191162109375,4381.2578125,True
1599571030.8650882,0.0,10,0.5,0.5,-7.718695855712891,-0.15025,-0.0155,-0.5,-0.043995289050275846,10,1,100,-0.05822668796982125,-10,-1,-100,6382.775538588641,0.0049154722428828585,-0.005450366017079642,0.9999730654587198,261.1843704206161,26.715211786707115,995.093415364781,-44.629874641016364,-45.1043701171875,4381.2578125,True
1599571030.9369264,0.0,10,0.5,0.5,-9.001206523132325,-0.15025,-0.0155,-0.5,-0.006915718080335684,10,1,100,-0.06313782645642071,-10,-1,-100,6380.052876193309,0.005009142683255689,-0.004953907435634327,0.9999751833374155,262.90470229039056,26.873700558432006,1015.4530250714625,-45.19181011328237,-42.410247802734375,4381.2578125,True
1599571031.0117295,0.0,10,0.5,0.5,-8.630214831542968,-0.15025,-0.0155,-0.5,-0.020323037823115404,10,1,100,-0.05301763508173085,-10,-1,-100,6378.237442738493,0.004999062433846028,-0.004628011291013932,0.9999767951739045,263.8098878264591,26.960201123273407,1028.2013388492019,-45.56626588084421,-40.9879150390625,4381.2578125,True
1599571031.0885253,0.0,10,0.5,0.5,-8.692495126342774,-0.15025,-0.0155,-0.5,-0.01859107684642005,10,1,100,-0.04762636698861211,-10,-1,-100,6376.415661079343,0.004938522539195264,-0.004319326816178747,0.9999784769738721,264.60311844240016,27.03897558216962,1040.5881017759675,-45.94059789493108,-39.864501953125,4381.2578125,True
1599571031.1642876,0.0,10,0.5,0.5,-8.46464673309326,-0.15025,-0.0155,-0.5,-0.03285979269087509,10,1,100,-0.04857703671185427,-10,-1,-100,6375.50452619954,0.004890076244290937,-0.004171853704615434,0.9999793411821027,264.97505757994776,27.0770185880484,1046.7108970334107,-46.12771905831406,-39.414794921875,4381.2578125,True
1599571031.2376037,0.0,10,0.5,0.5,-8.859259913635253,-0.15025,-0.0155,-0.5,0.0007802452485881906,10,1,100,-0.028829527863439515,-10,-1,-100,6372.712526359013,0.00466517946936779,-0.0037350064034315125,0.9999821427544018,266.05402685060835,27.190986038474556,1065.0348945418978,-46.688906393847645,-38.51300048828125,4381.2578125,True
1599571031.3084137,0.0,10,0.5,0.5,-8.535923992919923,-0.15025,-0.0155,-0.5,-0.027242302429565858,10,1,100,-0.0405618949141454,-10,-1,-100,6371.745727342903,0.004566636622113133,-0.0035956988248258648,0.9999831082472956,266.41603586159454,27.230106183863988,1071.1859408582256,-46.87591020579879,-38.3614501953125,4381.2578125,True
1599571031.3796208,0.0,10,0.5,0.5,-8.489726293945312,-0.15025,-0.0155,-0.5,0.00398437378399541,10,1,100,-0.009865509824002444,-10,-1,-100,6368.847281645052,0.004197651369648162,-0.0031880288723207723,0.9999861080009502,267.5444941138706,27.35316396770101,1089.9130965099064,-47.43674340004614,-38.353271484375,4381.2578125,True
1599571031.4609244,0.0,10,0.5,0.5,-8.269439323425292,-0.15025,-0.0155,-0.5,-0.00761831215851521,10,1,100,-0.013449029291937361,-10,-1,-100,6366.932725621853,0.0038949147948413535,-0.002925954444015162,0.999988134144267,268.34052167174684,27.43986028747138,1102.6641113438109,-47.810481032351554,-38.719512939453125,4381.2578125,True
1599571031.5376832,0.0,10,0.5,0.5,-8.03642622680664,-0.15025,-0.0155,-0.5,-0.005153263893425027,10,1,100,-0.005932839229170574,-10,-1,-100,6364.973247835645,0.0035520992315523406,-0.0026680813637186963,0.9999901319177533,269.1651259012556,27.52872893597591,1115.6057071959958,-48.18409543102587,-39.382720947265625,4381.2578125,True
1599571031.6125243,0.0,10,0.5,0.5,-8.09054598083496,-0.15025,-0.0155,-0.5,-0.016645074415552394,10,1,100,-0.019917520543211956,-10,-1,-100,6364.002542503062,0.0033687687994122424,-0.002540814429728533,0.9999910977897803,269.5830377051142,27.57320982900172,1122.1276742238265,-48.37085613623901,-39.825592041015625,4381.2578125,True
1599571031.6883554,0.0,10,0.5,0.5,-7.599685522460938,-0.15025,-0.0155,-0.5,-0.0012574330194742751,10,1,100,0.006228315419761189,-10,-1,-100,6362.059666806483,0.0029658214463882796,-0.0022878746148525387,0.9999929847418404,270.40835902471184,27.659540782481457,1135.1838833516063,-48.74428485889086,-40.93359375,4381.2578125,True
1599571031.7611642,0.0,10,0.5,0.5,-6.714364114379882,-0.15025,-0.0155,-0.5,0.015210063293812512,10,1,100,0.04002279170022082,-10,-1,-100,6359.1451088477625,0.0022941407240321962,-0.001910648482863375,0.9999955431604249,271.5508140514608,27.77385480393264,1154.5028478840998,-49.30420130421897,-43.150604248046875,4381.2578125,True
1599571031.8389528,0.0,10,0.5,0.5,-7.242848951721191,-0.15025,-0.0155,-0.5,-0.008477532303064132,10,1,100,1.912115510673343e-05,-10,-1,-100,6358.111415438238,0.00204965063749117,-0.0017855277435795142,0.9999963054046455,271.8820634802309,27.80504821768055,1160.7667702585402,-49.490782612062645,-44.037445068359375,4381.2578125,True
1599571031.912132,0.0,10,0.5,0.5,-5.661938705444335,-0.15025,-0.0155,-0.5,0.02140513383965724,10,1,100,0.05958831873899046,-10,-1,-100,6355.134359752177,0.0012884750097837527,-0.0014024244693627186,0.999998186517234,272.6170473256762,27.86536712809615,1178.5407433958276,-50.050371620784595,-47.140655517578125,4381.2578125,True
1599571031.987199,0.0,10,0.5,0.5,-5.616703535461426,-0.15025,-0.0155,-0.5,0.011648140365408507,10,1,100,0.04432378823137428,-10,-1,-100,6353.128498002072,0.0007385398085139813,-0.0011453663691453953,0.9999990713469845,272.78985105421305,27.866774363253153,1189.0801217854937,-50.42332147138969,-49.577972412109375,4381.2578125,True
1599571032.083254,0.0,10,0.5,0.5,-5.9539629852294915,-0.15025,-0.0155,-0.5,0.00042754560914692354,10,1,100,0.02149033316286092,-10,-1,-100,6352.094317650655,0.0004497452531287232,-0.0010160368122177396,0.9999993826990111,272.7489992648163,27.852424730329005,1193.8076290940767,-50.60977111775942,-50.907073974609375,4381.2578125,True
1599571032.1555476,0.0,10,0.5,0.5,-4.727257701110839,-0.15025,-0.0155,-0.5,0.01713930976809768,10,1,100,0.05519784873918566,-10,-1,-100,6350.088457589503,-0.00011548458303447779,-0.0007488845063045076,0.9999997129176124,272.3548728311927,27.787703605524577,1201.9030789283343,-50.98263594360148,-53.785675048828125,4381.2578125,True
1599571032.2283523,0.0,10,0.5,0.5,-2.976836514282226,-0.15025,-0.0155,-0.5,0.03511302888385321,10,1,100,0.0990663665869509,-10,-1,-100,6346.986895531416,-0.0010242135636600875,-0.00034483873111835204,0.9999994160362423,270.76972060035723,27.579815563865232,1209.6229096174466,-51.54190634144446,-58.654266357421875,4381.2578125,True
1599571032.306145,0.0,10,0.5,0.5,-4.2296352935791015,-0.15025,-0.0155,-0.5,0.009961432303026008,10,1,100,0.04318672975900342,-10,-1,-100,6345.953205425874,-0.0013378621854670271,-0.00020852173687745508,0.9999990833213087,269.9223072584358,27.476010691496718,1210.7489458116625,-51.728340847780274,-60.423736572265625,4381.2578125,True
1599571032.3789499,0.0,10,0.5,0.5,-1.3443870071411128,-0.15025,-0.0155,-0.5,0.041996316954582856,10,1,100,0.1150683450251462,-10,-1,-100,6342.849693855038,-0.002272021106422798,0.00020439306414947605,0.9999973980683986,266.21431183743664,27.04322529044549,1208.7268769439731,-52.28775014932705,-66.17132568359375,4381.2578125,True
1599571032.4527528,0.0,10,0.5,0.5,-2.8364630233764645,-0.15025,-0.0155,-0.5,0.016119166704165844,10,1,100,0.056712724104324895,-10,-1,-100,6341.815516265226,-0.002585622853551637,0.00034202769235755145,0.9999965987799742,264.53577434251645,26.854180822671843,1205.9733457146374,-52.47427384818734,-68.23342895507812,4381.2578125,True
1599571033.1713605,0.0,10,0.5,0.5,0.4822102340698242,-0.15025,-0.0155,-0.5,0.047894468455431646,10,1,100,0.1330030333196256,-10,-1,-100,6338.588473447016,-0.0035592168489897336,0.0007536256409153,0.9999933819900084,257.9533430267531,26.136707113079495,1190.2954317132358,-53.03408635578561,-74.857666015625,4381.2578125,True
1599571033.2416813,0.0,10,0.5,0.5,-1.2501109985351562,-0.15025,-0.0155,-0.5,0.021726518832747267,10,1,100,0.07099148576777435,-10,-1,-100,6337.553320961539,-0.0038752397238502444,0.0008874930756490509,0.9999920974053362,255.19543723049009,25.844300613957728,1182.3253412800489,-53.22078939698479,-77.21160888671875,4381.2578125,True
1599571033.3184755,0.0,10,0.5,0.5,0.8276244384765625,-0.15025,-0.0155,-0.5,0.038407220060640054,10,1,100,0.11337612714573504,-10,-1,-100,6335.421981629101,-0.004542461904103678,0.001158403463097642,0.9999890120102651,248.74371726516415,25.173781592854738,1161.7475101647726,-53.59437388101958,-82.13784790039062,4381.2578125,True
1599571033.3987703,0.0,10,0.5,0.5,1.6657539520263671,-0.15025,-0.0155,-0.5,0.039417093115785964,10,1,100,0.11671742472919874,-10,-1,-100,6333.229607647983,-0.005174102103352935,0.0014115382722499964,0.9999856180101442,241.10693526625735,24.39866462216266,1135.153123487052,-53.96821996870219,-87.13131713867188,4381.2578125,True
1599571033.470583,0.0,10,0.5,0.5,4.214623482513428,-0.15025,-0.0155,-0.5,0.05552358664065096,10,1,100,0.16301930732436054,-10,-1,-100,6330.001108838012,-0.006163871542706578,0.0017857590356678227,0.9999794086641343,253.15881221725164,25.646010525210837,1206.2349911553947,-54.52841138721997,-94.80128479003906,4381.2578125,True
1599571033.5464265,0.0,10,0.5,0.5,2.0883077503204346,-0.15025,-0.0155,-0.5,0.031100807959080767,10,1,100,0.10039686076696264,-10,-1,-100,6328.904923955095,-0.006488354594510059,0.0019013873818080399,0.9999771427291125,257.1648455687715,26.068323053733092,1230.1823008663096,-54.71490018279515,-97.3243637084961,4381.2578125,True
1599571033.6172354,0.0,10,0.5,0.5,5.555274548339844,-0.15025,-0.0155,-0.5,0.05488871067029951,10,1,100,0.17540977396618385,-10,-1,-100,6325.61392906378,-0.007459481243404803,0.0022203483830483053,0.9999697126376563,267.80789174904055,27.212337730357863,1296.2613686798327,-55.27363839497719,-104.4924087524414,4381.2578125,True
1599571033.6900408,0.0,10,0.5,0.5,3.5006655670166014,-0.15025,-0.0155,-0.5,0.03338798804653641,10,1,100,0.11396664210212304,-10,-1,-100,6324.515792060643,-0.007777899482108794,0.002312519826583276,0.9999670777239108,270.7550763858088,27.53630097737029,1315.628977799531,-55.4596587760319,-106.73518371582031,4381.2578125,True
1599571033.7708313,0.0,10,0.5,0.5,6.533642792892456,-0.15025,-0.0155,-0.5,0.052348325478624086,10,1,100,0.18961152826417593,-10,-1,-100,6321.1642524584895,-0.008749196812134138,0.0025663868959399914,0.9999584317427616,279.03426167428773,28.45424229746033,1371.602794952625,-56.017085188517584,-113.01366424560547,4381.2578125,True
1599571033.8442082,0.0,10,0.5,0.5,5.944855946350097,-0.15025,-0.0155,-0.5,0.04131961385928893,10,1,100,0.1636465882103052,-10,-1,-100,6318.9069454309065,-0.009390261133753162,0.0026947668589686943,0.9999522794750837,283.4851746926951,28.95532839202978,1404.1226471662942,-56.38822554007439,-116.82427215576172,4381.2578125,True
1599571033.9170134,0.0,10,0.5,0.5,6.397812242889404,-0.15025,-0.0155,-0.5,0.03870558083392074,10,1,100,0.1701811375557577,-10,-1,-100,6316.5886035955045,-0.010026265839928931,0.0027855731258854305,0.9999458558220375,287.1001738560873,29.366047746863032,1432.793822851556,-56.75904327325024,-120.33514404296875,4381.2578125,True
1599571033.9903274,0.0,10,0.5,0.5,7.7724426612854005,-0.15025,-0.0155,-0.5,0.035988894070870615,10,1,100,0.2115899413060931,-10,-1,-100,6313.172615469783,-0.010975016471463645,0.0028415799002502167,0.9999357351535755,291.2257196429903,29.83626421284986,1469.7597446539357,-57.31476447836188,-125.04037475585938,4381.2578125,True
1599571034.068125,0.0,10,0.5,0.5,7.290841088104248,-0.15025,-0.0155,-0.5,0.02835329600178181,10,1,100,0.18666402963461257,-10,-1,-100,6310.9157987060025,-0.011604463506074822,0.002821304179204123,0.9999286857918742,293.28549667487925,30.06899039920996,1491.159605350627,-57.68496485189908,-127.80374145507812,4381.2578125,True
1599571034.1489027,0.0,10,0.5,0.5,6.805690697479248,-0.15025,-0.0155,-0.5,0.02677087016306766,10,1,100,0.15820677148972817,-10,-1,-100,6309.756140015437,-0.01191156573476606,0.002786974288159267,0.9999251708883339,294.1500835427262,30.165342312649983,1501.079556666115,-57.86999277608537,-129.07363891601562,4381.2578125,True
1599571034.2316818,0.0,10,0.5,0.5,7.741896509552002,-0.15025,-0.0155,-0.5,0.01895319249972182,10,1,100,0.19627520871880094,-10,-1,-100,6307.3748123436235,-0.012530701314175652,0.0026834451029827,0.9999178869522006,295.60990627126614,30.32449230852941,1519.6475261222943,-58.23992002743194,-131.389892578125,4381.2578125,True
