Timestamp,Input Throttle,horizon,dT,dt,Input Roll,Roll P,Roll I,Roll D,Input Pitch,Pitch P,Pitch I,Pitch D,Input Yaw,Yaw P,Yaw I,Yaw D,Altitude,Direction X,Direction Y,Direction Z,Drag X,Drag Y,Drag Z,Vertical Velocity,Roll,Mass,Has Fuel
1599569893.2885165,0.0,10,0.5,0.5,-8.122225204467773,-0.15025,-0.001,-0.12575,-0.06717854704425097,10,1,100,0.690372679222291,-10,-1,-100,6483.617967293714,-0.0672580479437583,-0.007002381649557552,0.9977110411527121,205.07332507728955,21.49878815119463,-156.76531718772873,9.590823946888055,-35.944610595703125,4381.2578125,True
1599569893.3493512,0.0,10,0.5,0.5,-8.128145887756348,-0.15025,-0.001,-0.12575,-0.06735989381532023,10,1,100,0.6998899808381174,-10,-1,-100,6483.9978829758475,-0.06744517245835974,-0.006971798369146543,0.9976986232021983,204.61210821007543,21.456737616436858,-150.2666899293742,9.210801655731702,-35.9412841796875,4381.2578125,True
1599569893.4121828,0.0,10,0.5,0.5,-8.122267984008788,-0.15025,-0.001,-0.12575,-0.05198842926123544,10,1,100,0.700552713024718,-10,-1,-100,6484.316760201356,-0.067559996698368,-0.006797916801581994,0.9976920542799143,204.149542492121,21.41436370405548,-143.789404606866,8.830797935263911,-35.98065185546875,4381.2578125,True
1599569893.473007,0.0,10,0.5,0.5,-8.056469403076171,-0.15025,-0.001,-0.12575,-0.03403028552723463,10,1,100,0.6995267737803759,-10,-1,-100,6484.697140889941,-0.06759363747188298,-0.006470406872758231,0.9976919534647057,203.75672929572931,21.37898279208806,-137.38160058249704,8.450805617055522,-36.256561279296875,4381.2578125,True
1599569893.5328684,0.0,10,0.5,0.5,-7.941609425354004,-0.15025,-0.001,-0.12575,-0.015288235206626775,10,1,100,0.6973985347595868,-10,-1,-100,6485.016949208919,-0.06754342360446043,-0.005996406110119504,0.9976983156453412,203.4469502379651,21.351709596971578,-131.04558793156218,8.070816259235475,-36.817901611328125,4381.2578125,True
1599569893.5926695,0.0,10,0.5,0.5,-7.909813179016113,-0.15025,-0.001,-0.12575,-0.028365157121042546,10,1,100,0.7011660599375062,-10,-1,-100,6485.175623433199,-0.06747062175059879,-0.005678926155933423,0.9977050992143436,203.31798847086662,21.34047839034783,-127.89890341465723,7.880820245497343,-37.2081298828125,4381.2578125,True
1599569893.6545742,0.0,10,0.5,0.5,-7.6880119598388665,-0.15025,-0.001,-0.12575,0.026716143188758236,10,1,100,0.687541050334336,-10,-1,-100,6485.493927087286,-0.06721923759455883,-0.00488440626189704,0.9977262734200574,203.08722600725332,21.32008333438666,-121.62953072017305,7.500820869238604,-38.20867919921875,4381.2578125,True
1599569893.7204015,0.0,10,0.5,0.5,-7.461780187988281,-0.15025,-0.001,-0.12575,0.05729318521842099,10,1,100,0.6755516828588801,-10,-1,-100,6485.750192719977,-0.06682060389602332,-0.003879701970447123,0.9977574629175124,202.85073527848434,21.297874303365,-115.36562574692724,7.120804845385409,-39.50299072265625,4381.2578125,True
1599569893.78224,0.0,10,0.5,0.5,-7.191272790527344,-0.15025,-0.001,-0.12575,0.09046559400738324,10,1,100,0.6617922230851294,-10,-1,-100,6486.005455739796,-0.06627237762314236,-0.0026612400783471357,0.9977980205259083,202.54386031157304,21.266901855340738,-109.07295405964494,6.740763485881937,-41.091094970703125,4381.2578125,True
1599569893.845105,0.0,10,0.5,0.5,-6.5861790695190425,-0.15025,-0.001,-0.12575,0.20611065515281635,10,1,100,0.5961727504826849,-10,-1,-100,6486.420285269851,-0.06511720182629824,-0.0004998094023174396,0.9978774976002187,201.7704046398437,21.184700331940316,-99.50473866908283,6.170632735303705,-44.024749755859375,4381.2578125,True
1599569893.9109383,0.0,10,0.5,0.5,-6.318401457214354,-0.15025,-0.001,-0.12575,0.171713130815561,10,1,100,0.6082325135049519,-10,-1,-100,6486.674998041708,-0.064117478764073,0.0011528771813729783,0.9979416915787933,200.89702439471176,21.09036445055134,-92.99294590411176,5.790480933131968,-46.348236083984375,4381.2578125,True
1599569893.9727628,0.0,10,0.5,0.5,-6.258432933044433,-0.15025,-0.001,-0.12575,0.10437845894950816,10,1,100,0.6447221392223018,-10,-1,-100,6486.7720727782,-0.06354321854964387,0.0020357722779174867,0.9979770112620755,200.30912847425736,21.02675139675331,-89.68723955347599,5.600379254303924,-47.620361328125,4381.2578125,True
1599569894.0365915,0.0,10,0.5,0.5,-5.241775302124024,-0.15025,-0.001,-0.12575,0.32176136653100573,10,1,100,0.4765812345560645,-10,-1,-100,6487.061796529335,-0.06149615736129588,0.004806423734019687,0.998095747371305,197.7405553449797,20.749312608933458,-79.54532809888624,5.029941861250219,-51.8792724609375,4381.2578125,True
1599569894.0995672,0.0,10,0.5,0.5,-4.890484970092773,-0.15025,-0.001,-0.12575,0.26515172990704916,10,1,100,0.5008859137600685,-10,-1,-100,6487.255409816047,-0.059861656854958714,0.0068000153243169895,0.9981835211173186,195.1766882332479,20.47348843276884,-72.59049843067876,4.64951224715985,-55.08673095703125,4381.2578125,True
1599569894.1649044,0.0,10,0.5,0.5,-4.325089151000976,-0.15025,-0.001,-0.12575,0.2884111734338976,10,1,100,0.45919517988186875,-10,-1,-100,6487.447542389273,-0.058003769705411226,0.008811756781924909,0.9982774742737501,191.75080425773103,20.10654263216642,-65.49135847420764,4.268938104306102,-58.589813232421875,4381.2578125,True
1599569894.2297304,0.0,10,0.5,0.5,-4.2493695022583005,-0.15025,-0.001,-0.12575,0.198768331453765,10,1,100,0.5329212139716499,-10,-1,-100,6487.544092662283,-0.05699369047381975,0.009812215759119954,0.998326319230376,189.66158576539925,19.883545599743915,-61.89491224837166,4.078586291528966,-60.45233154296875,4381.2578125,True
1599569894.291565,0.0,10,0.5,0.5,-2.8168339080810543,-0.15025,-0.001,-0.12575,0.43620433767916417,10,1,100,0.26335402938645647,-10,-1,-100,6487.770738153951,-0.05363435034094099,0.012866150211423575,0.998477750699655,181.6604248174623,19.033645583268648,-50.9914711810691,3.5072245905023505,-66.48284912109375,4381.2578125,True
1599569894.3543983,0.0,10,0.5,0.5,-2.3606242279052734,-0.15025,-0.001,-0.12575,0.35296894098185616,10,1,100,0.32123616725552906,-10,-1,-100,6487.83979613136,-0.051118955916455155,0.014869631964930139,0.9985818676459327,174.75692038056417,18.30438564025464,-43.72819592388722,3.126003280984363,-70.87313842773438,4381.2578125,True
1599569894.4192612,0.0,10,0.5,0.5,-1.6158918991088869,-0.15025,-0.001,-0.12575,0.36297542656721427,10,1,100,0.2749352159838201,-10,-1,-100,6487.969398934045,-0.04842559019897938,0.01676490221531629,0.9986860869500442,166.40157124853718,17.425251217318742,-36.5603355369115,2.7444614862777326,-75.56036376953125,4381.2578125,True
1599569894.4840515,0.0,10,0.5,0.5,-0.8262265960693359,-0.15025,-0.001,-0.12575,0.3720973229009795,10,1,100,0.2281903561516554,-10,-1,-100,6488.100470902398,-0.045568346991367324,0.018553141371161874,0.9987889199914746,156.61439548346112,16.39793437502722,-29.626133144422685,2.3626292639371265,-80.5445556640625,4381.2578125,True
1599569895.037571,0.0,10,0.5,0.5,-0.7308085479736328,-0.15025,-0.001,-0.12575,0.2896410063307595,10,1,100,0.34720057350175504,-10,-1,-100,6488.1340268824715,-0.04407053591929812,0.019411889588770877,0.9988398101829838,151.16268827534344,15.826389458387048,-26.28470923780916,2.171634351471463,-83.14791870117188,4381.2578125,True
1599569895.0894322,0.0,10,0.5,0.5,0.44421018829345704,-0.15025,-0.001,-0.12575,0.3802849609361061,10,1,100,0.15653522242618007,-10,-1,-100,6488.200656231493,-0.040993792610225226,0.021000006635366397,0.9989386911561412,148.0083306404834,15.49576705666382,-21.210497034590784,1.7895603592922837,-88.57803344726562,4381.2578125,True
1599569895.1482782,0.0,10,0.5,0.5,-0.23453097381591795,-0.15025,-0.001,-0.12575,0.22336967971229904,10,1,100,0.4619546107395274,-10,-1,-100,6488.200656231493,-0.040993792610225226,0.021000006635366397,0.9989386911561412,148.0083306404834,15.49576705666382,-21.210497034590784,1.7895603592922837,-88.57803344726562,4381.2578125,True
1599569895.2081175,0.0,10,0.5,0.5,2.1371646591186524,-0.15025,-0.001,-0.12575,0.4549842862731696,10,1,100,-0.07032711106349099,-10,-1,-100,6488.30135549407,-0.036173506379971486,0.023090872528736723,0.9990787201427322,160.2324716339001,16.774607266876203,-15.611069937930825,1.2164383374842003,-97.1578369140625,4381.2578125,True
1599569895.2681231,0.0,10,0.5,0.5,1.8531545684814452,-0.15025,-0.001,-0.12575,0.3143793245533116,10,1,100,0.22958599134372282,-10,-1,-100,6488.273406033288,-0.0345394454202382,0.02369862290961611,0.9991223158263708,164.4943283029009,17.21979686728365,-13.510730154083916,1.025439511594648,-100.02266693115234,4381.2578125,True
1599569895.3279288,0.0,10,0.5,0.5,3.083586433792114,-0.15025,-0.001,-0.12575,0.37878835191663474,10,1,100,0.007870079570985289,-10,-1,-100,6488.341050239047,-0.03105966746280594,0.02482312635360241,0.9992092420785214,171.81319253438662,17.983834167410453,-8.856888061601058,0.643507181954099,-105.77100372314453,4381.2578125,True
1599569895.3897648,0.0,10,0.5,0.5,3.9170132099151616,-0.15025,-0.001,-0.12575,0.3688215933843385,10,1,100,-0.007355785768472456,-10,-1,-100,6488.345239946735,-0.02778139238297337,0.025741149033665003,0.9992825363648111,178.55971021792067,18.6889593881183,-3.742396926050164,0.2616009493710365,-111.39328002929688,4381.2578125,True
1599569895.4536252,0.0,10,0.5,0.5,4.692250199890136,-0.15025,-0.001,-0.12575,0.36246171647451897,10,1,100,-0.06633466634428031,-10,-1,-100,6488.350425755372,-0.024288473357852752,0.026506193499248782,0.9993535369268101,183.88696330458984,19.245835651161,1.773717902880423,-0.12037847116456701,-116.7474365234375,4381.2578125,True
1599569895.5164247,0.0,10,0.5,0.5,5.421103567504882,-0.15025,-0.001,-0.12575,0.35388965322721844,10,1,100,-0.08801716020398592,-10,-1,-100,6488.355146383634,-0.020940370193162687,0.02711318192795465,0.9994130158557648,187.45427539579833,19.618526927928365,7.548601679031216,-0.5024895929853925,-121.81102752685547,4381.2578125,True
1599569895.5792565,0.0,10,0.5,0.5,6.73292356300354,-0.15025,-0.001,-0.12575,0.3647678013669452,10,1,100,-0.30071326154466327,-10,-1,-100,6488.268521939521,-0.015988025685807213,0.02775447431921874,0.999486904461451,191.17918893346084,20.007479583347752,16.487107203217587,-1.0758895033687277,-128.8542938232422,4381.2578125,True
1599569895.6420887,0.0,10,0.5,0.5,7.0461588317871096,-0.15025,-0.001,-0.12575,0.33193990726617034,10,1,100,-0.15875715414217165,-10,-1,-100,6488.210313864867,-0.012803295583966305,0.02803066715313536,0.9995250658793604,192.0619734725809,20.099173053090002,22.45375607840726,-1.4583039494159953,-133.18072509765625,4381.2578125,True
1599569895.7059195,0.0,10,0.5,0.5,7.073583838653564,-0.15025,-0.001,-0.12575,0.31599551794753966,10,1,100,-0.01424198680482991,-10,-1,-100,6488.182927784859,-0.01125028541293707,0.028128967301468043,0.9995409907936144,192.107660637927,20.103520374165853,25.406352374306834,-1.6495512502102445,-135.233154296875,4381.2578125,True
1599569895.7697482,0.0,10,0.5,0.5,8.39682154006958,-0.15025,-0.001,-0.12575,0.33376099478086574,10,1,100,-0.34612776595993233,-10,-1,-100,6488.03342346102,-0.0068483540898616425,0.02837335453419517,0.9995739356339465,190.96609885085277,19.98222439975326,34.04934834501695,-2.2234216184905713,-140.94570922851562,4381.2578125,True
1599569895.8315814,0.0,10,0.5,0.5,8.168456478118896,-0.15025,-0.001,-0.12575,0.3144864928249836,10,1,100,-0.0646173972294303,-10,-1,-100,6488.003130952478,-0.00543682481963433,0.028413598957167423,0.9995814665799791,190.25526816892912,19.907019451862976,36.844460251027456,-2.414744521080395,-142.70205688476562,4381.2578125,True
1599569895.893417,0.0,10,0.5,0.5,8.860491551971435,-0.15025,-0.001,-0.12575,0.31192861958480766,10,1,100,-0.22848469938962546,-10,-1,-100,6487.882987565594,-0.0026918560830262147,0.028422092560932935,0.9995923862081414,188.45731876207097,19.71679526402177,42.28665576283385,-2.7974216091437056,-145.99314880371094,4381.2578125,True
1599569895.9572456,0.0,10,0.5,0.5,9.277300746917726,-0.15025,-0.001,-0.12575,0.32136001224548827,10,1,100,-0.2344758994056491,-10,-1,-100,6487.762862708885,-0.0001709168580888144,0.028511259888861117,0.9995934567847957,186.28723584890358,19.486927414008118,47.52575161907844,-3.1801263019557773,-148.98614501953125,4381.2578125,True
1599569896.0190809,0.0,10,0.5,0.5,9.991510250091553,-0.15025,-0.001,-0.12575,0.30822279204908565,10,1,100,-0.38354085550197914,-10,-1,-100,6487.549987586332,0.0034479013558166246,0.028469538972887388,0.9995887140854041,182.80532765190046,19.116913872565174,55.07002284548468,-3.7542165716493745,-152.92185974121094,4381.2578125,True
1599569896.080965,0.0,10,0.5,0.5,10.122382907104493,-0.15025,-0.001,-0.12575,0.31360299558055754,10,1,100,-0.2676912533460193,-10,-1,-100,6487.4284319863655,0.00565616762727758,0.02847804145416172,0.9995784155946482,180.45505944421262,18.866236961518506,59.91421957338818,-4.136966138792608,-155.17416381835938,4381.2578125,True
1599569896.1437972,0.0,10,0.5,0.5,10.12311711654663,-0.15025,-0.001,-0.12575,0.3132943567542389,10,1,100,-0.16557256699858158,-10,-1,-100,6487.336653144681,0.006708108324551623,0.028481172586031025,0.9995718203765205,179.31292622226601,18.744096383527776,62.29444001577115,-4.328350311120794,-156.1890869140625,4381.2578125,True
1599569896.2066286,0.0,10,0.5,0.5,10.497375852966307,-0.15025,-0.001,-0.12575,0.32283427006320436,10,1,100,-0.2801028997727034,-10,-1,-100,6487.152127837646,0.008680467912276666,0.028569501926304555,0.9995541171124787,177.17439686158235,18.514573944296647,67.0064674476185,-4.711144422724546,-157.99505615234375,4381.2578125,True
1599569896.2734523,0.0,10,0.5,0.5,10.689800381469725,-0.15025,-0.001,-0.12575,0.32282825633325946,10,1,100,-0.2874454608323611,-10,-1,-100,6486.905111950124,0.010517846734752609,0.02864900572209273,0.9995341961990093,175.256799353569,18.307544984413724,71.67997097109948,-5.093983604723661,-159.5045166015625,4381.2578125,True
1599569896.3352852,0.0,10,0.5,0.5,10.83724957885742,-0.15025,-0.001,-0.12575,0.32635315943703624,10,1,100,-0.2924161697556942,-10,-1,-100,6486.7210909766145,0.012212178343289476,0.0287527643477809,0.9995119515255796,173.63994058853507,18.13144033542863,76.37068458967754,-5.476878772551677,-160.71694946289062,4381.2578125,True
1599569896.397141,0.0,10,0.5,0.5,11.035122489929197,-0.15025,-0.001,-0.12575,0.34967151633349947,10,1,100,-0.37130305910420724,-10,-1,-100,6486.381347956834,0.014448303832621995,0.029058508345604982,0.9994732860907731,171.91083006176288,17.939232040934836,83.56463379395406,-6.051344235938793,-161.97705078125,4381.2578125,True
1599569896.4627917,0.0,10,0.5,0.5,11.008067077636719,-0.15025,-0.001,-0.12575,0.3475759905035548,10,1,100,-0.2935698460030758,-10,-1,-100,6486.134839018225,0.01575511901480265,0.029316784332617005,0.9994459977313552,171.29500558443718,17.866664795749557,88.5539026750508,-6.434410262914439,-162.44552612304688,4381.2578125,True
1599569896.5256243,0.0,10,0.5,0.5,10.998235447692872,-0.15025,-0.001,-0.12575,0.35871992826270627,10,1,100,-0.29064095512828325,-10,-1,-100,6485.8253435837105,0.01689724113261928,0.029652068131915267,0.9994174493661827,171.14597632813798,17.842374039822595,93.76487255917895,-6.817548670499576,-162.61619567871094,4381.2578125,True
1599569896.588472,0.0,10,0.5,0.5,10.94341805038452,-0.15025,-0.001,-0.12575,0.36914845684186653,10,1,100,-0.28645346133702815,-10,-1,-100,6485.578351188451,0.017879657571426948,0.030050558231477887,0.9993884539032383,171.47973988792148,17.867912187183997,99.2502523765301,-7.200755993741247,-162.48931884765625,4381.2578125,True
1599569896.654278,0.0,10,0.5,0.5,10.912434921264648,-0.15025,-0.001,-0.12575,0.35368873145719165,10,1,100,-0.23755295059821957,-10,-1,-100,6485.423605394317,0.01831180371414519,0.030270879638180846,0.9993739798947466,171.83216171155308,17.89978938384823,102.11256445437881,-7.392383455873162,-162.31436157226562,4381.2578125,True
1599569896.7201164,0.0,10,0.5,0.5,10.66730095214844,-0.15025,-0.001,-0.12575,0.41595901472853114,10,1,100,-0.30976776880340195,-10,-1,-100,6484.958876434714,0.019347649552701313,0.031035627727954537,0.9993310053572428,173.60569983036888,18.068911163803897,111.2305405322398,-7.967346359636133,-161.34307861328125,4381.2578125,True
1599569896.7849443,0.0,10,0.5,0.5,10.659658299255371,-0.15025,-0.001,-0.12575,0.37102063590974527,10,1,100,-0.23617102564981685,-10,-1,-100,6484.803152692039,0.019607819484605722,0.0313199974691473,0.9993170623849028,174.42715249028092,18.14883126592764,114.45985846414987,-8.159022317256916,-160.87062072753906,4381.2578125,True
1599569896.84977,0.0,10,0.5,0.5,10.397304999542236,-0.15025,-0.001,-0.12575,0.4077054599766262,10,1,100,-0.25627202061145565,-10,-1,-100,6484.429689260782,0.020015346912206397,0.03190943306640044,0.999290335172599,176.39207063514286,18.341445450092593,121.21962761417636,-8.542396090626323,-159.70310974121094,4381.2578125,True
1599569896.9174924,0.0,10,0.5,0.5,9.907147916412354,-0.15025,-0.001,-0.12575,0.4573906768581902,10,1,100,-0.24410235129525726,-10,-1,-100,6483.902932558325,0.020264888598968907,0.03289393109815379,0.9992533830750743,180.0412503589973,18.70140267860737,132.11152485713924,-9.11748061454816,-157.39462280273438,4381.2578125,True
1599569896.9833472,0.0,10,0.5,0.5,9.67013553161621,-0.15025,-0.001,-0.12575,0.43494432921313064,10,1,100,-0.21488208740072784,-10,-1,-100,6483.528968185885,0.02021724496801709,0.03358101257990533,0.9992314939992692,182.85261335611142,18.979452904547127,139.85697371407392,-9.500859377394749,-155.48486328125,4381.2578125,True
1599569897.047179,0.0,10,0.5,0.5,9.61551647491455,-0.15025,-0.001,-0.12575,0.40561455272359725,10,1,100,-0.20981735887280173,-10,-1,-100,6483.311222061864,0.02012061225632999,0.03393460846047268,0.9992214986233358,184.3395704405499,19.12658907082508,143.86036481394274,-9.69253835075366,-154.4187469482422,4381.2578125,True
1599569897.1120043,0.0,10,0.5,0.5,8.74356586227417,-0.15025,-0.001,-0.12575,0.4865499400247437,10,1,100,-0.15615735702192565,-10,-1,-100,6482.719492605887,0.019539789493948568,0.03498740269089445,0.999196716507554,188.98198619920487,19.58592691862802,156.30493311867275,-10.26750724578609,-150.77650451660156,4381.2578125,True
1599569897.1738782,0.0,10,0.5,0.5,8.824490657806397,-0.15025,-0.001,-0.12575,0.4201931594907722,10,1,100,-0.18331501607366074,-10,-1,-100,6482.500761263305,0.019255216000909278,0.03533608978791606,0.9991899706338423,190.54408217144714,19.74041557412389,160.56398976976018,-10.459133885225892,-149.4144744873047,4381.2578125,True
1599569897.2377048,0.0,10,0.5,0.5,8.181392111968993,-0.15025,-0.001,-0.12575,0.46174952822705173,10,1,100,-0.13455310919615343,-10,-1,-100,6482.065732523915,0.018551079149379594,0.036025695935850977,0.999178666052639,193.59784919477562,20.04236223151334,169.1697583128331,-10.8423296781617,-146.4686279296875,4381.2578125,True
1599569897.300537,0.0,10,0.5,0.5,7.655875022888183,-0.15025,-0.001,-0.12575,0.4615065615544107,10,1,100,-0.1052295782163972,-10,-1,-100,6481.630204975139,0.017643766801283958,0.0366449698844911,0.9991725795252924,196.44002754621727,20.323510951659493,177.77859865402687,-11.225436540175656,-143.22821044921875,4381.2578125,True
1599569897.906916,0.0,10,0.5,0.5,6.567230827331543,-0.15025,-0.001,-0.12575,0.49482589240059865,10,1,100,-0.011727361776937312,-10,-1,-100,6480.974452978233,0.015969524550759073,0.037505054581632634,0.9991688271590801,199.95751223570042,20.672462134353896,190.32237333677574,-11.79991279229889,-137.8143768310547,4381.2578125,True
1599569897.9637642,0.0,10,0.5,0.5,6.148098381805419,-0.15025,-0.001,-0.12575,0.45993304028135196,10,1,100,-0.032470729814919164,-10,-1,-100,6480.475423146272,0.014639133236992596,0.0379638607171739,0.999171877635433,201.55878520735723,20.83279150322193,198.14229856470172,-12.18277415358219,-133.83767700195312,4381.2578125,True
1599569898.0226066,0.0,10,0.5,0.5,5.466889163208007,-0.15025,-0.001,-0.12575,0.45231437180138956,10,1,100,-0.0025937142828442172,-10,-1,-100,6479.974916518666,0.013162594343502039,0.03830565670580446,0.9991793746742802,202.3483195112075,20.914199710977076,205.24372305105788,-12.565546868921725,-129.56747436523438,4381.2578125,True
1599569898.083445,0.0,10,0.5,0.5,4.741331944274902,-0.15025,-0.001,-0.12575,0.44249121400558883,10,1,100,0.027485867117637397,-10,-1,-100,6479.475374235306,0.011553065293568704,0.038521264148561864,0.9991909921985481,202.12450299718716,20.89663813898633,211.34042825915074,-12.948252567331052,-125.00399017333984,4381.2578125,True
1599569898.145626,0.0,10,0.5,0.5,3.9715679004669187,-0.15025,-0.001,-0.12575,0.429637236301759,10,1,100,0.057217467487905405,-10,-1,-100,6478.914297369542,0.00982748962963178,0.03859530081462432,0.9992065968570304,201.30857370214545,20.823877378942264,216.7919287705027,-13.330921519198242,-120.14752960205078,4381.2578125,True
1599569898.2144396,0.0,10,0.5,0.5,3.1575779254913328,-0.15025,-0.001,-0.12575,0.4130996902623172,10,1,100,0.08512029071690344,-10,-1,-100,6478.35223335179,0.008014567683369491,0.03850770710320006,0.9992261621867708,199.2272493824449,20.62576460415536,220.79766388550337,-13.71359630492604,-114.9984130859375,4381.2578125,True
1599569898.2862477,0.0,10,0.5,0.5,3.060278010559082,-0.15025,-0.001,-0.12575,0.4107142989274034,10,1,100,0.007796083824490985,-10,-1,-100,6478.070953900809,0.007080409653582942,0.038402233718276314,0.9992372772492951,197.61633415485326,20.46931687682076,222.11400514913547,-13.904953064875254,-112.31414031982422,4381.2578125,True
1599569898.354066,0.0,10,0.5,0.5,1.851677042007446,-0.15025,-0.001,-0.12575,0.38444943047003155,10,1,100,0.12452648663070609,-10,-1,-100,6477.507411511382,0.005181316309939002,0.03806447289961736,0.9992618525012203,193.13935497190184,20.028219040973468,223.1523810687929,-14.287741322657698,-106.72608947753906,4381.2578125,True
1599569898.4238808,0.0,10,0.5,0.5,0.08519177856445315,-0.15025,-0.001,-0.12575,0.32773297703187076,10,1,100,0.25572723853217655,-10,-1,-100,6476.663548462442,0.00227492816178657,0.03723933313947894,0.9993037860276452,184.38706787222844,19.154601391056843,221.75311121818203,-14.862190180216063,-97.79524230957031,4381.2578125,True
1599569898.4956875,0.0,10,0.5,0.5,-0.5408677444458008,-0.15025,-0.001,-0.12575,0.32626730260812825,10,1,100,0.17943192046400702,-10,-1,-100,6476.038466168102,0.0003411474195291669,0.036474778465315785,0.9993345156424571,176.10549507889405,18.312242175714424,217.35474664038819,-15.245383599214577,-91.47550964355469,4381.2578125,True
1599569898.5714865,0.0,10,0.5,0.5,-0.6537567367553712,-0.15025,-0.001,-0.12575,0.35391779759855313,10,1,100,0.09229379251691727,-10,-1,-100,6475.757173372316,-0.0006089406199296973,0.036031251617279665,0.999350478109764,171.47712641440842,17.837043795816754,214.35365654693058,-15.437051069150261,-88.20587158203125,4381.2578125,True
1599569898.6482809,0.0,10,0.5,0.5,-3.8879591606140136,-0.15025,-0.001,-0.12575,0.16638110242367324,10,1,100,0.3950104841399277,-10,-1,-100,6474.444009230938,-0.004209555611309952,0.033924506165624604,0.9994155329606269,178.68618070700074,18.583928589243982,234.68340519571035,-16.20371445321737,-75.01602172851562,4381.2578125,True
1599569898.7280657,0.0,10,0.5,0.5,-3.12562261428833,-0.15025,-0.001,-0.12575,0.3080164337673572,10,1,100,0.1318793372894333,-10,-1,-100,6474.163202727446,-0.005073605460425413,0.033300549089563994,0.999432504953669,184.47393334556142,19.179164788656376,245.20800937186664,-16.39522651413975,-71.7899169921875,4381.2578125,True
1599569898.807853,0.0,10,0.5,0.5,-4.463604662322998,-0.15025,-0.001,-0.12575,0.23037329832264897,10,1,100,0.22247825888584224,-10,-1,-100,6473.47414943215,-0.006666153519766889,0.03203201879602631,0.9994646127648051,194.4681097777509,20.200866002151646,264.655603591714,-16.778006407593885,-65.49322509765625,4381.2578125,True
1599569898.884648,0.0,10,0.5,0.5,-5.339137358093261,-0.15025,-0.001,-0.12575,0.20683222769731924,10,1,100,0.22915965785030795,-10,-1,-100,6472.786565089598,-0.008158101547196706,0.030670699019264086,0.9994962499183352,202.95007618000278,21.063256892291133,282.630470842305,-17.160455934200332,-59.47369384765625,4381.2578125,True
1599569898.9604456,0.0,10,0.5,0.5,-6.927080840301513,-0.15025,-0.001,-0.12575,0.10478852090534757,10,1,100,0.30227309049112194,-10,-1,-100,6471.75519423245,-0.01016273496779773,0.028512669707549013,0.9995417682538947,211.80335493455107,21.959892848479615,305.0289292090215,-17.73357928732731,-50.999664306640625,4381.2578125,True
1599569899.0402322,0.0,10,0.5,0.5,-5.867871500396728,-0.15025,-0.001,-0.12575,0.31959194833728977,10,1,100,0.10362747869613617,-10,-1,-100,6471.75519423245,-0.01016273496779773,0.028512669707549013,0.9995417682538947,211.80335493455107,21.959892848479615,305.0289292090215,-17.73357928732731,-50.999664306640625,4381.2578125,True
1599569899.1160326,0.0,10,0.5,0.5,-8.70459486694336,-0.15025,-0.001,-0.12575,0.0011289493535516781,10,1,100,0.35284096493712847,-10,-1,-100,6470.254562123446,-0.012412636529423678,0.0256265420477066,0.9995945211920009,217.8699951334998,22.583395635356126,327.5893126862235,-18.497026271495443,-40.743896484375,4381.2578125,True
1599569899.1998515,0.0,10,0.5,0.5,-8.077518807983399,-0.15025,-0.001,-0.12575,0.2031934075120612,10,1,100,0.18275820351294625,-10,-1,-100,6469.910290426575,-0.012895800160828008,0.024851046459156232,0.9996079850761982,218.6568965166263,22.668849295753652,332.2456132355159,-18.68781339398715,-38.36712646484375,4381.2578125,True
1599569899.2766492,0.0,10,0.5,0.5,-9.035367823791503,-0.15025,-0.001,-0.12575,0.12286119892143976,10,1,100,0.2351286777875751,-10,-1,-100,6469.158763921005,-0.013797343475217102,0.023427019742995995,0.9996303357036481,219.30840408078777,22.750325378746084,340.2107003281754,-19.069351909156524,-33.835296630859375,4381.2578125,True
1599569899.354441,0.0,10,0.5,0.5,-9.639899629211424,-0.15025,-0.001,-0.12575,0.11087421967454397,10,1,100,0.23520285919882888,-10,-1,-100,6468.345721659251,-0.01460474950940518,0.022035339061262472,0.9996505114910024,218.92320709657625,22.731500633540776,346.5889551160691,-19.450885116219283,-29.60107421875,4381.2578125,True
1599569899.431079,0.0,10,0.5,0.5,-10.712351318359374,-0.15025,-0.001,-0.12575,0.02687563221918965,10,1,100,0.26978362184573945,-10,-1,-100,6467.1894009562675,-0.015640402101921278,0.02001927483968879,0.99967725114508,216.86109148015072,22.559089487343748,353.7175003074236,-20.02325752362097,-23.80743408203125,4381.2578125,True
1599569899.50588,0.0,10,0.5,0.5,-9.98892192993164,-0.15025,-0.001,-0.12575,0.22709153124396417,10,1,100,0.16736144724319074,-10,-1,-100,6467.1894009562675,-0.015640402101921278,0.02001927483968879,0.99967725114508,216.86109148015072,22.559089487343748,353.7175003074236,-20.02325752362097,-23.80743408203125,4381.2578125,True
1599569899.5793428,0.0,10,0.5,0.5,-11.408472863769532,-0.15025,-0.001,-0.12575,0.021520996713605717,10,1,100,0.2660744287114868,-10,-1,-100,6465.969615968643,-0.016528186663777155,0.01816252568418542,0.9996984253795634,213.60869347436747,22.269647713349098,358.6859047412045,-20.59577336014715,-18.6815185546875,4381.2578125,True
1599569899.6496093,0.0,10,0.5,0.5,-11.609305508422853,-0.15025,-0.001,-0.12575,0.07699824773559219,10,1,100,0.2326846992249817,-10,-1,-100,6465.093119983678,-0.01702275505818335,0.016991519182211177,0.9997107152002072,211.07206492795154,22.039291625420063,361.2144492097,-20.977541657275847,-15.6353759765625,4381.2578125,True
1599569899.7214172,0.0,10,0.5,0.5,-11.989603219604492,-0.15025,-0.001,-0.12575,0.07342349290925615,10,1,100,0.2338391468188709,-10,-1,-100,6464.279615998035,-0.017474798891668898,0.015906905663665222,0.9997207618909907,208.4182345051858,21.795857102642263,363.391581106085,-21.35937958507145,-12.885498046875,4381.2578125,True
1599569899.7906003,0.0,10,0.5,0.5,-12.32483159790039,-0.15025,-0.001,-0.12575,0.07055761855194587,10,1,100,0.23553246274121656,-10,-1,-100,6463.404593821266,-0.017894494281473564,0.014906299756324156,0.9997287578648445,206.2286678182969,21.599167044350352,366.2375539839345,-21.741271331715055,-10.43182373046875,4381.2578125,True
1599569899.8594174,0.0,10,0.5,0.5,-12.328269866943357,-0.15025,-0.001,-0.12575,0.11679111767462394,10,1,100,0.21492427004830866,-10,-1,-100,6462.9338816332165,-0.018081659466529846,0.01442933198708501,0.9997323881766274,205.15102353148814,21.50175010851145,367.64381177402754,-21.932232744664013,-9.316131591796875,4381.2578125,True
1599569899.9254773,0.0,10,0.5,0.5,-12.745708595275879,-0.15025,-0.001,-0.12575,0.06597174907490347,10,1,100,0.236220778464782,-10,-1,-100,6462.059354211669,-0.01844026059951522,0.013543909946016165,0.9997382253832231,203.1092247246192,21.316815782604042,370.5694684899484,-22.314176850845698,-7.306732177734375,4381.2578125,True
1599569899.9931865,0.0,10,0.5,0.5,-13.174829191589355,-0.15025,-0.001,-0.12575,0.02401855559328578,10,1,100,0.2536785989003356,-10,-1,-100,6460.7131467511645,-0.01891992866942633,0.012367867364768999,0.9997445034387492,201.09237291727436,21.14410478540529,376.6940644601857,-22.88710472865208,-4.847686767578125,4381.2578125,True
1599569900.0630002,0.0,10,0.5,0.5,-13.218885194396972,-0.15025,-0.001,-0.12575,0.0657266471118669,10,1,100,0.23804974132138645,-10,-1,-100,6459.775151037495,-0.01920925313208761,0.011687955988693429,0.9997471661769858,200.09608932746048,21.062437698260933,381.3475732178801,-23.269038190870713,-3.57818603515625,4381.2578125,True
1599569900.1288269,0.0,10,0.5,0.5,-13.206434436035154,-0.15025,-0.001,-0.12575,0.09891855713380046,10,1,100,0.22499097400865015,-10,-1,-100,6459.305422412232,-0.019349373392006916,0.011381006086162824,0.9997480054742813,199.71742987482503,21.033352310364176,383.88422429585944,-23.459993366271227,-3.0543212890625,4381.2578125,True
1599569900.194425,0.0,10,0.5,0.5,-13.453976040649414,-0.15025,-0.001,-0.12575,0.04197181609624581,10,1,100,0.2558921370970507,-10,-1,-100,6457.896240409231,-0.01975430331883712,0.010592116046024074,0.9997487557271852,199.11677664783852,20.999880230163154,392.49290705952916,-24.032789985083117,-1.92626953125,4381.2578125,True
1599569900.2582538,0.0,10,0.5,0.5,-13.44206946105957,-0.15025,-0.001,-0.12575,0.05373395200867656,10,1,100,0.2550574042711658,-10,-1,-100,6456.426517400774,-0.020111093043704793,0.009990441934914275,0.9997478357098517,199.4084313884526,21.058094716941802,402.8711584043534,-24.60544587922777,-1.46337890625,4381.2578125,True
1599569900.3240778,0.0,10,0.5,0.5,-13.385582778930663,-0.15025,-0.001,-0.12575,0.11308415474472928,10,1,100,0.21973672242239128,-10,-1,-100,6456.426517400774,-0.020111093043704793,0.009990441934914275,0.9997478357098517,199.4084313884526,21.058094716941802,402.8711584043534,-24.60544587922777,-1.46337890625,4381.2578125,True
1599569900.393891,0.0,10,0.5,0.5,-13.331400735473633,-0.15025,-0.001,-0.12575,0.06978979964997055,10,1,100,0.2593830887350843,-10,-1,-100,6454.893322506105,-0.020468706975651528,0.009603221504277648,0.9997443724130107,200.64396572989563,21.215747867787268,415.2566679800712,-25.17791373035821,-1.664825439453125,4381.2578125,True
1599569901.01485,0.0,10,0.5,0.5,-13.29856625213623,-0.15025,-0.001,-0.12575,0.09853306492666741,10,1,100,0.23611408644254084,-10,-1,-100,6454.423600394162,-0.02057955243104909,0.009518235964541037,0.9997429095551822,201.2652932338528,21.29079423418711,419.85473086965993,-25.368686431173966,-1.879638671875,4381.2578125,True
1599569901.0811465,0.0,10,0.5,0.5,-13.026361724853516,-0.15025,-0.001,-0.12575,0.09194047160697247,10,1,100,0.2574690007768029,-10,-1,-100,6452.890898908372,-0.020872015649767824,0.009385941956230331,0.9997380972316251,203.74387717495023,21.5832521733256,435.10034611514476,-25.94083014698184,-2.96685791015625,4381.2578125,True
1599569901.1848729,0.0,10,0.5,0.5,-13.023002313232421,-0.15025,-0.001,-0.12575,0.10538794035670414,10,1,100,0.23897796797260773,-10,-1,-100,6452.35818966839,-0.020967254317489227,0.009392509291882572,0.9997360426710581,204.76513662894678,21.702440781569,440.6617729757544,-26.131480367197813,-3.4766845703125,4381.2578125,True
1599569901.2736332,0.0,10,0.5,0.5,-12.744955493164063,-0.15025,-0.001,-0.12575,0.11151375337694265,10,1,100,0.2473148330957332,-10,-1,-100,6451.294724492473,-0.02112732734042985,0.009457942806890536,0.9997320557816038,207.07076512504176,21.970757149904426,452.4683448495509,-26.512672646117007,-4.7177734375,4381.2578125,True
1599569901.3474681,0.0,10,0.5,0.5,-12.234695199584959,-0.15025,-0.001,-0.12575,0.13525212753840532,10,1,100,0.25329568829774274,-10,-1,-100,6449.636539975181,-0.02132521295523868,0.009735876607963689,0.9997251862382424,211.11247802672906,22.44125650626764,471.78536622024757,-27.08415869629325,-7.132049560546875,4381.2578125,True
1599569901.4202733,0.0,10,0.5,0.5,-11.992007911682128,-0.15025,-0.001,-0.12575,0.13937267351758836,10,1,100,0.24361956447874225,-10,-1,-100,6448.570634993492,-0.02141522060687111,0.010027777826368883,0.9997203769045743,214.14065944346385,22.79504871219481,485.65372036721186,-27.464921922600855,-9.11004638671875,4381.2578125,True
1599569901.4960382,0.0,10,0.5,0.5,-11.936685366821289,-0.15025,-0.001,-0.12575,0.1297864954985794,10,1,100,0.23821664426378358,-10,-1,-100,6448.039392198669,-0.021446050245296548,0.010207225704982427,0.9997178999459218,215.9483694317727,23.004682155738944,493.33661332833236,-27.65522606190775,-10.209503173828125,4381.2578125,True
1599569901.566848,0.0,10,0.5,0.5,-11.041792201232909,-0.15025,-0.001,-0.12575,0.1847080332145958,10,1,100,0.23675504041103934,-10,-1,-100,6446.317732649157,-0.021459251929816126,0.010869996746904927,0.9997106299711607,221.5770895689707,23.661300950228913,517.2331829329527,-28.225796329170088,-13.949798583984375,4381.2578125,True
1599569901.6371727,0.0,10,0.5,0.5,-11.126129847717284,-0.15025,-0.001,-0.12575,0.14720783151469888,10,1,100,0.23328274349824157,-10,-1,-100,6445.78453686391,-0.021438461526639297,0.011130805356097236,0.9997082061979363,223.58437356800667,23.895904178906278,525.6332753357575,-28.415864623565117,-15.343841552734375,4381.2578125,True
1599569901.7060258,0.0,10,0.5,0.5,-10.023871195983887,-0.15025,-0.001,-0.12575,0.21944094942772524,10,1,100,0.21816489617533413,-10,-1,-100,6444.0677592959255,-0.021280919485831263,0.01202353210600759,0.9997012339401874,229.94503738870026,24.63963462639737,552.0492816247403,-28.98566960430356,-19.9676513671875,4381.2578125,True
1599569901.7758868,0.0,10,0.5,0.5,-9.651138439941406,-0.15025,-0.001,-0.12575,0.20516001462652378,10,1,100,0.21287831227189968,-10,-1,-100,6442.880271403934,-0.02108890122005621,0.012703074916277235,0.9996968991314328,233.9818071154972,25.11485228389787,569.5160637407434,-29.365199192367662,-23.418182373046875,4381.2578125,True
1599569901.8437054,0.0,10,0.5,0.5,-9.049295475769043,-0.15025,-0.001,-0.12575,0.21801577453552665,10,1,100,0.20173707108153766,-10,-1,-100,6441.68594645441,-0.02081259210508559,0.013434816343920814,0.999693123773327,237.67691995172868,25.552064844307626,586.4063680894216,-29.74446055203191,-27.1630859375,4381.2578125,True
1599569901.9125214,0.0,10,0.5,0.5,-8.402948843383788,-0.15025,-0.001,-0.12575,0.2301588799167218,10,1,100,0.18900331247212276,-10,-1,-100,6440.498455547495,-0.02044569458006733,0.014206746895800669,0.999690022914992,240.85789812300732,25.930328922705737,602.2546721676032,-30.12347044006824,-31.202392578125,4381.2578125,True
1599569901.9764369,0.0,10,0.5,0.5,-8.320246157836914,-0.15025,-0.001,-0.12575,0.19748524001082501,10,1,100,0.20184976290935158,-10,-1,-100,6439.898362344247,-0.020229411433786832,0.01460709227327064,0.9996886534158335,242.26719858210055,26.09782263648028,609.8016016152321,-30.31288924990029,-33.332366943359375,4381.2578125,True
1599569902.041263,0.0,10,0.5,0.5,-6.699723115539551,-0.15025,-0.001,-0.12575,0.291766898054417,10,1,100,0.1351620434565688,-10,-1,-100,6438.050713463803,-0.01942735468387621,0.015823467553670197,0.9996860485995415,245.54425191522566,26.485944478981473,630.2847503712234,-30.880854908968548,-40.163909912109375,4381.2578125,True
1599569902.1055386,0.0,10,0.5,0.5,-6.196989997863769,-0.15025,-0.001,-0.12575,0.26102563162628445,10,1,100,0.142984869546191,-10,-1,-100,6436.79680962197,-0.01877105411047345,0.016644263031099765,0.9996852584867566,246.47233893785952,26.596829574605742,640.8608432876231,-31.259320455807355,-45.08599853515625,4381.2578125,True
1599569902.1693678,0.0,10,0.5,0.5,-6.10266926574707,-0.15025,-0.001,-0.12575,0.22475642355118897,10,1,100,0.16823056872945763,-10,-1,-100,6436.145443126443,-0.01840632736949736,0.017054705677894202,0.9996851224895805,246.48303738209148,26.59918770930605,644.9896455803664,-31.448523063889304,-47.65728759765625,4381.2578125,True
1599569902.2337422,0.0,10,0.5,0.5,-4.171198046875,-0.15025,-0.001,-0.12575,0.3080635112133091,10,1,100,0.06769251887373039,-10,-1,-100,6434.233328635688,-0.017163538717990486,0.01817894753556941,0.9996874205496311,244.39476854425658,26.361179707939034,651.7497084526295,-32.01612228289938,-55.813323974609375,4381.2578125,True
1599569902.2995286,0.0,10,0.5,0.5,-4.401710661315918,-0.15025,-0.001,-0.12575,0.23570157048161233,10,1,100,0.14107477672696248,-10,-1,-100,6433.570728168008,-0.01670474748184255,0.01853650526245084,0.9996886262152946,242.90832668714768,26.191878032372337,651.8475966906224,-32.20535290858593,-58.678985595703125,4381.2578125,True
1599569902.3633585,0.0,10,0.5,0.5,-3.115059046936035,-0.15025,-0.001,-0.12575,0.27551733231028364,10,1,100,0.07801247502264565,-10,-1,-100,6432.323648634949,-0.015718674264436818,0.019216786758143378,0.999691771690685,238.61128313974214,25.70597375930693,648.320058061157,-32.583922841907984,-64.63070678710938,4381.2578125,True
1599569902.4262183,0.0,10,0.5,0.5,-2.1349818862915035,-0.15025,-0.001,-0.12575,0.2689905689909763,10,1,100,0.06198460248699025,-10,-1,-100,6431.010648212512,-0.014681592721217825,0.019769350947095494,0.9996967658236664,232.41247633634572,25.01347983347515,639.3093620802708,-32.9627003179617,-70.87722778320312,4381.2578125,True
1599569902.4920144,0.0,10,0.5,0.5,-1.1107441757202148,-0.15025,-0.001,-0.12575,0.2705413633819516,10,1,100,0.04159657699938893,-10,-1,-100,6429.631725375191,-0.013559270457948582,0.02027935627148736,0.9997024026648442,224.17128969929368,24.10587213240757,624.2323919284264,-33.34174257352735,-77.41705322265625,4381.2578125,True
1599569902.559835,0.0,10,0.5,0.5,0.9316921173095704,-0.15025,-0.001,-0.12575,0.2784661899176557,10,1,100,-0.036673510689970795,-10,-1,-100,6427.66099270538,-0.011834025168388851,0.020808819044052212,0.9997134333889417,207.79025056887846,22.33561710604205,589.2349790858564,-33.910847765609596,-87.77862548828125,4381.2578125,True
1599569902.6246886,0.0,10,0.5,0.5,0.6281921783447266,-0.15025,-0.001,-0.12575,0.23995634337609684,10,1,100,0.07043525072605367,-10,-1,-100,6426.943696424947,-0.01124716516294539,0.02093405743950768,0.9997175933807091,203.9799081803141,21.931775032641557,581.91527851347,-34.10064762508159,-91.37938690185547,4381.2578125,True
1599569902.6894855,0.0,10,0.5,0.5,2.2296681125640867,-0.15025,-0.001,-0.12575,0.24615442466673887,10,1,100,-0.0002565163180646701,-10,-1,-100,6425.56183642894,-0.010079169317841932,0.021098504933321906,0.9997265943423934,215.99141055420813,23.24935829601729,623.5670187991567,-34.47988812059651,-98.8013687133789,4381.2578125,True
1599569902.7533183,0.0,10,0.5,0.5,3.351213159561157,-0.15025,-0.001,-0.12575,0.236528058237359,10,1,100,-0.00744271974208123,-10,-1,-100,6424.18632327707,-0.00896052414149867,0.021155694744358976,0.999736037955516,227.22281238839486,24.498740720760306,663.7519474443525,-34.858583877124246,-106.22526550292969,4381.2578125,True
1599569902.8181427,0.0,10,0.5,0.5,4.420931244659424,-0.15025,-0.001,-0.12575,0.22569755084883608,10,1,100,-0.02103023475043657,-10,-1,-100,6422.749283835641,-0.00782896978108245,0.021105125022030415,0.9997466083613243,235.82549761711917,25.47208438911412,696.915217049852,-35.23675811594303,-113.46134948730469,4381.2578125,True
1599569902.8809745,0.0,10,0.5,0.5,5.4471609428405765,-0.15025,-0.001,-0.12575,0.21530906946597328,10,1,100,-0.023465230727776162,-10,-1,-100,6421.3664429622,-0.006787763451444996,0.0209610296079383,0.9997572512890829,243.0211060350637,26.29188426560561,726.4367915443069,-35.61447180602123,-120.45260620117188,4381.2578125,True
1599569902.9428394,0.0,10,0.5,0.5,6.4239198654174805,-0.15025,-0.001,-0.12575,0.2045841398906021,10,1,100,-0.028928314713366682,-10,-1,-100,6419.929401819827,-0.005800980365784255,0.02073000525164903,0.9997682809076623,247.95399420141837,26.857725676982817,749.5916792969401,-35.99182626749206,-127.15349578857422,4381.2578125,True
1599569903.0056746,0.0,10,0.5,0.5,8.208081592178345,-0.15025,-0.001,-0.12575,0.1745202156795,10,1,100,-0.07799486185464334,-10,-1,-100,6417.70474729687,-0.004467757829459302,0.020244680616749496,0.999785072926528,251.12058830935507,27.221547814474228,771.9389400210779,-36.55746999033326,-136.6460723876953,4381.2578125,True
1599569903.0694716,0.0,10,0.5,0.5,8.665033149719237,-0.15025,-0.001,-0.12575,0.1788924568390619,10,1,100,-0.03159381228699175,-10,-1,-100,6416.267216726672,-0.003687793171083429,0.019842289601147204,0.9997963211199126,250.80987929788228,27.18334185870678,779.5088811514129,-36.934482175589594,-142.60057067871094,4381.2578125,True
1599569903.1308541,0.0,10,0.5,0.5,9.484198564147949,-0.15025,-0.001,-0.12575,0.17070072812350243,10,1,100,-0.029980390020449832,-10,-1,-100,6414.767186867539,-0.0030033962291195026,0.01940194301804544,0.9998072535335076,248.89693035676447,26.95987754481755,782.0529144377518,-37.31154030466233,-148.2555389404297,4381.2578125,True
1599569903.1952913,0.0,10,0.5,0.5,10.258296374511719,-0.15025,-0.001,-0.12575,0.1619248973173874,10,1,100,-0.0276179462436026,-10,-1,-100,6413.26081001095,-0.0024122902018771162,0.018922645310855014,0.999818040620603,245.66780214588698,26.58660355077011,780.3234935391213,-37.68871227668091,-153.61106872558594,4381.2578125,True
1599569903.257088,0.0,10,0.5,0.5,10.299509822082518,-0.15025,-0.001,-0.12575,0.1817311105326585,10,1,100,0.0020889400670507825,-10,-1,-100,6412.543022869271,-0.002153548902632261,0.018668691309669087,0.9998234055031461,243.64609917654144,26.35471005334236,778.0911909023041,-37.877355092771936,-156.17660522460938,4381.2578125,True
1599569903.3229177,0.0,10,0.5,0.5,11.983627906799315,-0.15025,-0.001,-0.12575,0.12033823810385459,10,1,100,-0.04246352414409785,-10,-1,-100,6410.188000405673,-0.0015215740616358715,0.01788176643753806,0.9998389506522779,236.33375584365405,25.526370828662806,766.9924069181475,-38.443543917104755,-163.4239044189453,4381.2578125,True
1599569903.385781,0.0,10,0.5,0.5,12.309009254455566,-0.15025,-0.001,-0.12575,0.13786592931379696,10,1,100,-0.012892018094556604,-10,-1,-100,6408.694321130635,-0.001223662984140625,0.017328647145232773,0.9998490989329426,230.71851838872755,24.900809029816013,756.7926876056728,-38.821223270668256,-167.8813934326172,4381.2578125,True
1599569903.989724,0.0,10,0.5,0.5,12.902313897705076,-0.15025,-0.001,-0.12575,0.13132225128765307,10,1,100,-0.006861066069847476,-10,-1,-100,6407.122028566897,-0.0010146950786035368,0.016769802577080408,0.9998588620977579,224.76155228190208,24.246900843723992,745.1032188213817,-39.19906486055799,-172.03961181640625,4381.2578125,True
1599569904.0491083,0.0,10,0.5,0.5,12.928145391082762,-0.15025,-0.001,-0.12575,0.1562222533181573,10,1,100,0.005214508043705622,-10,-1,-100,6406.338813034585,-0.0009406969970589201,0.016492066917623706,0.9998635541002305,221.7141404269906,23.916215180349873,738.8834568907748,-39.38803981171562,-174.00653076171875,4381.2578125,True
1599569904.1109078,0.0,10,0.5,0.5,14.191101094818116,-0.15025,-0.001,-0.12575,0.08899069510669363,10,1,100,0.0038768504543716586,-10,-1,-100,6403.928131378721,-0.0008665810052556744,0.015632446664095502,0.9998774303126636,216.11874522322958,23.32254739212191,731.6228151439925,-39.95508475960199,-179.45921325683594,4381.2578125,True
1599569904.1687539,0.0,10,0.5,0.5,-85.38893324508666,-0.15025,-0.001,-0.12575,0.14314108897334255,10,1,100,0.01269676031873496,-10,-1,-100,6403.141499005142,-0.0008838696472565071,0.015347884158391719,0.9998818236303266,219.12550033216138,23.655572139603233,745.6581864986492,-40.144016336007624,178.8726348876953,4381.2578125,True
1599569904.228594,0.0,10,0.5,0.5,-39.10256765060424,-0.15025,-0.001,-0.12575,0.07713287107555875,10,1,100,0.03094089637119623,-10,-1,-100,6400.668321520905,-0.0010687004569907327,0.01449356789637057,0.9998943916079169,226.92255881562178,24.536532948150782,784.1888369901792,-40.71038403940444,174.3157958984375,4381.2578125,True
1599569904.2884343,0.0,10,0.5,0.5,-38.94718681945801,-0.15025,-0.001,-0.12575,0.09989452015637074,10,1,100,0.03713705621579291,-10,-1,-100,6399.039882784593,-0.0012954381850764465,0.013928703305908523,0.9999021517449217,231.22498395248726,25.036589553378157,807.2171753032059,-41.08761970470237,171.56182861328125,4381.2578125,True
1599569904.3502684,0.0,10,0.5,0.5,-38.92964803314209,-0.15025,-0.001,-0.12575,0.12509552394528825,10,1,100,0.03074743728671609,-10,-1,-100,6398.256670335541,-0.0014450286367482543,0.0136492657487624,0.9999058002815859,233.3223110354996,25.283155534185585,818.6581369664792,-41.27613629119169,170.12765502929688,4381.2578125,True
1599569904.4111073,0.0,10,0.5,0.5,-38.29596109161376,-0.15025,-0.001,-0.12575,0.09019951664488834,10,1,100,0.05194665948627707,-10,-1,-100,6396.562804616522,-0.0017746194869596602,0.013082789157318737,0.9999128418785018,237.93279276490944,25.82568992116006,843.2377510837802,-41.652948625813316,167.0609588623047,4381.2578125,True
1599569904.4759665,0.0,10,0.5,0.5,-37.78829682998657,-0.15025,-0.001,-0.12575,0.08482189948083216,10,1,100,0.06544352341162576,-10,-1,-100,6394.8723584025865,-0.002197290776851083,0.012524001101926124,0.9999191573870565,242.51824186705102,26.37043327115632,868.0524280891036,-42.029455947774856,163.70724487304688,4381.2578125,True
1599569904.5401142,0.0,10,0.5,0.5,-36.702629493713374,-0.15025,-0.001,-0.12575,0.04956923112916492,10,1,100,0.10893076563495992,-10,-1,-100,6392.343528553145,-0.0029762616817688554,0.011700403853222784,0.9999271185521839,249.8172373171093,27.239009858914457,907.3993310627177,-42.59360819692291,158.12713623046875,4381.2578125,True
1599569904.604942,0.0,10,0.5,0.5,-36.8830170211792,-0.15025,-0.001,-0.12575,0.10122092903441447,10,1,100,0.06367645061893631,-10,-1,-100,6391.488054612768,-0.00327142091455059,0.011426356556532935,0.9999293655959118,252.18340779396894,27.521615803766604,920.4381913441327,-42.781492336167744,156.12020874023438,4381.2578125,True
1599569904.6697671,0.0,10,0.5,0.5,-35.99961770935059,-0.15025,-0.001,-0.12575,0.06812396839082326,10,1,100,0.10595922849119611,-10,-1,-100,6389.73511540133,-0.0039220848106127585,0.010881198868255467,0.9999331061435699,256.5970142145324,28.050296532986426,945.5833397492518,-43.15701916272732,151.88619995117188,4381.2578125,True
1599569904.7316022,0.0,10,0.5,0.5,-34.65995731811524,-0.15025,-0.001,-0.12575,0.031164080787791662,10,1,100,0.16391407907479472,-10,-1,-100,6387.133542863652,-0.0050377493688714865,0.010054702780747818,0.9999367600169958,262.0743150484395,28.707336138248042,979.5924634616154,-43.71975935571327,144.98519897460938,4381.2578125,True
1599569904.7944343,0.0,10,0.5,0.5,-34.88494262237549,-0.15025,-0.001,-0.12575,0.08409403901258808,10,1,100,0.09796153950081987,-10,-1,-100,6386.288327100803,-0.005448629363558181,0.009789594815860237,0.9999372361660505,263.496201844847,28.87741057470824,989.5376084451107,-43.90721400017009,142.53860473632812,4381.2578125,True
1599569904.859261,0.0,10,0.5,0.5,-33.04190356445312,-0.15025,-0.001,-0.12575,0.017353631996032612,10,1,100,0.20591757333811525,-10,-1,-100,6383.624265667284,-0.0067994253393248594,0.008946909592486962,0.9999368583184636,266.1747781359871,29.194337627327727,1013.6352829549148,-44.46931091953573,134.75938415527344,4381.2578125,True
1599569904.9220924,0.0,10,0.5,0.5,-31.687893956756593,-0.15025,-0.001,-0.12575,0.010405580924100266,10,1,100,0.2400314194590411,-10,-1,-100,6380.901620950666,-0.008332337804864498,0.008122710432679038,0.9999322945689536,265.88816864764937,29.153685361133054,1026.611497432046,-45.03122315173224,126.32354736328125,4381.2578125,True
1599569904.9829338,0.0,10,0.5,0.5,-31.92774960327148,-0.15025,-0.001,-0.12575,0.05919104767442948,10,1,100,0.1493994605568195,-10,-1,-100,6379.990494477679,-0.008895570511135075,0.0078222208877414,0.9999298383815061,265.0008670731617,29.04656774872066,1027.8783713380578,-45.21854162315083,123.365478515625,4381.2578125,True
1599569905.04676,0.0,10,0.5,0.5,-30.601977362060545,-0.15025,-0.001,-0.12575,0.023054525814196064,10,1,100,0.22599864935195352,-10,-1,-100,6378.175570616382,-0.010097183285996467,0.007225832052578718,0.9999229141493042,261.87556134142676,28.676969635077874,1025.072238562901,-45.593277121671875,117.23115539550781,4381.2578125,True
1599569905.110589,0.0,10,0.5,0.5,-29.595118363189698,-0.15025,-0.001,-0.12575,0.017565320223701622,10,1,100,0.24897630855358732,-10,-1,-100,6376.353330039652,-0.01139088037970437,0.006639083021703366,0.9999130814329845,256.7770595385927,28.08682533949033,1014.3159919801731,-45.96822736351459,110.8062744140625,4381.2578125,True
1599569905.173421,0.0,10,0.5,0.5,-28.544316986083984,-0.15025,-0.001,-0.12575,0.010010666027802623,10,1,100,0.27503447561131533,-10,-1,-100,6374.538422623184,-0.012795503265779214,0.006042346062835985,0.999899877562865,249.51740536711014,27.264098740869947,994.6533913501834,-46.343481727689074,104.09091186523438,4381.2578125,True
1599569905.2352564,0.0,10,0.5,0.5,-27.44989199371338,-0.15025,-0.001,-0.12575,0.003303034585394493,10,1,100,0.3042854900837463,-10,-1,-100,6372.663955653552,-0.014329424892338436,0.005444023139653189,0.9998825081949928,239.94812196174968,26.202112391251404,965.2453904606607,-46.71910595409463,97.08555603027344,4381.2578125,True
1599569905.2970908,0.0,10,0.5,0.5,-27.328219153594972,-0.15025,-0.001,-0.12575,0.030394256741329926,10,1,100,0.2413434074035441,-10,-1,-100,6371.684002973372,-0.015141645615774265,0.0051518155321926785,0.9998720865014528,234.26370278649458,25.580480235620644,946.665530093331,-46.90706841964793,93.47434997558594,4381.2578125,True
1599569905.3629215,0.0,10,0.5,0.5,-25.723231758880612,-0.15025,-0.001,-0.12575,-0.0036059693690948247,10,1,100,0.35160262979978774,-10,-1,-100,6369.789048217004,-0.016872185058131633,0.00458228781834841,0.9998471543239568,239.3451124817917,26.152220524300535,975.9859220994972,-47.282868150658736,86.03501892089844,4381.2578125,True
1599569905.4287446,0.0,10,0.5,0.5,-23.423532389068605,-0.15025,-0.001,-0.12575,-0.033147222574345256,10,1,100,0.4934920200295909,-10,-1,-100,6366.890740677132,-0.019724547702646304,0.0038009534265898886,0.9997982271293417,258.6061605604311,28.321522213690812,1068.7671970957388,-47.84533515966102,74.33465576171875,4381.2578125,True
1599569905.4945683,0.0,10,0.5,0.5,-22.635787422180172,-0.15025,-0.001,-0.12575,-0.00502262265953788,10,1,100,0.43877001545836125,-10,-1,-100,6364.919659665553,-0.021807153775794747,0.0033517718345706365,0.9997565772075561,269.02128535710045,29.515438447352416,1121.644014259988,-48.219483978087794,66.17434692382812,4381.2578125,True
1599569905.557401,0.0,10,0.5,0.5,-21.323642442321777,-0.15025,-0.001,-0.12575,0.00042170545058514003,10,1,100,0.4811856756630059,-10,-1,-100,6362.971550548216,-0.02407238554557513,0.002998005313515995,0.9997057228096103,278.33698566548617,30.5833371188854,1170.613873359137,-48.59302913918332,57.727081298828125,4381.2578125,True
1599569905.6211722,0.0,10,0.5,0.5,-21.183693257141115,-0.15025,-0.001,-0.12575,0.02081057533068397,10,1,100,0.3877915416355173,-10,-1,-100,6361.999459498911,-0.02526834043808857,0.0028664115706664587,0.9996765950327198,281.89176643172493,30.98952265682073,1190.6822169193429,-48.77961971826601,53.39616394042969,4381.2578125,True
1599569905.6859996,0.0,10,0.5,0.5,-18.017149637603755,-0.15025,-0.001,-0.12575,0.010694478856010797,10,1,100,0.6861768391868206,-10,-1,-100,6359.0851807015715,-0.02905328143636086,0.0026593216631399194,0.9995743268242095,287.31419543125094,31.590405498928824,1229.2502993167113,-49.339003997941695,39.97529602050781,4381.2578125,True
1599569905.751823,0.0,10,0.5,0.5,-17.129497179412837,-0.15025,-0.001,-0.12575,0.03644113750717446,10,1,100,0.6066385758947468,-10,-1,-100,6357.079053120338,-0.031753828951998304,0.0027092700171167704,0.9994920480938614,285.9728235272049,31.411215207759078,1233.9888421394508,-49.711936535753104,30.672393798828125,4381.2578125,True
1599569905.8166497,0.0,10,0.5,0.5,-15.64563868713379,-0.15025,-0.001,-0.12575,0.06105015008195096,10,1,100,0.6512346488618885,-10,-1,-100,6355.073445328046,-0.03459577922175882,0.002981968465052409,0.9993969381202409,280.2106109319068,30.731978116329678,1219.5197670666246,-50.085188521418445,21.086578369140625,4381.2578125,True
1599569905.880512,0.0,10,0.5,0.5,-14.11916653137207,-0.15025,-0.001,-0.12575,0.08986524799022719,10,1,100,0.6913119907681244,-10,-1,-100,6353.067871911684,-0.03752389141527418,0.0034946137419762133,0.9992896203042685,269.7939789528441,29.550153802575462,1184.3462512565584,-50.45897623844937,11.218505859375,4381.2578125,True
1599569905.961263,0.0,10,0.5,0.5,-13.960472854614258,-0.15025,-0.001,-0.12575,0.07552876977000136,10,1,100,0.5642927141275628,-10,-1,-100,6352.033848280902,-0.03901000501580764,0.0038320954729936887,0.9992314719588014,262.8118676703319,28.775737163572902,1158.6981890258915,-50.646114206969045,6.1785888671875,4381.2578125,True
1599569906.0240946,0.0,10,0.5,0.5,-11.745285179138184,-0.15025,-0.001,-0.12575,0.14106657802478978,10,1,100,0.7475347494650572,-10,-1,-100,6350.027349208016,-0.042005155556269796,0.004735895049016015,0.9991061696360294,258.2141206637508,28.286186460746425,1148.3245417061194,-51.0206416017239,-4.112091064453125,4381.2578125,True
1599569906.0869262,0.0,10,0.5,0.5,-7.116858381652833,-0.15025,-0.001,-0.12575,0.33725825807391185,10,1,100,1.1003651453479721,-10,-1,-100,6345.890902076848,-0.0479127205824454,0.00734095211200045,0.9988245499728559,291.3904965210149,32.061300482461746,1318.1517397717892,-51.76706604223088,-25.537689208984375,4381.2578125,True
1599569906.153257,0.0,10,0.5,0.5,-8.274371925354004,-0.15025,-0.001,-0.12575,0.16932246356905922,10,1,100,0.6660762575493064,-10,-1,-100,6344.857413771446,-0.04930952783272645,0.008179278584046358,0.9987500537505657,297.2924900185187,32.74886583754982,1350.4766592203894,-51.953112391430935,-31.0694580078125,4381.2578125,True
1599569906.2160885,0.0,10,0.5,0.5,-7.414118301391601,-0.15025,-0.001,-0.12575,0.18371205700115853,10,1,100,0.6789039039857997,-10,-1,-100,6343.822464153869,-0.05067096541508013,0.009067819401880381,0.9986742351313558,302.3632601247831,33.339624003496326,1379.2107961795734,-52.13897959434864,-36.67144775390625,4381.2578125,True
1599569906.8181596,0.0,10,0.5,0.5,-3.354563717651367,-0.15025,-0.001,-0.12575,0.42129231445743737,10,1,100,0.9488651691438266,-10,-1,-100,6340.65803560731,-0.054338648736956895,0.012029886291251696,0.998450095442562,308.1829658205669,34.01623298649928,1423.153101582091,-52.69603132263647,-53.89813232421875,4381.2578125,True
1599569906.8761268,0.0,10,0.5,0.5,-2.2437164596557615,-0.15025,-0.001,-0.12575,0.3646244495866997,10,1,100,0.8260778490682616,-10,-1,-100,6338.527574372827,-0.05653023038497712,0.014199181533018381,0.9982999130003036,303.4229311593183,33.4629328465056,1412.706331130605,-53.067538097937884,-65.73281860351562,4381.2578125,True
1599569906.936963,0.0,10,0.5,0.5,-0.3774853775024414,-0.15025,-0.001,-0.12575,0.3924839937364917,10,1,100,0.8101829915500872,-10,-1,-100,6336.397096228437,-0.05835309958851336,0.016414045917922677,0.9981610565760503,291.35396612358073,32.09349076949029,1367.7899376065309,-53.439674584934004,-77.84829711914062,4381.2578125,True
1599569906.996802,0.0,10,0.5,0.5,-0.18907563018798823,-0.15025,-0.001,-0.12575,0.2918590082352806,10,1,100,0.7170709288170898,-10,-1,-100,6335.3621180800255,-0.05913959895721314,0.017500327512460296,0.9980963111704886,282.55771231698446,31.114289353825725,1332.0419893055646,-53.62607584379665,-84.01162719726562,4381.2578125,True
1599569907.0576396,0.0,10,0.5,0.5,2.5067344833374023,-0.15025,-0.001,-0.12575,0.42140514459179745,10,1,100,0.7977015054631907,-10,-1,-100,6333.170552978991,-0.060565291062145254,0.019652349875237913,0.9979707564167092,265.6066272692756,29.269925591700467,1262.6570620548637,-53.9994888083397,-96.54908752441406,4381.2578125,True
1599569907.1190352,0.0,10,0.5,0.5,6.219017098236084,-0.15025,-0.001,-0.12575,0.5344057749403722,10,1,100,0.8363580708875635,-10,-1,-100,6329.94246508053,-0.06219185138898978,0.02262132344808346,0.9978078218506141,298.8590231101854,33.077092618110974,1438.437253013125,-54.557785461657446,-115.672607421875,4381.2578125,True
1599569907.181868,0.0,10,0.5,0.5,9.095806065368652,-0.15025,-0.001,-0.12575,0.5108245687735402,10,1,100,0.8083406195723588,-10,-1,-100,6326.6532668748405,-0.06339476408655277,0.02508893461463086,0.9976731174319138,317.4943421545512,35.27557578762808,1546.6095370737025,-55.113685569900106,-134.76458740234375,4381.2578125,True
1599569907.242707,0.0,10,0.5,0.5,6.708054832458496,-0.15025,-0.001,-0.12575,0.2660987560753618,10,1,100,0.6901883106690877,-10,-1,-100,6326.6532668748405,-0.06339476408655277,0.02508893461463086,0.9976731174319138,317.4943421545512,35.27557578762808,1546.6095370737025,-55.113685569900106,-134.76458740234375,4381.2578125,True
1599569907.3035808,0.0,10,0.5,0.5,11.821111433410644,-0.15025,-0.001,-0.12575,0.46422269213026657,10,1,100,0.810885585396004,-10,-1,-100,6323.301018258557,-0.06447793745361191,0.02687392677649124,0.9975572102096901,318.8071735420809,35.43920283946695,1571.5709774426223,-55.66881236855218,-153.25057983398438,4381.2578125,True
1599569907.3654153,0.0,10,0.5,0.5,12.804468316650391,-0.15025,-0.001,-0.12575,0.3804781680097989,10,1,100,0.7839493719538216,-10,-1,-100,6321.045335842413,-0.06520397638362685,0.027718337933276018,0.9974869097917927,309.663363741746,34.39223096080131,1538.7758333123568,-56.03942082400662,-165.19171142578125,4381.2578125,True
1599569907.4282472,0.0,10,0.5,0.5,12.93166396331787,-0.15025,-0.001,-0.12575,0.3324791110949946,10,1,100,0.7549465390871826,-10,-1,-100,6319.948743047891,-0.06558713782942685,0.02803267435973542,0.9974530046671798,302.39960398507003,33.57352089285001,1508.7775644456303,-56.22503135426706,-171.04656982421875,4381.2578125,True
1599569907.491146,0.0,10,0.5,0.5,-83.98465613555908,-0.15025,-0.001,-0.12575,0.341694320465625,10,1,100,0.825090538861186,-10,-1,-100,6317.69208852353,-0.066562913242561,0.02838766138891471,0.9973783230357133,283.18180009663877,31.450638509851224,1424.4646546325735,-56.5969668960865,177.47439575195312,4381.2578125,True
1599569907.5539775,0.0,10,0.5,0.5,-37.09949119262695,-0.15025,-0.001,-0.12575,0.3230422031985022,10,1,100,0.8533722946726906,-10,-1,-100,6315.374910165789,-0.06769796805018974,0.02852791354950759,0.9972979210197861,288.7572049817138,32.14941627448462,1464.382224871467,-56.96900819773674,166.30419921875,4381.2578125,True
1599569907.616835,0.0,10,0.5,0.5,-34.03907769927978,-0.15025,-0.001,-0.12575,0.2895430365453583,10,1,100,0.9818355961619905,-10,-1,-100,6311.96024645248,-0.06988918891751707,0.028339865028080186,0.997152121455218,314.15398718085197,35.18121717714085,1612.338572236846,-57.52475615265056,150.0379638671875,4381.2578125,True
1599569907.6806643,0.0,10,0.5,0.5,-33.08195546722412,-0.15025,-0.001,-0.12575,0.2735825883568179,10,1,100,0.9683798821068288,-10,-1,-100,6309.641715453356,-0.07174911086007653,0.02801396271823616,0.9970292287508977,325.62392175525997,36.59043385004038,1684.2374089418204,-57.89401694784578,139.0741729736328,4381.2578125,True
1599569907.7454922,0.0,10,0.5,0.5,-31.385552693939207,-0.15025,-0.001,-0.12575,0.2581046722284498,10,1,100,1.02791176127931,-10,-1,-100,6307.323254492134,-0.07397098078233684,0.02756937809644461,0.9968792421319016,331.2531830758083,37.29570584767987,1726.5390457948877,-58.262712620355785,127.84713745117188,4381.2578125,True
