Timestamp,Input Throttle,horizon,dT,dt,Input Roll,Roll P,Roll I,Roll D,Input Pitch,Pitch P,Pitch I,Pitch D,Input Yaw,Yaw P,Yaw I,Yaw D,Altitude,Direction X,Direction Y,Direction Z,Drag X,Drag Y,Drag Z,Vertical Velocity,Roll,Mass,Has Fuel
1599567718.3385487,0.0,10,0.5,0.5,-2.744913185119629,-0.05075,-0.02275,-0.5,-0.06718406146150811,10,1,100,0.6903661138561303,-10,-1,-100,6483.617967386148,-0.06725828260812566,-0.007002337599088667,0.9977110256425724,205.07315181057845,21.4987698125621,-156.76518451578048,9.590823939147793,-35.944610595703125,4381.2578125,True
1599567718.3914084,0.0,10,0.5,0.5,-2.8681190467834474,-0.05075,-0.02275,-0.5,-0.06736759220447631,10,1,100,0.6999024707535209,-10,-1,-100,6483.997882971773,-0.06744549912095704,-0.006971828348667583,0.9976986009100152,204.61206537412806,21.456732915375067,-150.26665849545867,9.210801673160807,-35.9412841796875,4381.2578125,True
1599567718.4452636,0.0,10,0.5,0.5,-2.9903806404113773,-0.05075,-0.02275,-0.5,-0.06930105382083122,10,1,100,0.6985928864995093,-10,-1,-100,6484.156591720646,-0.06754247654929368,-0.006955331564480126,0.9976921555391806,204.3811675475087,21.435609819272287,-147.0254909117581,9.020797893745195,-35.9395751953125,4381.2578125,True
1599567718.4991205,0.0,10,0.5,0.5,-3.0329634513854984,-0.05075,-0.02275,-0.5,-0.03711017439405679,10,1,100,0.6998142584980769,-10,-1,-100,6484.538936120924,-0.06758033897817825,-0.006641367100825871,0.9976917309603336,203.9424350964141,21.395607487932253,-140.57584365236912,8.640801012518544,-36.084014892578125,4381.2578125,True
1599567718.5529785,0.0,10,0.5,0.5,-2.8236540557861334,-0.05075,-0.02275,-0.5,0.002014154849293792,10,1,100,0.6991246768351932,-10,-1,-100,6485.016949259676,-0.06754705377206693,-0.005994231534290791,0.9976980829464526,203.4468985108951,21.35170376093144,-131.04555610646347,8.070816380839517,-36.817901611328125,4381.2578125,True
1599567718.6083415,0.0,10,0.5,0.5,-3.0966852760314945,-0.05075,-0.02275,-0.5,-0.02814495965284227,10,1,100,0.7015829944687269,-10,-1,-100,6485.17562361958,-0.06747773642338689,-0.005674650940610783,0.9977046423786341,203.31781400411157,21.340459625292773,-127.89879611389205,7.880820430221938,-37.208099365234375,4381.2578125,True
1599567718.6631958,0.0,10,0.5,0.5,-2.8608499984741216,-0.05075,-0.02275,-0.5,0.026946459174591056,10,1,100,0.6879454908801745,-10,-1,-100,6485.4939286325825,-0.06722939994976057,-0.004878133274342644,0.9977256193955094,203.0866405092379,21.320021233429937,-121.62918408941765,7.500821167877511,-38.2086181640625,4381.2578125,True
1599567718.7200425,0.0,10,0.5,0.5,-2.348996406555176,-0.05075,-0.02275,-0.5,0.12158162320876996,10,1,100,0.6478245383828795,-10,-1,-100,6485.9093234438915,-0.06657778595107963,-0.0032892719653569436,0.9977758160567883,202.70956528996183,21.283854714548422,-112.2244094171483,6.930788282409054,-40.26025390625,4381.2578125,True
1599567718.7788844,0.0,10,0.5,0.5,-3.030420098876953,-0.05075,-0.02275,-0.5,0.03234484620572082,10,1,100,0.687516254117628,-10,-1,-100,6486.005458335159,-0.0662857181080937,-0.0026531057736109745,0.9977971560415716,202.54246178071068,21.266751011264194,-109.07220854744604,6.740764002947811,-41.091033935546875,4381.2578125,True
1599567718.8417172,0.0,10,0.5,0.5,-1.941283600616455,-0.05075,-0.02275,-0.5,0.20470089580689776,10,1,100,0.5957677705071195,-10,-1,-100,6486.420287455665,-0.06512586501973086,-0.0005054877794915657,0.9978769293793381,201.769235724486,21.184572778307317,-99.50417204753913,6.170633422658799,-44.02484130859375,4381.2578125,True
1599567718.90455,0.0,10,0.5,0.5,-2.893119792938233,-0.05075,-0.02275,-0.5,0.07726490113038828,10,1,100,0.6654205608694896,-10,-1,-100,6486.517861345084,-0.06464545497449553,0.0002888427069937118,0.9979082531580902,201.3781678222258,21.14238953070656,-96.2641366643619,5.980565356299863,-45.14996337890625,4381.2578125,True
1599567718.9643893,0.0,10,0.5,0.5,-1.3327688705444336,-0.05075,-0.02275,-0.5,0.2877306208976235,10,1,100,0.5233082726309475,-10,-1,-100,6486.869141377625,-0.06291916397450724,0.002917657710495119,0.9980143616593067,199.59694139060332,20.94972823124519,-86.34427369966286,5.410257705557484,-48.966522216796875,4381.2578125,True
1599567719.0212362,0.0,10,0.5,0.5,-1.6072522911071783,-0.05075,-0.02275,-0.5,0.23474143753318244,10,1,100,0.5397629264984496,-10,-1,-100,6487.061797031201,-0.0615035111325374,0.004816779241220422,0.9980952443309762,197.7406868081969,20.74932501795974,-79.54539114500844,5.029942545585037,-51.87921142578125,4381.2578125,True
1599567719.0810766,0.0,10,0.5,0.5,-2.1645015205383302,-0.05075,-0.02275,-0.5,0.1565066325628992,10,1,100,0.5940582962444442,-10,-1,-100,6487.157874239609,-0.060715638242452734,0.005821325941417486,0.9981381284356866,196.55578583927945,20.621714495219337,-76.08676872712908,4.83974385461226,-53.44586181640625,4381.2578125,True
1599567719.1409175,0.0,10,0.5,0.5,-1.060085601806641,-0.05075,-0.02275,-0.5,0.2719864023279392,10,1,100,0.479822768488757,-10,-1,-100,6487.351967681432,-0.05896712599981108,0.0077730365821495045,0.9982296619283637,193.58334668471772,20.302608313763347,-69.05830267171072,4.4592462831801365,-56.801727294921875,4381.2578125,True
1599567719.1987627,0.0,10,0.5,0.5,0.3842192840576173,-0.05075,-0.02275,-0.5,0.41825740641314085,10,1,100,0.31956810222311316,-10,-1,-100,6487.578628085321,-0.05592850874751487,0.010864539685301863,0.9983756626073702,187.29167738105627,19.631198959988485,-58.273209857132024,3.8881866884045473,-62.38824462890625,4381.2578125,True
1599567719.2556124,0.0,10,0.5,0.5,-0.0969704719543456,-0.05075,-0.02275,-0.5,0.3366236996336466,10,1,100,0.3685275224544584,-10,-1,-100,6487.770738394698,-0.05362171436359952,0.012917836816875958,0.9984777620161007,181.66195525187382,19.033806893613857,-50.991914385224746,3.507225549229662,-66.48226928710938,4381.2578125,True
1599567719.3134558,0.0,10,0.5,0.5,0.304575633239746,-0.05075,-0.02275,-0.5,0.350412492439369,10,1,100,0.32315439012010405,-10,-1,-100,6487.839796416811,-0.05112451616207885,0.01489364508009423,0.9985812251306458,174.75788601668398,18.30448506672616,-43.72844823244271,3.1260040928517667,-70.81134033203125,4381.2578125,True
1599567719.3772848,0.0,10,0.5,0.5,0.5870566879272459,-0.05075,-0.02275,-0.5,0.3653039254389636,10,1,100,0.27554767417176373,-10,-1,-100,6487.969401552109,-0.04843559607915606,0.016808681149338565,0.9986848658463173,166.7867293695055,17.46557497019664,-36.645044516069156,2.744467161267515,-75.12820434570312,4381.2578125,True
1599567719.43513,0.0,10,0.5,0.5,-0.30304136505126955,-0.05075,-0.02275,-0.5,0.2778056702888511,10,1,100,0.38673953114902704,-10,-1,-100,6488.003931671497,-0.047018185723591316,0.01773649181372062,0.9987365553885587,162.51260756567248,17.01657593528355,-33.22466889272259,2.5535888723567943,-77.29052734375,4381.2578125,True
1599567719.493973,0.0,10,0.5,0.5,2.206776940917969,-0.05075,-0.02275,-0.5,0.4690523251830606,10,1,100,0.036315492207301014,-10,-1,-100,6488.167100724415,-0.04256041930024053,0.020301978389839652,0.9988876014759851,148.68435121463128,15.56622905478735,-23.58125509264246,1.9806387446730547,-83.67327880859375,4381.2578125,True
1599567719.5508733,0.0,10,0.5,0.5,0.23768625183105474,-0.05075,-0.02275,-0.5,0.30101623127333016,10,1,100,0.30885594646467107,-10,-1,-100,6488.200662215473,-0.04100562216832886,0.021088444300147727,0.9989363425502086,144.56808391387602,15.135041065068014,-20.71789144974991,1.789591688096431,-85.73345947265625,4381.2578125,True
1599567719.607706,0.0,10,0.5,0.5,1.5650677436828615,-0.05075,-0.02275,-0.5,0.3895911843038551,10,1,100,0.10385852766888404,-10,-1,-100,6488.269255973166,-0.03774847873372581,0.022592121258351066,0.9990318555533338,150.4604544411554,15.7517471545829,-16.95988912750015,1.4074554374418304,-89.862060546875,4381.2578125,True
1599567719.6645544,0.0,10,0.5,0.5,1.792640495300293,-0.05075,-0.02275,-0.5,0.38085084952796483,10,1,100,0.07362836152128144,-10,-1,-100,6488.273414170137,-0.034534215039471024,0.023863483320557707,0.999118572620596,155.86008530037728,16.316098385727376,-12.799992690528361,1.0253224950412303,-93.86653137207031,4381.2578125,True
1599567719.7209792,0.0,10,0.5,0.5,3.027635722732544,-0.05075,-0.02275,-0.5,0.44212754601359594,10,1,100,-0.1716348907933442,-10,-1,-100,6488.311663984088,-0.029406292499290967,0.025559925929361172,0.999240691799494,163.2614379272534,17.087230178452863,-5.914273775249016,0.4521977689441674,-99.57742309570312,4381.2578125,True
1599567719.777827,0.0,10,0.5,0.5,1.257662813949585,-0.05075,-0.02275,-0.5,0.32608953659066364,10,1,100,0.15102748726627868,-10,-1,-100,6488.345257428242,-0.02770471256648796,0.02603108558865838,0.999277154489526,165.43548486004187,17.313246880707826,-3.4615187111536176,0.2611697530901784,-101.37162780761719,4381.2578125,True
1599567719.8356404,0.0,10,0.5,0.5,2.307961674499512,-0.05075,-0.02275,-0.5,0.37192992599619124,10,1,100,-0.05915651615538525,-10,-1,-100,6488.350448294077,-0.02427271604754376,0.026862355595430317,0.9993444096544193,169.54438864303447,17.740515563720237,1.6423985318233227,-0.12090027863465691,-104.74650573730469,4381.2578125,True
1599567719.8948348,0.0,10,0.5,0.5,2.4053807285308837,-0.05075,-0.02275,-0.5,0.364058619520679,10,1,100,-0.08427707075686722,-10,-1,-100,6488.35566393577,-0.020951031441504703,0.027533821434737826,0.999401292253886,173.6091643353691,18.164141766185992,6.998264608868456,-0.5030316301172499,-107.8292236328125,4381.2578125,True
1599567719.952683,0.0,10,0.5,0.5,3.190928509140015,-0.05075,-0.02275,-0.5,0.3777037902893182,10,1,100,-0.3137113946108103,-10,-1,-100,6488.270021317061,-0.015872982023452054,0.028256800862591695,0.9994746628337783,179.2822267648462,18.75682012140258,15.467152191844013,-1.0763780305881396,-111.90129089355469,4381.2578125,True
1599567720.011525,0.0,10,0.5,0.5,3.115852625656128,-0.05075,-0.02275,-0.5,0.35261982589545726,10,1,100,-0.34386234122574355,-10,-1,-100,6488.182963823434,-0.011012076323319074,0.0286756114664117,0.9995281104011418,183.27014200637603,19.173918732607284,24.241456558722486,-1.6499395162297048,-115.3099136352539,4381.2578125,True
1599567720.0733566,0.0,10,0.5,0.5,2.04241949672699,-0.05075,-0.02275,-0.5,0.3223473515191707,10,1,100,-0.030517050186893296,-10,-1,-100,6488.15411871043,-0.00947439752300616,0.02877119941223393,0.9995411216533103,184.32367060625518,19.28426222337169,27.208672332107437,-1.8411784956445538,-116.29835510253906,4381.2578125,True
1599567720.1302063,0.0,10,0.5,0.5,2.1261768846511844,-0.05075,-0.02275,-0.5,0.32097074285594174,10,1,100,-0.04687830243288821,-10,-1,-100,6488.124303047312,-0.00795784724937377,0.028837883628749877,0.9995524244055288,185.24521233530308,19.38088826335847,30.187551064109737,-2.032443847832236,-117.21302795410156,4381.2578125,True
1599567720.187056,0.0,10,0.5,0.5,2.6258533239364628,-0.05075,-0.02275,-0.5,0.32323979359337524,10,1,100,-0.2213201043852287,-10,-1,-100,6488.003163629561,-0.005023374050976644,0.02891208843289686,0.999569335691923,186.7695822828364,19.541068872657405,36.1710263446805,-2.415051710083433,-118.82064819335938,4381.2578125,True
1599567720.2478983,0.0,10,0.5,0.5,2.911470545768738,-0.05075,-0.02275,-0.5,0.30368019698998633,10,1,100,-0.4026366507877672,-10,-1,-100,6487.853711265605,-0.0007370889984859509,0.028795987406477357,0.9995850378077367,188.40580649340873,19.71391799757861,45.17244026520101,-2.9891451363382173,-120.67910766601562,4381.2578125,True
1599567720.3102772,0.0,10,0.5,0.5,2.5220110612869266,-0.05075,-0.02275,-0.5,0.2984851810431833,10,1,100,-0.270271957949108,-10,-1,-100,6487.733585469774,0.0019254937270259732,0.02863872950650149,0.9995879729399312,189.1604718428714,19.79432198332669,51.17066402263232,-3.3719832605526205,-121.54841613769531,4381.2578125,True
1599567720.3671262,0.0,10,0.5,0.5,2.315660601615906,-0.05075,-0.02275,-0.5,0.30308309265035166,10,1,100,-0.14828457301793643,-10,-1,-100,6487.6408131609205,0.0032085638088204197,0.028534768063336654,0.9995876510490994,189.45516832001292,19.8259643155458,54.164877820958544,-3.563431569401343,-121.8721923828125,4381.2578125,True
1599567720.4244845,0.0,10,0.5,0.5,2.4907449884414676,-0.05075,-0.02275,-0.5,0.27380668021691157,10,1,100,-0.419676956568811,-10,-1,-100,6487.4284303743625,0.006814091664209405,0.028171832381542184,0.9995798697528165,190.07507445955136,19.893601243530828,63.11950289965772,-4.137879870381074,-122.39935302734375,4381.2578125,True
1599567720.4813323,0.0,10,0.5,0.5,2.2826954038619993,-0.05075,-0.02275,-0.5,0.293393096851377,10,1,100,-0.18765844439663992,-10,-1,-100,6487.336645310628,0.00795432432416897,0.028018758752236795,0.9995757489467868,190.20475156485568,19.908233184376197,66.0921330205537,-4.3293933174263515,-122.42726135253906,4381.2578125,True
1599567720.5401757,0.0,10,0.5,0.5,2.103530172920227,-0.05075,-0.02275,-0.5,0.2521690499684457,10,1,100,-0.4275060964043021,-10,-1,-100,6487.0603218805045,0.0111450550735058,0.027504395992734795,0.9995595509765707,190.4168013550988,19.934177400022847,74.9696404432606,-4.904008574985722,-122.06698608398438,4381.2578125,True
1599567720.5980196,0.0,10,0.5,0.5,1.9707402841567996,-0.05075,-0.02275,-0.5,0.2610313866840599,10,1,100,-0.3240370890398204,-10,-1,-100,6486.81328616105,0.013080530199501304,0.02711804418593843,0.9995466529428375,190.41902293588424,19.937540595074932,80.84421974629001,-5.287134528054134,-121.4568099975586,4381.2578125,True
1599567720.6548696,0.0,10,0.5,0.5,1.7906407045364379,-0.05075,-0.02275,-0.5,0.2547472472876127,10,1,100,-0.32814359855819236,-10,-1,-100,6486.628753131838,0.014855482576461672,0.02671110270095628,0.9995328066801606,190.25141100933865,19.923818668738683,86.64510935049077,-5.670287678776041,-120.55046081542969,4381.2578125,True
1599567720.7127135,0.0,10,0.5,0.5,1.9426246812820436,-0.05075,-0.02275,-0.5,0.27333484095369315,10,1,100,-0.24214359287135934,-10,-1,-100,6486.474475474213,0.01566513934009128,0.02651200683585622,0.999525745993064,190.0856452454101,19.90869415792681,89.50439810938668,-5.861871434008995,-119.98602294921875,4381.2578125,True
1599567720.769561,0.0,10,0.5,0.5,1.0544215566635131,-0.05075,-0.02275,-0.5,0.21835739434520257,10,1,100,-0.41146346535858525,-10,-1,-100,6486.136150677805,0.017918987069102554,0.025833330059136152,0.9995056522904076,189.21054773348393,19.82533820449872,97.86141096686256,-6.436639318828222,-117.84942626953125,4381.2578125,True
1599567720.82641,0.0,10,0.5,0.5,1.132280689430237,-0.05075,-0.02275,-0.5,0.23247888513511278,10,1,100,-0.33237247078618726,-10,-1,-100,6485.826124295127,0.019228073816527295,0.025347527231456876,0.9994937638827752,188.22542950490208,19.729248932961337,103.17189483612376,-6.819824003180995,-116.05509185791016,4381.2578125,True
1599567720.8822603,0.0,10,0.5,0.5,1.4637620738983155,-0.05075,-0.02275,-0.5,0.25218305813310166,10,1,100,-0.2699250770740324,-10,-1,-100,6485.7338537456235,0.01983229895060746,0.025088152106434725,0.9994885014557287,187.58490983062737,19.66622736297197,105.72224123949228,-7.0114168870050255,-115.04707336425781,4381.2578125,True
1599567720.9381115,0.0,10,0.5,0.5,0.04258351097106927,-0.05075,-0.02275,-0.5,0.19368109338715567,10,1,100,-0.37869871140181344,-10,-1,-100,6485.268554893788,0.021354166834365997,0.02432374829272423,0.9994760401469375,185.15787097386988,19.426363334127664,112.95154320495448,-7.5861989797724485,-111.57835388183594,4381.2578125,True
1599567720.995956,0.0,10,0.5,0.5,0.2765859840393068,-0.05075,-0.02275,-0.5,0.20653552317069276,10,1,100,-0.32251709636940934,-10,-1,-100,6484.959974281024,0.022210445134737772,0.023749522387174673,0.9994711883357609,183.1554739415622,19.227891738816254,117.4042681283719,-7.969394496056241,-108.89666748046875,4381.2578125,True
1599567721.053802,0.0,10,0.5,0.5,-0.029709917068481362,-0.05075,-0.02275,-0.5,0.19805376865612218,10,1,100,-0.3148655016079731,-10,-1,-100,6484.586932424223,0.022905323315907666,0.02315441225926477,0.9994694689467617,180.49735296374217,18.96168020544064,121.29638120397433,-8.352607932665038,-105.96172332763672,4381.2578125,True
1599567721.5776024,0.0,10,0.5,0.5,-0.25888846035003654,-0.05075,-0.02275,-0.5,0.1872044673619065,10,1,100,-0.3074363285800196,-10,-1,-100,6484.2758928006515,0.023455900999451867,0.022519195173483778,0.9994712134709246,177.2536753130031,18.63448767663533,124.61641759798587,-8.735855114644595,-102.9491195678711,4381.2578125,True
1599567721.6294632,0.0,10,0.5,0.5,-0.48968892059326175,-0.05075,-0.02275,-0.5,0.17498023392322262,10,1,100,-0.2999978247885984,-10,-1,-100,6483.902343783411,0.02387761172645554,0.021835127701348708,0.9994764063530996,173.92480756682636,18.2982740330022,127.67732751361231,-9.119149841079405,-99.8740234375,4381.2578125,True
1599567721.6823223,0.0,10,0.5,0.5,-0.6931575273513795,-0.05075,-0.02275,-0.5,0.1626507109110829,10,1,100,-0.29041895654234273,-10,-1,-100,6483.528784819297,0.024164088965559327,0.02110596425973791,0.9994851850213344,170.33341633728864,17.933696247363507,130.33558957033395,-9.502504919387809,-96.802001953125,4381.2578125,True
1599567721.7361782,0.0,10,0.5,0.5,-0.04506882190704342,-0.05075,-0.02275,-0.5,0.1927037526515294,10,1,100,-0.27320914794349616,-10,-1,-100,6483.311484697391,0.024259607644401347,0.020721393454496896,0.9994909180629125,168.389045037924,17.735223434843252,131.46686805113515,-9.694209016041794,-95.28789520263672,4381.2578125,True
1599567721.7910323,0.0,10,0.5,0.5,-2.48613680229187,-0.05075,-0.02275,-0.5,0.04616869356141992,10,1,100,-0.27433746774761986,-10,-1,-100,6482.501830664929,0.024348887106745844,0.019044910924714397,0.9995220973367885,161.16553053607961,16.994009381679213,135.8671328971286,-10.461211114737662,-89.58306884765625,4381.2578125,True
1599567721.8438904,0.0,10,0.5,0.5,-0.4344862758636475,-0.05075,-0.02275,-0.5,0.1619857363281456,10,1,100,-0.26112771369275506,-10,-1,-100,6482.284518940258,0.024304116217435123,0.018579889394731833,0.9995319392820666,159.3802523156104,16.809121275893094,136.84752310032584,-10.653005885942193,-88.24588012695312,4381.2578125,True
1599567721.8987932,0.0,10,0.5,0.5,-1.263279408454895,-0.05075,-0.02275,-0.5,0.10372297431957435,10,1,100,-0.24717214872462046,-10,-1,-100,6481.848425593227,0.024131932052532418,0.01763363347452133,0.9995532526213389,155.71733007289063,16.427106025021814,138.5628489876375,-11.036642210494211,-85.64193725585938,4381.2578125,True
1599567721.951652,0.0,10,0.5,0.5,-0.6964562826156617,-0.05075,-0.02275,-0.5,0.14432351345079142,10,1,100,-0.2508194977848419,-10,-1,-100,6481.631109514274,0.024004649954893858,0.017149273465188224,0.9995647448765684,153.8950673250055,16.235747585606216,139.34491154794856,-11.228480523548498,-84.4285888671875,4381.2578125,True
1599567722.0075033,0.0,10,0.5,0.5,-1.4169046686172486,-0.05075,-0.02275,-0.5,0.07438299408233251,10,1,100,-0.2290290376233629,-10,-1,-100,6481.195007885341,0.02368843433455397,0.016079645530469897,0.9995900675168757,154.95204687299443,16.346429102257883,145.14564939530797,-11.612165733863947,-82.13107299804688,4381.2578125,True
1599567722.0623565,0.0,10,0.5,0.5,-1.9898939302444458,-0.05075,-0.02275,-0.5,-0.003681984948554401,10,1,100,-0.18949878854122637,-10,-1,-100,6480.476636747015,0.02304025606149845,0.014404547486678541,0.9996307596369396,161.94093894325724,17.07654948113631,159.29439731419777,-12.187603584389059,-79.11544799804688,4381.2578125,True
1599567722.1182067,0.0,10,0.5,0.5,-1.4853378818511964,-0.05075,-0.02275,-0.5,0.03136118818256112,10,1,100,-0.19513104109948035,-10,-1,-100,6479.977536483086,0.022502082715845206,0.013208259806944346,0.9996595411170353,165.86944111262713,17.482810774239336,168.355733848578,-12.571154022473959,-77.40472412109375,4381.2578125,True
1599567722.1790452,0.0,10,0.5,0.5,-1.1016561697006226,-0.05075,-0.02275,-0.5,0.0822673438328618,10,1,100,-0.21585598780375595,-10,-1,-100,6479.696735813515,0.02220210993372986,0.012591973272521938,0.9996742011893649,167.62698103370957,17.663271559607193,172.76747004045433,-12.762904196519544,-76.65380859375,4381.2578125,True
1599567722.2398348,0.0,10,0.5,0.5,-1.7769562337875366,-0.05075,-0.02275,-0.5,-0.06502900867147227,10,1,100,-0.13496112188842846,-10,-1,-100,6478.916344259982,0.021195522716024498,0.010701057904306555,0.9997180788484937,172.06369295290492,18.113688596944115,185.4399357087914,-13.338052214180646,-74.84185791015625,4381.2578125,True
1599567722.304055,0.0,10,0.5,0.5,-1.171843417930603,-0.05075,-0.02275,-0.5,0.05087081818268904,10,1,100,-0.19430796725578153,-10,-1,-100,6478.636032127193,0.020822658899858775,0.01004513772856261,0.9997327203229643,173.27793921294352,18.235155615327113,189.47008796076082,-13.529734311996112,-74.38629150390625,4381.2578125,True
1599567722.367882,0.0,10,0.5,0.5,-1.3705377166748047,-0.05075,-0.02275,-0.5,-0.03407819235068249,10,1,100,-0.14299053670549078,-10,-1,-100,6478.074431605171,0.020020294197200514,0.008686288614606496,0.9997618397450271,175.3336949222451,18.43793065739467,197.22955678204886,-13.913049964942577,-73.69827270507812,4381.2578125,True
1599567722.4332223,0.0,10,0.5,0.5,-1.2786097099304201,-0.05075,-0.02275,-0.5,-0.04462161890970909,10,1,100,-0.1284657882420609,-10,-1,-100,6477.5108802700415,0.01916276365685232,0.007364538835300794,0.9997892538214116,176.91494534729318,18.58981905336877,204.57519223535934,-14.296305262497985,-73.30618286132812,4381.2578125,True
1599567722.4990458,0.0,10,0.5,0.5,-1.1683198722839356,-0.05075,-0.02275,-0.5,-0.06948953237467383,10,1,100,-0.1105781387082597,-10,-1,-100,6476.949285949231,0.018225249399465387,0.005947071959486323,0.9998162194220676,178.05474640664067,18.694629944166007,211.50190649943346,-14.679507044786703,-73.21218872070312,4381.2578125,True
1599567722.5678642,0.0,10,0.5,0.5,-1.0384184959411622,-0.05075,-0.02275,-0.5,-0.0813957451949645,10,1,100,-0.09478420641525968,-10,-1,-100,6476.324219266069,0.017234752219770964,0.004560851557211466,0.9998410683448626,178.74432386780987,18.751774546305708,217.9577351706774,-15.062663236464223,-73.4140625,4381.2578125,True
1599567722.637676,0.0,10,0.5,0.5,-0.8898451957702638,-0.05075,-0.02275,-0.5,-0.0986939558187921,10,1,100,-0.0774384246358023,-10,-1,-100,6475.69964610727,0.01618276576544926,0.003154838751206778,0.9998640733042838,178.99238191974194,18.762519465608058,223.91143552412245,-15.445783058792934,-73.91259765625,4381.2578125,True
1599567722.7084866,0.0,10,0.5,0.5,-0.7201410430908204,-0.05075,-0.02275,-0.5,-0.1131969456696015,10,1,100,-0.059978894915513475,-10,-1,-100,6475.07361391501,0.015074514780944273,0.0017565497532672156,0.9998848301364929,178.77919838698693,18.72519287109955,229.29634960728103,-15.82887661154456,-74.707275390625,4381.2578125,True
1599567722.776305,0.0,10,0.5,0.5,-0.1681668128967284,-0.05075,-0.02275,-0.5,-0.20235073976371767,10,1,100,0.0233371126598782,-10,-1,-100,6474.105281202821,0.013316837218236682,-0.0003136129205030687,0.999911277810906,177.53401374933443,18.57377555104418,236.1318979497349,-16.403490859840613,-76.44915771484375,4381.2578125,True
1599567722.8471174,0.0,10,0.5,0.5,0.24068084182739247,-0.05075,-0.02275,-0.5,-0.21766049467948473,10,1,100,0.0531523020388438,-10,-1,-100,6473.13550102897,0.011456251571873374,-0.002322465966139894,0.9999316778919239,175.13142930700283,18.304711406563634,241.27292849971346,-16.97810373294025,-78.77682495117188,4381.2578125,True
1599567722.9189236,0.0,10,0.5,0.5,-0.4439128341674805,-0.05075,-0.02275,-0.5,-0.0875257255024435,10,1,100,-0.0628838768829561,-10,-1,-100,6472.7922248455,0.010829453391161144,-0.0029520940703469402,0.9999370020555537,174.08358479831878,18.190331826705226,242.59581511621326,-17.169645298799693,-79.63821411132812,4381.2578125,True
1599567722.9917314,0.0,10,0.5,0.5,0.5805271736145019,-0.05075,-0.02275,-0.5,-0.2255860421033305,10,1,100,0.0864794477589447,-10,-1,-100,6471.697954719188,0.008911212156791713,-0.004767165086929906,0.9999489309134395,170.55511889382228,17.81125710251367,245.82253788908238,-17.744283309270898,-82.260498046875,4381.2578125,True
1599567723.0655315,0.0,10,0.5,0.5,-0.22813913040161138,-0.05075,-0.02275,-0.5,-0.1119474335103686,10,1,100,-0.030559815869225015,-10,-1,-100,6471.354197387467,0.008242178382842016,-0.005370685657691592,0.9999516099447371,169.3370644496455,17.682071229524528,246.76634735444043,-17.935831392864163,-83.14031982421875,4381.2578125,True
1599567723.1363432,0.0,10,0.5,0.5,0.3412611358642579,-0.05075,-0.02275,-0.5,-0.17509176869711152,10,1,100,0.04811489626933775,-10,-1,-100,6470.603700291249,0.006929448583277501,-0.006480601065288699,0.9999549912631889,168.46280712982832,17.589331107573297,250.8694093175375,-18.318914330100156,-84.93392944335938,4381.2578125,True
1599567723.2121444,0.0,10,0.5,0.5,0.41256959075927735,-0.05075,-0.02275,-0.5,-0.1812597222802095,10,1,100,0.06392406936217246,-10,-1,-100,6469.915221507195,0.005603459296532695,-0.007533100886677332,0.9999559258462061,172.5746880663128,18.020596323481666,262.5092102552608,-18.701906527773403,-86.64370727539062,4381.2578125,True
1599567723.2839475,0.0,10,0.5,0.5,0.06313487854003907,-0.05075,-0.02275,-0.5,-0.13398930570615764,10,1,100,0.007166764511547838,-10,-1,-100,6469.50750828383,0.0049254643436821245,-0.008047933143770015,0.9999554842957323,174.55641121942665,18.229706289311423,268.31661868304326,-18.893361163831802,-87.5059814453125,4381.2578125,True
1599567723.3527644,0.0,10,0.5,0.5,1.4579189735412599,-0.05075,-0.02275,-0.5,-0.2860339572204749,10,1,100,0.23134784737765657,-10,-1,-100,6467.946004177909,0.0022822857131043345,-0.009886724041528992,0.9999485206047611,182.1000620056104,19.034145275642725,291.58685929263044,-19.658876586377417,-90.76310729980469,4381.2578125,True
1599567723.4215853,0.0,10,0.5,0.5,-0.13230904426574705,-0.05075,-0.02275,-0.5,-0.10345902372385082,10,1,100,-0.03157996767488793,-10,-1,-100,6467.946004177909,0.0022822857131043345,-0.009886724041528992,0.9999485206047611,182.1000620056104,19.034145275642725,291.58685929263044,-19.658876586377417,-90.76310729980469,4381.2578125,True
1599567723.4923968,0.0,10,0.5,0.5,0.7358096309661866,-0.05075,-0.02275,-0.5,-0.19770552552730639,10,1,100,0.11732406691196298,-10,-1,-100,6467.194556846167,0.0009402419705582716,-0.0107329256272015,0.9999419584418475,185.50103344004407,19.402026032034406,302.9907616424102,-20.04144261126174,-92.27303314208984,4381.2578125,True
1599567723.5642037,0.0,10,0.5,0.5,1.4345087633132936,-0.05075,-0.02275,-0.5,-0.2727035485417726,10,1,100,0.2652846438568058,-10,-1,-100,6465.505150164943,-0.0016136424992115575,-0.012174527902756475,0.9999245856704542,191.51678398013289,20.063042805105027,325.1426751204474,-20.806178301916248,-94.84709167480469,4381.2578125,True
1599567723.6285427,0.0,10,0.5,0.5,0.5045006231307984,-0.05075,-0.02275,-0.5,-0.16356041230031684,10,1,100,0.07785214785986931,-10,-1,-100,6465.0974485077895,-0.00221954214987463,-0.012483908676578111,0.9999196095970915,192.8858733159665,20.215515467309093,330.57536773177986,-20.997280056903598,-95.428955078125,4381.2578125,True
1599567723.6923716,0.0,10,0.5,0.5,0.5444024393081666,-0.05075,-0.02275,-0.5,-0.1661792434452396,10,1,100,0.08500563822202238,-10,-1,-100,6464.690236985451,-0.0028235290214596916,-0.012780306195364141,0.9999143420600676,194.19310802776508,20.361980543598897,335.9471175761787,-21.188349182922124,-95.96442413330078,4381.2578125,True
1599567723.7562027,0.0,10,0.5,0.5,0.7893009914398194,-0.05075,-0.02275,-0.5,-0.1950428275244227,10,1,100,0.14978488838185242,-10,-1,-100,6463.815266813035,-0.003950842323282519,-0.013304870030336348,0.9999036810005314,196.56587768160787,20.630808738109906,346.3970939026485,-21.570391782535534,-96.83860778808594,4381.2578125,True
1599567723.8170378,0.0,10,0.5,0.5,0.7472563598632813,-0.05075,-0.02275,-0.5,-0.19734588908324516,10,1,100,0.16654316508835165,-10,-1,-100,6462.938344700728,-0.005116936003447697,-0.013795470272325245,0.9998917451233919,198.5795991204953,20.86329138248663,356.3641456729586,-21.95231415346749,-97.49931335449219,4381.2578125,True
1599567723.8798735,0.0,10,0.5,0.5,0.8135711029052735,-0.05075,-0.02275,-0.5,-0.2136979737855939,10,1,100,0.2274531461784608,-10,-1,-100,6461.593665694469,-0.006719797009338191,-0.014383475926693742,0.9998739720326856,201.2600057910433,21.17822852337335,370.9480664529808,-22.524985441243974,-98.16764068603516,4381.2578125,True
1599567723.9412892,0.0,10,0.5,0.5,0.5710562017440797,-0.05075,-0.02275,-0.5,-0.17348537250502696,10,1,100,0.12413684320006203,-10,-1,-100,6461.123467293801,-0.007226501300066042,-0.014546229805350844,0.9998680837377549,202.01147532411565,21.26868711797975,375.6077135272799,-22.715822719270417,-98.28644561767578,4381.2578125,True
1599567724.0046291,0.0,10,0.5,0.5,0.5468394844055177,-0.05075,-0.02275,-0.5,-0.2012402299925039,10,1,100,0.23154643818760617,-10,-1,-100,6459.778786566225,-0.0086525451863929,-0.014940597220687472,0.9998509448995319,203.8934278180767,21.50167352797176,389.0366372908778,-23.288190144364876,-98.30580139160156,4381.2578125,True
1599567724.0654664,0.0,10,0.5,0.5,0.40502810897827146,-0.05075,-0.02275,-0.5,-0.18273457579377395,10,1,100,0.18712433034028514,-10,-1,-100,6458.840338653652,-0.009535170619987583,-0.015126285402660353,0.9998401252256107,204.6959497068135,21.609719239760015,397.2265208768289,-23.669661948236744,-98.03472900390625,4381.2578125,True
1599567724.1253073,0.0,10,0.5,0.5,0.4439671779632569,-0.05075,-0.02275,-0.5,-0.17245628298812188,10,1,100,0.14688090125628186,-10,-1,-100,6458.369649207918,-0.009960964880370817,-0.015196890577710561,0.999834903219237,204.98255839398163,21.651660768515857,401.1207208651167,-23.860369907602983,-97.82929992675781,4381.2578125,True
1599567724.1841493,0.0,10,0.5,0.5,0.2633285539627075,-0.05075,-0.02275,-0.5,-0.17547777086291882,10,1,100,0.18770284535013693,-10,-1,-100,6457.368697736645,-0.010709248966253413,-0.015284487022117533,0.9998258330544623,205.4167464081311,21.72075935088042,408.66895081587654,-24.241734653337765,-97.29186248779297,4381.2578125,True
1599567724.243991,0.0,10,0.5,0.5,-0.05088224029541011,-0.05075,-0.02275,-0.5,-0.16990676105652996,10,1,100,0.22879615764133007,-10,-1,-100,6455.897538349498,-0.0117548140592784,-0.015310647374139098,0.9998136868554143,205.6198549417629,21.7763308916535,419.15274260539303,-24.813668842292614,-96.22333526611328,4381.2578125,True
1599567724.30383,0.0,10,0.5,0.5,0.2531056482315064,-0.05075,-0.02275,-0.5,-0.1651900236915795,10,1,100,0.16015943651846967,-10,-1,-100,6455.366297808941,-0.012072689159175655,-0.015288980319297735,0.9998102306224226,205.61994327845892,21.787396639628625,422.51886132659797,-25.004286134467822,-95.80194091796875,4381.2578125,True
1599567724.3636694,0.0,10,0.5,0.5,-0.30144509239196776,-0.05075,-0.02275,-0.5,-0.1510253687281869,10,1,100,0.22035597905398818,-10,-1,-100,6453.894151384593,-0.01290049949109813,-0.01513823279329844,0.999802185945188,205.32590436207343,21.788047334507578,432.01674120921587,-25.57606489510988,-94.41314697265625,4381.2578125,True
1599567724.4205182,0.0,10,0.5,0.5,-0.1419116203308105,-0.05075,-0.02275,-0.5,-0.14737309564223533,10,1,100,0.19146915412452165,-10,-1,-100,6452.831661032396,-0.013382310786970853,-0.014966320411824103,0.9997984411926892,204.97645113280257,21.770800039309584,438.0205881562748,-25.9571937519635,-93.45201110839844,4381.2578125,True
1599567724.47936,0.0,10,0.5,0.5,-0.2197970245361328,-0.05075,-0.02275,-0.5,-0.13984046838193548,10,1,100,0.1895363298791206,-10,-1,-100,6451.766237612814,-0.013795235949366479,-0.014740493589808798,0.9997961838864108,204.5055467715046,21.73930130795951,443.7507154549781,-26.33827844404187,-92.45474243164062,4381.2578125,True
1599567724.5382035,0.0,10,0.5,0.5,0.00207108783721921,-0.05075,-0.02275,-0.5,-0.14785741798082863,10,1,100,0.16835422726266325,-10,-1,-100,6451.23450078012,-0.0139716256741765,-0.014607753277363808,0.9997956827373323,204.24155334683184,21.719953844990705,446.5465643365903,-26.528804702195398,-91.97581481933594,4381.2578125,True
1599567724.5950513,0.0,10,0.5,0.5,-0.280048624420166,-0.05075,-0.02275,-0.5,-0.12743692517680777,10,1,100,0.18678577143129144,-10,-1,-100,6450.170536212856,-0.014293407530651222,-0.014301383491948162,0.9997955635685623,203.72746183807357,21.68158020877571,452.1525289335763,-26.909822900491502,-91.05484008789062,4381.2578125,True
1599567724.6509016,0.0,10,0.5,0.5,-0.5435040416717529,-0.05075,-0.02275,-0.5,-0.09678321298302471,10,1,100,0.19560563835495254,-10,-1,-100,6448.574337775819,-0.014660989042803108,-0.013744776497743855,0.999798047867325,202.97215435376754,21.62276111879259,460.5573597745002,-27.481259600844293,-89.77032470703125,4381.2578125,True
1599567724.7107418,0.0,10,0.5,0.5,-0.1495382427215576,-0.05075,-0.02275,-0.5,-0.12887124017304538,10,1,100,0.16993247502848052,-10,-1,-100,6447.97960757243,-0.014757101825043426,-0.013531735394653688,0.9997995399493513,202.72139621840168,21.602469714567473,463.35086541475926,-27.6717129611001,-89.3536376953125,4381.2578125,True
1599567724.7685895,0.0,10,0.5,0.5,-0.5900038841247559,-0.05075,-0.02275,-0.5,-0.07338386144870633,10,1,100,0.18211809909014806,-10,-1,-100,6446.3208992002765,-0.01495089535769099,-0.01283514472633505,0.9998058460460498,201.95865003047817,21.538038903041095,471.67561864135877,-28.24299380725691,-88.21060180664062,4381.2578125,True
1599567725.251706,0.0,10,0.5,0.5,-0.214045237159729,-0.05075,-0.02275,-0.5,-0.1149103925339382,10,1,100,0.16724786358267352,-10,-1,-100,6445.729095369461,-0.01498803129512861,-0.012581621076180018,0.9998085125307704,201.7515657063574,21.520818601704274,474.55072356789674,-28.433392679388533,-87.89303588867188,4381.2578125,True
1599567725.297581,0.0,10,0.5,0.5,-0.39236393966674804,-0.05075,-0.02275,-0.5,-0.07901951977720867,10,1,100,0.1688559807718096,-10,-1,-100,6444.595778223709,-0.015033471197031455,-0.012027345302157865,0.999814651677375,201.45193995512062,21.497601167642358,480.5626037456168,-28.814143658452096,-87.31536865234375,4381.2578125,True
1599567725.3494427,0.0,10,0.5,0.5,-0.12283727340698242,-0.05075,-0.02275,-0.5,-0.13412093367771002,10,1,100,0.16460806878531065,-10,-1,-100,6444.595778223709,-0.015033471197031455,-0.012027345302157865,0.999814651677375,201.45193995512062,21.497601167642358,480.5626037456168,-28.814143658452096,-87.31536865234375,4381.2578125,True
1599567725.4042954,0.0,10,0.5,0.5,-0.40077921371459957,-0.05075,-0.02275,-0.5,-0.06996537117571806,10,1,100,0.16354729234847099,-10,-1,-100,6443.413630671217,-0.015021888709691155,-0.01144694099531352,0.9998216392944511,201.24067729945355,21.48259853597161,486.7803474419942,-29.194829350887304,-86.84002685546875,4381.2578125,True
1599567725.45915,0.0,10,0.5,0.5,-0.3831187267303467,-0.05075,-0.02275,-0.5,-0.05989591869912256,10,1,100,0.15849143618891998,-10,-1,-100,6442.225133365835,-0.014963906321637946,-0.010830959675137348,0.9998293713529888,201.16002448548102,21.480530972702837,493.31634375697166,-29.575445299195124,-86.46786499023438,4381.2578125,True
1599567725.5120082,0.0,10,0.5,0.5,-0.4419299129486084,-0.05075,-0.02275,-0.5,-0.009290777257915564,10,1,100,0.14572175971472281,-10,-1,-100,6440.442871829262,-0.01479404466421299,-0.009814484038161375,0.9998423936528885,201.25001200356886,21.49852145633664,503.66080825831096,-30.146228874462082,-86.04794311523438,4381.2578125,True
1599567725.567453,0.0,10,0.5,0.5,-0.2971885414123535,-0.05075,-0.02275,-0.5,-0.07201195369110264,10,1,100,0.154055560563307,-10,-1,-100,6439.8432504185475,-0.014714639147913761,-0.009464965307793284,0.9998469351988176,201.3227342893224,21.50877692826629,507.22467251679313,-30.336451207144894,-85.95401000976562,4381.2578125,True
1599567725.6233053,0.0,10,0.5,0.5,-0.3231403419494629,-0.05075,-0.02275,-0.5,0.013081384830905998,10,1,100,0.12924189626628135,-10,-1,-100,6437.9940912643215,-0.01441649061074399,-0.0083780419465169,0.999860976942101,201.81422017237742,21.568260895761657,518.6515896539456,-30.90699365378678,-85.84268188476562,4381.2578125,True
1599567725.6794114,0.0,10,0.5,0.5,-0.23474573516845704,-0.05075,-0.02275,-0.5,-0.011919354368093507,10,1,100,0.1315926552340801,-10,-1,-100,6436.743577883462,-0.014167039293416969,-0.007622088096757663,0.999870591012009,202.44945066847558,21.640757264898475,527.1132383406558,-31.28724249579222,-85.9183349609375,4381.2578125,True
1599567725.7372563,0.0,10,0.5,0.5,-0.2394443801879883,-0.05075,-0.02275,-0.5,-0.04396983475706287,10,1,100,0.14110134684420117,-10,-1,-100,6436.154209768167,-0.01402724444005862,-0.0072315977344198,0.9998754624490124,202.827436502969,21.68356571739835,531.5229682509439,-31.47733081655727,-85.99267578125,4381.2578125,True
1599567725.7926173,0.0,10,0.5,0.5,-0.16009151840209962,-0.05075,-0.02275,-0.5,0.00015198306364302971,10,1,100,0.12198202847152641,-10,-1,-100,6434.8319189187605,-0.013727185907179106,-0.0064805931948261584,0.9998847765012291,203.67940384450426,21.779818318197623,540.6448547020308,-31.857432434192763,-86.21340942382812,4381.2578125,True
1599567725.8484669,0.0,10,0.5,0.5,-0.009224329376220725,-0.05075,-0.02275,-0.5,0.05505483989862357,10,1,100,0.09469717047311162,-10,-1,-100,6432.9227021517,-0.013207507482201186,-0.005304291303860619,0.9998987079899001,205.19062074183054,21.950535433497194,555.0902985371888,-32.427388549774534,-86.69467163085938,4381.2578125,True
1599567725.908818,0.0,10,0.5,0.5,-0.027021104431152354,-0.05075,-0.02275,-0.5,0.02462400999839324,10,1,100,0.10411060093110636,-10,-1,-100,6431.609690374113,-0.012822309157943784,-0.004517681723892493,0.999907585199602,206.31400797067624,22.07797648261914,565.1392626639349,-32.80722266692912,-87.10183715820312,4381.2578125,True
1599567725.964669,0.0,10,0.5,0.5,0.018267250823974623,-0.05075,-0.02275,-0.5,0.03183846008885086,10,1,100,0.09752289978798392,-10,-1,-100,6430.292773416149,-0.012414250818262385,-0.003743823162715732,0.9999159315486216,207.50622922401016,22.213973899856246,575.4681247723129,-33.186942983283295,-87.55459594726562,4381.2578125,True
1599567726.0215173,0.0,10,0.5,0.5,0.1801377151489258,-0.05075,-0.02275,-0.5,0.08243277869615959,10,1,100,0.06556848398214665,-10,-1,-100,6428.262957933475,-0.011755164582036619,-0.002587369863245504,0.9999275581875119,209.32640527280674,22.423801705234744,591.227425289009,-33.75630502471971,-88.256591796875,4381.2578125,True
1599567726.0803597,0.0,10,0.5,0.5,-0.03664994888305664,-0.05075,-0.02275,-0.5,0.009206515533169243,10,1,100,0.10597628510912852,-10,-1,-100,6427.601326802629,-0.01152625596093085,-0.0022092361559469293,0.9999311299780252,209.9291822559784,22.49398256893923,596.5170742643041,-33.946033485575065,-88.49288940429688,4381.2578125,True
1599567726.137208,0.0,10,0.5,0.5,0.22474843215942383,-0.05075,-0.02275,-0.5,0.09222481157409572,10,1,100,0.0513575461999978,-10,-1,-100,6425.502668798901,-0.010824593941391037,-0.0011176803197418155,0.9999407877253068,211.69430002213062,22.701876588009476,612.4038291348083,-34.51504101125213,-89.17193603515625,4381.2578125,True
1599567726.1960516,0.0,10,0.5,0.5,0.12751553344726563,-0.05075,-0.02275,-0.5,0.06438738770370091,10,1,100,0.06617449123144763,-10,-1,-100,6424.1266773289535,-0.010324955283192135,-0.0003860127629117117,0.9999466217216532,212.79709336719498,22.83410616017464,622.8953376679091,-34.89423161558267,-89.59857177734375,4381.2578125,True
1599567726.251901,0.0,10,0.5,0.5,-0.07725768814086914,-0.05075,-0.02275,-0.5,-0.00798016506094896,10,1,100,0.11572920351858261,-10,-1,-100,6424.1266773289535,-0.010324955283192135,-0.0003860127629117117,0.9999466217216532,212.79709336719498,22.83410616017464,622.8953376679091,-34.89423161558267,-89.59857177734375,4381.2578125,True
1599567726.3087487,0.0,10,0.5,0.5,0.2470338779449463,-0.05075,-0.02275,-0.5,0.10331930552652145,10,1,100,0.0344269141699589,-10,-1,-100,6422.024118732312,-0.009589336365486669,0.0006192223557617958,0.9999538295300157,214.3657739755269,23.025492737245898,638.5441014966343,-35.46279741819649,-90.17218780517578,4381.2578125,True
1599567726.367592,0.0,10,0.5,0.5,0.06284391307830811,-0.05075,-0.02275,-0.5,0.0397614135690744,10,1,100,0.07983269085128095,-10,-1,-100,6421.303410362219,-0.00933740614474333,0.0009481363366789369,0.9999559559720494,214.85025745364197,23.08570165512116,643.6877610163831,-35.65226141336708,-90.34124755859375,4381.2578125,True
1599567726.423442,0.0,10,0.5,0.5,0.2644034631729126,-0.05075,-0.02275,-0.5,0.11386181111374709,10,1,100,0.01940726953661126,-10,-1,-100,6419.148610337172,-0.008563047368263693,0.0019140356337992669,0.999961504602733,216.23935006087297,23.26089508774962,659.0424889291277,-36.22048108761243,-90.8436508178711,4381.2578125,True
1599567726.4822857,0.0,10,0.5,0.5,0.10393470840454103,-0.05075,-0.02275,-0.5,0.05067979602681133,10,1,100,0.06881576391354986,-10,-1,-100,6418.4249738885555,-0.008312475211357953,0.0022111818331750055,0.9999630060311038,216.68491787844187,23.317901238680125,664.1457550043797,-36.40983029593893,-90.99125671386719,4381.2578125,True
1599567726.5411603,0.0,10,0.5,0.5,0.18842457542419433,-0.05075,-0.02275,-0.5,0.08878329683649201,10,1,100,0.035257111815706205,-10,-1,-100,6416.925455106772,-0.007783703535051053,0.002821593054916349,0.9999657256985917,217.5200750917274,23.426535790276816,674.2349823874231,-36.78844391813912,-91.26260375976562,4381.2578125,True
1599567726.598134,0.0,10,0.5,0.5,0.1824700954437256,-0.05075,-0.02275,-0.5,0.08842332676495958,10,1,100,0.03299503872673258,-10,-1,-100,6415.480137232225,-0.0072866472987661215,0.003367271332014883,0.9999677826084797,218.2970584464704,23.52970024984486,684.2131302684786,-37.16694573606884,-91.48281860351562,4381.2578125,True
1599567726.657828,0.0,10,0.5,0.5,0.17360195388793948,-0.05075,-0.02275,-0.5,0.09463291708651903,10,1,100,0.025170130742939882,-10,-1,-100,6413.9806216439465,-0.006767704754366496,0.003914380003941126,0.9999694374337359,218.991598408316,23.624636737048217,693.9975138280774,-37.54533813110985,-91.65331268310547,4381.2578125,True
1599567726.7157128,0.0,10,0.5,0.5,0.18789399433135986,-0.05075,-0.02275,-0.5,0.12098653393707366,10,1,100,-0.004561830718816648,-10,-1,-100,6411.69399619801,-0.0060299742018113806,0.004645762935097401,0.999971027729242,219.91477127893717,23.75522975192374,708.4082691774536,-38.11272595428238,-91.82099151611328,4381.2578125,True
1599567726.774553,0.0,10,0.5,0.5,0.12631307640075684,-0.05075,-0.02275,-0.5,0.07359910102995415,10,1,100,0.04205322056054141,-10,-1,-100,6410.908351017744,-0.0057874420017914215,0.004874622170397619,0.9999713713770869,220.18850649780754,23.795293143223965,713.130149063689,-38.301802577336716,-91.8504638671875,4381.2578125,True
1599567726.830409,0.0,10,0.5,0.5,0.12287673225402833,-0.05075,-0.02275,-0.5,0.11987888488696163,10,1,100,-0.0106496226043018,-10,-1,-100,6408.624657978304,-0.00509196643962143,0.005498618933067604,0.9999719181395079,220.90827269741504,23.90489965540173,727.0403684288738,-38.86887874695972,-91.86167907714844,4381.2578125,True
1599567726.8842688,0.0,10,0.5,0.5,0.0912060646057129,-0.05075,-0.02275,-0.5,0.09909744229227438,10,1,100,0.009375931628463945,-10,-1,-100,6407.059717094875,-0.004646523684168009,0.005871616846728635,0.9999719665736925,221.3103552587991,23.969714117581084,736.1149445133657,-39.246804303598395,-91.80500793457031,4381.2578125,True
1599567726.940118,0.0,10,0.5,0.5,0.099250909614563,-0.05075,-0.02275,-0.5,0.08162454045320389,10,1,100,0.029303188113222026,-10,-1,-100,6406.27260810649,-0.00442722606787299,0.006047086392891688,0.9999719158133897,221.4906336608532,23.999872942554106,740.5987807014826,-39.43573023573561,-91.76142120361328,4381.2578125,True
1599567727.0009902,0.0,10,0.5,0.5,0.023244950103759765,-0.05075,-0.02275,-0.5,0.11318591062218537,10,1,100,-0.014648089458841981,-10,-1,-100,6403.865382040385,-0.0038327713297468175,0.006488890299979557,0.999971601680072,221.9663548802733,24.083138629735902,753.8889135176092,-40.002363148635986,-91.5779800415039,4381.2578125,True
1599567727.0578399,0.0,10,0.5,0.5,0.029043551254272465,-0.05075,-0.02275,-0.5,0.09754035638275012,10,1,100,0.0026966529004246523,-10,-1,-100,6402.233547271928,-0.0034543376583877367,0.006744138945458953,0.9999712916585286,222.24593149236287,24.13433591196405,762.6663307205706,-40.37999929108872,-91.41893768310547,4381.2578125,True
1599567727.115215,0.0,10,0.5,0.5,0.059942808341979986,-0.05075,-0.02275,-0.5,0.08496412526843533,10,1,100,0.020089232138250188,-10,-1,-100,6401.454739484587,-0.003272837893453323,0.006857732924753466,0.9999711295988779,222.3753984640276,24.158713089493954,767.032388899215,-40.568782028095136,-91.32888793945312,4381.2578125,True
1599567727.1743627,0.0,10,0.5,0.5,0.0007603605270385672,-0.05075,-0.02275,-0.5,0.09436719225765909,10,1,100,0.0020227040505568575,-10,-1,-100,6399.818998109782,-0.0029476977296626415,0.0070428133877688415,0.9999708545041098,222.61760840988657,24.205403450314645,775.731120887898,-40.94627707930613,-91.139404296875,4381.2578125,True
1599567727.2351995,0.0,10,0.5,0.5,-0.07106461772918701,-0.05075,-0.02275,-0.5,0.10037745824559485,10,1,100,-0.016331588943566754,-10,-1,-100,6397.349272648455,-0.0024892030531509924,0.007262365733986096,0.9999705305218278,222.98675679795878,24.275392791407068,788.8601573541138,-41.51234389130781,-90.83838653564453,4381.2578125,True
1599567727.2922764,0.0,10,0.5,0.5,0.018721840476989743,-0.05075,-0.02275,-0.5,0.08476096309891065,10,1,100,0.013653286713949456,-10,-1,-100,6396.5074760080315,-0.002348869036573473,0.007316947014913702,0.999970472114367,223.10984427962848,24.298529136950435,793.2529302757728,-41.700985941654245,-90.73149871826172,4381.2578125,True
1599567727.3491518,0.0,10,0.5,0.5,-0.10773340969085693,-0.05075,-0.02275,-0.5,0.09056345388762296,10,1,100,-0.01298159810017373,-10,-1,-100,6393.971831139061,-0.0019825038006157335,0.007416887928309078,0.9999705292918084,223.4796694056524,24.367341380712823,806.48239880783,-42.266771554296525,-90.40935516357422,4381.2578125,True
1599567727.407514,0.0,10,0.5,0.5,-0.06022713623046875,-0.05075,-0.02275,-0.5,0.08330652691198148,10,1,100,-0.00016752312633394606,-10,-1,-100,6392.277494711918,-0.001769395120599219,0.0074394600900191225,0.9999707614097906,223.76254610994852,24.41663281787495,815.475563549593,-42.643843616565796,-90.2091064453125,4381.2578125,True
1599567727.4673548,0.0,10,0.5,0.5,-0.018751656341552736,-0.05075,-0.02275,-0.5,0.08107324714297678,10,1,100,0.010060441535746036,-10,-1,-100,6391.425443746382,-0.0016716619732567712,0.007437913292621892,0.9999709410738388,223.91615336085482,24.4424520684903,820.0300792362196,-42.83234362613405,-90.10944366455078,4381.2578125,True
1599567727.5221696,0.0,10,0.5,0.5,-0.11848658084869385,-0.05075,-0.02275,-0.5,0.07442419661573096,10,1,100,-0.006042430187000451,-10,-1,-100,6388.834132978227,-0.0014391283342940428,0.007374637293425908,0.9999717714187875,224.42591434414115,24.52465912184838,833.931771578802,-43.39769809000516,-89.84487915039062,4381.2578125,True
1599567727.5780199,0.0,10,0.5,0.5,-0.07366101455688477,-0.05075,-0.02275,-0.5,0.07158685830444446,10,1,100,0.003368274513517129,-10,-1,-100,6387.074365547509,-0.0013160024304540666,0.007290112808690106,0.9999725608199656,224.83196648992543,24.586277858082283,843.498014171803,-43.77447710550112,-89.69400024414062,4381.2578125,True
1599567727.6329076,0.0,10,0.5,0.5,-0.07792311992645264,-0.05075,-0.02275,-0.5,0.06721461143723012,10,1,100,0.005531900566504886,-10,-1,-100,6385.3287572932895,-0.0012260270900806068,0.007172796285129509,0.9999735235750127,225.27617940440538,24.65178406686509,853.2538013386928,-44.151155087880326,-89.55706787109375,4381.2578125,True
1599567727.6887622,0.0,10,0.5,0.5,-0.07312420578002929,-0.05075,-0.02275,-0.5,0.06261149837101335,10,1,100,0.007723434310268142,-10,-1,-100,6383.509906960884,-0.0011661800970192249,0.007023908729163659,0.9999746520438135,225.77281139779592,24.722789705857032,863.2579676141117,-44.52773006238931,-89.44915771484375,4381.2578125,True
1599567727.7466068,0.0,10,0.5,0.5,-0.06911164398193359,-0.05075,-0.02275,-0.5,0.05778941592439417,10,1,100,0.010003897275526193,-10,-1,-100,6381.753556017415,-0.0011344203646443455,0.006844568223494157,0.9999759321985056,226.32873908139305,24.80012887893732,873.5429642330772,-44.9041998720984,-89.36624145507812,4381.2578125,True
1599567727.8034184,0.0,10,0.5,0.5,-0.04952027664184571,-0.05075,-0.02275,-0.5,0.06464924784941897,10,1,100,0.012522569796097746,-10,-1,-100,6380.846328001586,-0.0011300933375496677,0.006744073731444176,0.9999766199059622,226.62755425555878,24.84104443429514,878.7874852953317,-45.09239457774055,-89.3338623046875,4381.2578125,True
1599567727.8602672,0.0,10,0.5,0.5,-0.07110813884735108,-0.05075,-0.02275,-0.5,0.03712196944643897,10,1,100,0.01606898402804484,-10,-1,-100,6378.119758995832,-0.0011596353602227535,0.006402938291373958,0.9999788285894198,227.60274844261042,24.97237207831863,894.9203036008801,-45.65681476838762,-89.271484375,4381.2578125,True
1599567727.919143,0.0,10,0.5,0.5,-0.04860231704711914,-0.05075,-0.02275,-0.5,0.0572302732921918,10,1,100,0.015667977184869866,-10,-1,-100,6377.208624751074,-0.0011839273492388325,0.006276448843292913,0.9999796020449363,227.95383097748126,25.019011305185714,900.4325798513997,-45.84489929479073,-89.26174926757812,4381.2578125,True
1599567727.9769895,0.0,10,0.5,0.5,-0.04752209568023682,-0.05075,-0.02275,-0.5,0.023753696054212632,10,1,100,0.025659632504989448,-10,-1,-100,6374.420043729246,-0.0012975701843921522,0.005858162678405804,0.9999819989588062,229.0773300759396,25.16677463333426,917.3526423084259,-46.40898238910245,-89.25961303710938,4381.2578125,True
1599567728.0338364,0.0,10,0.5,0.5,-0.0358907579421997,-0.05075,-0.02275,-0.5,0.03157684057613161,10,1,100,0.026359723282262333,-10,-1,-100,6372.542598569766,-0.0014076752460851119,0.005550459567263707,0.9999836052901037,229.88286026511426,25.271672156575207,928.9507378237254,-46.78489329297757,-89.28271484375,4381.2578125,True
1599567728.0906863,0.0,10,0.5,0.5,-0.039439626312255865,-0.05075,-0.02275,-0.5,0.04408988154656271,10,1,100,0.02252568953723308,-10,-1,-100,6371.565545943333,-0.001473155892421329,0.0053862002511615,0.9999844092077491,230.30255257025837,25.32605671109152,934.8470607044345,-46.972804679030965,-89.3006591796875,4381.2578125,True
1599567728.1485317,0.0,10,0.5,0.5,-0.007765464782714844,-0.05075,-0.02275,-0.5,0.004969328685821124,10,1,100,0.041318895445560305,-10,-1,-100,6368.757922261488,-0.0017035001450225672,0.004883039880554811,0.9999866269149706,231.6203571260737,25.49604314752839,952.8961755414568,-47.53635949706436,-89.376708984375,4381.2578125,True
1599567728.6653411,0.0,10,0.5,0.5,-0.028965116119384765,-0.05075,-0.02275,-0.5,0.03541269942834619,10,1,100,0.028189650913575906,-10,-1,-100,6367.770616196329,-0.0017931949719014997,0.004704567525779081,0.9999873256677747,232.0769835162896,25.554758119562997,959.0253862701667,-47.72415058963361,-89.4085693359375,4381.2578125,True
1599567728.7181664,0.0,10,0.5,0.5,0.01698844680786133,-0.05075,-0.02275,-0.5,-0.008197971985106557,10,1,100,0.052764250437133356,-10,-1,-100,6364.81211557996,-0.002097625566658487,0.004148103125641892,0.9999891965453632,233.49665952120802,25.73688516606751,977.7494040609791,-48.28733942115377,-89.52154541015625,4381.2578125,True
1599567728.7710264,0.0,10,0.5,0.5,-0.01676236038208008,-0.05075,-0.02275,-0.5,0.02642255811950088,10,1,100,0.03463455199591184,-10,-1,-100,6363.827251014649,-0.002208718443817699,0.00395957285883499,0.9999897216199832,233.98427079409475,25.799359077672932,984.0952749320242,-48.47500694370106,-89.56253051757812,4381.2578125,True
1599567728.8249142,0.0,10,0.5,0.5,0.03665747146606445,-0.05075,-0.02275,-0.5,-0.02047405164926394,10,1,100,0.06447826587773861,-10,-1,-100,6360.914649699931,-0.00258004182372525,0.0033644716141714524,0.9999910118170788,235.4780469892882,25.990768933142615,1003.4007571742073,-49.037820759888206,-89.6959228515625,4381.2578125,True
1599567728.881323,0.0,10,0.5,0.5,0.020518550872802736,-0.05075,-0.02275,-0.5,-0.005987760671081227,10,1,100,0.057435690225624475,-10,-1,-100,6358.971289028996,-0.0028522669827254626,0.002958236402567418,0.9999915566695781,236.4941862800742,26.121115217105324,1016.4741226932507,-49.41287106310471,-89.78622436523438,4381.2578125,True
1599567728.9351802,0.0,10,0.5,0.5,0.02728083953857422,-0.05075,-0.02275,-0.5,-0.010831433570927092,10,1,100,0.06215809208470521,-10,-1,-100,6356.967382102506,-0.0031411365699695695,0.0025480298219186124,0.9999918203690846,237.52472218551594,26.25346021112281,1029.7046213582823,-49.78779316640791,-89.87835693359375,4381.2578125,True
1599567728.9999702,0.0,10,0.5,0.5,0.029745725250244142,-0.05075,-0.02275,-0.5,-0.01545119303495816,10,1,100,0.06690089532460547,-10,-1,-100,6354.962011264288,-0.0034450823976262773,0.002136506407129756,0.9999917833400662,238.55969423772356,26.386703925288405,1043.0508116478645,-50.16258608365972,-89.96392822265625,4381.2578125,True
1599567729.06679,0.0,10,0.5,0.5,0.01094586067199707,-0.05075,-0.02275,-0.5,0.0023548295579690764,10,1,100,0.05422448268418262,-10,-1,-100,6353.928320675506,-0.003604204387661955,0.0019276504684131123,0.9999916469023147,239.07595880125973,26.45333890418089,1049.7549293267623,-50.34993404598037,-90.00457000732422,4381.2578125,True
1599567729.1446157,0.0,10,0.5,0.5,0.03419363765716553,-0.05075,-0.02275,-0.5,-0.022747467123509644,10,1,100,0.074441243185039,-10,-1,-100,6351.922463026014,-0.00393065262939165,0.0015128721989289484,0.9999911305544749,240.10771555135813,26.5868106967922,1063.2326939007078,-50.72453238600018,-90.08069610595703,4381.2578125,True
1599567729.205455,0.0,10,0.5,0.5,0.05342893409729004,-0.05075,-0.02275,-0.5,-0.050392458395246614,10,1,100,0.09888044880184002,-10,-1,-100,6348.821880285046,-0.0044473642668105,0.0008880041497023111,0.9999897161469753,241.64838794942253,26.786932100066995,1083.6013661065872,-51.28618561265845,-90.18151092529297,4381.2578125,True
1599567729.2652886,0.0,10,0.5,0.5,0.038459157371520995,-0.05075,-0.02275,-0.5,-0.03401875250010021,10,1,100,0.08712683190660414,-10,-1,-100,6346.816513656755,-0.004807756634396593,0.000472426009207474,0.9999883310768232,242.67556989874942,26.92078816075748,1097.3032822500247,-51.66045757874033,-90.2425308227539,4381.2578125,True
1599567729.324683,0.0,10,0.5,0.5,0.0384319221496582,-0.05075,-0.02275,-0.5,-0.03753283793313664,10,1,100,0.09159067723728914,-10,-1,-100,6344.685658851755,-0.005173225960969728,6.652886983599244e-05,0.9999866165639748,243.70082524318093,27.05476223043233,1111.0950696418029,-52.03459812580846,-90.29443359375,4381.2578125,True
1599567729.3825624,0.0,10,0.5,0.5,0.025752033233642578,-0.05075,-0.02275,-0.5,-0.01933452080819292,10,1,100,0.07567499900072322,-10,-1,-100,6343.651482024696,-0.005357986818981696,-0.00013331876095149707,0.9999856369985299,244.2081933667619,27.121281435879542,1118.0039979978833,-52.22161910901537,-90.31533813476562,4381.2578125,True
1599567729.4414048,0.0,10,0.5,0.5,0.03526120414733887,-0.05075,-0.02275,-0.5,-0.043930528862483526,10,1,100,0.09941236003791,-10,-1,-100,6341.58410508465,-0.005738882455353216,-0.0005348776879611417,0.9999833894290557,245.2069640992814,27.252756361395324,1131.8221013079044,-52.5955623873857,-90.34847259521484,4381.2578125,True
1599567729.4992526,0.0,10,0.5,0.5,0.0366961503982544,-0.05075,-0.02275,-0.5,-0.06841157392689726,10,1,100,0.12537750860148106,-10,-1,-100,6338.357553238166,-0.006318326347512854,-0.0011189413500990047,0.9999794131493015,246.67778785197223,27.447398678298107,1152.6051658787096,-53.1562311332176,-90.37846374511719,4381.2578125,True
1599567729.558097,0.0,10,0.5,0.5,0.02830028133392334,-0.05075,-0.02275,-0.5,-0.052020359354380374,10,1,100,0.11100904864304767,-10,-1,-100,6336.227190586971,-0.006711320195886052,-0.0014971907488808482,0.9999763580210732,247.64575115865745,27.576034701399397,1166.5227368350443,-53.52984595142252,-90.38800048828125,4381.2578125,True
1599567729.6149433,0.0,10,0.5,0.5,0.02480479984283447,-0.05075,-0.02275,-0.5,-0.05442076500162625,10,1,100,0.11492911059852061,-10,-1,-100,6334.096828623209,-0.007100978636160607,-0.0018591982349567598,0.9999730593792675,248.60308954661372,27.703681036238574,1180.4867628151112,-53.903329305535294,-90.3882064819336,4381.2578125,True
1599567729.6717567,0.0,10,0.5,0.5,0.020561740875244143,-0.05075,-0.02275,-0.5,-0.05726445986897055,10,1,100,0.1194870866808933,-10,-1,-100,6331.90347887564,-0.0074933261860331045,-0.0022105152623270036,0.9999694813767792,249.54079618152116,27.82930625668118,1194.453441973366,-54.27668117074233,-90.37893676757812,4381.2578125,True
1599567729.731629,0.0,10,0.5,0.5,0.016610839653015137,-0.05075,-0.02275,-0.5,-0.05971850052123953,10,1,100,0.12370518448080949,-10,-1,-100,6329.772141605616,-0.00788481655519064,-0.0025484418697471795,0.9999656669665851,250.46009839525848,27.953019853965557,1208.4269281482884,-54.64990145093796,-90.36180114746094,4381.2578125,True
1599567729.7914636,0.0,10,0.5,0.5,0.012741884994506836,-0.05075,-0.02275,-0.5,-0.06156630040203839,10,1,100,0.12754556312611937,-10,-1,-100,6327.517269790522,-0.00827203472944958,-0.0028687539535285325,0.9999616711115427,251.36413506769458,28.07514981383873,1222.4208958747909,-55.02299041990561,-90.33805847167969,4381.2578125,True
1599567729.8503187,0.0,10,0.5,0.5,3.956089019775677e-05,-0.05075,-0.02275,-0.5,-0.07947186074860146,10,1,100,0.1522861176792018,-10,-1,-100,6324.227736296132,-0.008845488410656058,-0.003319309343659217,0.9999553687641555,252.69291995949848,28.255485397735068,1243.4541474482198,-55.58237739677985,-90.29279327392578,4381.2578125,True
1599567729.9077492,0.0,10,0.5,0.5,0.013395284843444825,-0.05075,-0.02275,-0.5,-0.05040253931604104,10,1,100,0.1160808585237377,-10,-1,-100,6323.1310620812,-0.00903400055417931,-0.0034611915622521383,0.9999532023984706,253.12847866641818,28.314816369925,1250.4754314795277,-55.7687738905401,-90.27574157714844,4381.2578125,True
1599567729.9645994,0.0,10,0.5,0.5,0.012058794212341309,-0.05075,-0.02275,-0.5,-0.051698055328893586,10,1,100,0.11822956362352574,-10,-1,-100,6321.972377311089,-0.00922139911775015,-0.003598745797060646,0.9999510062133041,253.56103259410338,28.373830152114717,1257.5049352713422,-55.95513752432217,-90.2579116821289,4381.2578125,True
1599567730.023986,0.0,10,0.5,0.5,-0.009107968521118164,-0.05075,-0.02275,-0.5,-0.08021214414180125,10,1,100,0.15988784846668563,-10,-1,-100,6318.620832036948,-0.009766960935662577,-0.003979863702425624,0.9999443820328165,254.83631344883324,28.548472204688238,1278.619720354841,-56.514030421848844,-90.20352935791016,4381.2578125,True
1599567730.08187,0.0,10,0.5,0.5,-0.003512312698364259,-0.05075,-0.02275,-0.5,-0.06855179819049378,10,1,100,0.14558778508351228,-10,-1,-100,6316.363520127488,-0.010129263758935653,-0.0042171995750051134,0.9999398048099929,255.6709043073922,28.66323842531222,1292.7319267993698,-56.88646060965617,-90.1649169921875,4381.2578125,True
1599567730.1397514,0.0,10,0.5,0.5,-0.006928345489501952,-0.05075,-0.02275,-0.5,-0.06862749138937486,10,1,100,0.14792360231242696,-10,-1,-100,6314.045172814978,-0.010476400175436381,-0.0044308309807718355,0.9999353042953248,256.49586860671434,28.776987048838606,1306.8860703853206,-57.25875846244229,-90.12454223632812,4381.2578125,True
1599567730.1975973,0.0,10,0.5,0.5,-0.008362385940551758,-0.05075,-0.02275,-0.5,-0.06905643103532325,10,1,100,0.15087575174018494,-10,-1,-100,6311.727314086631,-0.010815393657980706,-0.004626273855312122,0.9999308100314933,257.30815899083683,28.889372718172076,1321.0658381176704,-57.630923549106484,-90.08637237548828,4381.2578125,True
1599567730.255446,0.0,10,0.5,0.5,-2.3450469970702492e-05,-0.05075,-0.02275,-0.5,-0.059900724393111504,10,1,100,0.13578615615483436,-10,-1,-100,6310.568629343179,-0.010983014668588887,-0.004718199975764679,0.9999285534365833,257.7099905913422,28.945105521109248,1328.1672363042217,-57.8169561823542,-90.06810760498047,4381.2578125,True
1599567730.3142836,0.0,10,0.5,0.5,-0.01947353343963623,-0.05075,-0.02275,-0.5,-0.07771006762253076,10,1,100,0.17234649678844138,-10,-1,-100,6307.091107692919,-0.011464591694463155,-0.004961392583067691,0.9999219708161812,258.8984579838628,29.11049850991789,1349.5172363529873,-58.37485412066674,-90.01749420166016,4381.2578125,True
