Timestamp,Input Throttle,horizon,dT,dt,Input Roll,Roll P,Roll I,Roll D,Input Pitch,Pitch P,Pitch I,Pitch D,Input Yaw,Yaw P,Yaw I,Yaw D,Altitude,Direction X,Direction Y,Direction Z,Drag X,Drag Y,Drag Z,Vertical Velocity,Roll,Mass,Has Fuel
1599569966.915208,0.0,10,0.5,0.5,-8.122620361328124,-0.15025,-0.001,-0.2505,-0.06719710827018213,10,1,100,0.6903420496056027,-10,-1,-100,6483.61796687427,-0.06725762917624546,-0.007002456440622898,0.9977110688578071,205.07335858718506,21.498791057513458,-156.7653398224299,9.590823770516101,-35.94464111328125,4381.2578125,True
1599569966.976047,0.0,10,0.5,0.5,-8.127883624267577,-0.15025,-0.001,-0.2505,-0.06906721104020377,10,1,100,0.6895027723532489,-10,-1,-100,6483.776674988563,-0.06735036297327428,-0.006987387358713012,0.9977049188138082,204.84281380362492,21.47779441090245,-153.513292151672,9.400809874873168,-35.9429931640625,4381.2578125,True
1599569967.0368838,0.0,10,0.5,0.5,-8.117760333251953,-0.15025,-0.001,-0.2505,-0.05043758290034714,10,1,100,0.709998322935447,-10,-1,-100,6484.316759987734,-0.06755976200952657,-0.006797975767197407,0.99769206977037,204.14946568418017,21.414354920086456,-143.7893470664726,8.830797728342985,-35.980712890625,4381.2578125,True
1599569967.1007137,0.0,10,0.5,0.5,-8.02202812194824,-0.15025,-0.001,-0.2505,-0.03424545962515346,10,1,100,0.6996986689217963,-10,-1,-100,6484.697140379576,-0.0675950735859868,-0.006472402312620371,0.9976918432237524,203.7566539332222,21.378974195163465,-137.38154550473544,8.450805345330267,-36.25665283203125,4381.2578125,True
1599569967.1615503,0.0,10,0.5,0.5,-7.8715682739257815,-0.15025,-0.001,-0.2505,-0.015308507113773101,10,1,100,0.6974482705423845,-10,-1,-100,6485.016949055367,-0.06754526678515056,-0.005998388328980862,0.9976981789461067,203.44663149410226,21.351675442412933,-131.04537748339945,8.070815946870601,-36.8179931640625,4381.2578125,True
1599569967.7559612,0.0,10,0.5,0.5,-7.675345771789551,-0.15025,-0.001,-0.2505,0.012296253710492998,10,1,100,0.6892407919446409,-10,-1,-100,6485.335755144944,-0.06736396964551526,-0.005311061074243452,0.9977143319727666,203.19931850960998,21.33007528984457,-124.76110798384457,7.690821918730688,-37.671783447265625,4381.2578125,True
1599569967.8148043,0.0,10,0.5,0.5,-7.679255397033691,-0.15025,-0.001,-0.2505,-0.010297853320640128,10,1,100,0.6985005237895217,-10,-1,-100,6485.493927688221,-0.06722209347203162,-0.004886790851061341,0.9977260693318659,203.08673261789966,21.32003153570695,-121.62923297552994,7.500820742397353,-38.208770751953125,4381.2578125,True
1599569967.8746443,0.0,10,0.5,0.5,-7.300242266845703,-0.15025,-0.001,-0.2505,0.05723830467156607,10,1,100,0.6755897191570976,-10,-1,-100,6485.75019314338,-0.0668237240963226,-0.003882683038374765,0.9977572423542322,202.8502335713782,21.29782126620718,-115.3653383022948,7.12080471571176,-39.50311279296875,4381.2578125,True
1599569967.9334884,0.0,10,0.5,0.5,-6.6306092773437495,-0.15025,-0.001,-0.2505,0.1634733278015688,10,1,100,0.6235126096922513,-10,-1,-100,6486.165058942395,-0.06592739301045551,-0.0020005551047156934,0.9978224173820299,202.33925787415208,21.24548261710043,-105.9048769405978,6.550730333136578,-41.9957275390625,4381.2578125,True
1599569967.997316,0.0,10,0.5,0.5,-6.867963079833984,-0.15025,-0.001,-0.2505,0.05514827553513481,10,1,100,0.6778509977911549,-10,-1,-100,6486.2611808103975,-0.06554659792146596,-0.0012724842264434685,0.9978486980924588,202.08567826452335,21.218530197494232,-102.7168213043074,6.360687306619779,-42.9735107421875,4381.2578125,True
1599569968.059153,0.0,10,0.5,0.5,-5.764959101867675,-0.15025,-0.001,-0.2505,0.244943720257688,10,1,100,0.563931432199364,-10,-1,-100,6486.674996326794,-0.06410520033707602,0.0011159683278512591,0.997942522345067,200.897761184432,21.09044640577714,-92.99328522577758,5.79048081976495,-46.348785400390625,4381.2578125,True
1599569968.1209867,0.0,10,0.5,0.5,-5.560281350708008,-0.15025,-0.001,-0.2505,0.20379651405695212,10,1,100,0.575522571155135,-10,-1,-100,6486.868649672135,-0.06290307873162779,0.0029058429346866177,0.9980154100828913,199.59847674586797,20.949900485690097,-86.34492658796877,5.4102569307292985,-48.96673583984375,4381.2578125,True
1599569968.1808252,0.0,10,0.5,0.5,-5.047454211425782,-0.15025,-0.001,-0.2505,0.23296015553798619,10,1,100,0.5393797463094462,-10,-1,-100,6487.06179393956,-0.061485712759206446,0.004789131835915981,0.9980964739656937,197.741441147651,20.74941508080211,-79.54568144942873,5.029941671729915,-51.87957763671875,4381.2578125,True
1599569968.2426598,0.0,10,0.5,0.5,-5.147475912475586,-0.15025,-0.001,-0.2505,0.15136543789813584,10,1,100,0.5933538063005492,-10,-1,-100,6487.157870695344,-0.060693393374424635,0.0057489087606684775,0.9981399010403095,196.559158898476,20.6220803284781,-76.08806111252783,4.83974296508541,-53.44677734375,4381.2578125,True
1599569968.3062224,0.0,10,0.5,0.5,-4.193721934509277,-0.15025,-0.001,-0.2505,0.2770767366215309,10,1,100,0.480052456281846,-10,-1,-100,6487.351963656605,-0.05894936500646347,0.007753152943316803,0.9982308655740777,193.58240333025472,20.302522838403036,-69.05795241248498,4.45924535706386,-56.802032470703125,4381.2578125,True
1599569968.3700912,0.0,10,0.5,0.5,-3.5691374481201166,-0.15025,-0.001,-0.2505,0.30055380770751255,10,1,100,0.43709476235041694,-10,-1,-100,6487.54408903874,-0.05698117463783005,0.009776119627167571,0.9983273877951705,189.660858859352,19.88348650542322,-61.89467592093231,4.078586307595984,-60.452880859375,4381.2578125,True
1599569968.434926,0.0,10,0.5,0.5,-2.0648626190185544,-0.15025,-0.001,-0.2505,0.4400585684470291,10,1,100,0.2611580815670951,-10,-1,-100,6487.7707333370345,-0.05360192520014009,0.012869689727662592,0.9984794463088124,181.66381580606378,19.034019165325194,-50.99242315479088,3.5072245548212675,-66.48291015625,4381.2578125,True
1599569968.4968004,0.0,10,0.5,0.5,-2.707694331359863,-0.15025,-0.001,-0.2505,0.24346666506280334,10,1,100,0.46214691020554566,-10,-1,-100,6487.805263323593,-0.0523694333973823,0.013878684805911718,0.9985313337866244,178.38402138731578,18.6871289985962,-47.354620869661545,3.316652160902032,-68.64102172851562,4381.2578125,True
1599569968.5606625,0.0,10,0.5,0.5,-0.4725590057373048,-0.15025,-0.001,-0.2505,0.46483061311255425,10,1,100,0.1466783829424244,-10,-1,-100,6487.969395644264,-0.048394230865845884,0.016792205888550217,0.9986871483303967,166.40099721366533,17.425209026463357,-36.56020158819231,2.744460882531148,-75.56011962890625,4381.2578125,True
1599569968.623495,0.0,10,0.5,0.5,-0.2053152069091797,-0.15025,-0.001,-0.2505,0.37795019832712995,10,1,100,0.22442799317040923,-10,-1,-100,6488.10046771646,-0.04550316425938047,0.018633955137451117,0.998790387297715,156.61332619051652,16.397839995832797,-29.625921255569306,2.3626284826411896,-80.5435791015625,4381.2578125,True
1599569968.6862998,0.0,10,0.5,0.5,0.6570679519653321,-0.15025,-0.001,-0.2505,0.38109524133948214,10,1,100,0.17904890570704485,-10,-1,-100,6488.167092517135,-0.04248060603443776,0.02031876717350614,0.9988906575854514,145.3618938624824,15.218735050712125,-23.053869606171173,1.9806071280435753,-85.80117797851562,4381.2578125,True
1599569968.749888,0.0,10,0.5,0.5,1.5151439247131346,-0.15025,-0.001,-0.2505,0.3819554744970598,10,1,100,0.13546446603670903,-10,-1,-100,6488.2347060202155,-0.03935626237321647,0.021840777690583547,0.9989865189490202,151.91271263547702,15.904520093483075,-19.44690577174659,1.5985053762609152,-91.21891784667969,4381.2578125,True
1599569968.8125184,0.0,10,0.5,0.5,2.351096538925171,-0.15025,-0.001,-0.2505,0.3821231890151445,10,1,100,0.08991325081384854,-10,-1,-100,6488.301356667886,-0.03612325419404239,0.02320873471558569,0.9990778073500252,159.62746504720468,16.71130228199655,-15.55202570899071,1.216431059459134,-96.68085479736328,4381.2578125,True
1599569968.8746867,0.0,10,0.5,0.5,3.1141689098358154,-0.15025,-0.001,-0.2505,0.37753843101974277,10,1,100,0.049946870912846886,-10,-1,-100,6488.30698799633,-0.03284388190347972,0.024393907299375194,0.999162757866895,167.17013601128335,17.498796058557705,-11.1737335408833,0.8344415551503275,-101.98792266845703,4381.2578125,True
1599569968.9395144,0.0,10,0.5,0.5,2.813959172058105,-0.15025,-0.001,-0.2505,0.3187731918202103,10,1,100,0.19311507213318407,-10,-1,-100,6488.34106098162,-0.031189481206308493,0.024920157475061988,0.99920278322946,170.32899941222365,17.828363698463214,-8.779895437307603,0.6434730117047271,-104.54402160644531,4381.2578125,True
1599569969.0022233,0.0,10,0.5,0.5,5.078022185516357,-0.15025,-0.001,-0.2505,0.4135954160740105,10,1,100,-0.18960643670458316,-10,-1,-100,6488.318308806047,-0.026231430386536907,0.026244980578419307,0.9993113193866637,179.05775707119432,18.740258490640084,-1.0123071000330695,0.07056111080054528,-111.77943420410156,4381.2578125,True
1599569969.0670798,0.0,10,0.5,0.5,4.178443640136718,-0.15025,-0.001,-0.2505,0.32209411916803377,10,1,100,0.12206903467856844,-10,-1,-100,6488.350448849727,-0.02458547914863802,0.02660256355418867,0.9993437135577415,181.34809967165592,18.97963628513296,1.750220084201646,-0.12044734957346481,-114.04458618164062,4381.2578125,True
1599569969.129881,0.0,10,0.5,0.5,6.16191699180603,-0.15025,-0.001,-0.2505,0.38025014951514174,10,1,100,-0.2561541389829507,-10,-1,-100,6488.3277566066245,-0.019677145940944767,0.027443845740928594,0.9994296599854173,186.72892179576016,19.541809981566814,10.380767507105773,-0.6936606500495808,-120.39801788330078,4381.2578125,True
1599569969.191718,0.0,10,0.5,0.5,5.365103303909302,-0.15025,-0.001,-0.2505,0.32171543979220363,10,1,100,0.05911147730322683,-10,-1,-100,6488.298883128329,-0.018110796161512913,0.02766418203963362,0.9994531965502308,188.18291735083955,19.69374221842615,13.345095024926213,-0.8847901752358345,-122.3681869506836,4381.2578125,True
1599569969.2542925,0.0,10,0.5,0.5,7.06769627532959,-0.15025,-0.001,-0.2505,0.34832086472416307,10,1,100,-0.3069069698347805,-10,-1,-100,6488.2113149134675,-0.013386931783233282,0.02809647165042774,0.9995155718337898,191.0441698828636,19.992575203540206,22.33532737842033,-1.4583558077570697,-127.83653259277344,4381.2578125,True
1599569969.3171659,0.0,10,0.5,0.5,6.373770735931397,-0.15025,-0.001,-0.2505,0.31834570006268414,10,1,100,-0.00034768366739690304,-10,-1,-100,6488.181975190411,-0.011908608797660874,0.02820835842103352,0.9995311268548344,191.56301604315738,20.04663183862777,25.33482365953055,-1.649601235135789,-129.5113067626953,4381.2578125,True
1599569969.3799567,0.0,10,0.5,0.5,7.212611723327636,-0.15025,-0.001,-0.2505,0.31547677125041623,10,1,100,-0.1870831562284589,-10,-1,-100,6488.1242842640495,-0.00889487633043701,0.028276820140338586,0.999560554752846,192.1315941746288,20.105560162818612,31.30774984250607,-2.0321696784941574,-132.64044189453125,4381.2578125,True
1599569969.4447834,0.0,10,0.5,0.5,8.091086921691895,-0.15025,-0.001,-0.2505,0.3157104426745553,10,1,100,-0.344814732679362,-10,-1,-100,6487.974796183291,-0.004748888288900542,0.02833533140497195,0.9995871933224183,191.9943594209318,20.089732648262853,40.13195312233109,-2.606191482644309,-136.77813720703125,4381.2578125,True
1599569969.5096428,0.0,10,0.5,0.5,8.016017102050782,-0.15025,-0.001,-0.2505,0.3028403219475904,10,1,100,-0.22395975904956056,-10,-1,-100,6487.85367348569,-0.002107011980415713,0.028266861823766795,0.9995981917866551,191.48187274592462,20.034537828016905,45.91078738920306,-2.988965054667357,-139.1671905517578,4381.2578125,True
1599569969.5744722,0.0,10,0.5,0.5,8.259735982513428,-0.15025,-0.001,-0.2505,0.302695426094169,10,1,100,-0.23443259463897853,-10,-1,-100,6487.732566599036,0.00036195874181696463,0.028199778647163377,0.9996022416291993,190.7545929190757,19.95625856332976,51.603066418323934,-3.371797775618593,-141.25941467285156,4381.2578125,True
1599569969.6392636,0.0,10,0.5,0.5,8.113962846374513,-0.15025,-0.001,-0.2505,0.30558469551652406,10,1,100,-0.12022098580223102,-10,-1,-100,6487.64076961542,0.0015395070999233982,0.028162078553025223,0.9996021844961437,190.34941095793553,19.912503453387956,54.421680519051634,-3.5632334378246493,-142.19430541992188,4381.2578125,True
1599569969.7020955,0.0,10,0.5,0.5,8.543260425567627,-0.15025,-0.001,-0.2505,0.2958225454966187,10,1,100,-0.2558976798867565,-10,-1,-100,6487.518708230695,0.0038181837921645147,0.02803731610546903,0.9995995850229887,189.61421908584984,19.832258387496342,60.04756529142943,-3.94613940596951,-143.8423309326172,4381.2578125,True
1599569969.766922,0.0,10,0.5,0.5,8.901149116516113,-0.15025,-0.001,-0.2505,0.2879060466258017,10,1,100,-0.3746511633676269,-10,-1,-100,6487.2433493755525,0.006943463668627258,0.027850623206545716,0.9995879806696804,188.70170605998985,19.730184290837514,68.47630488480407,-4.520578835625223,-145.75808715820312,4381.2578125,True
1599569969.8337767,0.0,10,0.5,0.5,8.787022911071778,-0.15025,-0.001,-0.2505,0.2928024058913889,10,1,100,-0.2739211404969905,-10,-1,-100,6487.060274448711,0.008844699157851629,0.027725044948606573,0.9995764568953217,188.24949921249396,19.67736042321741,74.1140584571762,-4.9035897727388935,-146.6644744873047,4381.2578125,True
1599569969.8965755,0.0,10,0.5,0.5,8.699395956420899,-0.15025,-0.001,-0.2505,0.29934749524922766,10,1,100,-0.18465951071764805,-10,-1,-100,6486.905018877005,0.009737120699771248,0.027670328378361364,0.9995696781154936,188.0853672413436,19.657101225192935,76.94907998937175,-5.095110594574629,-147.00631713867188,4381.2578125,True
1599569969.9604044,0.0,10,0.5,0.5,8.866101181030274,-0.15025,-0.001,-0.2505,0.2881358136259191,10,1,100,-0.44758314183089,-10,-1,-100,6486.474439645186,0.012917605973015825,0.027519049066355702,0.9995378118882793,187.98107031979706,19.631734527228392,88.50734026531423,-5.861295842835041,-147.63119506835938,4381.2578125,True
1599569970.0222394,0.0,10,0.5,0.5,8.71138124847412,-0.15025,-0.001,-0.2505,0.3031948138910175,10,1,100,-0.13201723598350001,-10,-1,-100,6486.474439645186,0.012917605973015825,0.027519049066355702,0.9995378118882793,187.98107031979706,19.631734527228392,88.50734026531423,-5.861295842835041,-147.63119506835938,4381.2578125,True
1599569970.0880644,0.0,10,0.5,0.5,8.588385858917237,-0.15025,-0.001,-0.2505,0.29720468852434223,10,1,100,-0.35227362040208765,-10,-1,-100,6486.135153226438,0.014900107211090755,0.02746528226399864,0.9995117033208051,188.546480713686,19.67805231457795,97.51028501928414,-6.4360361334731895,-147.32054138183594,4381.2578125,True
1599569970.1528907,0.0,10,0.5,0.5,8.566086839294433,-0.15025,-0.001,-0.2505,0.30517196261064555,10,1,100,-0.21831402465987976,-10,-1,-100,6485.979904271546,0.015466703833956992,0.027489624070950406,0.9995024270310456,188.85553739594087,19.70578619816941,100.58911765224431,-6.627632959789528,-147.06808471679688,4381.2578125,True
1599569970.2207458,0.0,10,0.5,0.5,8.339369333648682,-0.15025,-0.001,-0.2505,0.29632313030697266,10,1,100,-0.28319308476991434,-10,-1,-100,6485.7328793697525,0.016555625205004455,0.027432015636103,0.9994865660889155,189.6653617877104,19.7809240656665,106.88654891759565,-7.010846688597044,-146.3425750732422,4381.2578125,True
1599569970.284576,0.0,10,0.5,0.5,7.8617280525207525,-0.15025,-0.001,-0.2505,0.3105306108372013,10,1,100,-0.31526991905857593,-10,-1,-100,6485.267122100107,0.017822439793614357,0.02750950121198113,0.9994626496187193,191.25588312616495,19.93233674112838,116.66371257371337,-7.585701192944651,-144.69593811035156,4381.2578125,True
1599569970.3484046,0.0,10,0.5,0.5,7.686134385681151,-0.15025,-0.001,-0.2505,0.30791316033225496,10,1,100,-0.26356805187579857,-10,-1,-100,6484.958564592409,0.0184892697791493,0.02755674089213541,0.9994492347960638,192.51122265873968,20.053624745926456,123.39423132677247,-7.968945694823317,-143.22787475585938,4381.2578125,True
1599569970.409276,0.0,10,0.5,0.5,7.71506015701294,-0.15025,-0.001,-0.2505,0.306986230075503,10,1,100,-0.2281117842401116,-10,-1,-100,6484.802819121396,0.018759811800232108,0.02759169630377186,0.9994432288811106,193.17013383923413,20.117636067825984,126.81080754243357,-8.160566777648318,-142.38255310058594,4381.2578125,True
1599569970.473075,0.0,10,0.5,0.5,6.732101746368407,-0.15025,-0.001,-0.2505,0.31586499899750947,10,1,100,-0.2646831311396152,-10,-1,-100,6484.2745365507435,0.01932748374745596,0.02770442541991667,0.9994292937392539,195.16908734895406,20.312998659320307,137.20537446218805,-8.735409968212624,-139.40220642089844,4381.2578125,True
1599569970.5354207,0.0,10,0.5,0.5,6.533411225128173,-0.15025,-0.001,-0.2505,0.3121660676752584,10,1,100,-0.22993905542978452,-10,-1,-100,6483.90101708693,0.019518164116125,0.027773298531235748,0.9994236765047299,196.40858668368543,20.435022478221093,144.17562846434853,-9.118607078465311,-137.04527282714844,4381.2578125,True
1599569970.5986114,0.0,10,0.5,0.5,6.60609454498291,-0.15025,-0.001,-0.2505,0.30869789369205447,10,1,100,-0.21597380776308406,-10,-1,-100,6483.74721299333,0.01955566125120289,0.02780428798699408,0.9994220818465861,196.96063832337114,20.489646705631284,147.64053634949224,-9.310192055663075,-135.755859375,4381.2578125,True
1599569970.6604457,0.0,10,0.5,0.5,5.199909189605712,-0.15025,-0.001,-0.2505,0.3138996967273739,10,1,100,-0.1983369090757021,-10,-1,-100,6483.154927321011,0.01942337951749915,0.02787949002989489,0.9994225664671538,198.16192655225112,20.60972633618761,157.78272831470073,-9.884882336284534,-131.44395446777344,4381.2578125,True
1599569970.7225778,0.0,10,0.5,0.5,5.643237319183349,-0.15025,-0.001,-0.2505,0.3074073831275877,10,1,100,-0.19951369833168944,-10,-1,-100,6482.937149433303,0.01930790714050974,0.02788850681711253,0.9994245523847038,198.35660424479988,20.629780351840527,161.02361080461648,-10.07642278288045,-129.8589630126953,4381.2578125,True
1599569970.7863755,0.0,10,0.5,0.5,3.9555805625915523,-0.15025,-0.001,-0.2505,0.3027810098494202,10,1,100,-0.15008250198952522,-10,-1,-100,6482.281845532358,0.018749550649291128,0.027854261207915124,0.9994361382714809,198.07439159554445,20.60515878124225,170.04601332433404,-10.65097517464763,-124.66133117675781,4381.2578125,True
1599569970.8502047,0.0,10,0.5,0.5,3.71899666557312,-0.15025,-0.001,-0.2505,0.29669770079153557,10,1,100,-0.14664690027933408,-10,-1,-100,6481.846753699472,0.018207736690076713,0.027767494537994018,0.9994485702484682,196.96276011443592,20.497571412628492,175.23096758004607,-11.033964107614008,-120.82764434814453,4381.2578125,True
1599569970.9130366,0.0,10,0.5,0.5,2.150947634887695,-0.15025,-0.001,-0.2505,0.276812368488632,10,1,100,-0.08762136605179917,-10,-1,-100,6481.191901526414,0.01717708086009959,0.027507535018128533,0.999474003368948,194.37724711683757,20.247952838838255,182.02934204901024,-11.608420783531217,-114.52487182617188,4381.2578125,True
1599569970.9768667,0.0,10,0.5,0.5,3.7267750450134276,-0.15025,-0.001,-0.2505,0.3028081238557952,10,1,100,-0.19062241315616005,-10,-1,-100,6481.191901526414,0.01717708086009959,0.027507535018128533,0.999474003368948,194.37724711683757,20.247952838838255,182.02934204901024,-11.608420783531217,-114.52487182617188,4381.2578125,True
1599569971.04269,0.0,10,0.5,0.5,0.9326702323913574,-0.15025,-0.001,-0.2505,0.2545352057658317,10,1,100,-0.05261243048956302,-10,-1,-100,6480.474527852377,0.015923637553056934,0.027068735040832508,0.9995067390219878,189.36759852458783,19.75259048436299,186.2169319511848,-12.182939198695834,-107.55984497070312,4381.2578125,True
1599569971.108514,0.0,10,0.5,0.5,0.6657499580383299,-0.15025,-0.001,-0.2505,0.25359487434307015,10,1,100,-0.07273915980682487,-10,-1,-100,6479.974947857205,0.014969692244308878,0.026661752922413687,0.999532420307223,184.59869779541427,19.274607233567277,187.30731222151172,-12.566051652379233,-102.54879760742188,4381.2578125,True
1599569971.1713464,0.0,10,0.5,0.5,-0.20748810577392574,-0.15025,-0.001,-0.2505,0.2385421706048499,10,1,100,-0.056548248541045454,-10,-1,-100,6479.475849210168,0.013959240762579149,0.02615587430122867,0.9995604082980031,179.08934394448266,18.71800566507194,187.33297912847496,-12.949280095884312,-97.24668884277344,4381.2578125,True
1599569971.2321835,0.0,10,0.5,0.5,-1.1147608184814453,-0.15025,-0.001,-0.2505,0.22251777509448062,10,1,100,-0.041243789234755204,-10,-1,-100,6478.913757060887,0.012906570624907252,0.02555177870844803,0.999590179543366,171.86611887128984,17.978264351939764,185.1750895247028,-13.332652303709178,-91.67845153808594,4381.2578125,True
1599569971.2940183,0.0,10,0.5,0.5,-0.8722926170349121,-0.15025,-0.001,-0.2505,0.24506361774683705,10,1,100,-0.0857659988050176,-10,-1,-100,6478.632953815977,0.01236038976005,0.02520961083846755,0.9996057704347013,167.9043133745202,17.56930667979591,183.5461875386979,-13.524393769477921,-88.81390380859375,4381.2578125,True
1599569971.358845,0.0,10,0.5,0.5,-3.5933679313659668,-0.15025,-0.001,-0.2505,0.14997429940410462,10,1,100,0.042437502606062105,-10,-1,-100,6477.790539719048,0.010704796224404,0.024036527952816297,0.999653766392028,162.37598946696698,16.99451568339394,185.17065599610797,-14.099749376618831,-80.2440185546875,4381.2578125,True
1599569971.4216776,0.0,10,0.5,0.5,-2.5576226234436032,-0.15025,-0.001,-0.2505,0.2184171102433127,10,1,100,-0.06109795533582318,-10,-1,-100,6477.508758303244,0.010148763637757598,0.023595798136093683,0.9996700660252591,167.98787363616435,17.578655409264645,194.21693422509156,-14.291483338965488,-77.48406982421875,4381.2578125,True
1599569972.0257797,0.0,10,0.5,0.5,-4.0050574440002435,-0.15025,-0.001,-0.2505,0.1549714474164795,10,1,100,0.008130837370249555,-10,-1,-100,6476.946658325382,0.009021745704397966,0.022622227243439933,0.9997033774770351,177.9746064509444,18.61192035028517,211.373019428331,-14.674787170893964,-72.15884399414062,4381.2578125,True
1599569972.0856202,0.0,10,0.5,0.5,-4.698172431945801,-0.15025,-0.001,-0.2505,0.14050980839698984,10,1,100,0.0147845226584436,-10,-1,-100,6476.321571891196,0.007945046799619881,0.021610370865663486,0.9997348989119067,186.4118515388981,19.477703307854792,227.27173851141555,-15.057848174980215,-67.11276245117188,4381.2578125,True
1599569972.1459658,0.0,10,0.5,0.5,-5.342114738464355,-0.15025,-0.001,-0.2505,0.11455571792367611,10,1,100,0.0281862332018865,-10,-1,-100,6475.758987877984,0.006852788639481668,0.02045991621261156,0.9997671884576107,193.77254783016738,20.228148820914022,242.3579126125806,-15.440657983527421,-62.363555908203125,4381.2578125,True
1599569972.2107937,0.0,10,0.5,0.5,-6.788689428710938,-0.15025,-0.001,-0.2505,0.031318559254917444,10,1,100,0.09073621613972041,-10,-1,-100,6474.790117393481,0.005300576187394455,0.01866375382994429,0.99981176637658,202.11077640685176,21.07160840925301,262.35347501801584,-16.014432578670643,-55.79827880859375,4381.2578125,True
1599569972.277124,0.0,10,0.5,0.5,-5.96641796875,-0.15025,-0.001,-0.2505,0.1406265770570367,10,1,100,-0.008206785062532133,-10,-1,-100,6474.446818406228,0.004798613115849887,0.018032229081366844,0.9998258908562638,204.2614245150553,21.28815255402398,268.3693261211154,-16.20558481498256,-53.75921630859375,4381.2578125,True
1599569972.3459475,0.0,10,0.5,0.5,-7.005199514770508,-0.15025,-0.001,-0.2505,0.061309363360002145,10,1,100,0.050116398630480605,-10,-1,-100,6473.821259150864,0.0038213187255351265,0.016744895116178896,0.9998524921260866,207.74676456795564,21.638732040205287,279.5095550969927,-16.58775136870985,-49.90472412109375,4381.2578125,True
1599569972.4173684,0.0,10,0.5,0.5,-7.4698049880981445,-0.15025,-0.001,-0.2505,0.048419902973420303,10,1,100,0.05699614257158168,-10,-1,-100,6473.134183179936,0.0028795424458181017,0.015465970034480062,0.9998762483458616,210.28573957508195,21.89494807537355,289.5713108922145,-16.969761871331187,-46.34783935546875,4381.2578125,True
1599569972.4831932,0.0,10,0.5,0.5,-7.888919004821776,-0.15025,-0.001,-0.2505,0.025100217286236792,10,1,100,0.06302229314286874,-10,-1,-100,6472.445648729801,0.001977714484681005,0.01410048264366488,0.9998986273791122,212.13103529089395,22.08368002212294,298.8222371836648,-17.35164925921483,-43.089996337890625,4381.2578125,True
1599569972.54802,0.0,10,0.5,0.5,-8.812460389709472,-0.15025,-0.001,-0.2505,-0.05899600895279489,10,1,100,0.11681067111502404,-10,-1,-100,6471.351823205245,0.000678324425059841,0.012104718530018791,0.999926505131894,214.3693049182526,22.320648787098783,312.15973351254377,-17.924299246375394,-38.760467529296875,4381.2578125,True
1599569972.6133533,0.0,10,0.5,0.5,-8.250732661437988,-0.15025,-0.001,-0.2505,0.06541770789987147,10,1,100,0.03379813610354378,-10,-1,-100,6471.007075429428,0.0002608351180534615,0.011432268406658222,0.999934615464491,214.88122381879447,22.377543914921965,316.31220001812227,-18.11514450781003,-37.466217041015625,4381.2578125,True
1599569972.6811712,0.0,10,0.5,0.5,-8.87851467437744,-0.15025,-0.001,-0.2505,-0.015324018821673085,10,1,100,0.08345375005367904,-10,-1,-100,6470.25654961064,-0.0005611262619356548,0.010097992169524967,0.9999488565379044,215.65292463307583,22.468169615583818,324.29340035122203,-18.496789783856425,-35.100677490234375,4381.2578125,True
1599569972.7469969,0.0,10,0.5,0.5,-9.488453996276856,-0.15025,-0.001,-0.2505,-0.0976348985185505,10,1,100,0.1349015688495218,-10,-1,-100,6469.162267373409,-0.0017673596219185733,0.008148118715863045,0.9999652416966096,216.39578073249132,22.5675480164189,335.731595289832,-19.069162528895138,-32.109283447265625,4381.2578125,True
1599569972.8108265,0.0,10,0.5,0.5,-9.392948332214354,-0.15025,-0.001,-0.2505,-0.045013672367959265,10,1,100,0.10132037632849696,-10,-1,-100,6468.349258285714,-0.0025498223749650566,0.006866119679493765,0.9999731770434661,216.76008244343174,22.623701749593106,343.20161237032823,-19.450687845340607,-30.486480712890625,4381.2578125,True
1599569972.879649,0.0,10,0.5,0.5,-9.270227226257324,-0.15025,-0.001,-0.2505,0.013260662426190423,10,1,100,0.067126903470128,-10,-1,-100,6467.943488847464,-0.0029417545690090083,0.00624279068686225,0.9999761865387073,216.93635640793744,22.65200727779409,346.9397437617656,-19.641433699633836,-29.786285400390625,4381.2578125,True
1599569972.9439871,0.0,10,0.5,0.5,-9.569614459228516,-0.15025,-0.001,-0.2505,-0.057129446341693535,10,1,100,0.11628030376520526,-10,-1,-100,6467.192501021316,-0.0037374126292256636,0.005047509671255639,0.9999802770019803,217.31762064740008,22.712978442316214,354.48736410931934,-20.022889459778096,-28.6080322265625,4381.2578125,True
1599569973.0068195,0.0,10,0.5,0.5,-9.762174751281737,-0.15025,-0.001,-0.2505,-0.13293217021007625,10,1,100,0.16619352618638367,-10,-1,-100,6465.972280375194,-0.004906734682574176,0.0032835791850007964,0.9999825708793583,218.07225999663325,22.826154589001916,366.1801608167425,-20.594969714266227,-27.397308349609375,4381.2578125,True
1599569973.068164,0.0,10,0.5,0.5,-9.563454667663574,-0.15025,-0.001,-0.2505,-0.02052819190665641,10,1,100,0.09294621278681146,-10,-1,-100,6465.503531399532,-0.005295935469796614,0.0027140979238285544,0.9999822932132147,218.39483931148314,22.871822812315255,370.2191708602776,-20.78563110030685,-27.141998291015625,4381.2578125,True
1599569973.1309965,0.0,10,0.5,0.5,-9.630641410827636,-0.15025,-0.001,-0.2505,-0.13899470910312306,10,1,100,0.18759916720241357,-10,-1,-100,6464.2843036997365,-0.006502803518399199,0.00113101195925923,0.9999782169419239,219.62309224889808,23.037042184169437,382.8664706654018,-21.357500924287624,-26.819549560546875,4381.2578125,True
1599569973.195823,0.0,10,0.5,0.5,-9.489232528686522,-0.15025,-0.001,-0.2505,-0.09252418316561695,10,1,100,0.15656631208674032,-10,-1,-100,6463.406387483468,-0.007310129863347174,0.00012609265515935923,0.9999732726938373,220.67376370384693,23.171859262332404,391.7865094919904,-21.73863820013191,-26.97491455078125,4381.2578125,True
1599569973.2586558,0.0,10,0.5,0.5,-9.34860849456787,-0.15025,-0.001,-0.2505,-0.09550213971055502,10,1,100,0.16742237211399863,-10,-1,-100,6462.530916964519,-0.008135492127830948,-0.0008036530209082698,0.9999665833964954,221.90775703509945,23.32582460068333,401.113869549958,-22.119674991035538,-27.425872802734375,4381.2578125,True
1599569973.320691,0.0,10,0.5,0.5,-9.327865008544922,-0.15025,-0.001,-0.2505,-0.05072635160283295,10,1,100,0.13235648056546354,-10,-1,-100,6462.062666484388,-0.008559407602151438,-0.0012307001786926715,0.9999626102602889,222.59076403876895,23.409583732727775,405.9306946900694,-22.31015221006504,-27.76202392578125,4381.2578125,True
1599569973.3845215,0.0,10,0.5,0.5,-9.05435802154541,-0.15025,-0.001,-0.2505,-0.10053655424275951,10,1,100,0.18361392339758714,-10,-1,-100,6461.185737566557,-0.00940349089424372,-0.002061446080361262,0.9999536613258935,224.063930780474,23.587789431903083,415.8348464153278,-22.691018187516182,-28.656463623046875,4381.2578125,True
1599569973.451342,0.0,10,0.5,0.5,-8.519196841430665,-0.15025,-0.001,-0.2505,-0.13942175277906238,10,1,100,0.2420070061556085,-10,-1,-100,6459.778064978891,-0.010694743610971147,-0.0031608900096661667,0.9999378136831522,226.47527355663536,23.873898282990712,431.266234341223,-23.26208027743748,-30.55181884765625,4381.2578125,True
1599569973.5151742,0.0,10,0.5,0.5,-8.33971279144287,-0.15025,-0.001,-0.2505,-0.10066057435850717,10,1,100,0.2096821998817262,-10,-1,-100,6458.838643804542,-0.011567343368018963,-0.003798894678220887,0.9999258797364085,228.13368063462917,24.067484386840135,441.7901608044302,-23.642622067176053,-32.184417724609375,4381.2578125,True
1599569973.580995,0.0,10,0.5,0.5,-8.376979653930665,-0.15025,-0.001,-0.2505,-0.06931239260921447,10,1,100,0.17162508903501916,-10,-1,-100,6458.369422739721,-0.01200680069509327,-0.004084786647036078,0.9999195723932583,228.95250197250922,24.162157902516853,447.07436551854505,-23.832842166321985,-33.111328125,4381.2578125,True
1599569973.6448274,0.0,10,0.5,0.5,-7.777305996704102,-0.15025,-0.001,-0.2505,-0.09518489023977615,10,1,100,0.22522740304685812,-10,-1,-100,6457.367504725698,-0.012886083494299476,-0.004571590873220184,0.9999065203353091,230.51444225184585,24.340973344108875,457.57654105503343,-24.213181935490883,-35.18597412109375,4381.2578125,True
1599569973.7096524,0.0,10,0.5,0.5,-7.346572708129883,-0.15025,-0.001,-0.2505,-0.09357067590140168,10,1,100,0.23428354034032572,-10,-1,-100,6456.428576803766,-0.013760506060962347,-0.004992324430258493,0.9998928568450368,231.89548164184018,24.496612828451003,467.8211834734669,-24.59339342810642,-37.5556640625,4381.2578125,True
1599569973.7744818,0.0,10,0.5,0.5,-6.871368865966796,-0.15025,-0.001,-0.2505,-0.09001045701787358,10,1,100,0.24343520266700752,-10,-1,-100,6455.427638262045,-0.014630937533088277,-0.005335438017393894,0.9998787270304662,232.98577232208572,24.616644333256932,477.5663157983587,-24.973489669004337,-40.2200927734375,4381.2578125,True
1599569973.8363135,0.0,10,0.5,0.5,-6.351863124084472,-0.15025,-0.001,-0.2505,-0.0816660776008701,10,1,100,0.25098163384003347,-10,-1,-100,6454.425722752814,-0.015483453578398731,-0.0055656228746563605,0.9998646340916867,233.66185813996424,24.68726943386654,486.52797211861883,-25.353491161809714,-43.178558349609375,4381.2578125,True
1599569973.8991458,0.0,10,0.5,0.5,-5.091783248901367,-0.15025,-0.001,-0.2505,-0.08039010323265534,10,1,100,0.3022890543273783,-10,-1,-100,6452.891598959803,-0.016717468966097687,-0.005758107781975,0.999843672994003,233.80790682191298,24.68962217950949,498.2225307633309,-25.92337448194008,-48.1680908203125,4381.2578125,True
1599569973.961977,0.0,10,0.5,0.5,-5.614157009887696,-0.15025,-0.001,-0.2505,-0.06381955488928807,10,1,100,0.2232713067503215,-10,-1,-100,6452.358903012471,-0.01711315617981598,-0.005777948662996727,0.9998368642907767,233.63651818658857,24.66384160737866,501.6577428624399,-26.113318161464836,-49.978271484375,4381.2578125,True
1599569974.0248086,0.0,10,0.5,0.5,-2.8693652557373044,-0.15025,-0.001,-0.2505,-0.04662513740065556,10,1,100,0.3440406697745909,-10,-1,-100,6450.231529627694,-0.018562998993800817,-0.005635539079043179,0.9998118101761174,230.75890006523358,24.31405979692668,510.5352836440513,-26.87313937420462,-57.953369140625,4381.2578125,True
1599569974.0881507,0.0,10,0.5,0.5,-4.864197528076171,-0.15025,-0.001,-0.2505,-0.06122350509587849,10,1,100,0.19997233918606283,-10,-1,-100,6450.231529627694,-0.018562998993800817,-0.005635539079043179,0.9998118101761174,230.75890006523358,24.31405979692668,510.5352836440513,-26.87313937420462,-57.953369140625,4381.2578125,True
1599569974.1549723,0.0,10,0.5,0.5,-3.086847143554688,-0.15025,-0.001,-0.2505,-0.04239877295459048,10,1,100,0.2734792201790609,-10,-1,-100,6449.10362949816,-0.0192240904070255,-0.005462155469513855,0.9998002796587174,227.72867143706503,23.96469084657051,511.29160018433817,-27.25315999203487,-62.381591796875,4381.2578125,True
1599569974.220807,0.0,10,0.5,0.5,-1.3108353988647463,-0.15025,-0.001,-0.2505,-0.014969814011354672,10,1,100,0.29784711522100155,-10,-1,-100,6447.445463487646,-0.020039648240302847,-0.005053667778829331,0.9997864136606309,220.75968231589025,23.184613138025888,506.54104294143804,-27.823460992402747,-69.57376098632812,4381.2578125,True
1599569974.2846377,0.0,10,0.5,0.5,-2.089255844116211,-0.15025,-0.001,-0.2505,-0.038235266353039574,10,1,100,0.24497950640581367,-10,-1,-100,6446.913247708697,-0.020293147238103083,-0.004892938643920724,0.9997820999230781,217.77741824414545,22.856934823625156,503.29503212112627,-28.013652587505312,-72.117919921875,4381.2578125,True
1599569974.3464723,0.0,10,0.5,0.5,-0.5956145065307616,-0.15025,-0.001,-0.2505,-0.014584647106660173,10,1,100,0.26520694026913494,-10,-1,-100,6445.7843601165805,-0.020700752940548215,-0.004531523484699723,0.9997754468492421,210.7902358014128,22.099975091522225,494.13133837798625,-28.394189142862217,-77.42611694335938,4381.2578125,True
1599569974.409306,0.0,10,0.5,0.5,0.3235565063476562,-0.15025,-0.001,-0.2505,-0.00821074277693052,10,1,100,0.2606307997573722,-10,-1,-100,6444.595896919956,-0.02102339298640996,-0.004145438574179051,0.9997703897827573,202.10019577763234,21.175823068514383,480.481957522279,-28.774934941327015,-83.02783203125,4381.2578125,True
1599569974.4735496,0.0,10,0.5,0.5,2.5051428184509277,-0.15025,-0.001,-0.2505,0.022674995337510065,10,1,100,0.2672432109175653,-10,-1,-100,6442.874718563864,-0.02137100362460119,-0.0035147546721591757,0.9997654358416638,204.87115534975868,21.474054099433946,497.3264653968816,-29.34609570367532,-91.96241760253906,4381.2578125,True
1599569974.538376,0.0,10,0.5,0.5,1.509367456817627,-0.15025,-0.001,-0.2505,-0.016829946740673608,10,1,100,0.2404712037869187,-10,-1,-100,6442.280482618371,-0.021438279094454428,-0.0033024059330359562,0.9997647194737977,210.06455231625773,22.028473142571677,513.4437847208671,-29.536309357827466,-95.05027770996094,4381.2578125,True
1599569974.603711,0.0,10,0.5,0.5,4.427962209701538,-0.15025,-0.001,-0.2505,0.030757288430427777,10,1,100,0.24284507849783935,-10,-1,-100,6440.492884880863,-0.02151672764612178,-0.002678982852140234,0.9997648991049248,224.97703106766147,23.63902248077418,561.1678589183723,-30.106274008223547,-104.2515640258789,4381.2578125,True
1599569974.6665432,0.0,10,0.5,0.5,4.476284697723389,-0.15025,-0.001,-0.2505,0.012304584635153062,10,1,100,0.23002001252508514,-10,-1,-100,6439.30440295313,-0.02146744975564315,-0.0022828036911110355,0.999766941546027,232.63478219514369,24.480152437331487,588.029844491399,-30.485698361293608,-110.11012268066406,4381.2578125,True
1599569974.7303848,0.0,10,0.5,0.5,4.144379573059082,-0.15025,-0.001,-0.2505,-0.006001309471010324,10,1,100,0.22926354026940635,-10,-1,-100,6438.657426648773,-0.021413134243100183,-0.002092105977856824,0.9997685235965695,236.19465212570404,24.87234703333701,600.9638834643681,-30.67525602480839,-112.93095397949219,4381.2578125,True
1599569974.7942145,0.0,10,0.5,0.5,5.61520411567688,-0.15025,-0.001,-0.2505,0.011697872106368055,10,1,100,0.21772215868425554,-10,-1,-100,6437.395697205327,-0.021256243821605843,-0.001761064072468816,0.9997725095000007,241.86483204504123,25.500558866070197,623.4446768216451,-31.054105767985373,-118.35065460205078,4381.2578125,True
1599569974.860066,0.0,10,0.5,0.5,7.2972347511291495,-0.15025,-0.001,-0.2505,0.026056660886298252,10,1,100,0.19411255968440777,-10,-1,-100,6435.547530893004,-0.02089713603532639,-0.0013329470708413024,0.9997807424418755,247.69454104190655,26.14496447805483,650.8369246847726,-31.621864042433224,-125.921630859375,4381.2578125,True
1599569974.9238684,0.0,10,0.5,0.5,6.357998936462402,-0.15025,-0.001,-0.2505,-0.003689217660534398,10,1,100,0.2136249043351569,-10,-1,-100,6434.8878543621395,-0.020747279828447315,-0.0012175493477038486,0.9997840106509536,248.90058836155572,26.276646059640722,658.1490995349204,-31.81101851662415,-128.29632568359375,4381.2578125,True
1599569974.986731,0.0,10,0.5,0.5,7.582575074768066,-0.15025,-0.001,-0.2505,0.005249758874436444,10,1,100,0.19250673605353974,-10,-1,-100,6433.632464578142,-0.020418650717278594,-0.0010347201666211711,0.9997909821843076,250.36539544252597,26.431479723446643,670.3642963470047,-32.18923301426696,-132.8223876953125,4381.2578125,True
1599569975.0495675,0.0,10,0.5,0.5,8.951367738342284,-0.15025,-0.001,-0.2505,0.004949856086141279,10,1,100,0.16313591086020984,-10,-1,-100,6431.668565883534,-0.01985314593466155,-0.000874417121274219,0.9998025244973104,250.5936327658637,26.435943029601127,683.5276628702959,-32.75642835015999,-139.05328369140625,4381.2578125,True
1599569975.1123643,0.0,10,0.5,0.5,8.16885383605957,-0.15025,-0.001,-0.2505,-0.008612174401644452,10,1,100,0.1965405026252271,-10,-1,-100,6431.014258332434,-0.0196437926456478,-0.0008549519221685918,0.999806676546874,250.24728992279978,26.388296238488838,686.7712956019708,-32.945483516770786,-140.98147583007812,4381.2578125,True
1599569975.1782212,0.0,10,0.5,0.5,9.14678278427124,-0.15025,-0.001,-0.2505,-0.011296572494277294,10,1,100,0.17023782953268823,-10,-1,-100,6429.693923112587,-0.019215926455683995,-0.0008640779081419479,0.999814983654385,249.063250480207,26.235880120087945,691.8768680595575,-33.32360482239291,-144.61476135253906,4381.2578125,True
1599569975.2420175,0.0,10,0.5,0.5,10.202216283416748,-0.15025,-0.001,-0.2505,-0.02495809663649,10,1,100,0.1379854721459065,-10,-1,-100,6427.653361277655,-0.018535774263690494,-0.0009987865948877454,0.9998276989050581,246.39235721300582,25.903801960082802,696.9050713328443,-33.89085396837331,-149.5071258544922,4381.2578125,True
1599569975.3048801,0.0,10,0.5,0.5,9.575223948669432,-0.15025,-0.001,-0.2505,-0.02037821838790986,10,1,100,0.17957376675111744,-10,-1,-100,6426.9365532925585,-0.018298239452273258,-0.0010811412317216077,0.9998319886693885,245.34465525014562,25.775135338141098,698.0873672421532,-34.07996100894776,-150.98939514160156,4381.2578125,True
1599569975.3687105,0.0,10,0.5,0.5,10.81136420211792,-0.15025,-0.001,-0.2505,-0.04776910357446282,10,1,100,0.12394046495192593,-10,-1,-100,6424.902827763115,-0.017579422525813456,-0.0014061095509568635,0.9998444812867597,241.97358749444527,25.364057005467497,700.8042690357154,-34.64735778816291,-154.99029541015625,4381.2578125,True
1599569975.4335063,0.0,10,0.5,0.5,10.733548217010497,-0.15025,-0.001,-0.2505,-0.04829357886655611,10,1,100,0.14132872789793477,-10,-1,-100,6423.524388224818,-0.017087512902829432,-0.0017069268860323986,0.9998525407795898,239.69448264988588,25.087424889684947,702.3668521273115,-35.0256780597418,-157.2864990234375,4381.2578125,True
1599569975.4988859,0.0,10,0.5,0.5,10.577772653961182,-0.15025,-0.001,-0.2505,-0.03770027365110454,10,1,100,0.16274831762523695,-10,-1,-100,6422.796839116141,-0.0168388356348365,-0.0018841436315846312,0.9998564415040984,238.5865210697904,24.953017754534613,703.193120060773,-35.21485095461471,-158.32337951660156,4381.2578125,True
1599569975.5612268,0.0,10,0.5,0.5,11.389331474304198,-0.15025,-0.001,-0.2505,-0.08434078779567936,10,1,100,0.10411404218481371,-10,-1,-100,6420.642024387373,-0.016083415887566795,-0.002468753350163938,0.9998676057310206,235.52199179677504,24.580146700798085,706.260597609004,-35.782399716799446,-160.988525390625,4381.2578125,True
1599569975.6260533,0.0,10,0.5,0.5,11.021618348693847,-0.15025,-0.001,-0.2505,-0.0509636661037138,10,1,100,0.1511967671304308,-10,-1,-100,6419.9252184546785,-0.015828935311318928,-0.002695650893488657,0.9998710808265086,234.6215929192784,24.469685804371736,707.5903808331835,-35.97158588689563,-161.72872924804688,4381.2578125,True
1599569975.6899114,0.0,10,0.5,0.5,11.343333609771728,-0.15025,-0.001,-0.2505,-0.08372089292320936,10,1,100,0.12000596525847365,-10,-1,-100,6418.487212680979,-0.01531820905717213,-0.0031982044214821184,0.9998775544834274,233.04897446944446,24.274322748284444,710.8699469226731,-36.3499502668969,-162.9869842529297,4381.2578125,True
1599569975.756362,0.0,10,0.5,0.5,11.415917207336426,-0.15025,-0.001,-0.2505,-0.0916014885639153,10,1,100,0.11266126890754422,-10,-1,-100,6417.042861043708,-0.014791265165555217,-0.00372460050975513,0.9998836661461395,231.82443181526187,24.117351087696868,715.136016618858,-36.7282890198937,-163.94863891601562,4381.2578125,True
1599569976.3089287,0.0,10,0.5,0.5,11.444249652099609,-0.15025,-0.001,-0.2505,-0.1059056681357879,10,1,100,0.10733976663214667,-10,-1,-100,6415.5394289057,-0.014268259359290858,-0.0043305716328498126,0.9998888252821855,230.99353222030243,24.00304082488358,720.565008064202,-37.10658351960253,-164.61471557617188,4381.2578125,True
1599569976.3617938,0.0,10,0.5,0.5,11.42766075744629,-0.15025,-0.001,-0.2505,-0.11534107545258672,10,1,100,0.09952476207487986,-10,-1,-100,6414.035998835345,-0.013726251918617554,-0.004964079544247961,0.9998934682867695,230.58158760871768,23.933408065271,727.2760593209341,-37.48481533217981,-164.98468017578125,4381.2578125,True
1599569976.4210994,0.0,10,0.5,0.5,11.366238854980468,-0.15025,-0.001,-0.2505,-0.08920340593931228,10,1,100,0.1230406965223269,-10,-1,-100,6413.315778413205,-0.013451671396932317,-0.005298775838171637,0.9998954822936473,230.54013508786812,23.91589411141182,731.1490405388415,-37.67390191836145,-165.05880737304688,4381.2578125,True
1599569976.4807808,0.0,10,0.5,0.5,11.349162542724608,-0.15025,-0.001,-0.2505,-0.09398511296973583,10,1,100,0.11926378033118722,-10,-1,-100,6412.535988727235,-0.013172123110076596,-0.00564268104691842,0.9998973223903421,230.6105018169489,23.910011129202484,735.3812132189989,-37.86296598105006,-165.05902099609375,4381.2578125,True
1599569976.5416183,0.0,10,0.5,0.5,11.261473446655273,-0.15025,-0.001,-0.2505,-0.13864772343120432,10,1,100,0.08378576827740147,-10,-1,-100,6411.029144766973,-0.012599467557369468,-0.006357494448614335,0.9999004128820063,231.08678276635445,23.932755154973687,744.9461041589151,-38.24101663829956,-164.83782958984375,4381.2578125,True
1599569976.6017256,0.0,10,0.5,0.5,11.110743479919432,-0.15025,-0.001,-0.2505,-0.15175549323329035,10,1,100,0.07666150817889422,-10,-1,-100,6409.463709870935,-0.012018185640690612,-0.007122258568754511,0.9999024135618364,232.00832863139595,24.0006331316617,756.0093097106953,-38.61894808422628,-164.32156372070312,4381.2578125,True
1599569976.6615636,0.0,10,0.5,0.5,10.915523260498047,-0.15025,-0.001,-0.2505,-0.16357566290682807,10,1,100,0.06803552795243291,-10,-1,-100,6407.893882788834,-0.011415711941645774,-0.00792019284324395,0.9999034713742078,233.36195531088848,24.111507514666805,768.5726364585837,-38.99674115022033,-163.51022338867188,4381.2578125,True
1599569976.7219157,0.0,10,0.5,0.5,10.409680856323241,-0.15025,-0.001,-0.2505,-0.22021766201344878,10,1,100,0.022186879197321846,-10,-1,-100,6405.54525060195,-0.010455446048327566,-0.009155559048755374,0.9999034250298552,236.15203321750298,24.35166326036747,790.1570385779455,-39.56312803215245,-161.74020385742188,4381.2578125,True
1599569976.7857437,0.0,10,0.5,0.5,10.557597042846679,-0.15025,-0.001,-0.2505,-0.14413953439060556,10,1,100,0.08103117502790609,-10,-1,-100,6404.765955790761,-0.010122310188555408,-0.009581127249780578,0.9999028657009992,237.26742654751644,24.44932987458519,798.0448472601948,-39.751832968809815,-161.00289916992188,4381.2578125,True
1599569976.8505716,0.0,10,0.5,0.5,9.678567434692383,-0.15025,-0.001,-0.2505,-0.24298336538235982,10,1,100,-0.0027966832198959846,-10,-1,-100,6402.35483126156,-0.009062111512753988,-0.01086078505715735,0.999899955737009,241.0853238466268,24.785757520102425,823.5634673171169,-40.31764140816395,-158.34906005859375,4381.2578125,True
1599569976.9154372,0.0,10,0.5,0.5,9.929276138305662,-0.15025,-0.001,-0.2505,-0.1622030853097935,10,1,100,0.0613202498056652,-10,-1,-100,6401.50620289566,-0.008686384065578527,-0.011283256713615264,0.9998986122851655,242.49089647720402,24.909801145508606,832.6173989870714,-40.50613417154139,-157.31719970703125,4381.2578125,True
1599569976.978229,0.0,10,0.5,0.5,8.769824340820312,-0.15025,-0.001,-0.2505,-0.2626204739018324,10,1,100,-0.03085742774443384,-10,-1,-100,6399.091667477274,-0.007511909204321492,-0.012573886583885753,0.9998927285445582,246.98355724971654,25.30526014232722,861.0382113385749,-41.07125270200221,-153.78082275390625,4381.2578125,True
1599569977.0418122,0.0,10,0.5,0.5,8.562501840972901,-0.15025,-0.001,-0.2505,-0.22662649088700101,10,1,100,-0.006448777733292443,-10,-1,-100,6397.40466935921,-0.00667175100574756,-0.013413050432142606,0.9998877826119399,250.10259315077923,25.578175092284823,880.6819951452553,-41.447680678387044,-151.05577087402344,4381.2578125,True
1599569977.1046433,0.0,10,0.5,0.5,8.03391894302368,-0.15025,-0.001,-0.2505,-0.23244325601386498,10,1,100,-0.020553686828149245,-10,-1,-100,6395.776755177882,-0.005785907942900909,-0.014221429727534898,0.9998821301562404,253.20871410208719,25.848243022393646,900.4936525823073,-41.82384312345064,-148.0369110107422,4381.2578125,True
1599569977.1694703,0.0,10,0.5,0.5,6.753144050598144,-0.15025,-0.001,-0.2505,-0.277507826448764,10,1,100,-0.08778764758841356,-10,-1,-100,6393.237719960278,-0.004376092983553529,-0.015358199046680957,0.9998724796353992,257.5932537414442,26.225959907021274,929.6153039196034,-42.387584104056955,-142.95819091796875,4381.2578125,True
1599569977.2323031,0.0,10,0.5,0.5,7.285968156433105,-0.15025,-0.001,-0.2505,-0.2036925525227282,10,1,100,-0.0014590995485637484,-10,-1,-100,6392.395932377316,-0.003886723797758015,-0.015712395296942443,0.9998689984253701,258.91747658736546,26.339075035812908,938.9233320497963,-42.57536656614978,-141.11862182617188,4381.2578125,True
1599569977.295134,0.0,10,0.5,0.5,6.977882454681396,-0.15025,-0.001,-0.2505,-0.20654181616988115,10,1,100,-0.008246342405235266,-10,-1,-100,6391.546821149881,-0.0033875327500131995,-0.016052485069674105,0.9998654121155284,260.14479321610906,26.443414440547958,947.922957727147,-42.76308653141845,-139.2057647705078,4381.2578125,True
1599569977.3593955,0.0,10,0.5,0.5,4.978614362335204,-0.15025,-0.001,-0.2505,-0.2723304089442977,10,1,100,-0.12856043642273418,-10,-1,-100,6388.949194306391,-0.001847256560260316,-0.016952342713537193,0.9998545922881602,263.0551282566165,26.687647710778506,972.3213844852384,-43.325903464547494,-133.02732849121094,4381.2578125,True
1599569977.4222605,0.0,10,0.5,0.5,5.639517820739746,-0.15025,-0.001,-0.2505,-0.21369693317676078,10,1,100,-0.03361793230911063,-10,-1,-100,6388.038071882445,-0.0013179447792343335,-0.01723027553401259,0.9998506791649345,263.7020884833119,26.740477082866647,979.3220281155419,-43.51340942967045,-130.8216552734375,4381.2578125,True
1599569977.4850602,0.0,10,0.5,0.5,4.333197827911377,-0.15025,-0.001,-0.2505,-0.24052984462829222,10,1,100,-0.09957963365963322,-10,-1,-100,6386.28516309883,-0.0002451043891235267,-0.017719923521927573,0.9998429597862935,264.38306387741153,26.791848853876925,991.0989929690446,-43.88830704644917,-126.19078063964844,4381.2578125,True
1599569977.5489194,0.0,10,0.5,0.5,2.486396802520752,-0.15025,-0.001,-0.2505,-0.251869898006168,10,1,100,-0.16935645153145423,-10,-1,-100,6383.624547527987,0.0013565243033359154,-0.018261913870317545,0.9998323171130286,263.55554061476016,26.703247403377194,1001.8575211622192,-44.45048179906718,-118.69578552246094,4381.2578125,True
1599569977.6127274,0.0,10,0.5,0.5,2.211396139907837,-0.15025,-0.001,-0.2505,-0.22705791249045593,10,1,100,-0.1275044649375051,-10,-1,-100,6381.87212439219,0.002422947865291403,-0.01852272463038677,0.9998255037734878,261.5149889372742,26.507498410670088,1003.3071952900438,-44.825254844864446,-113.3342514038086,4381.2578125,True
1599569977.6745622,0.0,10,0.5,0.5,2.4321944984436032,-0.15025,-0.001,-0.2505,-0.21131294958672173,10,1,100,-0.07914951574864668,-10,-1,-100,6380.961000639363,0.00294380169528894,-0.018611281260373484,0.9998224613607287,259.9836104375287,26.361363082957904,1002.0237653547404,-45.01266794920335,-110.54393005371094,4381.2578125,True
1599569977.7369041,0.0,10,0.5,0.5,-0.40290373039245586,-0.15025,-0.001,-0.2505,-0.21544828222424356,10,1,100,-0.19101661096727368,-10,-1,-100,6378.234458057792,0.004425537358455095,-0.01872465555631321,0.9998148838126918,253.1051205569543,25.699469788066263,988.9974709707922,-45.57513582123212,-101.73538970947266,4381.2578125,True
1599569977.8012402,0.0,10,0.5,0.5,-0.700282516860962,-0.15025,-0.001,-0.2505,-0.20029936806732937,10,1,100,-0.14683250080968321,-10,-1,-100,6376.422943904414,0.005361612918717726,-0.01868591185498758,0.9998110270471403,247.27451891129667,25.131860642640014,975.0630615198397,-45.95037913332354,-95.49886322021484,4381.2578125,True
1599569977.8630748,0.0,10,0.5,0.5,-1.7337206283569337,-0.15025,-0.001,-0.2505,-0.189914851072653,10,1,100,-0.1472132412865545,-10,-1,-100,6374.5347667314345,0.006207199517925974,-0.018553260414914216,0.9998086052850921,239.98176879327283,24.40856721740835,954.9415546032553,-46.3258794279157,-89.03363037109375,4381.2578125,True
1599569977.9269056,0.0,10,0.5,0.5,-1.4110512397766113,-0.15025,-0.001,-0.2505,-0.192887028121142,10,1,100,-0.1058130235299624,-10,-1,-100,6373.630960448063,0.006590372698222922,-0.018457105383362902,0.9998079326793553,235.69037730486826,23.976785851520013,942.1197821085077,-46.51373733293647,-85.81051635742188,4381.2578125,True
1599569977.996722,0.0,10,0.5,0.5,-3.143015550994873,-0.15025,-0.001,-0.2505,-0.17624991328431427,10,1,100,-0.14787606537952924,-10,-1,-100,6371.749613470398,0.007312032419445086,-0.018216259201332647,0.999807332480917,226.8538276876733,23.0756627772982,915.0030439868545,-46.889654467407915,-79.48733520507812,4381.2578125,True
1599569978.0625463,0.0,10,0.5,0.5,-3.999524160003662,-0.15025,-0.001,-0.2505,-0.16727311627497413,10,1,100,-0.14403697819663877,-10,-1,-100,6369.850685431971,0.007924859292548317,-0.017914551866231327,0.9998081143082534,229.72169350264704,23.347809833860314,934.8807239820447,-47.26553608380317,-73.41094970703125,4381.2578125,True
1599569978.1273732,0.0,10,0.5,0.5,-5.914161180877685,-0.15025,-0.001,-0.2505,-0.13708916158318554,10,1,100,-0.16434318783077703,-10,-1,-100,6366.949797203182,0.008658173988341799,-0.017365250813184577,0.9998117243198255,243.6138326981816,24.70413561454126,1004.6014601157623,-47.82835469073165,-64.84942626953125,4381.2578125,True
1599569978.1991818,0.0,10,0.5,0.5,-4.858886579132081,-0.15025,-0.001,-0.2505,-0.1701214645543075,10,1,100,-0.11240012700570856,-10,-1,-100,6365.9663944765925,0.008844520178492101,-0.01716650231261477,0.9998135254442017,247.42512513511994,25.06845986461505,1024.7690791616644,-48.01571018848322,-62.1463623046875,4381.2578125,True
1599569978.2670014,0.0,10,0.5,0.5,-6.263049234771728,-0.15025,-0.001,-0.2505,-0.14389316722523882,10,1,100,-0.1271126437806855,-10,-1,-100,6364.0093516391935,0.009140868689423843,-0.016748378619612234,0.9998179515957976,253.91907649583712,25.68017964301004,1060.7807665521473,-48.3900846532077,-56.967010498046875,4381.2578125,True
1599569978.3418026,0.0,10,0.5,0.5,-7.857348098754882,-0.15025,-0.001,-0.2505,-0.11416304864946954,10,1,100,-0.12423217197793268,-10,-1,-100,6361.094289742527,0.009377983118587552,-0.01609960540802182,0.9998264130029438,261.13064391685526,26.344939455420423,1104.9300501595178,-48.95092321596882,-49.765289306640625,4381.2578125,True
1599569978.4151173,0.0,10,0.5,0.5,-8.672855207824707,-0.15025,-0.001,-0.2505,-0.10529961376010155,10,1,100,-0.10037180953458721,-10,-1,-100,6358.118676147889,0.009370780048866604,-0.015431518240174783,0.9998370150809975,265.7977365143726,26.76750939912965,1138.9304095056796,-49.51108924273059,-43.243865966796875,4381.2578125,True
1599569978.4909143,0.0,10,0.5,0.5,-7.045087813568115,-0.15025,-0.001,-0.2505,-0.17177901681319152,10,1,100,-0.10158664077572323,-10,-1,-100,6358.118676147889,0.009370780048866604,-0.015431518240174783,0.9998370150809975,265.7977365143726,26.76750939912965,1138.9304095056796,-49.51108924273059,-43.243865966796875,4381.2578125,True
1599569978.5657113,0.0,10,0.5,0.5,-8.641181233215331,-0.15025,-0.001,-0.2505,-0.12353933355687557,10,1,100,-0.08790665218578875,-10,-1,-100,6356.1137721976265,0.009242771818839791,-0.014995934204767195,0.9998448345250532,267.7682448863052,26.945780829235982,1156.9521487823392,-49.88426101521125,-39.274139404296875,4381.2578125,True
1599569978.6464977,0.0,10,0.5,0.5,-9.12164246520996,-0.15025,-0.001,-0.2505,-0.11893975080189736,10,1,100,-0.07658266913995486,-10,-1,-100,6354.109355162131,0.009020695789034278,-0.01456136826226972,0.9998532860384128,269.01000754650465,27.060557785049642,1171.9565191967122,-50.257275424197914,-35.60626220703125,4381.2578125,True
1599569978.7442741,0.0,10,0.5,0.5,-10.186098040771483,-0.15025,-0.001,-0.2505,-0.09086305376855426,10,1,100,-0.03947814449367854,-10,-1,-100,6351.069278905983,0.00847928524416238,-0.013914607193442617,0.9998672339007817,269.83556659220415,27.145777904818292,1190.104286171817,-50.81659018966805,-30.669921875,4381.2578125,True
1599569978.8210657,0.0,10,0.5,0.5,-10.122285995483397,-0.15025,-0.001,-0.2505,-0.10915222726671317,10,1,100,-0.042038967730039865,-10,-1,-100,6349.063393995515,0.008009312912041468,-0.01349681839177205,0.99987683581528,269.9014760855368,27.16391362880926,1200.1388856668354,-51.189371319661035,-27.7557373046875,4381.2578125,True
1599569978.900854,0.0,10,0.5,0.5,-9.935551773071287,-0.15025,-0.001,-0.2505,-0.12773662754759446,10,1,100,-0.05914905505345255,-10,-1,-100,6348.029201356112,0.0077375348097630334,-0.013289975605056327,0.9998817465598043,269.8351794604155,27.16552309202001,1204.7285972113748,-51.3757408062728,-26.4114990234375,4381.2578125,True
1599569978.9836335,0.0,10,0.5,0.5,-11.038113980102539,-0.15025,-0.001,-0.2505,-0.07974103186087618,10,1,100,0.016031501483683333,-10,-1,-100,6344.9271107057575,0.006807841147516475,-0.012669317906533802,0.9998965654919979,269.40245216564404,27.15490901498822,1217.4849344377594,-51.934781761216904,-22.82958984375,4381.2578125,True
1599569979.0594308,0.0,10,0.5,0.5,-10.56307734222412,-0.15025,-0.001,-0.2505,-0.11889909060465376,10,1,100,-0.0376332677087942,-10,-1,-100,6343.892918520956,0.006452378155433923,-0.012465154336825922,0.9999014885194932,269.2212746796477,27.149827959482067,1221.5788386296138,-52.121108385120294,-21.785797119140625,4381.2578125,True
1599569979.1382174,0.0,10,0.5,0.5,-11.051505139160156,-0.15025,-0.001,-0.2505,-0.09486312262758564,10,1,100,0.013023051651963644,-10,-1,-100,6341.761056616902,0.00567116206892834,-0.01206493613210249,0.9999111336698459,268.87374147052316,27.143611491388327,1229.8444862594201,-52.49373064972593,-19.92333984375,4381.2578125,True
1599569979.2190027,0.0,10,0.5,0.5,-11.48253793334961,-0.15025,-0.001,-0.2505,-0.06614714936118987,10,1,100,0.07810083771929546,-10,-1,-100,6338.596956947469,0.004372719226992666,-0.011443714979273881,0.9999249575413321,268.53445164372135,27.15721516403694,1243.111198650349,-53.05257563157284,-17.6910400390625,4381.2578125,True
1599569979.2947996,0.0,10,0.5,0.5,-11.372404243469237,-0.15025,-0.001,-0.2505,-0.08225013230174469,10,1,100,0.055800255581689905,-10,-1,-100,6336.466563381022,0.0033995928999583525,-0.01102898450639919,0.9999333999166505,268.5197055136048,27.18981199825714,1252.9687230914417,-53.425065788009995,-16.576873779296875,4381.2578125,True
1599569979.368602,0.0,10,0.5,0.5,-11.274345669555663,-0.15025,-0.001,-0.2505,-0.09982192173440416,10,1,100,0.015436630924376547,-10,-1,-100,6335.369873611955,0.0028873029969471967,-0.01081570264747708,0.9999373400656888,268.59798224924026,27.215278513243764,1258.311954198076,-53.61128401450186,-16.13177490234375,4381.2578125,True
1599569979.4463947,0.0,10,0.5,0.5,-11.52112667236328,-0.15025,-0.001,-0.2505,-0.04551105148101704,10,1,100,0.14428628821181635,-10,-1,-100,6332.142306338064,0.0012560020814347773,-0.010131875074841907,0.9999478824249988,269.2161463848383,27.332257248896404,1276.2282965887928,-54.169808071941375,-15.2435302734375,4381.2578125,True
1599569979.5251832,0.0,10,0.5,0.5,-11.359605877685546,-0.15025,-0.001,-0.2505,-0.08752810709544806,10,1,100,0.04592277105154783,-10,-1,-100,6331.044154512929,0.0006742738539782913,-0.009896213690020602,0.9999508039445597,269.5617256451427,27.385966528980195,1282.8963679399187,-54.355932141635115,-15.096435546875,4381.2578125,True
1599569979.5978413,0.0,10,0.5,0.5,-11.352738330078125,-0.15025,-0.001,-0.2505,-0.05816535742044832,10,1,100,0.12306985566184882,-10,-1,-100,6328.850782420603,-0.0005488116570847195,-0.009418695064504348,0.9999554925040649,270.4830878320115,27.51766056062746,1297.3989165651753,-54.728090635106085,-15.0255126953125,4381.2578125,True
1599569979.668163,0.0,10,0.5,0.5,-11.15596393585205,-0.15025,-0.001,-0.2505,-0.01539607813109807,10,1,100,0.21297915276177792,-10,-1,-100,6325.559754919959,-0.002470284709351243,-0.00859948297806572,0.9999599724918815,272.4642766934809,27.778638476727103,1322.2449363298172,-55.28606835109443,-15.475372314453125,4381.2578125,True
1599569979.7396636,0.0,10,0.5,0.5,-11.000994903564454,-0.15025,-0.001,-0.2505,-0.03273664319192097,10,1,100,0.17207846436994254,-10,-1,-100,6323.36639436346,-0.0038359741173776564,-0.00801665030242626,0.9999605085304617,274.1793327179658,27.99469430743526,1340.8948949403537,-55.65785110516442,-16.14599609375,4381.2578125,True
1599569979.811472,0.0,10,0.5,0.5,-10.782467500305176,-0.15025,-0.001,-0.2505,-0.01864764322983578,10,1,100,0.19051780379738276,-10,-1,-100,6321.11005041108,-0.005235464105592131,-0.007362950295466073,0.999959187606447,276.2036588847974,28.243971369922,1361.2226314114082,-56.029448995376036,-17.112152099609375,4381.2578125,True
1599569979.8802884,0.0,10,0.5,0.5,-10.519408764648436,-0.15025,-0.001,-0.2505,-0.005542722968741753,10,1,100,0.21066558720254785,-10,-1,-100,6318.8527359183645,-0.0066802640874149485,-0.006654180290439011,0.9999555469901573,278.4979566294882,28.522511182010824,1383.0657489616694,-56.400842911041615,-18.3736572265625,4381.2578125,True
1599569979.9503188,0.0,10,0.5,0.5,-9.855831921386718,-0.15025,-0.001,-0.2505,0.05517071426851099,10,1,100,0.3125859946770193,-10,-1,-100,6315.437236641534,-0.008909039205970574,-0.0054628224526590795,0.9999453918046112,282.37132699462484,28.987298244025094,1418.360004207618,-56.957513346122326,-20.81842041015625,4381.2578125,True
1599569980.0187144,0.0,10,0.5,0.5,-10.467932360839844,-0.15025,-0.001,-0.2505,-0.06336698025682072,10,1,100,0.09103665866475301,-10,-1,-100,6315.437236641534,-0.008909039205970574,-0.0054628224526590795,0.9999453918046112,282.37132699462484,28.987298244025094,1418.360004207618,-56.957513346122326,-20.81842041015625,4381.2578125,True
1599569980.082541,0.0,10,0.5,0.5,-9.667059979248048,-0.15025,-0.001,-0.2505,0.035416130077515734,10,1,100,0.25814510335590324,-10,-1,-100,6313.1809158098185,-0.010417017219430186,-0.004569854324213966,0.999935298998743,285.1770048488483,29.32126308367598,1443.2836308956641,-57.32832489766377,-22.8157958984375,4381.2578125,True
1599569980.1535923,0.0,10,0.5,0.5,-8.213065657043456,-0.15025,-0.001,-0.2505,0.16862619153603028,10,1,100,0.4449436284265063,-10,-1,-100,6308.541833208408,-0.0134739798957477,-0.002552742601753061,0.9999059632640351,291.01690498123617,30.011666551497626,1494.976027208178,-58.06917510147973,-27.690826416015625,4381.2578125,True
1599569980.2226818,0.0,10,0.5,0.5,-8.87133256225586,-0.15025,-0.001,-0.2505,0.030193476672953596,10,1,100,0.2225390302854752,-10,-1,-100,6307.382677888963,-0.014217785998411355,-0.0019843740187011983,0.999896953101197,292.4793755570471,30.183377601643862,1508.055770066682,-58.254223147262074,-29.0924072265625,4381.2578125,True
