Timestamp,Input Throttle,horizon,dT,dt,Input Roll,Roll P,Roll I,Roll D,Input Pitch,Pitch P,Pitch I,Pitch D,Input Yaw,Yaw P,Yaw I,Yaw D,Altitude,Direction X,Direction Y,Direction Z,Drag X,Drag Y,Drag Z,Vertical Velocity,Roll,Mass,Has Fuel
1599570930.4964037,0.0,10,0.5,0.5,-8.12302010345459,-0.15025,-0.0155,-0.37525,-0.06719637327478653,10,1,100,0.6903601660285724,-10,-1,-100,6483.617967112688,-0.06725765891680974,-0.007002381955759736,0.9977110673757087,205.07314117574006,21.498768151736257,-156.76517898214814,9.590824140301677,-35.94464111328125,4381.2578125,True
1599570930.5791838,0.0,10,0.5,0.5,-8.206469476318357,-0.15025,-0.0155,-0.37525,-0.0690550906374525,10,1,100,0.6894860980505728,-10,-1,-100,6483.776675041998,-0.06735023839854423,-0.006987209527435001,0.9977049284686725,204.84289490624698,21.477802778725703,-153.51335916885688,9.40081031032252,-35.9429931640625,4381.2578125,True
1599570930.653983,0.0,10,0.5,0.5,-8.291419549560548,-0.15025,-0.0155,-0.37525,-0.06773646744302084,10,1,100,0.7080479622823677,-10,-1,-100,6484.156591941835,-0.06754191829459323,-0.0069550769185291045,0.9976921951073606,204.38120075719095,21.435612658464315,-147.0255172738682,9.020798082666598,-35.939605712890625,4381.2578125,True
1599570930.7283702,0.0,10,0.5,0.5,-8.207333758544921,-0.15025,-0.0155,-0.37525,-0.018511806588745905,10,1,100,0.7014936912196091,-10,-1,-100,6484.6971403145,-0.06759518671925398,-0.0064720457418316725,0.9976918378719477,203.75675123923025,21.378984103502656,-137.3816188547285,8.450805875185306,-36.25665283203125,4381.2578125,True
1599570930.803171,0.0,10,0.5,0.5,-8.114639570617676,-0.15025,-0.0155,-0.37525,-0.015120491063285904,10,1,100,0.6977992029454756,-10,-1,-100,6485.01694977947,-0.0675485761330723,-0.005996212671200887,0.9976979679722697,203.44658012483586,21.351669774714438,-131.045352324483,8.070816480087737,-36.817962646484375,4381.2578125,True
1599570930.8919878,0.0,10,0.5,0.5,-7.9590364425659175,-0.15025,-0.0155,-0.37525,0.012340244275212492,10,1,100,0.6893345155109836,-10,-1,-100,6485.335755954846,-0.0673678433724726,-0.00530854300148546,0.9977140838188782,203.19887809519994,21.330028363858503,-124.7608450958419,7.690822449779947,-37.6717529296875,4381.2578125,True
1599570930.9712863,0.0,10,0.5,0.5,-7.757555343627929,-0.15025,-0.0155,-0.37525,0.042016071543195935,10,1,100,0.6786989003342432,-10,-1,-100,6485.590082074283,-0.0670456099581639,-0.00440878256021569,0.9977401709972763,202.97248654650787,21.309508121120167,-118.49849265457395,7.310815899087675,-38.819183349609375,4381.2578125,True
1599570931.0495927,0.0,10,0.5,0.5,-7.908086026000976,-0.15025,-0.0155,-0.37525,0.009856864970636689,10,1,100,0.6938255028388476,-10,-1,-100,6485.750194034772,-0.06682923450432679,-0.0038791669619389684,0.9977568869615719,202.8496695834924,21.297761271421514,-115.3650259165016,7.120805293625697,-39.5030517578125,4381.2578125,True
1599570931.1204042,0.0,10,0.5,0.5,-6.933028681945801,-0.15025,-0.0155,-0.37525,0.16236294991226288,10,1,100,0.6230310852447137,-10,-1,-100,6486.165060159168,-0.06592819008225154,-0.00200775276679813,0.997822350261461,202.3387250456926,21.2454253901857,-105.90460651715483,6.5507309008777685,-41.995819091796875,4381.2578125,True
1599570931.2081697,0.0,10,0.5,0.5,-7.428940846252441,-0.15025,-0.0155,-0.37525,0.05380558919829065,10,1,100,0.6772029493467371,-10,-1,-100,6486.261181320762,-0.06554159556303583,-0.0012915270024636625,0.9978490022087777,202.08538746765458,21.218498882302946,-102.71668125753918,6.360687815153984,-42.9737548828125,4381.2578125,True
1599570931.286958,0.0,10,0.5,0.5,-6.095175283813476,-0.15025,-0.0155,-0.37525,0.24593585718264888,10,1,100,0.5643542432165823,-10,-1,-100,6486.674996324698,-0.06410466540296285,0.0011074002440640768,0.9979425662523237,200.8973499915079,21.090403568617717,-92.99310138514541,5.790481234067753,-46.348876953125,4381.2578125,True
1599570931.3627565,0.0,10,0.5,0.5,-5.969782208251954,-0.15025,-0.0155,-0.37525,0.20301749389943552,10,1,100,0.575177870298754,-10,-1,-100,6486.868649377837,-0.06289962822501974,0.0028907037272420605,0.9980156715208012,199.59901011779488,20.949957555952523,-86.34516278411556,5.410257288845869,-48.9669189453125,4381.2578125,True
1599570931.446532,0.0,10,0.5,0.5,-6.186183212280273,-0.15025,-0.0155,-0.37525,0.13056691013295774,10,1,100,0.6206828221845926,-10,-1,-100,6486.965224196669,-0.0622218672714641,0.0038442671202043592,0.9980549387902256,198.74825254242387,20.858043024708685,-82.96457971646839,5.220112366446751,-50.386199951171875,4381.2578125,True
1599570931.5333009,0.0,10,0.5,0.5,-4.225733961486816,-0.15025,-0.0155,-0.37525,0.3533848113006175,10,1,100,0.42650557557123836,-10,-1,-100,6487.254429837805,-0.05984530966358587,0.006726942629840871,0.9981849964581336,195.17921102180873,20.47376879885632,-72.59144186994122,4.649512539818028,-55.08770751953125,4381.2578125,True
1599570931.6110926,0.0,10,0.5,0.5,-4.1201252868652345,-0.15025,-0.0155,-0.37525,0.2914867297871659,10,1,100,0.4587852357456713,-10,-1,-100,6487.44851512264,-0.05798529954624203,0.008772847817232074,0.998278889979002,191.7512073967711,20.10660457942416,-65.49150132774781,4.268938370216837,-58.59039306640625,4381.2578125,True
1599570931.692874,0.0,10,0.5,0.5,-4.4222960647583,-0.15025,-0.0155,-0.37525,0.20333609273294573,10,1,100,0.5318527284923342,-10,-1,-100,6487.54408817552,-0.056967325079614405,0.009817965777559863,0.9983277675299151,189.66143139058414,19.883551365445843,-61.894866402285004,4.078586544691902,-60.452362060546875,4381.2578125,True
1599570931.7656815,0.0,10,0.5,0.5,-1.9162841476440424,-0.15025,-0.0155,-0.37525,0.4301087379220069,10,1,100,0.2639467214616435,-10,-1,-100,6487.770733414916,-0.053615839608121975,0.012815891144322914,0.998479391213105,181.66278971562207,19.033916522655744,-50.99213765165121,3.5072247229678557,-66.48358154296875,4381.2578125,True
1599570931.8574386,0.0,10,0.5,0.5,-3.002499736022949,-0.15025,-0.0155,-0.37525,0.2425063663896299,10,1,100,0.4626302687176981,-10,-1,-100,6487.805263466435,-0.05238745758213848,0.013820142942263589,0.9985312002822622,178.381630712124,18.6868853191618,-47.353987923589045,3.3166522766272624,-68.64175415039062,4381.2578125,True
1599570931.9427218,0.0,10,0.5,0.5,-0.13115496063232435,-0.15025,-0.0155,-0.37525,0.46359491443877987,10,1,100,0.1459166802707339,-10,-1,-100,6487.969394420623,-0.04840466109711035,0.016726904731834472,0.9986877387062316,166.40292434770038,17.42541747413641,-36.56063079200697,2.744461317358776,-75.56094360351562,4381.2578125,True
1599570932.0445323,0.0,10,0.5,0.5,-0.056586537170409956,-0.15025,-0.0155,-0.37525,0.3750383726865347,10,1,100,0.2251261705658989,-10,-1,-100,6488.100465581636,-0.04551995377611822,0.01854732447233429,0.9987912347248238,156.61537526930047,16.398061010860445,-29.626316619355993,2.3626290909064527,-80.54470825195312,4381.2578125,True
1599570932.133806,0.0,10,0.5,0.5,-0.5006344116210939,-0.15025,-0.0155,-0.37525,0.29261737021608614,10,1,100,0.3436113422252326,-10,-1,-100,6488.133532537497,-0.04399283199192561,0.01943493434898932,0.9988427874596586,151.16609537537983,15.82676922236325,-26.285300143570964,2.17163421121094,-83.147705078125,4381.2578125,True
1599570932.2524872,0.0,10,0.5,0.5,1.364355836486816,-0.15025,-0.0155,-0.37525,0.3765935412024759,10,1,100,0.1608801113928967,-10,-1,-100,6488.200650650193,-0.04096162993819385,0.02098861076027478,0.9989402500105601,147.93614819341727,15.488229535214906,-21.200149937314507,1.7895601673355408,-88.4468994140625,4381.2578125,True
1599570932.3474238,0.0,10,0.5,0.5,3.66724359664917,-0.15025,-0.0155,-0.37525,0.4578026177029265,10,1,100,-0.0734923820523718,-10,-1,-100,6488.301350875176,-0.036095276311014196,0.023122855550508352,0.9990808098343307,159.32109017162827,16.67924616011744,-15.522144842805332,1.216428862825326,-96.49678802490234,4381.2578125,True
1599570932.4487088,0.0,10,0.5,0.5,2.1553493865966797,-0.15025,-0.0155,-0.37525,0.315009335210414,10,1,100,0.22580121662543035,-10,-1,-100,6488.273400928127,-0.03441592081152221,0.0237474313476703,0.9991254195040195,163.31245463101877,17.09613868870341,-13.413396232855554,1.0254207592143794,-99.23200225830078,4381.2578125,True
1599570932.5344815,0.0,10,0.5,0.5,5.3659060771942135,-0.15025,-0.0155,-0.37525,0.428662176343244,10,1,100,-0.15538618669542825,-10,-1,-100,6488.311648625298,-0.029447011589841754,0.025332962002008866,0.9992452724654907,173.41989205355503,18.151056134021875,-6.286641489079019,0.4525038646848256,-107.16448974609375,4381.2578125,True
1599570932.621247,0.0,10,0.5,0.5,3.783371740722656,-0.15025,-0.0155,-0.37525,0.3208442659102172,10,1,100,0.15720479990391178,-10,-1,-100,6488.345243233023,-0.027797501528268428,0.0257791360345757,0.9992811091250032,176.5616041085859,18.479359690614324,-3.6996104139923087,0.2615377635057343,-109.67417907714844,4381.2578125,True
1599570932.7187202,0.0,10,0.5,0.5,6.644283061218261,-0.15025,-0.0155,-0.37525,0.39849619500923794,10,1,100,-0.23549142713028903,-10,-1,-100,6488.322031026706,-0.02275449924793753,0.026876165264848453,0.9993797599034274,183.7017056299114,19.225655624697538,4.5853401378756455,-0.3114919746104916,-116.76528930664062,4381.2578125,True
1599570932.8015013,0.0,10,0.5,0.5,5.2260750473022455,-0.15025,-0.0155,-0.37525,0.3224075112055962,10,1,100,0.0892126151706456,-10,-1,-100,6488.355159321567,-0.021149862414336286,0.027168967190408278,0.9994070894993998,185.42737097843474,19.40591726511624,7.468049752784244,-0.5025651041408583,-118.9818344116211,4381.2578125,True
1599570932.8822904,0.0,10,0.5,0.5,7.734399143981933,-0.15025,-0.0155,-0.37525,0.36512986120600466,10,1,100,-0.2887498576034962,-10,-1,-100,6488.268538200529,-0.01628347699054096,0.0278114004643317,0.9994805522776875,189.81484273006478,19.864349694929807,16.370334554212565,-1.0759572681488723,-125.18936157226562,4381.2578125,True
1599570932.9615862,0.0,10,0.5,0.5,7.462733056259155,-0.15025,-0.0155,-0.37525,0.3322962888929091,10,1,100,-0.14781745411802108,-10,-1,-100,6488.21130823635,-0.013169894986146409,0.028086866878022584,0.9995187250747382,191.34988316514983,20.02451983055103,22.371252693971048,-1.4583662659848657,-128.9586944580078,4381.2578125,True
1599570933.0423708,0.0,10,0.5,0.5,8.803073055648804,-0.15025,-0.0155,-0.37525,0.33443306518264077,10,1,100,-0.32563859142666796,-10,-1,-100,6488.12428162538,-0.00875221924188182,0.028348043818188503,0.9995597966455155,192.1637044954101,20.108727011200028,31.313201354396327,-2.0321815421817075,-134.05810546875,4381.2578125,True
1599570933.127144,0.0,10,0.5,0.5,7.784055331802367,-0.15025,-0.0155,-0.37525,0.31319171047290195,10,1,100,-0.0448077564554311,-10,-1,-100,6488.033433897421,-0.007321194894788933,0.02838427134873335,0.9995702742905643,192.11314551657537,20.10296329144549,34.254806064710934,-2.223500424050716,-135.61019897460938,4381.2578125,True
1599570933.2129147,0.0,10,0.5,0.5,8.78905193977356,-0.15025,-0.0155,-0.37525,0.317221498412394,10,1,100,-0.2039398620885372,-10,-1,-100,6487.974800806493,-0.0046041903780793475,0.02844711657541636,0.9995846952557381,191.6576986595007,20.054027357632894,40.061690384759544,-2.6061968099517565,-138.4918670654297,4381.2578125,True
1599570933.8946762,0.0,10,0.5,0.5,8.471457731628417,-0.15025,-0.0155,-0.37525,0.3147713982856074,10,1,100,-0.07728237113000022,-10,-1,-100,6487.88299212954,-0.003314246267905456,0.028477134724862026,0.9995889498036368,191.28181109004564,20.013867140077203,42.92254164254136,-2.7975702401336795,-139.82138061523438,4381.2578125,True
1599570933.97151,0.0,10,0.5,0.5,9.316778483200071,-0.15025,-0.0155,-0.37525,0.3058868665288238,10,1,100,-0.23238929410116296,-10,-1,-100,6487.760907997494,-0.0007597811175946356,0.0284193557507717,0.9995957997867759,190.34922849188416,19.914158511349093,48.56564955629193,-3.1803582101223746,-142.2596435546875,4381.2578125,True
1599570934.0421221,0.0,10,0.5,0.5,9.038184035873414,-0.15025,-0.0155,-0.37525,0.31144233955223016,10,1,100,-0.11084429826451933,-10,-1,-100,6487.732585425605,0.00043142612010730675,0.028414527898403492,0.9995961326835022,189.81193226195762,19.8566048147433,51.34756032465419,-3.37176998296082,-143.36709594726562,4381.2578125,True
1599570934.1164756,0.0,10,0.5,0.5,9.218105528640747,-0.15025,-0.0155,-0.37525,0.3077953695090036,10,1,100,-0.1241939936541817,-10,-1,-100,6487.640789768775,0.0016100399964256618,0.028374588857799584,0.9995960636568957,189.24297653450282,19.795539060951526,54.10459749310636,-3.5631922562449962,-144.40090942382812,4381.2578125,True
1599570934.1869404,0.0,10,0.5,0.5,10.268845570755005,-0.15025,-0.0155,-0.37525,0.2996058452820063,10,1,100,-0.3721658247645393,-10,-1,-100,6487.426942264894,0.00491364694931436,0.02826246821555701,0.9995884597993426,187.6985828579287,19.62804112695849,62.328870075914054,-4.137517158270048,-147.05712890625,4381.2578125,True
1599570934.2588058,0.0,10,0.5,0.5,9.703173770141602,-0.15025,-0.0155,-0.37525,0.30391590848337546,10,1,100,-0.15904871811628235,-10,-1,-100,6487.336621224647,0.005955803655716612,0.028198728659871525,0.9995845937712232,187.2321322940994,19.576812371926085,65.05684208784506,-4.328977296671706,-147.7946319580078,4381.2578125,True
1599570934.3366046,0.0,10,0.5,0.5,10.119653952026365,-0.15025,-0.0155,-0.37525,0.2960098768596666,10,1,100,-0.2746283732400001,-10,-1,-100,6487.151101696538,0.007933725452983133,0.028068558477945968,0.999574515494171,186.38618881796248,19.48276016321836,70.50483906577722,-4.711926124179297,-149.04713439941406,4381.2578125,True
1599570934.407417,0.0,10,0.5,0.5,10.375271228027344,-0.15025,-0.0155,-0.37525,0.29489971925239444,10,1,100,-0.37212114273790114,-10,-1,-100,6486.813265172881,0.010598948972807134,0.027940146251038512,0.9995534055307612,185.45643960774382,19.375456053388103,78.72900806165018,-5.286424603657538,-150.3686981201172,4381.2578125,True
1599570934.477228,0.0,10,0.5,0.5,10.058398494720457,-0.15025,-0.0155,-0.37525,0.3005139116251714,10,1,100,-0.19879439994944625,-10,-1,-100,6486.721000902937,0.011428589812556919,0.02787481679139075,0.9995460879437938,185.26866444978134,19.352022042879778,81.50670823914254,-5.477945649241066,-150.6613006591797,4381.2578125,True
1599570934.546252,0.0,10,0.5,0.5,10.16195086212158,-0.15025,-0.0155,-0.37525,0.3006324814086715,10,1,100,-0.2850776282042217,-10,-1,-100,6486.474463430699,0.012950156483093458,0.027816967421158554,0.999529144032606,185.08755000573908,19.324851311446537,87.13895260147495,-5.861021271799075,-151.0229034423828,4381.2578125,True
1599570934.6190572,0.0,10,0.5,0.5,10.079448400878906,-0.15025,-0.0155,-0.37525,0.3055276212197347,10,1,100,-0.28401284336137783,-10,-1,-100,6486.226952202618,0.014307760551499757,0.027809451218461,0.9995108415674784,185.20074967575835,19.327632735393596,92.91141508064413,-6.2441417422220695,-151.087158203125,4381.2578125,True
1599570934.7063348,0.0,10,0.5,0.5,9.951061986541747,-0.15025,-0.0155,-0.37525,0.3017305264808691,10,1,100,-0.28615910406117095,-10,-1,-100,6485.979930334142,0.015545437522940506,0.027768706248842995,0.9994934908870022,185.6242341108549,19.362070673063354,98.8600541244046,-6.627304748591246,-150.85549926757812,4381.2578125,True
1599570934.7806427,0.0,10,0.5,0.5,9.773105922698974,-0.15025,-0.0155,-0.37525,0.3100501881170141,10,1,100,-0.2805517000450143,-10,-1,-100,6485.732419821434,0.01660479907988473,0.027807890154520606,0.9994753633245148,186.3486270188639,19.4272363306988,105.00852662357761,-7.0105053587342905,-150.32608032226562,4381.2578125,True
1599570934.852451,0.0,10,0.5,0.5,9.2728559715271,-0.15025,-0.0155,-0.37525,0.31685290621945944,10,1,100,-0.31988022153956225,-10,-1,-100,6485.26764291618,0.017910683988002846,0.027905906267653286,0.9994500826927089,187.9698455570161,19.57968916923816,114.64927877996027,-7.585358798726457,-148.97555541992188,4381.2578125,True
1599570934.930243,0.0,10,0.5,0.5,9.472173654937745,-0.15025,-0.0155,-0.37525,0.31229892966956774,10,1,100,-0.23023118346199273,-10,-1,-100,6485.11141451227,0.01826804206377634,0.027954038113311385,0.9994422696645943,188.63513329072498,19.643314328346797,117.97658092933733,-7.776985399169262,-148.37696838378906,4381.2578125,True
1599570935.009033,0.0,10,0.5,0.5,8.952790523529051,-0.15025,-0.0155,-0.37525,0.3198928131309992,10,1,100,-0.2611270549682887,-10,-1,-100,6484.802859251504,0.018861644241705423,0.028067110031833802,0.9994280743059805,190.11680234897378,19.78614312784888,124.79547215743696,-8.160242874007722,-146.957275390625,4381.2578125,True
1599570935.0824125,0.0,10,0.5,0.5,8.07286527481079,-0.15025,-0.0155,-0.37525,0.3324653503505203,10,1,100,-0.2673040344134517,-10,-1,-100,6484.274585347041,0.01944570436151881,0.028284318131238953,0.999410757361424,192.59102912094178,20.0267185219258,135.38129754544826,-8.735117292462345,-144.27151489257812,4381.2578125,True
1599570935.157213,0.0,10,0.5,0.5,8.525014151000976,-0.15025,-0.0155,-0.37525,0.3187393151055772,10,1,100,-0.22332565467928467,-10,-1,-100,6484.118836151902,0.019566399219303518,0.02835680175605934,0.9994063476963505,193.44442903847064,20.110098908787638,138.98391073454516,-8.926733389596107,-143.22816467285156,4381.2578125,True
1599570935.2310157,0.0,10,0.5,0.5,7.027059189605712,-0.15025,-0.0155,-0.37525,0.33808237946005315,10,1,100,-0.22303394016852146,-10,-1,-100,6483.528528730385,0.019665317639694955,0.02859816322229582,0.9993975286853779,195.92399010758902,20.35334893213655,149.89576725864026,-9.501533094379708,-139.65365600585938,4381.2578125,True
1599570935.3088098,0.0,10,0.5,0.5,6.904763388824463,-0.15025,-0.0155,-0.37525,0.33000430528331426,10,1,100,-0.20018535356381234,-10,-1,-100,6483.154998639715,0.019540041118346962,0.028743488111421443,0.9993958168234857,197.37109898509917,20.496148719652563,157.14036705902996,-9.884677228701376,-136.90090942382812,4381.2578125,True
1599570935.3895917,0.0,10,0.5,0.5,6.313987976074218,-0.15025,-0.0155,-0.37525,0.3290446459559758,10,1,100,-0.18244370824129355,-10,-1,-100,6482.718958805315,0.01925887488270293,0.02886603517975051,0.9993977425185899,198.50617446339518,20.60896722513503,164.22133452947975,-10.267767656529587,-133.8526611328125,4381.2578125,True
1599570935.4623966,0.0,10,0.5,0.5,6.572012229919434,-0.15025,-0.0155,-0.37525,0.3223393112471698,10,1,100,-0.18905179198065847,-10,-1,-100,6482.500203270349,0.019058841689446944,0.028915523486368437,0.9994001466154415,198.91248818206614,20.64976351776444,167.65414147062788,-10.459291716545785,-132.21780395507812,4381.2578125,True
1599570935.5381937,0.0,10,0.5,0.5,5.322084869384765,-0.15025,-0.0155,-0.37525,0.32470007303355963,10,1,100,-0.1542621100498963,-10,-1,-100,6482.065124925226,0.018557529492419567,0.028980931765681436,0.9994076864288822,199.31210834875836,20.691186202397798,174.2002682278442,-10.842297611249183,-128.726806640625,4381.2578125,True
1599570935.6119967,0.0,10,0.5,0.5,3.556390254974365,-0.15025,-0.0155,-0.37525,0.3178162485436485,10,1,100,-0.0932645844339763,-10,-1,-100,6481.410290859756,0.01754549296187492,0.028976747213683915,0.9994260872108747,198.57090300774442,20.62196241976875,182.84107848276466,-11.416714501782211,-122.93762969970703,4381.2578125,True
1599570935.6907866,0.0,10,0.5,0.5,3.4668563583374032,-0.15025,-0.0155,-0.37525,0.30859305433416434,10,1,100,-0.10274449515829884,-10,-1,-100,6480.973722477793,0.01671197275071556,0.028888122363649012,0.9994429380175149,197.3015537237942,20.500873096455813,187.83204211849744,-11.799622178821902,-118.7101058959961,4381.2578125,True
1599570935.7656279,0.0,10,0.5,0.5,2.631118777084351,-0.15025,-0.0155,-0.37525,0.29824950911758796,10,1,100,-0.0830368614661177,-10,-1,-100,6480.474645007984,0.015776481406380917,0.028712672921420827,0.9994631984461166,195.25144963933096,20.302817865874108,191.98245113225272,-12.182528317589249,-114.18844604492188,4381.2578125,True
1599570935.8404388,0.0,10,0.5,0.5,1.7464112800598144,-0.15025,-0.0155,-0.37525,0.28660526557516514,10,1,100,-0.06292610718317307,-10,-1,-100,6479.974582568393,0.014746014384263857,0.02844672979365537,0.9994865374900385,191.95970801370495,19.978836057459795,194.75237440853869,-12.565472855709512,-109.37271118164062,4381.2578125,True
1599570935.915236,0.0,10,0.5,0.5,2.1761627082824706,-0.15025,-0.0155,-0.37525,0.294485459327051,10,1,100,-0.10520123917503568,-10,-1,-100,6479.694763598498,0.01419781800951733,0.028276453791919905,0.9994993067154785,189.79551831713852,19.7635755910596,195.52919129201004,-12.756973870690494,-106.8546142578125,4381.2578125,True
1599570936.0000114,0.0,10,0.5,0.5,0.3023686050415042,-0.15025,-0.0155,-0.37525,0.2652047229579843,10,1,100,-0.03415646123481808,-10,-1,-100,6479.194690493867,0.013058476579572861,0.027855541957863546,0.9995266604606674,184.8302809567473,19.266812761538688,196.2099933336549,-13.140056454010242,-101.59803771972656,4381.2578125,True
1599570936.0742133,0.0,10,0.5,0.5,-2.2170713806152342,-0.15025,-0.0155,-0.37525,0.21496182125785,10,1,100,0.05168760730017152,-10,-1,-100,6478.352284240536,0.011248317239359913,0.02701681629441512,0.9995716917743301,175.058931135259,18.274793320155187,194.0882655772459,-13.714936187981692,-93.16229248046875,4381.2578125,True
1599570936.15056,0.0,10,0.5,0.5,-2.2512481605529784,-0.15025,-0.0155,-0.37525,0.22140302419183047,10,1,100,0.008854757197968507,-10,-1,-100,6477.790674683638,0.009999645316349066,0.02631446451051365,0.9996036994984921,166.73401610146107,17.41675502828839,190.1082042587985,-14.098384560517642,-87.20245361328125,4381.2578125,True
1599570936.224363,0.0,10,0.5,0.5,-3.255586103057861,-0.15025,-0.0155,-0.37525,0.20330403890541332,10,1,100,0.021546755799051256,-10,-1,-100,6477.228086570161,0.008757524698662412,0.02551374626860783,0.9996361110486623,161.50332897525755,16.872487579279596,189.23590960272043,-14.481934797000088,-81.17303466796875,4381.2578125,True
1599570936.3032155,0.0,10,0.5,0.5,-4.126506490325927,-0.15025,-0.0155,-0.37525,0.18380542557862548,10,1,100,0.034806083129296145,-10,-1,-100,6476.6650106434245,0.007517149631391213,0.024611652997738796,0.9996688246605163,173.16318276530228,18.083302591478116,208.3615400499901,-14.865336279283579,-75.36077880859375,4381.2578125,True
1599570936.3780482,0.0,10,0.5,0.5,-4.932168520355225,-0.15025,-0.0155,-0.37525,0.16367359095006934,10,1,100,0.0458044899350782,-10,-1,-100,6476.040412548697,0.0062995871264203114,0.023612523599205473,0.9997013373659724,183.01802341159117,19.098205530767547,225.99652091257735,-15.248491920555356,-69.83462524414062,4381.2578125,True
1599570936.4528155,0.0,10,0.5,0.5,-5.688774937820434,-0.15025,-0.0155,-0.37525,0.14470193157091366,10,1,100,0.05464818422063647,-10,-1,-100,6475.414839690784,0.005122538451883012,0.02253663108219602,0.999732894256898,191.35947027214254,19.950613488644173,242.33857304164104,-15.631379255694146,-64.6053466796875,4381.2578125,True
1599570936.5276148,0.0,10,0.5,0.5,-5.125527825164795,-0.15025,-0.0155,-0.37525,0.18942897001485098,10,1,100,0.001108126657095608,-10,-1,-100,6475.133549535531,0.004549757847698414,0.021970930499206356,0.9997482572710624,195.05520502222348,20.326506338165785,250.0985998131129,-15.822721845463146,-62.102630615234375,4381.2578125,True
1599570936.6143823,0.0,10,0.5,0.5,-9.135480908966064,-0.15025,-0.0155,-0.37525,-0.018294054041529728,10,1,100,0.1838553973786838,-10,-1,-100,6473.82089643029,0.002377915495114961,0.019574394970905216,0.9998055753892461,205.9979946841566,21.43254449213179,277.1441676206227,-16.587481593711168,-52.83837890625,4381.2578125,True
1599570936.6901796,0.0,10,0.5,0.5,-6.86559927444458,-0.15025,-0.0155,-0.37525,0.1495232454636142,10,1,100,0.024441167850045582,-10,-1,-100,6473.4775989349,0.0018639773511077598,0.01892940388142617,0.9998190852634932,207.88934201926438,21.623075969507283,282.97401709053753,-16.778537988142208,-50.70916748046875,4381.2578125,True
1599570936.7679727,0.0,10,0.5,0.5,-7.23331226272583,-0.15025,-0.0155,-0.37525,0.14112304476091925,10,1,100,0.029227718185514007,-10,-1,-100,6473.133326809155,0.0013644593450136907,0.018275180202702985,0.9998320639183635,209.48806552292754,21.78432659538813,288.4617026399539,-16.969550454998302,-48.65460205078125,4381.2578125,True
1599570936.8437688,0.0,10,0.5,0.5,-8.587190353393554,-0.15025,-0.0155,-0.37525,0.0722574427466302,10,1,100,0.08640430068058517,-10,-1,-100,6472.4457643615315,0.0004011958779134892,0.017063089896238517,0.9998543343932957,211.89904962451402,22.02898140200434,298.4847095449532,-17.351464869972936,-44.76727294921875,4381.2578125,True
1599570936.923556,0.0,10,0.5,0.5,-9.972733319091796,-0.15025,-0.0155,-0.37525,-0.02751534333320757,10,1,100,0.13968354316301665,-10,-1,-100,6471.350467463722,-0.0009489939135074833,0.015063213131816092,0.9998860930229491,214.57427255460487,22.30869100075997,312.447238499007,-17.924124222317307,-39.497528076171875,4381.2578125,True
1599570936.9983895,0.0,10,0.5,0.5,-9.720003552246093,-0.15025,-0.0155,-0.37525,0.027691890185174983,10,1,100,0.09864546289996945,-10,-1,-100,6470.662919865339,-0.0017934124131080687,0.013757255697397998,0.9999037561623583,215.60377274511234,22.423743565038286,320.785423956414,-18.305798268192074,-36.35614013671875,4381.2578125,True
1599570937.0751853,0.0,10,0.5,0.5,-9.377424351501464,-0.15025,-0.0155,-0.37525,0.08537984494291723,10,1,100,0.0600253761243012,-10,-1,-100,6470.2566488021985,-0.0022003821355918254,0.013105145337153033,0.999911702843881,215.92483100557425,22.463050125441605,324.6913103750805,-18.49661508419082,-34.89703369140625,4381.2578125,True
1599570937.7991285,0.0,10,0.5,0.5,-10.309128477478026,-0.15025,-0.0155,-0.37525,0.010416275018353682,10,1,100,0.10907601749985815,-10,-1,-100,6469.507099808776,-0.0030074354123848647,0.011841291199125747,0.9999253667924312,216.27102313381712,22.51429596393252,332.0870011601938,-18.878219919184946,-32.20147705078125,4381.2578125,True
1599570937.8724203,0.0,10,0.5,0.5,-11.187424288940429,-0.15025,-0.0155,-0.37525,-0.0743047689542533,10,1,100,0.15369549423321124,-10,-1,-100,6468.348364670528,-0.00413829088655556,0.009932842703350042,0.999942104916264,216.29550837404742,22.5467376461148,342.4590477031623,-19.450577348950947,-28.716278076171875,4381.2578125,True
1599570937.9535856,0.0,10,0.5,0.5,-10.467643371582032,-0.15025,-0.0155,-0.37525,0.04643528445527828,10,1,100,0.08129782346941863,-10,-1,-100,6467.942591553088,-0.004499761738550406,0.009306984363985003,0.9999465646655049,216.2312421450065,22.551505225594912,345.8068222667485,-19.641353085516347,-27.703125,4381.2578125,True
1599570938.0194478,0.0,10,0.5,0.5,-11.881062664794921,-0.15025,-0.0155,-0.37525,-0.1499711381413177,10,1,100,0.2057563930153659,-10,-1,-100,6466.378595297923,-0.005951586309339561,0.006964021982897931,0.9999580396287756,215.94631133928038,22.573082054780212,359.16010279428895,-20.404399670999837,-24.391448974609375,4381.2578125,True
1599570938.0902212,0.0,10,0.5,0.5,-10.682448977661132,-0.15025,-0.0155,-0.37525,0.08306406266858868,10,1,100,0.0614068861168959,-10,-1,-100,6466.378595297923,-0.005951586309339561,0.006964021982897931,0.9999580396287756,215.94631133928038,22.573082054780212,359.16010279428895,-20.404399670999837,-24.391448974609375,4381.2578125,True
1599570938.185002,0.0,10,0.5,0.5,-11.359428727722168,-0.15025,-0.0155,-0.37525,-0.04217530526273852,10,1,100,0.13919715960605678,-10,-1,-100,6465.502611767151,-0.006651665555913344,0.0058363598943390734,0.9999608453577149,215.92682275190407,22.599100334139575,366.0488224529435,-20.785878412979024,-23.180816650390625,4381.2578125,True
1599570938.268744,0.0,10,0.5,0.5,-11.425652749633787,-0.15025,-0.0155,-0.37525,-0.04092100758735888,10,1,100,0.15240845247226997,-10,-1,-100,6464.689622600563,-0.007400916510763333,0.004833923265705712,0.9999609290470614,216.0786605434524,22.644122260754532,373.2434657694476,-21.167315439378374,-22.26544189453125,4381.2578125,True
1599570938.3674803,0.0,10,0.5,0.5,-11.441624833679198,-0.15025,-0.0155,-0.37525,-0.05698094627366098,10,1,100,0.15316994383622656,-10,-1,-100,6463.814137861598,-0.008081883561764132,0.0037877352212822126,0.9999601673166725,216.44178180477175,22.712090210708176,380.83050465242343,-21.548698875128935,-21.64776611328125,4381.2578125,True
1599570938.451257,0.0,10,0.5,0.5,-11.433368853759765,-0.15025,-0.0155,-0.37525,-0.10440779725027993,10,1,100,0.20600783001425355,-10,-1,-100,6462.530947642634,-0.00917480449188487,0.0024157524246647987,0.9999549925385433,217.46314103535255,22.865160081807186,393.1360742471418,-22.12064444595315,-21.275054931640625,4381.2578125,True
1599570938.5509894,0.0,10,0.5,0.5,-11.2529291595459,-0.15025,-0.0155,-0.37525,-0.062398442067632516,10,1,100,0.17710740513885548,-10,-1,-100,6461.591996984091,-0.00989892748214667,0.001560709023284611,0.9999497864503235,218.47622810369583,23.002633816959353,402.0181076899311,-22.50183454386906,-21.396759033203125,4381.2578125,True
1599570938.6527534,0.0,10,0.5,0.5,-11.229251847839356,-0.15025,-0.0155,-0.37525,-0.02250096467843169,10,1,100,0.14571519793416637,-10,-1,-100,6461.184290858102,-0.01026483873020881,0.0011565961222170555,0.9999466462623159,219.08447441620126,23.082177159925088,406.67587754075055,-22.69239206706429,-21.56854248046875,4381.2578125,True
1599570938.735502,0.0,10,0.5,0.5,-10.561074884033202,-0.15025,-0.0155,-0.37525,-0.13757802193900984,10,1,100,0.2743463323316329,-10,-1,-100,6459.307868679985,-0.011760261629044248,-0.00024722094923424284,0.999930815170839,222.15014025557943,23.467209871652,426.73993315510177,-23.454329837722522,-22.99407958984375,4381.2578125,True
1599570938.8541803,0.0,10,0.5,0.5,-10.49726771697998,-0.15025,-0.0155,-0.37525,-0.06546846804384887,10,1,100,0.20817441590411867,-10,-1,-100,6458.3689294300275,-0.0125112450506968,-0.0008586222845497923,0.9999213626656118,224.01063630181727,23.69395924561524,437.5722351244129,-23.83509993476843,-24.15032958984375,4381.2578125,True
1599570938.9519186,0.0,10,0.5,0.5,-10.936657362365724,-0.15025,-0.0155,-0.37525,-0.005344895177147394,10,1,100,0.13387722207007816,-10,-1,-100,6458.3689294300275,-0.0125112450506968,-0.0008586222845497923,0.9999213626656118,224.01063630181727,23.69395924561524,437.5722351244129,-23.83509993476843,-24.15032958984375,4381.2578125,True
1599570939.0443835,0.0,10,0.5,0.5,-9.735411712646483,-0.15025,-0.0155,-0.37525,-0.08171612649792115,10,1,100,0.26219792333948255,-10,-1,-100,6456.897780623636,-0.013671833554290152,-0.0015457947108591468,0.9999053412628496,227.07857506982202,24.06177875380098,454.6139843952927,-24.405974170892282,-26.43695068359375,4381.2578125,True
1599570939.1528628,0.0,10,0.5,0.5,-10.112136936950682,-0.15025,-0.0155,-0.37525,-0.03578604950452076,10,1,100,0.1890777319093971,-10,-1,-100,6456.428557800944,-0.014055166592515194,-0.0017452145651151408,0.9998996982288666,228.14083674678787,24.187852036939468,460.443795392516,-24.59618654193239,-27.34686279296875,4381.2578125,True
1599570939.2446194,0.0,10,0.5,0.5,-8.780175476074218,-0.15025,-0.0155,-0.37525,-0.06928299213434487,10,1,100,0.27734113508094116,-10,-1,-100,6454.895402244874,-0.015199315291518722,-0.0022241306615649417,0.9998820100679225,231.31323903222014,24.560991986615843,478.118292872507,-25.166579243885074,-30.51898193359375,4381.2578125,True
1599570939.3468857,0.0,10,0.5,0.5,-8.652870724487304,-0.15025,-0.0155,-0.37525,-0.044575738473744374,10,1,100,0.24633420284588575,-10,-1,-100,6453.8929935661145,-0.015950479816857103,-0.0024284811214890555,0.9998698338649159,233.29197930214028,24.791133393178544,489.79339987438465,-25.54663924389195,-33.002044677734375,4381.2578125,True
1599570939.4468932,0.0,10,0.5,0.5,-8.856490090942382,-0.15025,-0.0155,-0.37525,-0.033677281105727534,10,1,100,0.21275613796184584,-10,-1,-100,6453.361272432026,-0.016320948253441547,-0.0025095262759446684,0.9998636551680328,234.19783703358965,24.895699423830177,495.5044446250617,-25.736611452185095,-34.35418701171875,4381.2578125,True
1599570939.5621014,0.0,10,0.5,0.5,-6.980270101928712,-0.15025,-0.0155,-0.37525,-0.03259157253278471,10,1,100,0.2934404901551044,-10,-1,-100,6451.828117788071,-0.017384735357764705,-0.0025688560850588276,0.9998455740537909,236.39571199247126,25.14604240666592,511.69837696773664,-26.306320736404547,-38.85150146484375,4381.2578125,True
1599570939.6558506,0.0,10,0.5,0.5,-6.87184054107666,-0.15025,-0.0155,-0.37525,-0.021558558022871988,10,1,100,0.2621188297809625,-10,-1,-100,6450.763208185323,-0.01806026689658845,-0.002518737993155817,0.9998337275360067,237.24934757036652,25.240001794382415,521.2790355737184,-26.685984053741613,-42.217803955078125,4381.2578125,True
1599570939.755584,0.0,10,0.5,0.5,-6.1795950119018555,-0.15025,-0.0155,-0.37525,-0.011074581426849061,10,1,100,0.2643022949633827,-10,-1,-100,6449.698785471497,-0.01868714940793533,-0.0023745260004479876,0.9998225602942148,237.68337028173823,25.28209039919738,529.989563904156,-27.065567137338284,-45.878021240234375,4381.2578125,True
1599570939.851328,0.0,10,0.5,0.5,-4.342843209838868,-0.15025,-0.0155,-0.37525,0.01371956970327513,10,1,100,0.29482195894024404,-10,-1,-100,6448.039158820291,-0.019528196920059516,-0.0020160889013022738,0.9998072738836187,237.03509830337356,25.192626801498047,540.1726025109182,-27.63487026683671,-51.919464111328125,4381.2578125,True
1599570939.9420862,0.0,10,0.5,0.5,-6.566852488708497,-0.15025,-0.0155,-0.37525,-0.0222398868729715,10,1,100,0.2114189029147619,-10,-1,-100,6448.039158820291,-0.019528196920059516,-0.0020160889013022738,0.9998072738836187,237.03509830337356,25.192626801498047,540.1726025109182,-27.63487026683671,-51.919464111328125,4381.2578125,True
1599570940.0245914,0.0,10,0.5,0.5,-4.214307751464844,-0.15025,-0.0155,-0.37525,0.013399417701826809,10,1,100,0.2652409979072572,-10,-1,-100,6446.913206296391,-0.020011109645564597,-0.001691042980970696,0.9997983275963156,235.3538088267669,24.99122990447922,544.0606919320724,-28.014428704987733,-56.3143310546875,4381.2578125,True
1599570940.1133564,0.0,10,0.5,0.5,-3.3533771987915033,-0.15025,-0.0155,-0.37525,0.023059735051465843,10,1,100,0.2609652186151822,-10,-1,-100,6445.784320095554,-0.02040548751510374,-0.0013075935790633508,0.9997909312842875,232.4761431266354,24.657413519102494,545.0564185075249,-28.39406936315548,-61.0028076171875,4381.2578125,True
1599570940.203115,0.0,10,0.5,0.5,0.329790858459472,-0.15025,-0.0155,-0.37525,0.08350489538925374,10,1,100,0.2884739535868961,-10,-1,-100,6443.4684327201685,-0.021008319240861644,-0.0004098995933368305,0.9997792168799057,222.4905954544346,23.53777045323201,536.365989538155,-29.153812217987763,-71.2603759765625,4381.2578125,True
1599570940.2868936,0.0,10,0.5,0.5,-3.4562125076293944,-0.15025,-0.0155,-0.37525,-0.006083080076575483,10,1,100,0.22877168140604007,-10,-1,-100,6443.4684327201685,-0.021008319240861644,-0.0004098995933368305,0.9997792168799057,222.4905954544346,23.53777045323201,536.365989538155,-29.153812217987763,-71.2603759765625,4381.2578125,True
1599570940.367704,0.0,10,0.5,0.5,1.0196742095947262,-0.15025,-0.0155,-0.37525,0.07402960970813056,10,1,100,0.2534252687327098,-10,-1,-100,6441.680358774145,-0.021227844726173183,0.00031656251240763157,0.9997746137987588,210.81051494372034,22.26915695812088,518.7474959970164,-29.72417860992637,-79.6649169921875,4381.2578125,True
1599570940.4554417,0.0,10,0.5,0.5,-0.5787608917236329,-0.15025,-0.0155,-0.37525,0.02804726595893884,10,1,100,0.2347677860752594,-10,-1,-100,6441.086122843204,-0.021253339055504368,0.000556392130102352,0.9997739674580397,206.22523654157052,21.779177274470943,510.9147778638516,-29.914413775919872,-82.49105834960938,4381.2578125,True
1599570940.5457115,0.0,10,0.5,0.5,2.9993853500366208,-0.15025,-0.0155,-0.37525,0.08616467233804906,10,1,100,0.23015554255350568,-10,-1,-100,6439.304384147166,-0.02123106931951883,0.001299917978530226,0.9997737503599496,205.05356992667444,21.66141951228661,518.3337612177896,-30.485185814465783,-91.18946838378906,4381.2578125,True
1599570940.6264946,0.0,10,0.5,0.5,2.8115008529663084,-0.15025,-0.0155,-0.37525,0.06328951027582055,10,1,100,0.21915005012458957,-10,-1,-100,6438.0504732066765,-0.02110789162615735,0.0017644230438337743,0.9997756466940073,214.86942700056693,22.720860021379558,550.3689755768775,-30.865291827488083,-96.89886474609375,4381.2578125,True
1599570940.7043297,0.0,10,0.5,0.5,2.26353927230835,-0.15025,-0.0155,-0.37525,0.04236712237563496,10,1,100,0.22188722934807897,-10,-1,-100,6437.39568469685,-0.021018594677662067,0.0019927341686132383,0.9997770990017272,219.6389212409841,23.24052535644301,566.2770610392796,-31.055185630514487,-99.78260803222656,4381.2578125,True
1599570940.795087,0.0,10,0.5,0.5,4.220320227813721,-0.15025,-0.0155,-0.37525,0.06423781482358187,10,1,100,0.20597355913026547,-10,-1,-100,6436.145185843459,-0.02079139099727023,0.0023954698287850726,0.9997809659043816,228.04466980817855,24.166290374680628,595.6094273509833,-31.43464606102367,-105.42431640625,4381.2578125,True
1599570940.8696482,0.0,10,0.5,0.5,7.681379621887206,-0.15025,-0.0155,-0.37525,0.10140331456326719,10,1,100,0.15791443020501708,-10,-1,-100,6433.635879646055,-0.020146792666614295,0.0030954508277292545,0.9997922408827854,241.21948908522188,25.63905502658793,646.1961011434298,-32.1923610361669,-115.88136291503906,4381.2578125,True
1599570940.9524267,0.0,10,0.5,0.5,3.849701818847656,-0.15025,-0.0155,-0.37525,0.031883864049719,10,1,100,0.22238783157271566,-10,-1,-100,6433.635879646055,-0.020146792666614295,0.0030954508277292545,0.9997922408827854,241.21948908522188,25.63905502658793,646.1961011434298,-32.1923610361669,-115.88136291503906,4381.2578125,True
1599570941.0262458,0.0,10,0.5,0.5,6.449250930023193,-0.15025,-0.0155,-0.37525,0.06119329286103399,10,1,100,0.17899500830077797,-10,-1,-100,6432.323360747541,-0.019752547632186215,0.003357897412916852,0.999799260545337,245.89487762572335,26.16633701669765,666.9545987949582,-32.57071264132805,-120.66630554199219,4381.2578125,True
1599570941.1162164,0.0,10,0.5,0.5,8.208702946472167,-0.15025,-0.0155,-0.37525,0.06617359704636129,10,1,100,0.14670794225406647,-10,-1,-100,6430.352138235001,-0.019101765883743925,0.003638335440221049,0.99981092465293,250.42010344118015,26.676537582637422,691.8056251932616,-33.13780106008103,-127.28556823730469,4381.2578125,True
1599570941.1922657,0.0,10,0.5,0.5,7.935129175567626,-0.15025,-0.0155,-0.37525,0.05013747279498361,10,1,100,0.1590339879366856,-10,-1,-100,6428.9732090876205,-0.018623934303508487,0.003743815940000015,0.9998195501755633,252.05777408773125,26.857349724384942,704.7766909709312,-33.51565763472908,-131.326416015625,4381.2578125,True
1599570941.268574,0.0,10,0.5,0.5,7.501997944641113,-0.15025,-0.0155,-0.37525,0.04292083459509239,10,1,100,0.17992992770351207,-10,-1,-100,6428.318900613813,-0.01838187223792257,0.0037709858166840708,0.9998239277187754,252.53218060423808,26.907302826476368,710.338762095192,-33.70454518341557,-133.2353057861328,4381.2578125,True
1599570941.3493574,0.0,10,0.5,0.5,9.639260647583008,-0.15025,-0.0155,-0.37525,0.03936484676747302,10,1,100,0.12193181382151907,-10,-1,-100,6426.278336792486,-0.017637170658296876,0.0037604361846125074,0.9998373814430381,252.8529566836334,26.925986978141378,723.9878483295782,-34.27110810742272,-138.51583862304688,4381.2578125,True
1599570941.4281466,0.0,10,0.5,0.5,9.385841035461425,-0.15025,-0.0155,-0.37525,0.030222522072690286,10,1,100,0.13958647347733522,-10,-1,-100,6424.902823905693,-0.017123933308836593,0.00366549673258935,0.9998466557636416,252.36059021612576,26.853490380682477,731.0839725823629,-34.648772545188045,-141.66473388671875,4381.2578125,True
1599570941.5019488,0.0,10,0.5,0.5,9.772181463623047,-0.15025,-0.0155,-0.37525,0.022968919363938807,10,1,100,0.134549905235139,-10,-1,-100,6423.524381289026,-0.016615188696504843,0.003511518048226234,0.999855791974811,251.48069262086713,26.73378845717688,737.034032051369,-35.02642647063009,-144.51644897460938,4381.2578125,True
1599570942.16622,0.0,10,0.5,0.5,9.462149929046632,-0.15025,-0.0155,-0.37525,0.02782061564325654,10,1,100,0.15729617240271554,-10,-1,-100,6422.8070846624905,-0.016363480937709545,0.0034142630432720963,0.9998602798888816,250.9390527116268,26.661379896271345,739.696120103058,-35.21525314300723,-145.8308868408203,4381.2578125,True
1599570942.2295604,0.0,10,0.5,0.5,9.683296504974365,-0.15025,-0.0155,-0.37525,0.024783007465333115,10,1,100,0.1539083312067492,-10,-1,-100,6422.08685753413,-0.016107882518895545,0.0032973086069558607,0.9998648228019167,250.35201101882265,26.583233078836244,742.2115209156088,-35.4040806594535,-147.07115173339844,4381.2578125,True
1599570942.2969716,0.0,10,0.5,0.5,10.452751837921141,-0.15025,-0.0155,-0.37525,0.006084011010282914,10,1,100,0.12354594271610889,-10,-1,-100,6420.642009430099,-0.015603170342920377,0.0030208120081868023,0.9998736999091741,249.09815385131287,26.416393086024176,746.9623361421918,-35.78173882314901,-149.32904052734375,4381.2578125,True
1599570942.3849294,0.0,10,0.5,0.5,10.19214045791626,-0.15025,-0.0155,-0.37525,0.01562907484443051,10,1,100,0.14596134515311135,-10,-1,-100,6419.925201162463,-0.015352248043573605,0.002856292624906766,0.9998780676024701,248.457995801898,26.33082297724124,749.275364435883,-35.970568728049464,-150.34677124023438,4381.2578125,True
1599570942.4527469,0.0,10,0.5,0.5,10.808983108520508,-0.15025,-0.0155,-0.37525,-0.008818611283581978,10,1,100,0.116119988928431,-10,-1,-100,6418.487190550542,-0.014856852078114548,0.0024849338614775377,0.9998865430887811,247.20919413580108,26.162130698778892,753.9507917350971,-36.348226502211304,-152.1597900390625,4381.2578125,True
1599570942.527586,0.0,10,0.5,0.5,11.30418515548706,-0.15025,-0.0155,-0.37525,-0.04393331489394002,10,1,100,0.08499323914401255,-10,-1,-100,6416.264013563399,-0.014127380669480355,0.0018291589542465693,0.99989853049844,245.56705318049217,25.932571839095214,761.5655825766514,-36.914689249493264,-154.3234100341797,4381.2578125,True
1599570942.6003904,0.0,10,0.5,0.5,10.829138788604736,-0.15025,-0.0155,-0.37525,-0.006253148774021791,10,1,100,0.13125365871677386,-10,-1,-100,6415.542812607484,-0.01388886188832349,0.001577287509659267,0.9999023010672388,245.11654263864847,25.866252583036918,764.3798703397429,-37.103497497623934,-154.89659118652344,4381.2578125,True
1599570942.6726482,0.0,10,0.5,0.5,11.133235547637938,-0.15025,-0.0155,-0.37525,-0.03936240643926176,10,1,100,0.10246188951632258,-10,-1,-100,6414.0359574529575,-0.013414367831221873,0.0010493144888113785,0.9999094727398037,244.39976445953164,25.75315559117634,770.5590719547513,-37.48108414046855,-155.8206787109375,4381.2578125,True
1599570942.753433,0.0,10,0.5,0.5,11.250093629455566,-0.15025,-0.0155,-0.37525,-0.08336223964723283,10,1,100,0.07194128292788773,-10,-1,-100,6411.749798648409,-0.012709388449259245,0.0001718051876915622,0.9999192177012218,243.866857933854,25.64087994927729,781.5106525324948,-38.04735907357164,-156.65188598632812,4381.2578125,True
1599570942.8272352,0.0,10,0.5,0.5,11.058404884338378,-0.15025,-0.0155,-0.37525,-0.06677737712867353,10,1,100,0.09098665936098757,-10,-1,-100,6410.25027204887,-0.012245651110375561,-0.00047198297993509755,0.9999249078110564,243.91452383120134,25.608362718044376,790.1089950956354,-38.42478045401926,-156.83645629882812,4381.2578125,True
1599570942.9000459,0.0,10,0.5,0.5,10.94983417816162,-0.15025,-0.0155,-0.37525,-0.07639689373284202,10,1,100,0.08519496937406061,-10,-1,-100,6408.6838524154155,-0.011775392291132994,-0.0011410737368807186,0.9999300165947198,244.30130259180578,25.611119586660454,799.8371431552907,-38.80210487069994,-156.72531127929688,4381.2578125,True
1599570942.9758463,0.0,10,0.5,0.5,10.921010086822509,-0.15025,-0.0155,-0.37525,-0.0479498654631243,10,1,100,0.1056871034572768,-10,-1,-100,6407.901132096769,-0.011538347391347695,-0.0014865874982155287,0.9999323260086589,244.62361886920064,25.625801998256684,805.1411707116865,-38.99072506871268,-156.5589599609375,4381.2578125,True
1599570943.0596197,0.0,10,0.5,0.5,10.503318278503418,-0.15025,-0.0155,-0.37525,-0.13437439592497466,10,1,100,0.05020601504540359,-10,-1,-100,6405.551995302434,-0.01082263261973271,-0.002582019470804749,0.9999380999835094,246.09338037764624,25.72121884898145,822.8209885244845,-39.55639015070359,-155.61734008789062,4381.2578125,True
1599570943.1344197,0.0,10,0.5,0.5,10.34280838317871,-0.15025,-0.0155,-0.37525,-0.10972836217263893,10,1,100,0.06779691227096912,-10,-1,-100,6403.983628084185,-0.010336246018245308,-0.0033487183831564502,0.999940972309586,247.46911613453156,25.82487378641321,836.0439510355576,-39.93331477850931,-154.62095642089844,4381.2578125,True
1599570943.2102213,0.0,10,0.5,0.5,9.647428918457031,-0.15025,-0.0155,-0.37525,-0.16231375472092993,10,1,100,0.03160311357560516,-10,-1,-100,6401.506082358072,-0.009569601848776478,-0.004518125498453312,0.9999440030633897,250.05125273932333,26.032195806470735,857.8525149355046,-40.498380382624774,-152.57357788085938,4381.2578125,True
1599570943.2850199,0.0,10,0.5,0.5,9.98039962387085,-0.15025,-0.0155,-0.37525,-0.0904368299210555,10,1,100,0.07905903849289705,-10,-1,-100,6400.727272231365,-0.009308876694170503,-0.004921429869306209,0.9999445606346055,251.02818999801727,26.11285055824731,865.5858840063652,-40.68664184041456,-151.74398803710938,4381.2578125,True
1599570943.3648045,0.0,10,0.5,0.5,9.299714431762693,-0.15025,-0.0155,-0.37525,-0.1385937890825804,10,1,100,0.04474481261083431,-10,-1,-100,6399.0915285145165,-0.00876428677648751,-0.005719723845346749,0.9999452345185872,253.11442134816053,26.287331354634336,881.6188743035683,-41.06301378902975,-149.8638916015625,4381.2578125,True
1599570943.43761,0.0,10,0.5,0.5,8.85493694076538,-0.15025,-0.0155,-0.37525,-0.1483194454961018,10,1,100,0.03660577152191093,-10,-1,-100,6397.397681021597,-0.00819987245515988,-0.00652722705336561,0.9999450771910989,255.3197302572248,26.473879732989293,898.2187276865768,-41.43917463262015,-147.68980407714844,4381.2578125,True
1599570943.5173995,0.0,10,0.5,0.5,8.361273320770263,-0.15025,-0.0155,-0.37525,-0.15699835268114637,10,1,100,0.02776147708305629,-10,-1,-100,6395.776590170804,-0.007611106300305232,-0.007333332270026637,0.9999441450894658,257.5672361371229,26.665377424194382,915.1230682085273,-41.81511599744617,-145.22189331054688,4381.2578125,True
1599570943.5981827,0.0,10,0.5,0.5,7.818413273620607,-0.15025,-0.0155,-0.37525,-0.16403812662451495,10,1,100,0.018266819839199047,-10,-1,-100,6394.086165388115,-0.006994184077446808,-0.00812333028696936,0.9999425447965195,259.76666799786784,26.853641090678543,932.0113631620208,-42.19083473846065,-142.4602813720703,4381.2578125,True
1599570943.7288325,0.0,10,0.5,0.5,8.049002215576172,-0.15025,-0.0155,-0.37525,-0.1288935392924551,10,1,100,0.044576207240286436,-10,-1,-100,6393.230211707996,-0.0066772960030698795,-0.008515058283619441,0.9999414520363251,260.81701243757317,26.94377389803483,940.3347992590723,-42.37861129235455,-140.96946716308594,4381.2578125,True
1599570943.8624737,0.0,10,0.5,0.5,6.9015843879699705,-0.15025,-0.0155,-0.37525,-0.17462083017731478,10,1,100,0.0039228120969875685,-10,-1,-100,6391.546625550021,-0.006024274248959103,-0.009280173666303022,0.9999387913750005,262.74731793506083,27.109694077532243,956.4712361455511,-42.75400367109607,-137.7678985595703,4381.2578125,True
1599570943.9397812,0.0,10,0.5,0.5,5.261576712036132,-0.15025,-0.0155,-0.37525,-0.22008701141402656,10,1,100,-0.04384846503025886,-10,-1,-100,6388.952401001705,-0.005001346565103783,-0.010381976947105397,0.9999335983390125,264.98374220865077,27.30211619380468,978.4986759300019,-43.316723025486354,-132.41629028320312,4381.2578125,True
1599570944.0305479,0.0,10,0.5,0.5,6.2195147544860845,-0.15025,-0.0155,-0.37525,-0.14987102765694862,10,1,100,0.019100218122348002,-10,-1,-100,6388.041273959097,-0.004648965141217762,-0.010738198297792028,0.9999315367666093,265.48636128585605,27.345194049005116,984.995054004345,-43.50421052149961,-130.48614501953125,4381.2578125,True
1599570944.1228185,0.0,10,0.5,0.5,4.762391937255859,-0.15025,-0.0155,-0.37525,-0.1880572570628377,10,1,100,-0.025972772861409685,-10,-1,-100,6386.291773920646,-0.003924034184084517,-0.011402465720365561,0.999927290222253,266.01833710642336,27.389697601042194,996.276683778345,-43.87908425126525,-126.40621948242188,4381.2578125,True
1599570944.2065947,0.0,10,0.5,0.5,3.9550129745483398,-0.15025,-0.0155,-0.37525,-0.1875656060035869,10,1,100,-0.034114365072594285,-10,-1,-100,6384.528603148763,-0.003196123900829608,-0.011995617149237482,0.9999229420116429,265.79114075209975,27.36629026337253,1004.743538812884,-44.253861674136154,-122.03359985351562,4381.2578125,True
1599570944.29037,0.0,10,0.5,0.5,3.09879047088623,-0.15025,-0.0155,-0.37525,-0.19255494773819962,10,1,100,-0.04419990757559597,-10,-1,-100,6382.775685888017,-0.00244825757765544,-0.012573772293726679,0.9999179497764499,264.6466436463588,27.258891739818292,1009.7214281251751,-44.62859869353792,-117.36947631835938,4381.2578125,True
1599570944.379137,0.0,10,0.5,0.5,2.1939571166992184,-0.15025,-0.0155,-0.37525,-0.18846490254074216,10,1,100,-0.05140301747855248,-10,-1,-100,6380.957339319633,-0.0017086381294691667,-0.013055954697423263,0.9999133075435497,262.4237245193204,27.049846910894903,1010.5026113195745,-45.003359156129484,-112.41290283203125,4381.2578125,True
1599570944.4539328,0.0,10,0.5,0.5,1.2412872657775877,-0.15025,-0.0155,-0.37525,-0.18717748127997474,10,1,100,-0.05850574160082501,-10,-1,-100,6379.135085935588,-0.0009775877157570684,-0.013476663300554947,0.9999087077671348,258.96387724073185,26.720237018684184,1006.3653229703514,-45.37821264660923,-107.1646728515625,4381.2578125,True
1599570944.5327253,0.0,10,0.5,0.5,-1.2724829429626465,-0.15025,-0.0155,-0.37525,-0.19984871318813852,10,1,100,-0.1019850059838835,-10,-1,-100,6376.419281903305,7.623913784123606e-05,-0.01396873383799385,0.9999024295712844,251.49379297511183,25.994411630781375,990.8125882097097,-45.94081307422874,-98.74568176269531,4381.2578125,True
1599570944.6115124,0.0,10,0.5,0.5,-1.3217819541931148,-0.15025,-0.0155,-0.37525,-0.1772089301658061,10,1,100,-0.0697029928414886,-10,-1,-100,6374.545267694164,0.0007343630459858429,-0.0142049404776889,0.9998988350712996,245.4196640367709,25.392428843154384,975.7143391577722,-46.316149771974295,-92.76895904541016,4381.2578125,True
1599570944.6952903,0.0,10,0.5,0.5,-2.400628112030029,-0.15025,-0.0155,-0.37525,-0.1720861509346483,10,1,100,-0.07062897963573152,-10,-1,-100,6372.723009661306,0.0013343376978385522,-0.014367930446042902,0.9998958856389029,237.66640541010304,24.60605630671384,953.4853976566973,-46.69174840960921,-86.59027099609375,4381.2578125,True
1599570944.7740796,0.0,10,0.5,0.5,-1.7533283260345458,-0.15025,-0.0155,-0.37525,-0.1624047827458515,10,1,100,-0.04150626583849145,-10,-1,-100,6371.753286650754,0.0016083276086871986,-0.014423465473030441,0.9998946829171819,233.5014782498995,24.177439698753354,941.0098514893006,-46.8796479620009,-83.5609130859375,4381.2578125,True
1599570944.8528674,0.0,10,0.5,0.5,-3.7689836193084716,-0.15025,-0.0155,-0.37525,-0.16516907088664742,10,1,100,-0.07122835873340357,-10,-1,-100,6369.849483223399,0.0021216013956180863,-0.014495407672911872,0.9998926852237267,226.3342567755295,23.427850575194455,920.3418338149767,-47.25559297127022,-77.70611572265625,4381.2578125,True
1599570944.9286642,0.0,10,0.5,0.5,-4.575590745162964,-0.15025,-0.0155,-0.37525,-0.15997140496974593,10,1,100,-0.06837672625672654,-10,-1,-100,6367.939330232097,0.0025561349370974333,-0.014510142519582141,0.9998914550781223,236.54173163894674,24.459992771208587,970.430076397842,-47.6311751197106,-72.14605712890625,4381.2578125,True
1599570945.0124426,0.0,10,0.5,0.5,-6.659249782943725,-0.15025,-0.0155,-0.37525,-0.15146704172525416,10,1,100,-0.08276530259207451,-10,-1,-100,6364.979859444895,0.0030760796059262014,-0.014443400280878628,0.999890957016106,248.9427931656876,25.68351464374954,1034.8185122708612,-48.19360410415161,-64.37066650390625,4381.2578125,True
1599570945.0859323,0.0,10,0.5,0.5,-6.356545054244995,-0.15025,-0.0155,-0.37525,-0.14824407329873598,10,1,100,-0.058098938200970236,-10,-1,-100,6363.035033779568,0.0033188148981179917,-0.01435120054806014,0.9998915083700338,255.4462076541417,26.30865563873153,1071.0661208600686,-48.56798297358111,-59.56451416015625,4381.2578125,True
1599570945.1632097,0.0,10,0.5,0.5,-7.009581145858764,-0.15025,-0.0155,-0.37525,-0.14423487207334945,10,1,100,-0.05196018263992034,-10,-1,-100,6361.091671612812,0.0034784336836684625,-0.014229319481399516,0.9998927077272864,260.7052237887704,26.804474805978806,1102.4989323509149,-48.94196169337293,-55.060333251953125,4381.2578125,True
1599570945.2370117,0.0,10,0.5,0.5,-7.616608968734742,-0.15025,-0.0155,-0.37525,-0.1401344153630916,10,1,100,-0.04487592161132915,-10,-1,-100,6359.150260892697,0.003554423777715209,-0.014080174937265717,0.9998945518130121,264.87114889285624,27.190694854109424,1129.6329738670356,-49.315595864689406,-50.858001708984375,4381.2578125,True
1599570945.3200943,0.0,10,0.5,0.5,-8.176791077804566,-0.15025,-0.0155,-0.37525,-0.1360312418626231,10,1,100,-0.036794007531983385,-10,-1,-100,6357.145371520892,0.003545913724769588,-0.013906738763833722,0.9998970092528584,268.09458885756163,27.4858373540517,1153.0056377951612,-49.68894023104624,-46.957275390625,4381.2578125,True
1599570945.3988829,0.0,10,0.5,0.5,-8.684733876419067,-0.15025,-0.0155,-0.37525,-0.132086849110313,10,1,100,-0.02765825689086701,-10,-1,-100,6355.1395039153285,0.003451970784820758,-0.013713267758487416,0.9999000100935517,270.5233365286401,27.707002008678824,1173.164811788356,-50.06204556805057,-43.358001708984375,4381.2578125,True
1599570945.4727266,0.0,10,0.5,0.5,-9.14384270324707,-0.15025,-0.0155,-0.37525,-0.12801388147248693,10,1,100,-0.01782144807184658,-10,-1,-100,6353.134612442809,0.0032746720249317855,-0.013500805023027994,0.9999034977370863,272.29957017888427,27.869703348379872,1190.654951338713,-50.43495606200746,-40.059906005859375,4381.2578125,True
1599570945.572421,0.0,10,0.5,0.5,-9.55339499053955,-0.15025,-0.0155,-0.37525,-0.12373970126829384,10,1,100,-0.007173323979539611,-10,-1,-100,6351.129230847699,0.00301492626571439,-0.013269589193865868,0.9999074098246489,273.5580959204515,27.987898566969363,1206.0075165656995,-50.80770858477038,-37.06268310546875,4381.2578125,True
1599570946.2869713,0.0,10,0.5,0.5,-9.229014984130858,-0.15025,-0.0155,-0.37525,-0.13331350850853677,10,1,100,-0.01565201098366535,-10,-1,-100,6350.094069512794,0.002854594004047876,-0.013147476575247202,0.9999094934806727,274.0325432913356,28.034217954712076,1213.0408128048418,-50.9940349442631,-35.676849365234375,4381.2578125,True
1599570946.3587806,0.0,10,0.5,0.5,-10.112252456665038,-0.15025,-0.0155,-0.37525,-0.1169661975674007,10,1,100,0.010070857317803002,-10,-1,-100,6348.026675199973,0.002474326788330033,-0.012889078578035965,0.999913870971072,274.7434960637965,28.10819665069904,1226.1166375793061,-51.366602241170774,-33.130462646484375,4381.2578125,True
1599570946.43062,0.0,10,0.5,0.5,-10.92867833404541,-0.15025,-0.0155,-0.37525,-0.0962192551073692,10,1,100,0.0514029325011543,-10,-1,-100,6344.925094361766,0.0017529575525094979,-0.012467036434517777,0.9999207469306554,275.4129838646054,28.191054038595276,1244.089776198015,-51.92526899148498,-29.87359619140625,4381.2578125,True
1599570946.503393,0.0,10,0.5,0.5,-10.70413917236328,-0.15025,-0.0155,-0.37525,-0.10463080287951274,10,1,100,0.04313690708352658,-10,-1,-100,6342.856234100647,0.0011735158619723695,-0.01216162706910833,0.9999253560579178,275.73258762742444,28.240241579989384,1255.5758970660354,-52.29760355106478,-28.07696533203125,4381.2578125,True
1599570946.577196,0.0,10,0.5,0.5,-10.865662036132813,-0.15025,-0.0155,-0.37525,-0.09836298061742299,10,1,100,0.05670840452969243,-10,-1,-100,6340.726827623439,0.000525323711097241,-0.011828992510425245,0.9999298970283802,276.04366802134194,28.29300396295339,1267.079838729372,-52.669853506148335,-26.57952880859375,4381.2578125,True
1599570946.6569824,0.0,10,0.5,0.5,-10.977730867004393,-0.15025,-0.0155,-0.37525,-0.09197217966083276,10,1,100,0.07145323769034388,-10,-1,-100,6338.595468797488,-0.000195301173001915,-0.011470681381990689,0.999934190497597,276.4062632465571,28.354672399547557,1278.8785377248573,-53.0420160494322,-25.3809814453125,4381.2578125,True
1599570946.7317824,0.0,10,0.5,0.5,-10.823543963623047,-0.15025,-0.0155,-0.37525,-0.10679608943806139,10,1,100,0.042419874475767685,-10,-1,-100,6337.561284053838,-0.0005830661975498032,-0.011282079075529784,0.9999361853266151,276.6238023721775,28.390362500766024,1284.9686378032286,-53.22806270446501,-24.8936767578125,4381.2578125,True
1599570946.8065825,0.0,10,0.5,0.5,-11.208143359375,-0.15025,-0.0155,-0.37525,-0.05710374583432902,10,1,100,0.14204368008129917,-10,-1,-100,6334.332753801951,-0.0018374971981687885,-0.010661259909338944,0.9999414788582341,277.4903554969563,28.523075441679627,1304.3406562525768,-53.78605085204526,-23.87890625,4381.2578125,True
1599570946.8744178,0.0,10,0.5,0.5,-11.017432087707519,-0.15025,-0.0155,-0.37525,-0.06904521496632021,10,1,100,0.11858397647694212,-10,-1,-100,6332.138899640762,-0.002759810376889175,-0.010208212212046416,0.9999440863618914,278.2868240773043,28.636507235175078,1318.3832873254296,-54.15790241472399,-23.57464599609375,4381.2578125,True
1599570946.9562016,0.0,10,0.5,0.5,-10.95013977355957,-0.15025,-0.0155,-0.37525,-0.08788532633968227,10,1,100,0.08062442896029381,-10,-1,-100,6331.104717411217,-0.003247704214300159,-0.009970617675002848,0.9999450180887524,278.7611268911329,28.701641634781815,1325.7993228138484,-54.34378114467219,-23.5340576171875,4381.2578125,True
1599570947.0275917,0.0,10,0.5,0.5,-10.881723324584959,-0.15025,-0.0155,-0.37525,-0.05242191836346209,10,1,100,0.14082604668439044,-10,-1,-100,6328.911842932925,-0.00423283819991101,-0.009435227088378387,0.9999465283556737,279.87038530627507,28.84941932416456,1341.4747080146356,-54.71543603305518,-23.6751708984375,4381.2578125,True
1599570947.1035514,0.0,10,0.5,0.5,-10.723147917175293,-0.15025,-0.0155,-0.37525,-0.043228631613604594,10,1,100,0.1591725901883469,-10,-1,-100,6326.717506453162,-0.005288758189407788,-0.008868307811436417,0.9999466896556914,281.18259209320445,29.01912364441562,1358.2384465973328,-55.08694248882138,-24.11309814453125,4381.2578125,True
1599570947.177355,0.0,10,0.5,0.5,-10.264499969482422,-0.15025,-0.0155,-0.37525,0.00415410479962551,10,1,100,0.23888953372145288,-10,-1,-100,6323.3649735436775,-0.006966327589271516,-0.007925829747520352,0.999944324201469,283.53168185804714,29.31406473057005,1385.4711352429217,-55.643892794917015,-25.3251953125,4381.2578125,True
1599570947.2641623,0.0,10,0.5,0.5,-10.436424685668944,-0.15025,-0.0155,-0.37525,-0.051730805381264656,10,1,100,0.1353080213901405,-10,-1,-100,6322.267809838522,-0.0075418139450977185,-0.007581204515320201,0.99994282155557,284.40981544423465,29.422268572343096,1395.0840820900933,-55.82945377621535,-25.876983642578125,4381.2578125,True
1599570947.3329782,0.0,10,0.5,0.5,-9.099644692993165,-0.15025,-0.0155,-0.37525,0.08452980691144277,10,1,100,0.3377136224655114,-10,-1,-100,6317.7541659004055,-0.009897111251254847,-0.006033340031162531,0.9999328207419479,288.2637562934615,29.88868604982874,1435.6097323005215,-56.571213833067645,-28.821319580078125,4381.2578125,True
1599570947.416201,0.0,10,0.5,0.5,-9.717404551696777,-0.15025,-0.0155,-0.37525,-0.02386968000676088,10,1,100,0.17137033452556014,-10,-1,-100,6316.595483912504,-0.010516603971068723,-0.00561690915616583,0.9999289231602649,289.2785094486485,30.009667615029485,1446.0978022096413,-56.756527744686935,-29.74163818359375,4381.2578125,True
1599570947.4900022,0.0,10,0.5,0.5,-9.533766635131837,-0.15025,-0.0155,-0.37525,-0.016913782231363375,10,1,100,0.1786749353690102,-10,-1,-100,6315.497350779478,-0.011136801630569005,-0.005180421810234147,0.9999245645944046,290.30285425386893,30.131028366604685,1456.6757435783074,-56.9417898834935,-30.73541259765625,4381.2578125,True
1599570947.5712953,0.0,10,0.5,0.5,-8.099863479614257,-0.15025,-0.0155,-0.37525,0.10103825815180165,10,1,100,0.31139837221198796,-10,-1,-100,6312.020340288291,-0.012897600078293587,-0.0037168708170541133,0.9999099143340612,293.33412897066137,30.48558016552681,1488.4501359732471,-57.49726540569574,-34.156463623046875,4381.2578125,True
