Timestamp,Input Throttle,horizon,dT,dt,Input Roll,Roll P,Roll I,Roll D,Input Pitch,Pitch P,Pitch I,Pitch D,Input Yaw,Yaw P,Yaw I,Yaw D,Altitude,Direction X,Direction Y,Direction Z,Drag X,Drag Y,Drag Z,Vertical Velocity,Roll,Mass,Has Fuel
1599568239.3217778,0.0,10,0.5,0.5,-5.433372390747071,-0.1005,-0.001,-0.2505,-0.06720510179756627,10,1,100,0.6903596226704147,-10,-1,-100,6483.617967046448,-0.06725757564032425,-0.007002514970645059,0.9977110720559695,205.07329140310503,21.49878471438366,-156.7652930038853,9.590824008094547,-35.944580078125,4381.2578125,True
1599568239.810085,0.0,10,0.5,0.5,-5.438553674316407,-0.1005,-0.001,-0.2505,-0.06903682841101105,10,1,100,0.6894947440141821,-10,-1,-100,6483.776675056783,-0.06735024136802341,-0.006987164308895022,0.9977049285848946,204.8428087239362,21.477794599426286,-153.51329276642662,9.400810106438321,-35.94293212890625,4381.2578125,True
1599568239.8569274,0.0,10,0.5,0.5,-5.444135711669922,-0.1005,-0.001,-0.2505,-0.06956230868321989,10,1,100,0.6973696910452918,-10,-1,-100,6483.9978825873695,-0.0674448458740618,-0.00697163428767971,0.9976986464260552,204.6121965272434,21.45674696544935,-150.26675497696257,9.210801635162428,-35.941253662109375,4381.2578125,True
1599568239.9138076,0.0,10,0.5,0.5,-5.435303076171876,-0.1005,-0.001,-0.2505,-0.05269532571157367,10,1,100,0.7072647848858338,-10,-1,-100,6484.316760008107,-0.06755949187276157,-0.006797842028389297,0.997692088974174,204.1495045062493,21.41435980660183,-143.78937822451894,8.830797923106969,-35.980621337890625,4381.2578125,True
1599568239.9671798,0.0,10,0.5,0.5,-5.414286190795899,-0.1005,-0.001,-0.2505,-0.05351732842266865,10,1,100,0.7048208950142216,-10,-1,-100,6484.538935850258,-0.06758008060740783,-0.006641141960927613,0.9976917499601522,203.94244949264836,21.395609369565445,-140.57585366367556,8.64080095762808,-36.083984375,4381.2578125,True
1599568240.0240297,0.0,10,0.5,0.5,-5.187975994873048,-0.1005,-0.001,-0.2505,0.0012202883538074416,10,1,100,0.7055861640888447,-10,-1,-100,6485.016949030105,-0.06754431819357609,-0.005995035254393638,0.9976982633201602,203.44699433895212,21.35171396356609,-131.04561803566438,8.070816341589648,-36.81787109375,4381.2578125,True
1599568240.0803835,0.0,10,0.5,0.5,-5.240173419189453,-0.1005,-0.001,-0.2505,-0.02891627392447628,10,1,100,0.7078597040309119,-10,-1,-100,6485.17562349455,-0.06747107152757187,-0.005676184237115882,0.9977050844009103,203.31786199955846,21.34046509174886,-127.89882635533425,7.8808203798815235,-37.20806884765625,4381.2578125,True
1599568240.1372356,0.0,10,0.5,0.5,-4.777770941162109,-0.1005,-0.001,-0.2505,0.07927786601900397,10,1,100,0.6747352749077757,-10,-1,-100,6485.590080981376,-0.06704201513778718,-0.004397576418070724,0.9977404620079874,202.9731762225007,21.30958042014979,-118.49889501425282,7.310815805321783,-38.8189697265625,4381.2578125,True
1599568240.193088,0.0,10,0.5,0.5,-4.946381903076172,-0.1005,-0.001,-0.2505,0.009308890532891176,10,1,100,0.7000495199522221,-10,-1,-100,6485.750193206011,-0.06682114608826172,-0.003867289472068814,0.9977574747941458,202.85090763548732,21.297890648657578,-115.36573153295566,7.120805310318893,-39.502838134765625,4381.2578125,True
1599568240.2519348,0.0,10,0.5,0.5,-4.2478864379882815,-0.1005,-0.001,-0.2505,0.1642633806434596,10,1,100,0.6300938163711138,-10,-1,-100,6486.165059308405,-0.06592364860514825,-0.0019730175297236656,0.9978227196032432,202.340152583109,21.245571194660474,-105.90535483973795,6.550730922953912,-41.99530029296875,4381.2578125,True
1599568240.309739,0.0,10,0.5,0.5,-4.164808322143555,-0.1005,-0.001,-0.2505,0.13923259125370152,10,1,100,0.6364010021511878,-10,-1,-100,6486.420283035375,-0.06510514926522291,-0.0004767111061079466,0.9978782953274783,201.77219664111357,21.184882666210395,-99.50563090522822,6.170633240868051,-44.02447509765625,4381.2578125,True
1599568240.368615,0.0,10,0.5,0.5,-4.277508602905273,-0.1005,-0.001,-0.2505,0.08062712272914827,10,1,100,0.6657503001324172,-10,-1,-100,6486.517856752966,-0.06462982750727933,0.00034485792526082576,0.9979092476119211,201.38080476668438,21.142665258141257,-96.26539309103845,5.980565025206001,-45.149261474609375,4381.2578125,True
1599568240.4251487,0.0,10,0.5,0.5,-3.690990908813477,-0.1005,-0.001,-0.2505,0.1850995530151331,10,1,100,0.5893711804951726,-10,-1,-100,6486.772067220532,-0.06350583428868362,0.0020348227543467027,0.9979793928271548,200.31275929749066,21.02712482056132,-89.6888692047064,5.600379497510586,-47.620361328125,4381.2578125,True
1599568240.4840374,0.0,10,0.5,0.5,-3.3382276763916017,-0.1005,-0.001,-0.2505,0.22034488614529274,10,1,100,0.5562658849727043,-10,-1,-100,6486.965219902224,-0.062186645959379054,0.003883378848297109,0.9980569825581321,198.75145170910557,20.858360640228348,-82.96591509198052,5.220112388021962,-50.3856201171875,4381.2578125,True
1599568240.5498614,0.0,10,0.5,0.5,-2.379673101806641,-0.1005,-0.001,-0.2505,0.36416253603549076,10,1,100,0.4250477967830504,-10,-1,-100,6487.254424207378,-0.05979937653639022,0.006861607368275019,0.9981868326672031,195.1826675107278,20.47410723554091,-72.59272307581325,4.649512361684208,-55.0859375,4381.2578125,True
1599568240.6296465,0.0,10,0.5,0.5,-2.3257919189453125,-0.1005,-0.001,-0.2505,0.2936465039529873,10,1,100,0.4572090404438427,-10,-1,-100,6487.447532956721,-0.057928579916108495,0.00891575777720563,0.9982809168225951,191.75585235840822,20.10706109221765,-65.49307736436202,4.268937808524274,-58.588531494140625,4381.2578125,True
1599568240.711428,0.0,10,0.5,0.5,-2.5474742431640625,-0.1005,-0.001,-0.2505,0.20479293625326767,10,1,100,0.5311122434806907,-10,-1,-100,6487.544083167217,-0.05690844459643961,0.009961852267116371,0.9983297002659103,189.66475642163783,19.883866776320673,-61.8959379845852,4.078585778899178,-60.450469970703125,4381.2578125,True
1599568240.8141544,0.0,10,0.5,0.5,-0.8948539215087892,-0.1005,-0.001,-0.2505,0.43739323678879716,10,1,100,0.26156787087411565,-10,-1,-100,6487.770729156677,-0.053540247852072786,0.01301317904780892,0.9984808956765312,181.66218238662432,19.03381715840597,-50.991939707114184,3.507223026778496,-66.48098754882812,4381.2578125,True
1599568240.9128911,0.0,10,0.5,0.5,-0.05245274047851578,-0.1005,-0.001,-0.2505,0.4672942598918858,10,1,100,0.17077173597206874,-10,-1,-100,6487.934863798902,-0.04966510573743499,0.01604311200804306,0.9986370691243074,170.76027872426695,17.883511499614393,-40.12381593461593,2.9352693987914584,-73.17694091796875,4381.2578125,True
1599568240.9912589,0.0,10,0.5,0.5,-1.726421649169922,-0.1005,-0.001,-0.2505,0.1662920040164828,10,1,100,0.5565703434007658,-10,-1,-100,6487.934863798902,-0.04966510573743499,0.01604311200804306,0.9986370691243074,170.76027872426695,17.883511499614393,-40.12381593461593,2.9352693987914584,-73.17694091796875,4381.2578125,True
1599568241.0653906,0.0,10,0.5,0.5,0.8367320678710936,-0.1005,-0.001,-0.2505,0.4628488398829329,10,1,100,0.0940027923426332,-10,-1,-100,6488.100466223084,-0.04547472667587716,0.01872270494361282,0.9987900227542066,156.64321292135645,16.400944673806613,-29.63152960131745,2.362625070885781,-80.47048950195312,4381.2578125,True
1599568241.1342354,0.0,10,0.5,0.5,0.7770084899902344,-0.1005,-0.001,-0.2505,0.38456187842637074,10,1,100,0.1751520488117596,-10,-1,-100,6488.167093871394,-0.042420857517443324,0.020429544857207743,0.9988909372621277,145.7183134943887,15.255991870424602,-23.110363576219964,1.9806041265366896,-85.49517822265625,4381.2578125,True
1599568241.2010267,0.0,10,0.5,0.5,0.4356783813476563,-0.1005,-0.001,-0.2505,0.30566576457546896,10,1,100,0.30087113479173827,-10,-1,-100,6488.200653493754,-0.04080770358231222,0.02124572130098407,0.9989411147083391,147.47572201023505,15.439936489671172,-21.134116860562706,1.7895560053461366,-88.09722900390625,4381.2578125,True
1599568241.2758272,0.0,10,0.5,0.5,1.592863542175293,-0.1005,-0.001,-0.2505,0.37774921021738933,10,1,100,0.11784082009827168,-10,-1,-100,6488.269249252859,-0.03769792271744004,0.022625539484301245,0.999033008256401,154.86576112808493,16.213358003120913,-17.456385376570427,1.407448194069627,-93.23954010009766,4381.2578125,True
1599568241.3416514,0.0,10,0.5,0.5,2.044151280212402,-0.1005,-0.001,-0.2505,0.3834212055398558,10,1,100,0.06469074376476946,-10,-1,-100,6488.2734070983715,-0.03440992916747162,0.023914444916942914,0.9991216422933716,161.92725232812387,16.951119721637586,-13.299243495344557,1.0253928902078964,-98.18299102783203,4381.2578125,True
1599568241.4054732,0.0,10,0.5,0.5,3.295539232635498,-0.1005,-0.001,-0.2505,0.4331144019349281,10,1,100,-0.16678296064419773,-10,-1,-100,6488.311655972851,-0.029339619034117824,0.025522430879709936,0.9992436100756027,171.04946709660737,17.90250823520298,-6.199650578249822,0.45242838574818967,-105.2639389038086,4381.2578125,True
1599568241.4713001,0.0,10,0.5,0.5,2.313386262512207,-0.1005,-0.001,-0.2505,0.3231499725262982,10,1,100,0.15170771182202966,-10,-1,-100,6488.345248917118,-0.027651605899745524,0.02596946269387195,0.9992802288139983,173.83048834141985,18.192764004358665,-3.6411089916708566,0.2614476690173908,-107.5059814453125,4381.2578125,True
1599568241.545494,0.0,10,0.5,0.5,4.650338292694093,-0.1005,-0.001,-0.2505,0.43455535838926873,10,1,100,-0.41445570803820025,-10,-1,-100,6488.355165168992,-0.020996705450401974,0.02737407911420374,0.99940472189843,182.65753830373785,19.115059029282857,7.358043378315468,-0.5026757386488336,-115.75064849853516,4381.2578125,True
1599568241.6075535,0.0,10,0.5,0.5,3.8822239875793456,-0.1005,-0.001,-0.2505,0.3454910770255438,10,1,100,-0.12242482887927875,-10,-1,-100,6488.298389869044,-0.017631207163717733,0.027828272483865688,0.9994572165853393,186.18633355877122,19.483792947739893,13.205043339285101,-0.8849028956433402,-119.43226623535156,4381.2578125,True
1599568241.668391,0.0,10,0.5,0.5,2.9646042770385743,-0.1005,-0.001,-0.2505,0.30125025610693124,10,1,100,0.21092160993177356,-10,-1,-100,6488.298389869044,-0.017631207163717733,0.027828272483865688,0.9994572165853393,186.18633355877122,19.483792947739893,13.205043339285101,-0.8849028956433402,-119.43226623535156,4381.2578125,True
1599568241.731731,0.0,10,0.5,0.5,4.157523556518555,-0.1005,-0.001,-0.2505,0.3466945498518519,10,1,100,-0.12480561811933505,-10,-1,-100,6488.241640205844,-0.014608263180138307,0.028230688644750583,0.9994946857615118,188.69356428287367,19.745852071431017,19.16793807349411,-1.2672442819891403,-122.81771850585938,4381.2578125,True
1599568241.799551,0.0,10,0.5,0.5,4.902285981750488,-0.1005,-0.001,-0.2505,0.34028429341878547,10,1,100,-0.33300499145654633,-10,-1,-100,6488.154116854188,-0.009995471131542125,0.028529602838253395,0.9995429717219516,191.0082469148087,19.98775765938144,28.193775078859197,-1.8409712434648957,-127.34359741210938,4381.2578125,True
1599568241.8613849,0.0,10,0.5,0.5,4.702168333435059,-0.1005,-0.001,-0.2505,0.3197255259926849,10,1,100,-0.1944819320484195,-10,-1,-100,6488.033450275776,-0.007090801978697568,0.02860708143939954,0.9995655833504966,191.8252015482639,20.072920374169932,34.20431538318269,-2.223588345133031,-129.99154663085938,4381.2578125,True
1599568241.9252143,0.0,10,0.5,0.5,4.868498481750488,-0.1005,-0.001,-0.2505,0.31658943733274253,10,1,100,-0.20942263981134784,-10,-1,-100,6487.974813657114,-0.004345020770633727,0.028642314488861637,0.9995802812256872,192.19965307423556,20.111607273119557,40.176006191726714,-2.6062995928242767,-132.34326171875,4381.2578125,True
1599568241.9910383,0.0,10,0.5,0.5,4.657071878814698,-0.1005,-0.001,-0.2505,0.31325228080337736,10,1,100,-0.08400881070764556,-10,-1,-100,6487.8830029753735,-0.0030193025751064427,0.028638536951737896,0.9995852730073728,192.26420221153683,20.11799889160949,43.14423269232965,-2.7976871027687595,-133.4081268310547,4381.2578125,True
1599568242.0588567,0.0,10,0.5,0.5,5.359561639404297,-0.1005,-0.001,-0.2505,0.29923161407721977,10,1,100,-0.37573273665632506,-10,-1,-100,6487.732591803535,0.0008093945416405698,0.028503347591355976,0.9995933693540401,192.180070116032,20.107452885774723,51.99070858333976,-3.3719611687789808,-136.15945434570312,4381.2578125,True
1599568242.1207528,0.0,10,0.5,0.5,5.187346724700928,-0.1005,-0.001,-0.2505,0.2972466554268085,10,1,100,-0.25700384771484297,-10,-1,-100,6487.549978262046,0.003183266554146418,0.02835969316990354,0.999592714367884,191.99777009212372,20.08657083723893,57.85018034375193,-3.754892065048595,-137.62356567382812,4381.2578125,True
1599568242.1836188,0.0,10,0.5,0.5,5.233368172454834,-0.1005,-0.001,-0.2505,0.2960454700780316,10,1,100,-0.2654977253182862,-10,-1,-100,6487.428409055807,0.005390517386952226,0.028216005437706963,0.9995873145250694,191.81260737723102,20.064800532707057,63.70082163748321,-4.137879803596698,-138.79100036621094,4381.2578125,True
1599568242.2531204,0.0,10,0.5,0.5,5.248914097595215,-0.1005,-0.001,-0.2505,0.29363615021186706,10,1,100,-0.27360669046674957,-10,-1,-100,6487.243373942911,0.007446838533727761,0.02806271193117812,0.9995784255349452,191.7301419467789,20.053136892638204,69.58072020045924,-4.520918750724907,-139.66189575195312,4381.2578125,True
1599568242.3149834,0.0,10,0.5,0.5,5.234467799377442,-0.1005,-0.001,-0.2505,0.2899738586547589,10,1,100,-0.28115139902066527,-10,-1,-100,6487.060299585108,0.00936201143065253,0.027889847511589724,0.9995671608990326,191.73372891307244,20.049836993852903,75.49286865220886,-4.904002943115396,-140.23651123046875,4381.2578125,True
1599568242.3758266,0.0,10,0.5,0.5,5.154386602783204,-0.1005,-0.001,-0.2505,0.2982813324264508,10,1,100,-0.1908854967540966,-10,-1,-100,6486.905043847393,0.01025793929943863,0.027808164550772268,0.9995606438158948,191.77419429324536,20.052003461709766,78.46617030036477,-5.0955605255771,-140.4125213623047,4381.2578125,True
1599568242.4356332,0.0,10,0.5,0.5,5.157515872192383,-0.1005,-0.001,-0.2505,0.2890590505604498,10,1,100,-0.28798904841175577,-10,-1,-100,6486.720999704092,0.011932573102059646,0.027650452500423642,0.9995464302250726,191.9526573256477,20.066123563945347,84.4621334313758,-5.478703418730738,-140.5420379638672,4381.2578125,True
1599568242.4944742,0.0,10,0.5,0.5,4.999453163146972,-0.1005,-0.001,-0.2505,0.2784357286133175,10,1,100,-0.3682875226182556,-10,-1,-100,6486.381216934416,0.014165019011561837,0.027411301482712626,0.9995238730452747,192.48001776633706,20.113631998973755,93.60998059893252,-6.053477978674227,-140.18038940429688,4381.2578125,True
1599568242.5862582,0.0,10,0.5,0.5,4.996764825439453,-0.1005,-0.001,-0.2505,0.2926702336854067,10,1,100,-0.22133749737865094,-10,-1,-100,6486.226940561319,0.014839282498939916,0.027324383130864046,0.9995164699900819,192.72512045628207,20.136568546764718,96.706813916261,-6.245082671673773,-139.91172790527344,4381.2578125,True
1599568242.6490963,0.0,10,0.5,0.5,4.625476879882813,-0.1005,-0.001,-0.2505,0.2797199664016692,10,1,100,-0.3486445004721025,-10,-1,-100,6485.825631577754,0.016592145421706297,0.027128834864202266,0.9994942356158018,193.62565190779893,20.22253707985911,106.13925820347487,-6.819925262528532,-138.6600341796875,4381.2578125,True
1599568242.711894,0.0,10,0.5,0.5,4.516515368652343,-0.1005,-0.001,-0.2505,0.2867815309537255,10,1,100,-0.28163663300366787,-10,-1,-100,6485.577620662167,0.0175586661490565,0.027016632210517103,0.9994807626098001,194.32238959667393,20.29011456660772,112.53485650204595,-7.2031688504845945,-137.45480346679688,4381.2578125,True
1599568242.7787178,0.0,10,0.5,0.5,4.2915731719970704,-0.1005,-0.001,-0.2505,0.28445224723570783,10,1,100,-0.27702791142607275,-10,-1,-100,6485.267105273553,0.018380197276299078,0.026894806050985737,0.9994692780448853,195.0442877213594,20.36082840768791,118.99307390105119,-7.5864146201467175,-135.95343017578125,4381.2578125,True
1599568242.8412411,0.0,10,0.5,0.5,4.036379287719726,-0.1005,-0.001,-0.2505,0.2859646508693028,10,1,100,-0.26751396407841366,-10,-1,-100,6484.9585375824245,0.019026737933611655,0.026799135836370738,0.9994597488453598,195.72085221861374,20.42769929076863,125.47112944520826,-7.969653025035683,-134.15536499023438,4381.2578125,True
1599568242.903076,0.0,10,0.5,0.5,3.7512855514526375,-0.1005,-0.001,-0.2505,0.2842404120806223,10,1,100,-0.25860173951090265,-10,-1,-100,6484.585509547149,0.019521085380057843,0.026697776079188495,0.9994529283453074,196.27712382748322,20.483333297944863,131.91449035046395,-8.35287475160921,-132.06121826171875,4381.2578125,True
1599568242.963914,0.0,10,0.5,0.5,3.868601365661621,-0.1005,-0.001,-0.2505,0.28864304058657775,10,1,100,-0.23096354051689266,-10,-1,-100,6484.42926603544,0.01970825920702126,0.02664689559166968,0.9994506128240431,196.47944154304622,20.503870852713437,135.09857134001726,-8.544477014384519,-130.903076171875,4381.2578125,True
1599568243.0297382,0.0,10,0.5,0.5,2.7825541610717774,-0.1005,-0.001,-0.2505,0.2738232120719606,10,1,100,-0.2503888803791316,-10,-1,-100,6483.902416373836,0.020045605550484385,0.026467044845537798,0.9994486826422149,196.62492375615767,20.52052765943788,144.35616496908145,-9.119241253323075,-126.98504638671875,4381.2578125,True
1599568243.0893726,0.0,10,0.5,0.5,2.716185214233399,-0.1005,-0.001,-0.2505,0.27480803959508887,10,1,100,-0.22256938407835847,-10,-1,-100,6483.528384977602,0.02009048165430652,0.026313716344451104,0.999451830194453,196.19346981876043,20.47972536539208,150.13650638577803,-9.502377015894677,-124.00358581542969,4381.2578125,True
1599568243.1521552,0.0,10,0.5,0.5,2.8992709396362306,-0.1005,-0.001,-0.2505,0.28001958191363385,10,1,100,-0.2156683174393607,-10,-1,-100,6483.310604144004,0.020061124862379164,0.02622291967013722,0.9994548062585069,195.7698356302193,20.438740020328257,152.85597589803356,-9.693933040571334,-122.40211486816406,4381.2578125,True
1599568243.2115045,0.0,10,0.5,0.5,1.4568434997558595,-0.1005,-0.001,-0.2505,0.2530696406310852,10,1,100,-0.1866663987400105,-10,-1,-100,6482.718768513529,0.019765422967132188,0.025896458119840135,0.9994692098868169,193.6068323291759,20.227366161529552,160.20433140968933,-10.268567430972315,-117.15476989746094,4381.2578125,True
1599568243.2863042,0.0,10,0.5,0.5,2.1033242126464846,-0.1005,-0.001,-0.2505,0.27059155281187475,10,1,100,-0.19900492951371346,-10,-1,-100,6482.501954237814,0.01960429321442479,0.025760263116678166,0.9994759029269902,192.72731084456984,20.141902580969003,162.47783011247037,-10.46010651744859,-115.2581787109375,4381.2578125,True
1599568243.35512,0.0,10,0.5,0.5,1.167072413635254,-0.1005,-0.001,-0.2505,0.24906702543551731,10,1,100,-0.16973655402668794,-10,-1,-100,6482.064899888821,0.019188997164088086,0.025442016111970875,0.9994921141279679,190.27364138508156,19.900423759036762,166.33965294164784,-10.843192723004588,-111.24391174316406,4381.2578125,True
1599568243.4229388,0.0,10,0.5,0.5,0.6575347290039066,-0.1005,-0.001,-0.2505,0.2390720382390827,10,1,100,-0.15475527165848801,-10,-1,-100,6481.62930088432,0.01867377970496651,0.025063268602358975,0.999511441914747,186.76621725212294,19.550654472524414,169.10065970338331,-11.226315822579755,-106.93482208251953,4381.2578125,True
1599568244.1542268,0.0,10,0.5,0.5,0.11821781005859378,-0.1005,-0.001,-0.2505,0.22608587936366387,10,1,100,-0.13713312393361324,-10,-1,-100,6481.191739765345,0.01804493196060379,0.024602561728797646,0.9995344388198528,182.25378700785154,19.09623783181673,170.70830623314635,-11.609509182187738,-102.33128356933594,4381.2578125,True
1599568244.2140312,0.0,10,0.5,0.5,-0.4510065788269042,-0.1005,-0.001,-0.2505,0.2128097687863332,10,1,100,-0.12235148697086524,-10,-1,-100,6480.69362404081,0.01733976622604271,0.024065042269500316,0.9995600063266804,177.17831628153593,18.581753328115674,171.4963851336018,-11.992799699345195,-97.43319702148438,4381.2578125,True
1599568244.2749107,0.0,10,0.5,0.5,-1.9522690254211426,-0.1005,-0.001,-0.2505,0.15951669648954261,10,1,100,-0.06116524421000316,-10,-1,-100,6479.975734708016,0.016144450914210264,0.023094299134540728,0.9996029261922773,166.99717524451748,17.533751634334248,169.49086177072166,-12.567972979306997,-89.67031860351562,4381.2578125,True
1599568244.3337119,0.0,10,0.5,0.5,-0.9375366188049317,-0.1005,-0.001,-0.2505,0.21557834939476267,10,1,100,-0.13326995205692496,-10,-1,-100,6479.694444069755,0.015716537800509887,0.022724686398676856,0.9996182166545621,163.31718701422594,17.151292256683863,168.31810577915516,-12.759761210881067,-87.03286743164062,4381.2578125,True
1599568244.3931382,0.0,10,0.5,0.5,-3.0052992927551267,-0.1005,-0.001,-0.2505,0.11659652820366243,10,1,100,-0.02891780533042848,-10,-1,-100,6478.914531028247,0.014382805515768643,0.02149224222656048,0.9996655532874835,162.40499022048175,17.05560191831362,175.02982290090728,-13.335195677340938,-79.27090454101562,4381.2578125,True
1599568244.4519818,0.0,10,0.5,0.5,-1.9340958641052248,-0.1005,-0.001,-0.2505,0.18992936673511912,10,1,100,-0.1115800950249959,-10,-1,-100,6478.634214404738,0.013926985777898615,0.02104288376048419,0.9996815673554179,167.38585642348545,17.574918335032987,183.02887010007603,-13.526947838556831,-76.79598999023438,4381.2578125,True
1599568244.5128193,0.0,10,0.5,0.5,-2.9831125007629398,-0.1005,-0.001,-0.2505,0.12449614424004359,10,1,100,-0.052038017289510824,-10,-1,-100,6478.071627120371,0.012976889072316434,0.02004423771037747,0.9997148737938305,176.268519869535,18.495522221183602,198.2852860407796,-13.91031081061612,-72.05404663085938,4381.2578125,True
1599568244.571698,0.0,10,0.5,0.5,-4.1056455223083494,-0.1005,-0.001,-0.2505,0.04852646787896994,10,1,100,0.008365545604251179,-10,-1,-100,6477.228725031717,0.011570212889930084,0.01845106444373384,0.9997628160691788,187.46386853790415,19.64486967559174,219.72770957601162,-14.4849638397863,-65.48458862304688,4381.2578125,True
1599568244.631568,0.0,10,0.5,0.5,-3.1812951530456544,-0.1005,-0.001,-0.2505,0.1426453972006585,10,1,100,-0.07902347832176251,-10,-1,-100,6476.947432822781,0.011093165741928522,0.01786499646668493,0.9997788673377067,190.63098700016738,19.96759665269295,226.4406002971424,-14.676407840974608,-63.44378662109375,4381.2578125,True
1599568244.6913793,0.0,10,0.5,0.5,-4.667117752838135,-0.1005,-0.001,-0.2505,0.004307327340237921,10,1,100,0.028480321328322414,-10,-1,-100,6476.04106118565,0.009689539093673748,0.016081476779405086,0.9998237339335097,198.3837601576635,20.752175902606623,245.02223634096472,-15.25043938320427,-57.767822265625,4381.2578125,True
1599568244.7552087,0.0,10,0.5,0.5,-4.44738445892334,-0.1005,-0.001,-0.2505,0.04177715024994985,10,1,100,-0.008644808223081682,-10,-1,-100,6475.415498597315,0.008759183537192438,0.014808895264532567,0.9998519757068073,202.30453395294234,21.14599291733028,256.2407175005078,-15.632896103040455,-54.3570556640625,4381.2578125,True
1599568244.8170764,0.0,10,0.5,0.5,-4.157062557983398,-0.1005,-0.001,-0.2505,0.09493115326667184,10,1,100,-0.05007817663843829,-10,-1,-100,6475.072689778754,0.008298514333643045,0.01414412452067708,0.9998655301596301,203.9475519904822,21.310507904289594,261.5370639023641,-15.824061684686608,-52.763671875,4381.2578125,True
1599568244.8754327,0.0,10,0.5,0.5,-4.802918487548828,-0.1005,-0.001,-0.2505,0.020156713600226084,10,1,100,0.0050129622961044285,-10,-1,-100,6474.448111912119,0.007387114932731754,0.012869038863612426,0.999889903125188,206.68068695151717,21.583797520926986,271.56196116375315,-16.20627992506316,-49.7991943359375,4381.2578125,True
1599568244.9382648,0.0,10,0.5,0.5,-5.428702932739258,-0.1005,-0.001,-0.2505,-0.07643801649168319,10,1,100,0.06320655984143321,-10,-1,-100,6473.477809662116,0.006037498532383481,0.01084103186569168,0.9999230073558455,209.67788716245195,21.88444880068036,285.4314842855349,-16.77936455415114,-45.912017822265625,4381.2578125,True
1599568244.9985082,0.0,10,0.5,0.5,-4.861600433349609,-0.1005,-0.001,-0.2505,0.049206345864835827,10,1,100,-0.02201750141663482,-10,-1,-100,6473.135010637343,0.00559413785192942,0.010150413938580254,0.9999328351037231,210.44527015378807,21.962107396231694,289.80164214533033,-16.9703376072154,-44.765228271484375,4381.2578125,True
1599568245.0573504,0.0,10,0.5,0.5,-5.6290556396484375,-0.1005,-0.001,-0.2505,-0.10520022250034777,10,1,100,0.08119742489523299,-10,-1,-100,6472.10271613521,0.004260754873830421,0.008129194136329997,0.9999578801982607,212.59746840967753,22.184054212190308,302.8539896997949,-17.54311359875174,-41.7701416015625,4381.2578125,True
1599568245.1167016,0.0,10,0.5,0.5,-5.180576885986328,-0.1005,-0.001,-0.2505,0.022170630801721505,10,1,100,-0.0021248828940716308,-10,-1,-100,6471.696936290828,0.0038148515381014343,0.007461378154870533,0.9999648867554162,213.2420767601398,22.25186515385253,307.1488397123468,-17.733994333172014,-40.920318603515625,4381.2578125,True
1599568245.1755457,0.0,10,0.5,0.5,-5.488783108520508,-0.1005,-0.001,-0.2505,-0.06585469983462762,10,1,100,0.05027767325109162,-10,-1,-100,6471.008427457069,0.002941427120241067,0.006065481401900126,0.9999772787128013,214.39427757477307,22.375066187304878,315.6036696084124,-18.115694067811674,-39.444610595703125,4381.2578125,True
1599568245.2363818,0.0,10,0.5,0.5,-5.703740835571289,-0.1005,-0.001,-0.2505,-0.14501438620604423,10,1,100,0.11145052395057307,-10,-1,-100,6469.914154123864,0.0015991324483451645,0.004088110462224908,0.9999903650177142,215.9123584583545,22.54180017904674,328.1178855788456,-18.68809607435207,-37.78643798828125,4381.2578125,True
1599568245.2952578,0.0,10,0.5,0.5,-5.432713995361328,-0.1005,-0.001,-0.2505,-0.022664649149179428,10,1,100,0.026887181095643344,-10,-1,-100,6469.5069196317345,0.001156253166478781,0.003415295295768445,0.9999934993972,216.39180422036918,22.595407227633522,332.28453545556334,-18.878858085073215,-37.38250732421875,4381.2578125,True
1599568245.3540683,0.0,10,0.5,0.5,-5.539296228027344,-0.1005,-0.001,-0.2505,-0.09767202879608206,10,1,100,0.08357310324500762,-10,-1,-100,6468.756908348412,0.000246066605176207,0.0021332745853667604,0.9999976942927263,217.34472770681305,22.702834716149077,340.66013406266995,-19.260322837805752,-36.79638671875,4381.2578125,True
1599568245.4139428,0.0,10,0.5,0.5,-5.496032794189453,-0.1005,-0.001,-0.2505,-0.10547422895215598,10,1,100,0.09559402968948447,-10,-1,-100,6467.943915337208,-0.0006829176755649985,0.0009083954114728894,0.9999993542204039,218.3141354182742,22.812685605502818,349.1306260762252,-19.641706367338777,-36.50634765625,4381.2578125,True
1599568245.4727836,0.0,10,0.5,0.5,-5.38233916015625,-0.1005,-0.001,-0.2505,-0.1859732138686612,10,1,100,0.1575864956059476,-10,-1,-100,6466.787182739354,-0.002082851773652843,-0.0009249075830268551,0.999997403133854,219.83489506383773,22.98464957939072,362.07657558550375,-20.213621350061807,-36.627899169921875,4381.2578125,True
1599568245.5295987,0.0,10,0.5,0.5,-5.347992517089844,-0.1005,-0.001,-0.2505,-0.06731302238894456,10,1,100,0.07127757519027952,-10,-1,-100,6466.379472811706,-0.0025622835256753694,-0.0015002777041686177,0.9999955919252567,220.36068812008205,23.043740954446193,366.4594518087294,-20.40421483849533,-36.816253662109375,4381.2578125,True
1599568245.5874443,0.0,10,0.5,0.5,-5.185932641601563,-0.1005,-0.001,-0.2505,-0.13419230550621503,10,1,100,0.1306928992353317,-10,-1,-100,6465.5035105179995,-0.003530451898779905,-0.0026201155612091695,0.999990335405216,221.4287584940544,23.1629353558682,375.30917457591926,-20.78533206947894,-37.41497802734375,4381.2578125,True
1599568245.6463213,0.0,10,0.5,0.5,-5.0229033081054695,-0.1005,-0.001,-0.2505,-0.13613506251175161,10,1,100,0.14449199886931,-10,-1,-100,6464.690053579514,-0.004527756243955914,-0.0036442018317511043,0.9999831094655572,222.49846403212703,23.280873874104593,384.2374630599256,-21.16635422683184,-38.308837890625,4381.2578125,True
1599568245.7071242,0.0,10,0.5,0.5,-4.581698840332031,-0.1005,-0.001,-0.2505,-0.19811057183415792,10,1,100,0.2118535682412912,-10,-1,-100,6463.40737727948,-0.006038784905572308,-0.005127899984294665,0.9999686183669043,224.0153158237463,23.44463739994563,397.6165999012435,-21.737708699889176,-40.204742431640625,4381.2578125,True
1599568245.7669637,0.0,10,0.5,0.5,-4.158231747436524,-0.1005,-0.001,-0.2505,-0.19317222333133238,10,1,100,0.23234036062206326,-10,-1,-100,6462.0626995105995,-0.007589733041009073,-0.006420377611000247,0.999950586130984,225.24881980024008,23.57216403813555,410.6424660147953,-22.308860664761617,-42.76446533203125,4381.2578125,True
1599568245.8268044,0.0,10,0.5,0.5,-4.799110348510742,-0.1005,-0.001,-0.2505,-0.06517304656206424,10,1,100,0.07829866309451176,-10,-1,-100,6462.0626995105995,-0.007589733041009073,-0.006420377611000247,0.999950586130984,225.24881980024008,23.57216403813555,410.6424660147953,-22.308860664761617,-42.76446533203125,4381.2578125,True
1599568245.8846824,0.0,10,0.5,0.5,-3.6675244720458995,-0.1005,-0.001,-0.2505,-0.18300770761086987,10,1,100,0.25169189598711855,-10,-1,-100,6460.717051480315,-0.009157681644133359,-0.007482048631377366,0.9999300754628707,225.93333177629768,23.633798667143843,422.77918834791507,-22.87984284559606,-45.9869384765625,4381.2578125,True
1599568245.943492,0.0,10,0.5,0.5,-4.045169674682618,-0.1005,-0.001,-0.2505,-0.11155640956257726,10,1,100,0.15339702433543312,-10,-1,-100,6460.247833343921,-0.009680123418494103,-0.007787740173165591,0.9999228201784366,225.98479983289826,23.63371967873406,426.51077950457335,-23.070141499595092,-47.2083740234375,4381.2578125,True
1599568246.0009162,0.0,10,0.5,0.5,-2.908617947387696,-0.1005,-0.001,-0.2505,-0.17473470563636834,10,1,100,0.27519418022827474,-10,-1,-100,6458.838715408114,-0.011253293548735457,-0.008630970616590685,0.999899429808079,225.42200883440293,23.5515712419212,436.34402594979247,-23.64098800071993,-51.315155029296875,4381.2578125,True
1599568246.0627844,0.0,10,0.5,0.5,-2.845887600708008,-0.1005,-0.001,-0.2505,-0.13867213868007383,10,1,100,0.2323058414233471,-10,-1,-100,6457.899792986922,-0.012283944790843555,-0.009061030078258035,0.9998834944303743,224.6777065698024,23.452455658553276,442.1590196982909,-24.021539843803,-54.420562744140625,4381.2578125,True
1599568246.1225915,0.0,10,0.5,0.5,-3.03823766784668,-0.1005,-0.001,-0.2505,-0.11809156068055857,10,1,100,0.18687361379400896,-10,-1,-100,6457.368076835293,-0.01279860649338676,-0.009257500586600732,0.999875239394754,224.04930088326577,23.374540558905462,444.54562198863994,-24.211822164537885,-56.083740234375,4381.2578125,True
1599568246.1844318,0.0,10,0.5,0.5,-2.2083051055908207,-0.1005,-0.001,-0.2505,-0.12863015396694064,10,1,100,0.24422140678974644,-10,-1,-100,6456.428666526335,-0.013778518592962096,-0.0095248635123499,0.9998597048588639,222.18669138942852,23.152862231031094,448.04881925624693,-24.592421220714648,-59.62969970703125,4381.2578125,True
1599568246.2452712,0.0,10,0.5,0.5,-1.0338068084716796,-0.1005,-0.001,-0.2505,-0.13398678028143865,10,1,100,0.30424841288447324,-10,-1,-100,6454.895524779451,-0.015205731405533388,-0.009810340276843544,0.9998362580723282,217.90515097107183,22.661616874741558,450.040684141646,-25.16347001557654,-65.50018310546875,4381.2578125,True
1599568246.304113,0.0,10,0.5,0.5,-0.9991820953369142,-0.1005,-0.001,-0.2505,-0.1146091488103802,10,1,100,0.26062559101849814,-10,-1,-100,6453.89263414673,-0.016096919240760628,-0.00988809874169624,0.9998215414233838,213.76247581827363,22.200875144673706,448.4607746632548,-25.544317360191464,-69.78070068359375,4381.2578125,True
1599568246.3619943,0.0,10,0.5,0.5,-1.2786477478027347,-0.1005,-0.001,-0.2505,-0.10815523825823373,10,1,100,0.21898752613570516,-10,-1,-100,6453.361403448274,-0.016519418379000738,-0.00989578888767245,0.9998145738979354,211.22292365650435,21.923194360184773,446.5881914435057,-25.73479719815095,-72.03097534179688,4381.2578125,True
1599568246.4218373,0.0,10,0.5,0.5,-0.1825016601562499,-0.1005,-0.001,-0.2505,-0.1027451109957668,10,1,100,0.26333956561977545,-10,-1,-100,6452.35899672599,-0.01729859096785785,-0.009850437489558694,0.9998018441830315,205.12540078683716,21.266978839101867,440.424637892532,-26.11588233973638,-76.75152587890625,4381.2578125,True
1599568246.4816139,0.0,10,0.5,0.5,0.39829436950683605,-0.1005,-0.001,-0.2505,-0.09635722205111252,10,1,100,0.2661433316349179,-10,-1,-100,6451.294574270491,-0.018023592232477563,-0.009748018991887005,0.9997900410830122,197.56435087077327,20.46846076360898,430.692520595315,-26.497139841865145,-81.76547241210938,4381.2578125,True
1599568246.53946,0.0,10,0.5,0.5,1.9659828033447266,-0.1005,-0.001,-0.2505,-0.07757210078293295,10,1,100,0.29836079617741085,-10,-1,-100,6449.698422284564,-0.018967510413801472,-0.009482077463965193,0.9997751365960597,197.55575221172765,20.46864984443827,440.46016907967277,-27.06912707198379,-89.79995727539062,4381.2578125,True
1599568246.5965235,0.0,10,0.5,0.5,0.9227838775634765,-0.1005,-0.001,-0.2505,-0.09196513577037785,10,1,100,0.23440923115416434,-10,-1,-100,6449.103707253351,-0.019235796908434324,-0.009369617904566863,0.999771070984563,202.42913561192216,20.980502179995764,454.6739822470688,-27.259656333788598,-92.54975891113281,4381.2578125,True
1599568246.655235,0.0,10,0.5,0.5,3.090040043640137,-0.1005,-0.001,-0.2505,-0.06144817376029484,10,1,100,0.28234739463545255,-10,-1,-100,6447.445530853234,-0.019908238386694355,-0.008989283516578557,0.9997613989478675,216.40398253805802,22.46572878881297,496.8057101592894,-27.830675922560786,-100.67499542236328,4381.2578125,True
1599568246.7125914,0.0,10,0.5,0.5,1.9716629043579101,-0.1005,-0.001,-0.2505,-0.08452988752912502,10,1,100,0.23505250713924059,-10,-1,-100,6446.913310937816,-0.020082664122787138,-0.008853423967725534,0.9997591227319603,220.37838229372755,22.893783132602383,509.5756106299498,-28.020817644522474,-103.27433776855469,4381.2578125,True
1599568246.7674434,0.0,10,0.5,0.5,3.078273081207276,-0.1005,-0.001,-0.2505,-0.06565352319703248,10,1,100,0.2516045585376779,-10,-1,-100,6445.784413969028,-0.020385084297739643,-0.008558679317220923,0.9997555687999539,227.36100886167418,23.652107946355837,533.2398488566927,-28.400815687094386,-108.26871490478516,4381.2578125,True
1599568246.827793,0.0,10,0.5,0.5,3.484695503997803,-0.1005,-0.001,-0.2505,-0.06457625409906328,10,1,100,0.24269434966338738,-10,-1,-100,6444.5959415484685,-0.020573003861834936,-0.008281814628776219,0.9997540512838923,233.5590412984997,24.32877103714258,555.4939896465347,-28.780452431461395,-112.97711944580078,4381.2578125,True
1599568246.8896275,0.0,10,0.5,0.5,4.593734632873536,-0.1005,-0.001,-0.2505,-0.046003615838490705,10,1,100,0.23960040032319668,-10,-1,-100,6442.874748371076,-0.020710833678414104,-0.007862666860228617,0.9997545898060133,240.2000476659579,25.059238105839626,583.1873523079213,-29.349346151107987,-119.4835205078125,4381.2578125,True
1599568246.9484694,0.0,10,0.5,0.5,4.36079010848999,-0.1005,-0.001,-0.2505,-0.060495007511022963,10,1,100,0.22453948747132552,-10,-1,-100,6441.685777220293,-0.020695021654434834,-0.007615204660282424,0.9997568328032095,243.1219346221701,25.380600447340743,598.3105631227439,-29.728321200429885,-123.44915771484375,4381.2578125,True
1599568247.007314,0.0,10,0.5,0.5,5.264659893035889,-0.1005,-0.001,-0.2505,-0.05106026005037764,10,1,100,0.2085924920174877,-10,-1,-100,6439.903047762928,-0.020531878398259304,-0.0073065418508958275,0.9997625000046862,246.21934422337154,25.71325358554856,618.140736804076,-30.29647555744426,-128.83981323242188,4381.2578125,True
1599568247.0711415,0.0,10,0.5,0.5,4.498020027923585,-0.1005,-0.001,-0.2505,-0.07216505305699207,10,1,100,0.2153510663226051,-10,-1,-100,6439.243372824159,-0.02044206857957316,-0.007220113683912383,0.999764968275334,246.86219379476057,25.779344246447607,623.8389909374812,-30.485798355405013,-130.4879913330078,4381.2578125,True
1599568247.131979,0.0,10,0.5,0.5,4.6424566184997555,-0.1005,-0.001,-0.2505,-0.07230359309286064,10,1,100,0.21281546388224037,-10,-1,-100,6438.648151058005,-0.020335173743721447,-0.007145100173624397,0.9997676871415286,247.34439087622297,25.8266849194791,629.1527848193626,-30.675097182964883,-132.06187438964844,4381.2578125,True
1599568247.1925092,0.0,10,0.5,0.5,5.279095819854737,-0.1005,-0.001,-0.2505,-0.0669855342857445,10,1,100,0.19578525924097703,-10,-1,-100,6437.39569347084,-0.02008193324772666,-0.007030684609016391,0.9997736170908703,247.90010995760065,25.873161215500264,638.7852959373458,-31.053636840754393,-134.9868621826172,4381.2578125,True
1599568247.2493894,0.0,10,0.5,0.5,5.473060187530518,-0.1005,-0.001,-0.2505,-0.07048870065562696,10,1,100,0.1858720793308466,-10,-1,-100,6436.145187210408,-0.0197608255827854,-0.006960643729367636,0.9997805055166656,248.0300179973835,25.86861433817834,647.3586180036209,-31.432116812456417,-137.6148681640625,4381.2578125,True
1599568247.3081992,0.0,10,0.5,0.5,5.636687074279785,-0.1005,-0.001,-0.2505,-0.07509923266121914,10,1,100,0.1768282683250434,-10,-1,-100,6434.89272570028,-0.019386827071698687,-0.0069407283477261605,0.9997879661338672,247.86160520062853,25.827441706422015,655.169057220262,-31.810551577210397,-139.94606018066406,4381.2578125,True
1599568247.3660436,0.0,10,0.5,0.5,6.088502890014649,-0.1005,-0.001,-0.2505,-0.08314519527856781,10,1,100,0.14247104647611603,-10,-1,-100,6432.974235978676,-0.01873512262394878,-0.006997507384227989,0.9997999950343435,247.2961677024619,25.7250744485387,666.0553898385227,-32.3781349990239,-142.8865509033203,4381.2578125,True
1599568247.4238906,0.0,10,0.5,0.5,5.647366513824463,-0.1005,-0.001,-0.2505,-0.08209707634877612,10,1,100,0.1809109533766871,-10,-1,-100,6432.323346277815,-0.018493617699339323,-0.007041015583443356,0.9998041859303972,247.07403204749127,25.685795702332488,669.5897489335676,-32.567311837196804,-143.71844482421875,4381.2578125,True
1599568247.9249835,0.0,10,0.5,0.5,5.948016947937012,-0.1005,-0.001,-0.2505,-0.09091617290795939,10,1,100,0.14817501939590683,-10,-1,-100,6431.010823594406,-0.017978358719107718,-0.007161870096036568,0.9998127255813932,246.64186451566476,25.60664213804516,676.6834508479043,-32.9456366171473,-145.15994262695312,4381.2578125,True
1599568247.9738865,0.0,10,0.5,0.5,5.803438929748536,-0.1005,-0.001,-0.2505,-0.0866165679322502,10,1,100,0.1696390041573049,-10,-1,-100,6430.352120275726,-0.017707552666691065,-0.007233287604764125,0.9998170443281027,246.44953597991554,25.568777899100205,680.2919592396229,-33.13478279706411,-145.7694854736328,4381.2578125,True
1599568248.0297432,0.0,10,0.5,0.5,6.1389528762817385,-0.1005,-0.001,-0.2505,-0.11131481095197857,10,1,100,0.09985849615876029,-10,-1,-100,6428.318882835563,-0.016829712972678015,-0.007523089292018996,0.9998300675058546,246.05975504181527,25.472410352769508,691.6317354195633,-33.70214286464129,-147.15402221679688,4381.2578125,True
1599568248.0875797,0.0,10,0.5,0.5,5.793957843017578,-0.1005,-0.001,-0.2505,-0.08235629697060376,10,1,100,0.18727224901750716,-10,-1,-100,6428.318882835563,-0.016829712972678015,-0.007523089292018996,0.9998300675058546,246.05975504181527,25.472410352769508,691.6317354195633,-33.70214286464129,-147.15402221679688,4381.2578125,True
1599568248.1444309,0.0,10,0.5,0.5,6.04779857940674,-0.1005,-0.001,-0.2505,-0.12330315354490975,10,1,100,0.0810717170765394,-10,-1,-100,6426.285156967002,-0.01586753755103912,-0.007895058010323499,0.999842932320412,246.05992244019015,25.414157591016327,704.0856912211449,-34.269353910657856,-147.87246704101562,4381.2578125,True
1599568248.2022405,0.0,10,0.5,0.5,5.901501373291016,-0.1005,-0.001,-0.2505,-0.10091167827596179,10,1,100,0.1397313086870974,-10,-1,-100,6425.561513522058,-0.015530163124365821,-0.00802897074466743,0.9998471631515049,246.1646206319439,25.405214094227105,708.5459413406298,-34.45838353154985,-147.96389770507812,4381.2578125,True
1599568248.2620814,0.0,10,0.5,0.5,5.820724430847169,-0.1005,-0.001,-0.2505,-0.1410139939304775,10,1,100,0.05453784823040711,-10,-1,-100,6423.524371650885,-0.014453111068805055,-0.008514368567170555,0.999859296655452,246.81948161389445,25.412854775769997,722.9669864473494,-35.02532490915011,-147.79531860351562,4381.2578125,True
1599568248.3249435,0.0,10,0.5,0.5,5.694818205261231,-0.1005,-0.001,-0.2505,-0.1307911456162498,10,1,100,0.07805069825454326,-10,-1,-100,6422.086851229775,-0.013692551213527396,-0.008861291853100596,0.9998669869277409,247.538342171396,25.446652584279114,733.470091569713,-35.40314502843872,-147.3134002685547,4381.2578125,True
1599568248.3827589,0.0,10,0.5,0.5,5.543433181762696,-0.1005,-0.001,-0.2505,-0.1360295663842101,10,1,100,0.06596062652498082,-10,-1,-100,6420.6420080199605,-0.012896400034695476,-0.009222552698649931,0.9998743057944163,248.4716742937813,25.502443943133756,744.675570842986,-35.78083603884648,-146.53607177734375,4381.2578125,True
1599568248.4425998,0.0,10,0.5,0.5,5.563195663452149,-0.1005,-0.001,-0.2505,-0.11966901086480114,10,1,100,0.09990987944915011,-10,-1,-100,6419.921296276269,-0.012486563737421864,-0.009400216557777953,0.9998778533674493,249.01059215086062,25.537818848441894,750.5234389247585,-35.96962881416792,-146.0365753173828,4381.2578125,True
1599568248.5024397,0.0,10,0.5,0.5,5.260304132080078,-0.1005,-0.001,-0.2505,-0.14370342365207228,10,1,100,0.04707535322554986,-10,-1,-100,6418.487196259433,-0.01163913236874214,-0.009778079090529225,0.9998844532079705,250.21474266169997,25.621884970275286,762.6653979243259,-36.347101135418754,-144.81649780273438,4381.2578125,True
1599568248.565763,0.0,10,0.5,0.5,4.729382054138184,-0.1005,-0.001,-0.2505,-0.16809989922815058,10,1,100,-0.01556604056345634,-10,-1,-100,6416.25670406362,-0.010305035932179029,-0.010340998253727009,0.9998934293161211,252.24231264799215,25.77256100436474,781.7310931906685,-36.91300748698065,-142.43325805664062,4381.2578125,True
1599568248.625603,0.0,10,0.5,0.5,4.639051681518555,-0.1005,-0.001,-0.2505,-0.1526431745415003,10,1,100,0.014811270324940215,-10,-1,-100,6414.815283787204,-0.009375107922229363,-0.01070940207707457,0.9998987028987477,253.65500243709747,25.881561218625333,794.7548745885096,-37.29006610899934,-140.4759979248047,4381.2578125,True
1599568248.6834478,0.0,10,0.5,0.5,4.746394110107422,-0.1005,-0.001,-0.2505,-0.13561564610346424,10,1,100,0.05472606104437811,-10,-1,-100,6414.035981223802,-0.008899357469770419,-0.010886622282694703,0.9999011365589596,254.35262409666012,25.936201048347094,801.2772872911194,-37.478530431608334,-139.38687133789062,4381.2578125,True
1599568248.745282,0.0,10,0.5,0.5,4.176254624938965,-0.1005,-0.001,-0.2505,-0.15354341817493716,10,1,100,-0.004607809630372564,-10,-1,-100,6412.532551589771,-0.007934667648221743,-0.011207653549371236,0.9999057103303438,255.6800306364971,26.041303900875214,814.181158433916,-37.855329643965106,-136.9874725341797,4381.2578125,True
1599568248.8061202,0.0,10,0.5,0.5,3.830808894348144,-0.1005,-0.001,-0.2505,-0.15589354452949564,10,1,100,-0.018367810599507428,-10,-1,-100,6411.029122978449,-0.006939797683369737,-0.011517853489992208,0.9999095850421162,256.83961427967307,26.133985409,826.6408747329184,-38.23196196941747,-134.29400634765625,4381.2578125,True
1599568248.8649623,0.0,10,0.5,0.5,2.8924933959960937,-0.1005,-0.001,-0.2505,-0.16960582455530923,10,1,100,-0.0885275146424474,-10,-1,-100,6408.68389577663,-0.00540536437442391,-0.011921338815568375,0.9999143281885824,258.02487196145137,26.228198349856584,843.6806332619357,-38.79662574915289,-129.70237731933594,4381.2578125,True
1599568248.9228082,0.0,10,0.5,0.5,3.4520613220214846,-0.1005,-0.001,-0.2505,-0.1416656982417669,10,1,100,0.007165992888583314,-10,-1,-100,6407.904595809756,-0.00488859120447742,-0.012031045263015962,0.999915674257542,258.213375837114,26.242289667648986,848.7135048866274,-38.98478163860528,-128.02481079101562,4381.2578125,True
1599568248.9796562,0.0,10,0.5,0.5,1.9492114883422853,-0.1005,-0.001,-0.2505,-0.15858579511878224,10,1,100,-0.11297454768472186,-10,-1,-100,6405.548629915342,-0.003334614281140609,-0.01228171586556853,0.9999190166223431,257.9367194229239,26.211690042841454,861.0615644895032,-39.54910729132282,-122.55144500732422,4381.2578125,True
1599568249.0394957,0.0,10,0.5,0.5,2.625952090454102,-0.1005,-0.001,-0.2505,-0.13941347777722585,10,1,100,-0.014899026892218982,-10,-1,-100,6404.769330725656,-0.0028221961632694938,-0.01233252338008679,0.9999199688354541,257.50778789212256,26.171701514470556,864.0510224401747,-39.73718484029553,-120.58010864257812,4381.2578125,True
1599568249.0983396,0.0,10,0.5,0.5,0.8870886604309083,-0.1005,-0.001,-0.2505,-0.1441751947488102,10,1,100,-0.1347144001531567,-10,-1,-100,6402.351356220897,-0.0012759166333546391,-0.01241933463227933,0.9999220630449336,254.95764287011207,25.93611651952693,868.6662410557742,-40.30140719070384,-114.2264404296875,4381.2578125,True
1599568249.161171,0.0,10,0.5,0.5,0.8602019569396973,-0.1005,-0.001,-0.2505,-0.13275895320291417,10,1,100,-0.0912377072471911,-10,-1,-100,6400.727329676854,-0.00027487173779117434,-0.012392068796999176,0.9999231775873874,252.02350050530626,25.66243898639498,867.3903713053054,-40.67761495917605,-109.62409973144531,4381.2578125,True
1599568249.2200136,0.0,10,0.5,0.5,1.1635506492614747,-0.1005,-0.001,-0.2505,-0.1319921551938525,10,1,100,-0.04712232589782482,-10,-1,-100,6399.878696046537,0.00022500182391374754,-0.012358446173440955,0.9999236061731704,250.1312476606617,25.484080417792004,865.220061517173,-40.86575851656141,-107.2131118774414,4381.2578125,True
1599568249.2828455,0.0,10,0.5,0.5,-0.9154625633239745,-0.1005,-0.001,-0.2505,-0.11164421937312385,10,1,100,-0.1494470775940483,-10,-1,-100,6397.401152890758,0.0016009299774783056,-0.012141399786293796,0.9999250089053863,242.7985320036326,24.7817218471207,852.5629035263293,-41.43042790973316,-99.57881164550781,4381.2578125,True
1599568249.3436823,0.0,10,0.5,0.5,-0.9076495346069335,-0.1005,-0.001,-0.2505,-0.1098590814480274,10,1,100,-0.10946926162911617,-10,-1,-100,6395.780056595919,0.0024787933469946582,-0.01192671565547405,0.999925801765919,237.11223696774204,24.227913790417016,840.9207114401141,-41.80710717513567,-94.16400146484375,4381.2578125,True
1599568249.403523,0.0,10,0.5,0.5,-1.5260835769653323,-0.1005,-0.001,-0.2505,-0.10195819363567027,10,1,100,-0.11068907163741713,-10,-1,-100,6394.086206741049,0.003278473354816609,-0.011659068318156393,0.9999266561795492,229.97284879548985,23.516951070479237,823.710531527061,-42.18400615277057,-88.54986572265625,4381.2578125,True
1599568249.4623656,0.0,10,0.5,0.5,-2.036767823791504,-0.1005,-0.001,-0.2505,-0.09477172162074235,10,1,100,-0.11188252421246007,-10,-1,-100,6392.399192211335,0.004007015411665876,-0.01135029261606994,0.9999275547183507,222.37458414221643,22.746410526911543,804.3614766256901,-42.56112014199995,-83.10128784179688,4381.2578125,True
1599568249.522205,0.0,10,0.5,0.5,-1.5995409240722656,-0.1005,-0.001,-0.2505,-0.10687714587565589,10,1,100,-0.07744959959796215,-10,-1,-100,6391.5466519995825,0.004347743076136965,-0.011180155876671921,0.999928048033816,218.48399362598457,22.346401976476606,794.1576016485134,-42.74974430683787,-80.47171020507812,4381.2578125,True
1599568249.5840397,0.0,10,0.5,0.5,-4.381430145263672,-0.1005,-0.001,-0.2505,-0.042217809567684825,10,1,100,-0.17105111156417344,-10,-1,-100,6388.037857371033,0.005500021666912045,-0.010438447501134299,0.9999303918650687,232.6487184089552,23.75239940699424,862.1175434886751,-43.50339219673562,-70.6829833984375,4381.2578125,True
1599568249.6428926,0.0,10,0.5,0.5,-1.9345409263610842,-0.1005,-0.001,-0.2505,-0.11620432028500366,10,1,100,-0.05670671608147074,-10,-1,-100,6388.037857371033,0.005500021666912045,-0.010438447501134299,0.9999303918650687,232.6487184089552,23.75239940699424,862.1175434886751,-43.50339219673562,-70.6829833984375,4381.2578125,True
1599568249.7027366,0.0,10,0.5,0.5,-4.2401723930358886,-0.1005,-0.001,-0.2505,-0.05014746431089605,10,1,100,-0.12954917541750727,-10,-1,-100,6385.443125250051,0.0061546601901213025,-0.009839652515805096,0.9999326484300393,242.81095363149075,24.735211147483966,912.6393286610456,-44.06750762666451,-64.12844848632812,4381.2578125,True
1599568249.764572,0.0,10,0.5,0.5,-3.317268267059326,-0.1005,-0.001,-0.2505,-0.08870472542522015,10,1,100,-0.08359627690661944,-10,-1,-100,6384.52515451354,0.006325277427645761,-0.009648159159378288,0.9999334497306801,245.61506166634092,25.001102270013593,927.5092022724662,-44.255352662540545,-62.094268798828125,4381.2578125,True
1599568249.8241663,0.0,10,0.5,0.5,-4.161561930084229,-0.1005,-0.001,-0.2505,-0.059229437306721706,10,1,100,-0.10120539974865242,-10,-1,-100,6382.779055865947,0.0066344668065360796,-0.009208611588492678,0.9999355905871165,250.44974549400285,25.45334365116717,954.5875418966266,-44.63078213477563,-58.25067138671875,4381.2578125,True
1599568249.8860013,0.0,10,0.5,0.5,-5.029034117126465,-0.1005,-0.001,-0.2505,-0.036905123045594894,10,1,100,-0.10303329200740706,-10,-1,-100,6380.052972758887,0.0069263384760772095,-0.008608938062209106,0.9999389541470798,256.0274108179122,25.9645888194749,989.3558915081932,-45.19335294915981,-53.05010986328125,4381.2578125,True
1599568249.9468384,0.0,10,0.5,0.5,-4.286721319580078,-0.1005,-0.001,-0.2505,-0.07357600072354858,10,1,100,-0.08109446367729417,-10,-1,-100,6379.135000794311,0.006987391183114848,-0.008400363255136423,0.9999403033489729,257.50771520304187,26.09838709844307,999.602927741728,-45.380744026750904,-51.466705322265625,4381.2578125,True
1599568250.0076761,0.0,10,0.5,0.5,-5.403322576904298,-0.1005,-0.001,-0.2505,-0.0296337211997751,10,1,100,-0.08358540152008659,-10,-1,-100,6376.415750967222,0.007061439808232523,-0.007814480300672715,0.9999445334444632,261.03618390590685,26.41500640022356,1027.0679153819717,-45.942582999503834,-47.167633056640625,4381.2578125,True
1599568250.0665188,0.0,10,0.5,0.5,-5.2048511199951175,-0.1005,-0.001,-0.2505,-0.04547886279994677,10,1,100,-0.07203639333829587,-10,-1,-100,6374.534394950722,0.007020326696274661,-0.00742940125481407,0.9999477581404304,262.7758575569211,26.571154369339453,1043.1599447929168,-46.31690249145538,-44.676727294921875,4381.2578125,True
1599568250.1256385,0.0,10,0.5,0.5,-5.353723178100585,-0.1005,-0.001,-0.2505,-0.04291146963397548,10,1,100,-0.06469678413667396,-10,-1,-100,6372.719444207614,0.006913488046039488,-0.00705955390376216,0.99995118199926,264.1534709400127,26.696430724008206,1057.9349391059952,-46.69105947053105,-42.48583984375,4381.2578125,True
1599568250.1894674,0.0,10,0.5,0.5,-5.472506643676759,-0.1005,-0.001,-0.2505,-0.040319276269314516,10,1,100,-0.05694064900854304,-10,-1,-100,6370.82197400881,0.00674351918559732,-0.0067035096467388785,0.9999547929318653,265.2644536275677,26.80019134982876,1071.7435421847504,-47.06507272264518,-40.59466552734375,4381.2578125,True
1599568250.2567985,0.0,10,0.5,0.5,-5.560497012329101,-0.1005,-0.001,-0.2505,-0.037391846738065455,10,1,100,-0.048287606284471304,-10,-1,-100,6368.8497960772365,0.006509207562686802,-0.0063566154517558085,0.9999586109719264,266.1926425530125,26.890379342288128,1084.901740666968,-47.43895554655177,-39.00286865234375,4381.2578125,True
1599568250.321628,0.0,10,0.5,0.5,-5.404893447875977,-0.1005,-0.001,-0.2505,-0.05309540669441763,10,1,100,-0.05647693211177737,-10,-1,-100,6367.925474797841,0.006369727971292954,-0.006187727485055654,0.9999605685196503,266.61188465067477,26.932576408987394,1091.3284556226379,-47.62585088704504,-38.319183349609375,4381.2578125,True
1599568250.388446,0.0,10,0.5,0.5,-5.798798822021484,-0.1005,-0.001,-0.2505,-0.015305651995118852,10,1,100,-0.015138006967305905,-10,-1,-100,6364.975263127242,0.005866924416184105,-0.005693969677180752,0.9999665783951033,267.78050744018554,27.05563580813944,1110.3562100305428,-48.18635999152712,-36.71636962890625,4381.2578125,True
1599568250.4582624,0.0,10,0.5,0.5,-5.6439078857421885,-0.1005,-0.001,-0.2505,-0.029105904668866076,10,1,100,-0.02023943518186231,-10,-1,-100,6363.033357934561,0.005456623579864266,-0.005374150502948722,0.9999706714526577,268.5481137921631,27.14015845241184,1123.0864158296515,-48.55988700464893,-36.02099609375,4381.2578125,True
1599568250.5310652,0.0,10,0.5,0.5,-5.611362878417969,-0.1005,-0.001,-0.2505,-0.025984822779960795,10,1,100,-0.010849471132526163,-10,-1,-100,6361.089011391392,0.004999330276603785,-0.005058518201098232,0.999974708725373,269.35283922253996,27.230492769495868,1136.0469371739068,-48.9332960097885,-35.623779296875,4381.2578125,True
1599568250.6048682,0.0,10,0.5,0.5,-5.54850132446289,-0.1005,-0.001,-0.2505,-0.022660425285016633,10,1,100,-0.0006535306474067734,-10,-1,-100,6359.146618282539,0.004492670549410874,-0.004744585603881123,0.9999786521815264,270.2153394395952,27.32800518333951,1149.3293793583086,-49.30658361866781,-35.52435302734375,4381.2578125,True
1599568250.6756814,0.0,10,0.5,0.5,-5.503476724243164,-0.1005,-0.001,-0.2505,-0.03646284160706229,10,1,100,-0.020965569066269802,-10,-1,-100,6358.112922220025,0.004218993619983078,-0.004587992279930762,0.9999805750211721,270.67152137564983,27.379558789773103,1156.107060980508,-49.49318063888256,-35.586212158203125,4381.2578125,True
1599568250.7494817,0.0,10,0.5,0.5,-5.398488854980469,-0.1005,-0.001,-0.2505,-0.01711450323665601,10,1,100,0.015414701080104488,-10,-1,-100,6356.169553078827,0.0036420507247982687,-0.004272673898445596,0.9999842397379447,271.6371399467299,27.488149713291055,1169.954085944635,-49.86627803879263,-35.932769775390625,4381.2578125,True
1599568250.8222964,0.0,10,0.5,0.5,-5.260331085205079,-0.1005,-0.001,-0.2505,-0.013142527999551977,10,1,100,0.026056200245154093,-10,-1,-100,6354.1641733327415,0.003023887442194788,-0.003952781710718471,0.9999876157340573,272.6672492910501,27.60277323993445,1184.1676436275154,-50.23924292412682,-36.576202392578125,4381.2578125,True
1599568250.9190369,0.0,10,0.5,0.5,-5.092150350952148,-0.1005,-0.001,-0.2505,-0.00961329005895916,10,1,100,0.0385809892054724,-10,-1,-100,6352.0962942506885,0.0023515951043740434,-0.003632710988045735,0.9999906366618352,273.74538582933286,27.720988142252402,1198.6822338277666,-50.61207201628232,-37.5162353515625,4381.2578125,True
1599568250.989848,0.0,10,0.5,0.5,-4.638212023925782,-0.1005,-0.001,-0.2505,0.014047010684956583,10,1,100,0.0885958571460246,-10,-1,-100,6349.056245210231,0.001289732292424004,-0.003129435595815553,0.9999942715953255,275.39107471824366,27.897007787482647,1220.7570267077674,-51.171057302522215,-39.48126220703125,4381.2578125,True
1599568251.0586634,0.0,10,0.5,0.5,-4.540886657714845,-0.1005,-0.001,-0.2505,0.0023672640139682927,10,1,100,0.0657747160029546,-10,-1,-100,6346.987881522393,0.000536612360379389,-0.0027810258270297723,0.9999959889632177,276.438382066021,28.005254159300883,1235.3712720051324,-51.54354416329317,-41.160797119140625,4381.2578125,True
1599568251.134974,0.0,10,0.5,0.5,-4.627721743774414,-0.1005,-0.001,-0.2505,-0.012437837268064585,10,1,100,0.03367758438401697,-10,-1,-100,6345.953700627084,0.00014905281470272973,-0.002601978504932112,0.9999966037397919,276.92573173066387,28.054153845790157,1242.5507503023928,-51.72973858835966,-42.111236572265625,4381.2578125,True
1599568251.208777,0.0,10,0.5,0.5,-4.120484930419922,-0.1005,-0.001,-0.2505,0.011425654834138314,10,1,100,0.08047044045209382,-10,-1,-100,6343.885827879771,-0.0006234655805299489,-0.0022250782758889845,0.999997330155104,277.7829799609852,28.136432600380957,1256.4464282767058,-52.102035123267974,-44.233123779296875,4381.2578125,True
1599568251.2795873,0.0,10,0.5,0.5,-3.8030357269287114,-0.1005,-0.001,-0.2505,0.01680503165113745,10,1,100,0.0923064091301496,-10,-1,-100,6341.816003585467,-0.0014278273922143508,-0.0018364010713562034,0.9999972944663618,278.4128010217534,28.19021822773117,1269.3899577317134,-52.4742206665185,-46.6495361328125,4381.2578125,True
1599568251.3474138,0.0,10,0.5,0.5,-2.401452117919922,-0.1005,-0.001,-0.2505,0.06928940416986422,10,1,100,0.1944421822853264,-10,-1,-100,6337.555268309079,-0.0030817295609119433,-0.0010088566962741063,0.9999947425617195,278.6489638296708,28.175788432408776,1290.7596555377938,-53.21834179341118,-52.364044189453125,4381.2578125,True
1599568251.4182258,0.0,10,0.5,0.5,-3.8312524169921875,-0.1005,-0.001,-0.2505,-0.013091460447584795,10,1,100,0.029809405426599427,-10,-1,-100,6337.555268309079,-0.0030817295609119433,-0.0010088566962741063,0.9999947425617195,278.6489638296708,28.175788432408776,1290.7596555377938,-53.21834179341118,-52.364044189453125,4381.2578125,True
1599568252.0007505,0.0,10,0.5,0.5,-2.6722322570800783,-0.1005,-0.001,-0.2505,0.035401691869365905,10,1,100,0.12249660303142865,-10,-1,-100,6335.42343925091,-0.003917703427155032,-0.000571263616650606,0.9999921625981562,278.046325324372,28.086405581762108,1298.148178717581,-53.59033406417164,-55.66131591796875,4381.2578125,True
1599568252.0556042,0.0,10,0.5,0.5,-1.5675898010253906,-0.1005,-0.001,-0.2505,0.06721837136369888,10,1,100,0.17436309573675127,-10,-1,-100,6332.196402437286,-0.005142320735468087,0.00011242589633578935,0.9999867718614438,275.89332305661577,27.816781517209204,1303.338812874124,-54.1483428327168,-61.156005859375,4381.2578125,True
1599568252.1126702,0.0,10,0.5,0.5,-1.527579086303711,-0.1005,-0.001,-0.2505,0.05090705739563844,10,1,100,0.14346289556568687,-10,-1,-100,6330.001590908738,-0.005967274461308768,0.0005819815015164592,0.9999820263049907,273.44470458183963,27.53131450832467,1301.9149794522275,-54.520427769555596,-65.18441772460938,4381.2578125,True
1599568252.172551,0.0,10,0.5,0.5,-1.7885364654541016,-0.1005,-0.001,-0.2505,0.030434708326479404,10,1,100,0.10577411109160736,-10,-1,-100,6328.904918330489,-0.006367044471794407,0.0008189064306069294,0.99997939485619,271.87266038399787,27.35354681316204,1299.4973731892824,-54.706512356459065,-67.30804443359375,4381.2578125,True
1599568252.2298698,0.0,10,0.5,0.5,0.0719655883789061,-0.1005,-0.001,-0.2505,0.08484664457048396,10,1,100,0.19535029876012333,-10,-1,-100,6325.613926581573,-0.00753784002670948,0.0015253572937924688,0.9999704266891388,265.5422511193838,26.663577946021,1284.1906462213296,-55.265010371042905,-74.11627197265625,4381.2578125,True
1599568252.2877154,0.0,10,0.5,0.5,-0.7825425750732423,-0.1005,-0.001,-0.2505,0.04053206706909847,10,1,100,0.12155231672791449,-10,-1,-100,6324.517255796585,-0.007923968465078476,0.0017608106620205254,0.9999670545920887,262.84023202825136,26.377882997444512,1276.0915712841568,-55.451278675968275,-76.53125,4381.2578125,True
1599568252.344104,0.0,10,0.5,0.5,0.3877647521972656,-0.1005,-0.001,-0.2505,0.0692094971085688,10,1,100,0.16868347539498424,-10,-1,-100,6322.261415846995,-0.008696120286678396,0.0022315969160712594,0.9999596979214531,256.4638504192387,25.718151485382574,1254.8786711213338,-55.82400351399442,-81.57916259765625,4381.2578125,True
1599568252.4029198,0.0,10,0.5,0.5,1.8662497528076172,-0.1005,-0.001,-0.2505,0.09584270184495164,10,1,100,0.21161890758478977,-10,-1,-100,6318.908419558429,-0.009781059821943694,0.0028976529399099885,0.9999479658843251,249.7847807053005,25.0489109639071,1236.532095805566,-56.38350530181926,-89.38330078125,4381.2578125,True
1599568252.4607644,0.0,10,0.5,0.5,1.7944910781860353,-0.1005,-0.001,-0.2505,0.0767143258855714,10,1,100,0.18232564618326907,-10,-1,-100,6316.651607015752,-0.01049347226632584,0.003324960403758771,0.9999394140037232,258.28424989161226,25.92465978975571,1288.5263529664105,-56.75611964231892,-94.7363052368164,4381.2578125,True
1599568252.516999,0.0,10,0.5,0.5,1.3913066543579102,-0.1005,-0.001,-0.2505,0.05658888435031888,10,1,100,0.149837616734079,-10,-1,-100,6315.491951622418,-0.010839036272857505,0.003526523341391702,0.9999350373528264,262.44243393828,26.359804554573227,1314.312152699793,-56.942231452647945,-97.39586639404297,4381.2578125,True
1599568252.5738478,0.0,10,0.5,0.5,2.536680617523193,-0.1005,-0.001,-0.2505,0.07743742970309536,10,1,100,0.18945684647977978,-10,-1,-100,6313.173616498709,-0.011506308088563622,0.0038951715333217295,0.9999262135342273,270.37159811569023,27.20158712118619,1364.4012591635699,-57.314053593533835,-102.54427337646484,4381.2578125,True
1599568252.632689,0.0,10,0.5,0.5,2.9592134872436526,-0.1005,-0.001,-0.2505,0.07884031309240784,10,1,100,0.19625866002722023,-10,-1,-100,6310.915828719735,-0.01216785476721736,0.00423899934302462,0.9999169836516097,276.9822240129939,27.920189315135115,1408.3736182116888,-57.685376400473636,-107.40900421142578,4381.2578125,True
