Timestamp,Input Throttle,horizon,dT,dt,Input Roll,Roll P,Roll I,Roll D,Input Pitch,Pitch P,Pitch I,Pitch D,Input Yaw,Yaw P,Yaw I,Yaw D,Altitude,Direction X,Direction Y,Direction Z,Drag X,Drag Y,Drag Z,Vertical Velocity,Roll,Mass,Has Fuel
1599570309.3305168,0.0,10,0.5,0.5,-8.12253695678711,-0.15025,-0.00825,-0.12575,-0.0681519393025245,10,1,100,0.6839356183390537,-10,-1,-100,6483.9978828819,-0.06744516950424682,-0.006971828686743319,0.9976986231900425,204.6120856238459,21.456735316996742,-150.26667284743905,9.210801664609463,-35.9412841796875,4381.2578125,True
1599570309.4586852,0.0,10,0.5,0.5,-8.167872274780272,-0.15025,-0.00825,-0.12575,-0.06675148811620675,10,1,100,0.7027817341176054,-10,-1,-100,6484.31676526519,-0.06764140152356239,-0.006938519762926039,0.9976855705799436,204.14978008138598,21.41438871844742,-143.7895727939192,8.830798022226178,-35.937835693359375,4381.2578125,True
1599570309.5568023,0.0,10,0.5,0.5,-8.212528438568116,-0.15025,-0.00825,-0.12575,-0.06883043751450336,10,1,100,0.7010915607373392,-10,-1,-100,6484.538951410796,-0.06774293687264361,-0.006920830717837639,0.9976788043283489,203.91795083376815,21.39307251853544,-140.55896845840797,8.640801020751116,-35.936065673828125,4381.2578125,True
1599570309.6946135,0.0,10,0.5,0.5,-8.217060093688964,-0.15025,-0.00825,-0.12575,-0.03670141018910168,10,1,100,0.7030361142394783,-10,-1,-100,6484.856844054302,-0.06779133500648904,-0.006606376036873772,0.9976776486890427,203.47704641044598,21.352644737806,-134.12970695401268,8.26081266311609,-36.0804443359375,4381.2578125,True
1599570309.8309608,0.0,10,0.5,0.5,-8.07718030090332,-0.15025,-0.00825,-0.12575,0.0028181183688600966,10,1,100,0.7026074833189653,-10,-1,-100,6485.334371593432,-0.06776980817888341,-0.005955233907255264,0.9976832103871985,202.9770254681873,21.307993174513612,-124.62479278438342,7.690828240404177,-36.814208984375,4381.2578125,True
1599570309.93967,0.0,10,0.5,0.5,-7.829525405883788,-0.15025,-0.00825,-0.12575,0.0607771847904153,10,1,100,0.6785117865344079,-10,-1,-100,6485.750318411388,-0.06746957763012879,-0.004830972063854068,0.9977096360180803,202.60830976559356,21.275225978602723,-115.22810666587485,7.120817571129815,-38.204803466796875,4381.2578125,True
1599570310.9751272,0.0,10,0.5,0.5,-8.047123699188232,-0.15025,-0.00825,-0.12575,-0.05213209675608969,10,1,100,0.7152817991728833,-10,-1,-100,6485.750318411388,-0.06746957763012879,-0.004830972063854068,0.9977096360180803,202.60830976559356,21.275225978602723,-115.22810666587485,7.120817571129815,-38.204803466796875,4381.2578125,True
1599570311.0699368,0.0,10,0.5,0.5,-7.52358642578125,-0.15025,-0.00825,-0.12575,0.12185122226703182,10,1,100,0.6513109008752276,-10,-1,-100,6486.163762654294,-0.06682668802957725,-0.0032449137344949144,0.9977593218315994,202.21784361060642,21.237593812239073,-105.84195864845637,6.55075291464709,-40.256500244140625,4381.2578125,True
1599570311.170668,0.0,10,0.5,0.5,-7.343736034393311,-0.15025,-0.00825,-0.12575,0.1080184510578742,10,1,100,0.6538974929892943,-10,-1,-100,6486.420478602755,-0.06620500587735867,-0.0019258450699475758,0.9978041833533999,201.83475984276157,21.197928560635816,-99.53736584670878,6.1706648378233435,-41.991607666015625,4381.2578125,True
1599570311.2614243,0.0,10,0.5,0.5,-7.331689820861817,-0.15025,-0.00825,-0.12575,0.057367197250631205,10,1,100,0.6818945454484098,-10,-1,-100,6486.516601245268,-0.0658341725741725,-0.0011854069139977065,0.9978298735415383,201.57370138828648,21.17025297435019,-96.35865737773476,5.980603437603371,-42.96929931640625,4381.2578125,True
1599570311.354573,0.0,10,0.5,0.5,-6.561816954040528,-0.15025,-0.00825,-0.12575,0.2452264738741776,10,1,100,0.5673835628609072,-10,-1,-100,6486.869382520672,-0.06439619320904943,0.001196607930638049,0.9979236936908769,200.35989835147745,21.03982133369318,-86.67613119153829,5.410328274013212,-46.3447265625,4381.2578125,True
1599570311.4323633,0.0,10,0.5,0.5,-6.626562254333496,-0.15025,-0.00825,-0.12575,0.10450790129073016,10,1,100,0.6478663644193481,-10,-1,-100,6486.965968439821,-0.0638233728697372,0.0020753903689870487,0.9979590521811739,199.7604336676376,20.97518315538858,-83.38925013900199,5.2201987457837555,-47.616943359375,4381.2578125,True
1599570311.5086684,0.0,10,0.5,0.5,-5.601533008575439,-0.15025,-0.00825,-0.12575,0.32709790833502744,10,1,100,0.48071848163218756,-10,-1,-100,6487.254716150579,-0.06178657183470992,0.004889634549587103,0.998077407326148,197.15741277260688,20.69484693921526,-73.3306386645273,4.649663482517937,-51.87554931640625,4381.2578125,True
1599570311.596941,0.0,10,0.5,0.5,-5.69136393737793,-0.15025,-0.00825,-0.12575,0.15315206786702773,10,1,100,0.5968849188395106,-10,-1,-100,6487.350792851183,-0.060996407927513444,0.005855975741089496,0.9981208072012426,195.96069984382237,20.566290892861936,-69.91040797829858,4.459426598997799,-53.442718505859375,4381.2578125,True
1599570311.6847074,0.0,10,0.5,0.5,-4.454549452972412,-0.15025,-0.00825,-0.12575,0.3949193458905281,10,1,100,0.3786620853340749,-10,-1,-100,6487.577961888048,-0.0583004103682663,0.008921022668325344,0.9982592236014868,191.10582193202995,20.046911241310497,-59.46605719550726,3.8884894095800147,-58.5860595703125,4381.2578125,True
1599570311.7684836,0.0,10,0.5,0.5,-4.035046286773681,-0.15025,-0.00825,-0.12575,0.3181617432871306,10,1,100,0.4183688591564315,-10,-1,-100,6487.771058204817,-0.05621908271079998,0.0109961087088947,0.9983579019231622,186.6188257256188,19.56938862653162,-52.39106777683708,3.5076349373334224,-62.384307861328125,4381.2578125,True
1599570311.8702104,0.0,10,0.5,0.5,-3.362701306915283,-0.15025,-0.00825,-0.12575,0.3373167342518666,10,1,100,0.37268780786420996,-10,-1,-100,6487.838656037813,-0.05392191209673706,0.0130422985902074,0.9984599770863707,181.01213034819315,18.975122290231578,-45.30327049547318,3.1265623380587115,-66.47860717773438,4381.2578125,True
1599570311.971939,0.0,10,0.5,0.5,-3.2584852668762205,-0.15025,-0.00825,-0.12575,0.24282176982439568,10,1,100,0.46683426184010646,-10,-1,-100,6487.934709278517,-0.05270176808876382,0.014027177650556425,0.998511773554763,177.73889746459753,18.62933965762219,-41.774757108100175,2.9359261162317405,-68.63711547851562,4381.2578125,True
1599570312.056228,0.0,10,0.5,0.5,-1.5967736976623534,-0.15025,-0.00825,-0.12575,0.46751866355009275,10,1,100,0.15010397579348178,-10,-1,-100,6488.099329210469,-0.048726020862855934,0.016949519383484556,0.9986683577061714,165.74750440096363,17.367529473655217,-31.367697911380674,2.363541327209943,-75.55642700195312,4381.2578125,True
1599570312.138006,0.0,10,0.5,0.5,-1.0636671028137206,-0.15025,-0.00825,-0.12575,0.3787218217884302,10,1,100,0.22752982185733606,-10,-1,-100,6488.165945520974,-0.04583146651716972,0.018781790247900988,0.9987726072695273,156.00833591930459,16.345283134526586,-24.756416061583895,1.9816029965084576,-80.54019165039062,4381.2578125,True
1599570312.2173095,0.0,10,0.5,0.5,-0.9409018600463868,-0.15025,-0.00825,-0.12575,0.2944992691549996,10,1,100,0.34736305016480973,-10,-1,-100,6488.200475924066,-0.04430763073848383,0.019663679466919375,0.9988243957614192,150.58107791998725,15.776087252787661,-21.592732064542794,1.790565272664412,-83.14337158203125,4381.2578125,True
1599570312.3020835,0.0,10,0.5,0.5,1.0411181015014648,-0.15025,-0.00825,-0.12575,0.46232895159613274,10,1,100,-0.011857864060162426,-10,-1,-100,6488.301641911967,-0.039674943139879244,0.02197433307773159,0.9989709843497138,151.37270873621125,15.858481697721503,-14.759751936674931,1.2173485186407373,-91.4006576538086,4381.2578125,True
1599570312.3788788,0.0,10,0.5,0.5,1.6600827196121215,-0.15025,-0.00825,-0.12575,0.3851368365724226,10,1,100,0.08747537979103392,-10,-1,-100,6488.30578801583,-0.036388391566822186,0.023355090821246472,0.9990647750230768,159.58973827935606,16.717920875172137,-10.677782260394805,0.8352382472668092,-97.2745590209961,4381.2578125,True
1599570312.4557061,0.0,10,0.5,0.5,2.634769629669189,-0.15025,-0.00825,-0.12575,0.3786224265986452,10,1,100,0.05073017698591087,-10,-1,-100,6488.311901786365,-0.033089659366058184,0.024534316446251425,0.9991512106581034,167.97074333227735,17.59322525580886,-6.098979194656116,0.45321682907033534,-103.34657287597656,4381.2578125,True
1599570312.5414464,0.0,10,0.5,0.5,2.734185348510742,-0.15025,-0.00825,-0.12575,0.31985047321381355,10,1,100,0.19777189816367305,-10,-1,-100,6488.345484305988,-0.031452924602035526,0.025055068946661856,0.9991911514090067,171.7344733067561,17.986303434575202,-3.6081227452185467,0.26222823990632627,-106.32411193847656,4381.2578125,True
1599570312.6621492,0.0,10,0.5,0.5,5.4971232578277585,-0.15025,-0.00825,-0.12575,0.45401648028319264,10,1,100,-0.3745118272029262,-10,-1,-100,6488.353888998739,-0.024786811391196963,0.026733503969230844,0.9993352459243016,183.76842537667858,19.244782232950516,7.391103684470429,-0.5018573711411825,-117.54867553710938,4381.2578125,True
1599570312.744928,0.0,10,0.5,0.5,4.131144988632202,-0.15025,-0.00825,-0.12575,0.2877467175523275,10,1,100,0.28895626674896985,-10,-1,-100,6488.353888998739,-0.024786811391196963,0.026733503969230844,0.9993352459243016,183.76842537667858,19.244782232950516,7.391103684470429,-0.5018573711411825,-117.54867553710938,4381.2578125,True
1599570312.8346882,0.0,10,0.5,0.5,6.285122521591187,-0.15025,-0.00825,-0.12575,0.3813157605997729,10,1,100,-0.2492882088734117,-10,-1,-100,6488.267229011864,-0.019920166249816712,0.02757168508295396,0.9994213271479983,189.62194750375912,19.85697683986516,16.343069061434377,-1.0752166567725112,-125.20028686523438,4381.2578125,True
1599570312.9264436,0.0,10,0.5,0.5,6.675753873825073,-0.15025,-0.00825,-0.12575,0.3401801304050889,10,1,100,-0.11552230251215972,-10,-1,-100,6488.210463691619,-0.01674179854442691,0.027947394450539308,0.9994691867811252,191.5211064215394,20.055349602461202,22.38046789660696,-1.45760687779533,-129.9327392578125,4381.2578125,True
1599570313.0022743,0.0,10,0.5,0.5,7.931755269241333,-0.15025,-0.00825,-0.12575,0.3453608804841466,10,1,100,-0.2979804284467169,-10,-1,-100,6488.1229117544135,-0.01222273968768423,0.028326048080820097,0.9995240065324345,192.12276616058372,20.117223732360532,31.295598753856005,-2.0313948925780845,-136.47711181640625,4381.2578125,True
1599570313.0895517,0.0,10,0.5,0.5,7.716192458724976,-0.15025,-0.00825,-0.12575,0.31822189719020044,10,1,100,-0.007824475291215854,-10,-1,-100,6488.094064504257,-0.010782839143722247,0.02841488402582774,0.9995380556766206,191.81365289091318,20.08427276197235,34.19040935400064,-2.222702046749836,-138.51060485839844,4381.2578125,True
1599570313.1987164,0.0,10,0.5,0.5,8.047061569213867,-0.15025,-0.00825,-0.12575,0.3159589381588474,10,1,100,-0.025004463498959933,-10,-1,-100,6488.002234657644,-0.009348134021499825,0.02846711598049611,0.9995510170561926,191.29862766666523,20.029646383585245,37.036608299182326,-2.4140262714046545,-140.47039794921875,4381.2578125,True
1599570313.3620105,0.0,10,0.5,0.5,9.340957301521302,-0.15025,-0.00825,-0.12575,0.3263203906361783,10,1,100,-0.327216972507815,-10,-1,-100,6487.852752820356,-0.0053240400185974686,0.028602892068258758,0.9995766749795696,188.7546191732866,19.760260486195083,45.244818904490536,-2.988068298246618,-145.9046630859375,4381.2578125,True
1599570313.4559226,0.0,10,0.5,0.5,10.013885715866088,-0.15025,-0.00825,-0.12575,0.31086477657401096,10,1,100,-0.3406191414085765,-10,-1,-100,6487.639828819898,-0.001572175163723153,0.028581048564525997,0.9995902420132996,185.2079073308315,19.384149496781294,52.93705465636804,-3.562163022666334,-150.6733856201172,4381.2578125,True
1599570313.5611584,0.0,10,0.5,0.5,9.453263477706908,-0.15025,-0.00825,-0.12575,0.3134538001591145,10,1,100,0.03141559565862153,-10,-1,-100,6487.639828819898,-0.001572175163723153,0.028581048564525997,0.9995902420132996,185.2079073308315,19.384149496781294,52.93705465636804,-3.562163022666334,-150.6733856201172,4381.2578125,True
1599570313.6449327,0.0,10,0.5,0.5,10.621352238845825,-0.15025,-0.00825,-0.12575,0.3201080949659059,10,1,100,-0.3428528274281273,-10,-1,-100,6487.426449762424,0.0018031007284851884,0.028638336717662406,0.9995882124644172,181.30152087725062,18.968509896978816,60.18747499529488,-4.136283953957393,-154.7730255126953,4381.2578125,True
1599570313.7980342,0.0,10,0.5,0.5,10.47276021118164,-0.15025,-0.00825,-0.12575,0.316445750163332,10,1,100,-0.12445217575961783,-10,-1,-100,6487.335149452789,0.0028619002406702473,0.028655391147082623,0.9995852530350876,179.964262187382,18.825921433272036,62.51306136522129,-4.327665263481186,-155.99124145507812,4381.2578125,True
1599570313.910734,0.0,10,0.5,0.5,11.237499211883545,-0.15025,-0.00825,-0.12575,0.3107713886558524,10,1,100,-0.3511288956748461,-10,-1,-100,6487.05881691305,0.00586000751312977,0.02861756289905314,0.9995732566478882,176.12337721253263,18.415148414899942,69.31375853735757,-4.901849249007647,-159.20216369628906,4381.2578125,True
1599570314.0423803,0.0,10,0.5,0.5,11.349961553573609,-0.15025,-0.00825,-0.12575,0.3187696359103079,10,1,100,-0.25249510840858935,-10,-1,-100,6486.812758225715,0.007665452264069778,0.028654934123324934,0.9995599709832199,173.76012562402556,18.161312314444086,73.73759635854623,-5.284691221973537,-160.970947265625,4381.2578125,True
1599570314.2328727,0.0,10,0.5,0.5,11.559310289382934,-0.15025,-0.00825,-0.12575,0.3227320239661147,10,1,100,-0.25728234254198246,-10,-1,-100,6486.628230124246,0.009328097574492907,0.02872428645528591,0.9995438469438324,171.68601741722523,17.93738742792142,78.15052586950064,-5.667591762622246,-162.44256591796875,4381.2578125,True
1599570314.4103992,0.0,10,0.5,0.5,11.851006676101685,-0.15025,-0.00825,-0.12575,0.33775693743006385,10,1,100,-0.3370945923704397,-10,-1,-100,6486.226451786235,0.011545567548534292,0.02892356211730955,0.9995149460735584,169.2491666872602,17.671666251438534,84.87468720705107,-6.242071892505905,-164.09231567382812,4381.2578125,True
1599570314.5994132,0.0,10,0.5,0.5,11.775394996643065,-0.15025,-0.00825,-0.12575,0.3279045578519919,10,1,100,-0.1908850162184591,-10,-1,-100,6486.134194372571,0.01221197282656095,0.029014692288356313,0.9995043848583633,168.6506420694594,17.605373823026188,87.17830123452094,-6.4336029583710905,-164.49354553222656,4381.2578125,True
1599570314.926065,0.0,10,0.5,0.5,11.904557778549194,-0.15025,-0.00825,-0.12575,0.34600191552963533,10,1,100,-0.25972709343179967,-10,-1,-100,6485.82370758662,0.013424032775026407,0.029261561535188437,0.9994816438337311,167.80830722127686,17.50974742371224,91.92736869986128,-6.816723216098188,-165.07252502441406,4381.2578125,True
1599570315.100598,0.0,10,0.5,0.5,11.887947955322266,-0.15025,-0.00825,-0.12575,0.41522698823780735,10,1,100,-0.40258451915020443,-10,-1,-100,6485.111467687879,0.015807565623077207,0.030114708175594723,0.9994214452474846,167.94495368439163,17.503612119038248,104.99254110267508,-7.774847553336064,-165.21884155273438,4381.2578125,True
1599570315.2811553,0.0,10,0.5,0.5,11.754051948928833,-0.15025,-0.00825,-0.12575,0.37840121710245056,10,1,100,-0.24107741419595974,-10,-1,-100,6484.802450006944,0.016490367493733164,0.030554122056905313,0.9993970749433145,168.92202760648308,17.59646740714279,110.83757565038209,-8.158208001829216,-164.75689697265625,4381.2578125,True
1599570315.4337513,0.0,10,0.5,0.5,11.614086121368407,-0.15025,-0.00825,-0.12575,0.39167763971789715,10,1,100,-0.23035967594113665,-10,-1,-100,6484.429467323702,0.016997241989597046,0.031072490269607747,0.9993726002413674,170.4108656961701,17.741830761462133,117.09946392509214,-8.541614971154178,-163.99720764160156,4381.2578125,True
1599570315.6072834,0.0,10,0.5,0.5,11.58157698059082,-0.15025,-0.00825,-0.12575,0.37190875345358154,10,1,100,-0.20133084714000316,-10,-1,-100,6484.274713804247,0.01718032568649835,0.03136180408461441,0.9993604323035128,171.33741718270494,17.833110675917503,120.39477882266223,-8.7333313997573,-163.50572204589844,4381.2578125,True
1599570315.7663724,0.0,10,0.5,0.5,11.317025503921508,-0.15025,-0.00825,-0.12575,0.40467091218502044,10,1,100,-0.21422194566172376,-10,-1,-100,6483.901240678853,0.0174509404652917,0.03192019407496307,0.9993380638638227,173.54324431922223,18.051534867388213,127.33402807174738,-9.116779945404192,-162.30081176757812,4381.2578125,True
1599570316.1663024,0.0,10,0.5,0.5,10.81842101135254,-0.15025,-0.00825,-0.12575,0.4538356409512521,10,1,100,-0.19535716628097882,-10,-1,-100,6483.309530269471,0.017514918694413278,0.03287177102663131,0.9993060963952439,177.6205543086043,18.45673981595003,138.60847562529165,-9.69195787954081,-159.93603515625,4381.2578125,True
1599570316.3214514,0.0,10,0.5,0.5,10.27808545074463,-0.15025,-0.00825,-0.12575,0.46940837853041684,10,1,100,-0.15248864738555876,-10,-1,-100,6482.718295366736,0.017174412852356036,0.0338745778362282,0.9992785159902088,182.41876090713913,18.933916724434077,150.87007573701547,-10.267084831434872,-156.90396118164062,4381.2578125,True
1599570316.6497047,0.0,10,0.5,0.5,9.994683681488036,-0.15025,-0.00825,-0.12575,0.44476037549930825,10,1,100,-0.13827526758958486,-10,-1,-100,6482.282302864827,0.016728516529360724,0.03455746555250535,0.9992626973470562,185.8694119554212,19.27675080035952,159.515337868219,-10.650442810948967,-154.51223754882812,4381.2578125,True
1599570316.7883341,0.0,10,0.5,0.5,9.144406795501707,-0.15025,-0.00825,-0.12575,0.48519230700065885,10,1,100,-0.07012700419280196,-10,-1,-100,6481.628544445848,0.01569891479668439,0.035540713850555766,0.999244915790518,191.15456556302084,19.80102307305123,172.99373804136576,-11.22534560434089,-150.37045288085938,4381.2578125,True
1599570316.9449146,0.0,10,0.5,0.5,8.327099253463746,-0.15025,-0.00825,-0.12575,0.48719781000390183,10,1,100,-0.015412703387670534,-10,-1,-100,6480.974277671194,0.014262340539686415,0.03644687503830181,0.9992338119490717,196.18512644091388,20.299271065452025,186.7339814614623,-11.800031281987245,-145.56434631347656,4381.2578125,True
1599570317.1361423,0.0,10,0.5,0.5,7.406061078262328,-0.15025,-0.00825,-0.12575,0.4787273650106214,10,1,100,0.04252819247509371,-10,-1,-100,6480.193038354861,0.012428866427513436,0.03718712178767465,0.9992310249649355,200.44634936057952,20.721670201427415,200.18639646278808,-12.374459435359086,-140.0958251953125,4381.2578125,True
1599570317.235877,0.0,10,0.5,0.5,7.529322897720337,-0.15025,-0.00825,-0.12575,0.42767116122859,10,1,100,-0.06403305916117534,-10,-1,-100,6479.974774408038,0.011733881976045505,0.03738949660398415,0.999231875771321,201.59495890678582,20.835929455926173,204.48572839436943,-12.565876833454615,-138.1259765625,4381.2578125,True
1599570317.338601,0.0,10,0.5,0.5,6.002640260696411,-0.15025,-0.00825,-0.12575,0.45239422110576,10,1,100,0.11827298167426238,-10,-1,-100,6479.19447939971,0.009449074363041304,0.03779201482265153,0.9992409512271434,203.90114908651813,21.067956353200167,216.39662212251503,-13.13996410107459,-131.77662658691406,4381.2578125,True
1599570317.473242,0.0,10,0.5,0.5,5.50501369895935,-0.15025,-0.00825,-0.12575,0.4256039369178415,10,1,100,0.07670759437445125,-10,-1,-100,6478.632927176193,0.007756705660878091,0.03790828377922894,0.9992511173564951,204.23564873115717,21.105570486943563,223.14965884746945,-13.522576601042477,-127.17707824707031,4381.2578125,True
1599570317.574969,0.0,10,0.5,0.5,5.388491649246215,-0.15025,-0.00825,-0.12575,0.4124657147444405,10,1,100,0.0035200934994184807,-10,-1,-100,6478.352147735306,0.006892096503253305,0.03788859310209147,0.999258201626854,204.08912773612673,21.094374281941533,226.18861353315916,-13.71386079420791,-124.76786041259766,4381.2578125,True
1599570317.6727085,0.0,10,0.5,0.5,4.269944908332825,-0.15025,-0.00825,-0.12575,0.39930772227537126,10,1,100,0.11651788892715073,-10,-1,-100,6477.7896042175125,0.005088434441489605,0.03774564855585939,0.9992744236945287,203.273902888818,21.022884177580607,231.66313754846027,-14.096409016715285,-119.72966766357422,4381.2578125,True
1599570317.766457,0.0,10,0.5,0.5,2.633005341339111,-0.15025,-0.00825,-0.12575,0.35903465987164673,10,1,100,0.2516793780286878,-10,-1,-100,6476.945775568718,0.0022312976519203802,0.03724514942149707,0.9993036676383006,199.24687793060266,20.63596513315866,236.46783115960835,-14.670284520707003,-111.62342834472656,4381.2578125,True
1599570317.85921,0.0,10,0.5,0.5,2.8288932312011714,-0.15025,-0.00825,-0.12575,0.38098980725223863,10,1,100,0.07219291349145765,-10,-1,-100,6476.663519038819,0.0012791803528326641,0.03698667830136828,0.9993149400093326,197.06044327835275,20.42136439996246,236.9752566119476,-14.86162109325336,-108.77518463134766,4381.2578125,True
1599570317.9609385,0.0,10,0.5,0.5,1.5164770170211788,-0.15025,-0.00825,-0.12575,0.3371873783780722,10,1,100,0.1874144317582715,-10,-1,-100,6476.038454901311,-0.0006198043249667235,0.036351292281714354,0.9993388811569617,191.7986928694694,19.90059231330174,236.6954954527282,-15.24439985702445,-102.85906219482422,4381.2578125,True
1599570318.0441353,0.0,10,0.5,0.5,1.3744979885101316,-0.15025,-0.00825,-0.12575,0.3593158100473871,10,1,100,0.10226714401552084,-10,-1,-100,6475.757171283825,-0.0015572525806487507,0.035974099298630775,0.9993515093019334,188.76084155829554,19.59741637082846,235.9271424796485,-15.435851122934075,-99.79118347167969,4381.2578125,True
1599570318.8449733,0.0,10,0.5,0.5,-0.9388938552856445,-0.15025,-0.00825,-0.12575,0.24578713381454548,10,1,100,0.32265210370267194,-10,-1,-100,6474.787336461246,-0.0043985964528607535,0.03459954750801957,0.9993915767413117,176.28171571357336,18.329673331879917,228.69807189009995,-16.01050206269379,-90.14837646484375,4381.2578125,True
1599570318.9212751,0.0,10,0.5,0.5,-1.6427896141052245,-0.15025,-0.00825,-0.12575,0.26084973704837355,10,1,100,0.23921564499135045,-10,-1,-100,6474.162260751589,-0.0062078253821502205,0.03348924006802569,0.9994197985349755,166.30053884967447,17.299097458142576,221.02398412302793,-16.39383365507428,-83.35391235351562,4381.2578125,True
1599570319.0000634,0.0,10,0.5,0.5,-2.765934887695312,-0.15025,-0.00825,-0.12575,0.23631087134304365,10,1,100,0.24787970853971625,-10,-1,-100,6473.474195291405,-0.007915032525254702,0.03226033475847004,0.9994481592666002,177.84412593048387,18.49513587055927,242.01293076316435,-16.777060308450007,-76.35260009765625,4381.2578125,True
1599570319.0808494,0.0,10,0.5,0.5,-3.8162620273590084,-0.15025,-0.00825,-0.12575,0.21269614332282316,10,1,100,0.25509919979198137,-10,-1,-100,6472.786619482795,-0.00951688520592637,0.030933497567839422,0.9994761365956656,190.00161637829288,19.74508044458324,264.59144409855213,-17.159972635749867,-69.5228271484375,4381.2578125,True
1599570319.160636,0.0,10,0.5,0.5,-3.91919072189331,-0.15025,-0.00825,-0.12575,0.26720088156288346,10,1,100,0.18064594784630084,-10,-1,-100,6472.44283298729,-0.010280563906242789,0.03022912027509522,0.9994901251604057,195.18114795149884,20.27418491661166,274.90356994895893,-17.351295686900922,-66.21047973632812,4381.2578125,True
1599570319.2344372,0.0,10,0.5,0.5,-5.318668308448792,-0.15025,-0.00825,-0.12575,0.17786203102697898,10,1,100,0.2621664654159976,-10,-1,-100,6471.754283707356,-0.011700301374973597,0.028783569070298626,0.9995171879959395,204.15109962883787,21.186481900789033,294.01972600695603,-17.73367407063899,-59.8057861328125,4381.2578125,True
1599570319.319214,0.0,10,0.5,0.5,-7.06009077835083,-0.15025,-0.00825,-0.12575,0.07266935058066676,10,1,100,0.32958014295819704,-10,-1,-100,6470.658965494018,-0.013588560928006633,0.026521281861413032,0.9995558876922956,213.63784797031437,22.147740345788574,317.8575045488609,-18.30664302700514,-50.75732421875,4381.2578125,True
1599570319.3930137,0.0,10,0.5,0.5,-7.534361130905151,-0.15025,-0.00825,-0.12575,0.12894851355249515,10,1,100,0.26295099730002514,-10,-1,-100,6469.90938907885,-0.014685059326071533,0.024986034850861007,0.9995799353203431,217.3558260827325,22.526482626278476,330.2935637526109,-18.688319604175224,-45.0982666015625,4381.2578125,True
1599570319.4767895,0.0,10,0.5,0.5,-8.35497780971527,-0.15025,-0.00825,-0.12575,0.11655067325977614,10,1,100,0.2629229263135307,-10,-1,-100,6469.158840894699,-0.015667107915636126,0.023488557787198546,0.9996013352245171,219.94207701742567,22.79687965441988,341.21657806231036,-19.069841878056025,-39.73699951171875,4381.2578125,True
1599570319.550592,0.0,10,0.5,0.5,-9.130317900466919,-0.15025,-0.00825,-0.12575,0.1024675552850805,10,1,100,0.2624117764032932,-10,-1,-100,6468.345800540643,-0.016541553176428442,0.022010880051821363,0.9996208772218875,220.94982600302097,22.913074284213806,349.81508236749073,-19.45128602640366,-34.673797607421875,4381.2578125,True
1599570319.6343675,0.0,10,0.5,0.5,-10.48952533187866,-0.15025,-0.00825,-0.12575,0.015425924904553273,10,1,100,0.29981808981610314,-10,-1,-100,6467.188506847946,-0.017662938716723565,0.019888942942788958,0.9996461626718265,220.04414745148037,22.85198458543685,358.91648238071866,-20.0234532332688,-27.63690185546875,4381.2578125,True
1599570319.7111642,0.0,10,0.5,0.5,-9.65620765762329,-0.15025,-0.00825,-0.12575,0.22614857535127075,10,1,100,0.18900597001297703,-10,-1,-100,6467.188506847946,-0.017662938716723565,0.019888942942788958,0.9996461626718265,220.04414745148037,22.85198458543685,358.91648238071866,-20.0234532332688,-27.63690185546875,4381.2578125,True
1599570319.7979333,0.0,10,0.5,0.5,-11.45992223815918,-0.15025,-0.00825,-0.12575,0.010529148523915427,10,1,100,0.29496033121480597,-10,-1,-100,6465.969702833681,-0.01861574644279967,0.017941130241745033,0.999665729046478,216.94883720672053,22.575907281926312,364.29212843280163,-20.59575950992616,-21.26824951171875,4381.2578125,True
1599570319.8722446,0.0,10,0.5,0.5,-11.24948413696289,-0.15025,-0.00825,-0.12575,0.1375944444855737,10,1,100,0.23280842465551252,-10,-1,-100,6465.56197409681,-0.018907190030586603,0.017338547935462655,0.9996708923043807,215.56122038118048,22.44832942495675,365.42365285544577,-20.78657437975865,-19.293701171875,4381.2578125,True
1599570319.9485478,0.0,10,0.5,0.5,-12.070885430908202,-0.15025,-0.00825,-0.12575,0.0626272641576035,10,1,100,0.25566323574152733,-10,-1,-100,6464.685482144356,-0.019371373115879713,0.016121585062799287,0.9996823717554832,212.40018394705325,22.1534759731626,366.90025788495984,-21.168282428096997,-15.568115234375,4381.2578125,True
1599570320.022358,0.0,10,0.5,0.5,-12.590909888458253,-0.15025,-0.00825,-0.12575,0.06692530251184631,10,1,100,0.26459804320644087,-10,-1,-100,6463.810460542329,-0.019866318889272993,0.015067153286518703,0.9996891068055259,209.1377050273758,21.847007912820104,368.0128085367774,-21.550093785609945,-12.137908935546875,4381.2578125,True
1599570320.1161063,0.0,10,0.5,0.5,-13.465338983154297,-0.15025,-0.00825,-0.12575,0.006824171385402117,10,1,100,0.27942564124328917,-10,-1,-100,6462.527232331457,-0.020443642285861596,0.013574674494008478,0.9996988475048221,204.41991704426064,21.400429308655408,369.6366434483449,-22.12297320595713,-7.54931640625,4381.2578125,True
1599570320.2068675,0.0,10,0.5,0.5,-13.666124375915526,-0.15025,-0.00825,-0.12575,0.05903608738380363,10,1,100,0.2618946826886491,-10,-1,-100,6461.589232401224,-0.02080287749466555,0.012704299016591383,0.9997028763960015,201.4496335124468,21.116030403709175,370.8061564690457,-22.50497715629092,-4.8603515625,4381.2578125,True
1599570320.3095903,0.0,10,0.5,0.5,-14.32121994781494,-0.15025,-0.00825,-0.12575,0.02090887743677,10,1,100,0.28319831879939206,-10,-1,-100,6460.243033211678,-0.02131756272352263,0.011577602797452145,0.999705717015259,197.74842529360794,20.759907517552282,373.6500317592393,-23.078047078788874,-1.3819580078125,4381.2578125,True
1599570320.3993511,0.0,10,0.5,0.5,-13.915454867553711,-0.15025,-0.00825,-0.12575,0.13238740385171915,10,1,100,0.23229484139447273,-10,-1,-100,6460.243033211678,-0.02131756272352263,0.011577602797452145,0.999705717015259,197.74842529360794,20.759907517552282,373.6500317592393,-23.078047078788874,-1.3819580078125,4381.2578125,True
1599570320.4836416,0.0,10,0.5,0.5,-14.719195903778077,-0.15025,-0.00825,-0.12575,0.031413647886131116,10,1,100,0.28596822381726694,-10,-1,-100,6458.835807524971,-0.021801160736868854,0.010669144358905317,0.9997053959788224,194.50290382588773,20.44135818585522,377.0437941241283,-23.651135024088344,1.430633544921875,4381.2578125,True
1599570320.5709243,0.0,10,0.5,0.5,-14.982040840148924,-0.15025,-0.00825,-0.12575,0.04450519084224176,10,1,100,0.2879138714467816,-10,-1,-100,6457.3656018954935,-0.022254720980160878,0.009970668713085464,0.9997026123600503,191.977874639856,20.18932825221703,381.57677722951723,-24.224181113666283,3.577545166015625,4381.2578125,True
1599570320.6417332,0.0,10,0.5,0.5,-14.73781862258911,-0.15025,-0.00825,-0.12575,0.11336092800125672,10,1,100,0.2430170253439229,-10,-1,-100,6457.3656018954935,-0.022254720980160878,0.009970668713085464,0.9997026123600503,191.977874639856,20.18932825221703,381.57677722951723,-24.224181113666283,3.577545166015625,4381.2578125,True
1599570320.7324898,0.0,10,0.5,0.5,-15.16735534362793,-0.15025,-0.00825,-0.12575,0.06231761960492451,10,1,100,0.2974951230001737,-10,-1,-100,6455.893937743967,-0.022746668254729194,0.009513884510872135,0.9996959913317763,190.36675451939502,20.026085546617296,387.7465785549433,-24.797134191753855,5.0595703125,4381.2578125,True
1599570320.8042977,0.0,10,0.5,0.5,-15.096647804260254,-0.15025,-0.00825,-0.12575,0.09573402234899979,10,1,100,0.26614653280390504,-10,-1,-100,6455.42519519059,-0.022905415431439636,0.009409524955101238,0.999693354376247,190.9216691725289,20.08531600986096,392.01511088911707,-24.988082326411554,5.40582275390625,4381.2578125,True
1599570320.8820925,0.0,10,0.5,0.5,-15.234773583984373,-0.15025,-0.00825,-0.12575,0.08645431865500139,10,1,100,0.3006064536551554,-10,-1,-100,6453.8910397440195,-0.02335979028862817,0.009236393561825618,0.9996844548314444,193.82096469775817,20.390607042225533,407.54174556428177,-25.560759299299466,6.0013427734375,4381.2578125,True
1599570320.9598846,0.0,10,0.5,0.5,-15.182584001922606,-0.15025,-0.00825,-0.12575,0.10494947153379632,10,1,100,0.2893910126790684,-10,-1,-100,6452.889594617416,-0.023667723903199357,0.00925243983022291,0.9996770634572097,195.0496569390468,20.519107759801077,416.5617495757752,-25.942416414920217,6.02935791015625,4381.2578125,True
1599570321.0356793,0.0,10,0.5,0.5,-15.163579911041259,-0.15025,-0.00825,-0.12575,0.10766010624451343,10,1,100,0.2752841208358535,-10,-1,-100,6452.358355594217,-0.023816488098219086,0.00929559878492132,0.9996731299469329,195.45676602289987,20.56156229071027,420.6603983530753,-26.13321091020417,5.93267822265625,4381.2578125,True
1599570321.116464,0.0,10,0.5,0.5,-15.07025930709839,-0.15025,-0.00825,-0.12575,0.12281157452244817,10,1,100,0.29397583901881735,-10,-1,-100,6451.293926039827,-0.024118913340260735,0.009475673637384434,0.9996641884294959,195.85588300824864,20.603312772151334,427.9997316429127,-26.51473897880188,5.51824951171875,4381.2578125,True
1599570321.1932964,0.0,10,0.5,0.5,-14.803879254913332,-0.15025,-0.00825,-0.12575,0.15482131414609876,10,1,100,0.31096372864331834,-10,-1,-100,6449.697286030278,-0.0245457340563243,0.009932286526347787,0.9996493668401909,195.40253708614108,20.558094833246738,436.72967827478186,-27.086900485861367,4.343658447265625,4381.2578125,True
1599570321.269093,0.0,10,0.5,0.5,-14.807568579101563,-0.15025,-0.00825,-0.12575,0.13154367285962157,10,1,100,0.2836783530956122,-10,-1,-100,6449.103062434704,-0.02468276931928221,0.010137269973956592,0.9996439349369385,196.02118721606965,20.62520038400994,441.36903228442515,-27.27758086409589,3.80474853515625,4381.2578125,True
1599570321.3468878,0.0,10,0.5,0.5,-14.309207498931885,-0.15025,-0.00825,-0.12575,0.1979290498640025,10,1,100,0.3108712338941061,-10,-1,-100,6447.444418224739,-0.02505193519415533,0.010927605512172558,0.9996264242109641,200.2063859183897,21.076808404774077,460.7901403586525,-27.849421340850974,1.7464599609375,4381.2578125,True
1599570321.416378,0.0,10,0.5,0.5,-14.08621353149414,-0.15025,-0.00825,-0.12575,0.19146718341365324,10,1,100,0.29764965937951227,-10,-1,-100,6446.3179879913805,-0.025264801480985505,0.011586478182093818,0.9996136470304227,203.486912889177,21.434923776659325,475.13042243022,-28.230460783660995,0.006195068359375,4381.2578125,True
1599570321.4921763,0.0,10,0.5,0.5,-14.031487680053711,-0.15025,-0.00825,-0.12575,0.16628372809580522,10,1,100,0.287219431735321,-10,-1,-100,6445.784802908078,-0.025360759599064992,0.011955043915979065,0.9996068771259657,205.25419514285005,21.629285326426338,482.6858274431502,-28.420917203359462,-0.97430419921875,4381.2578125,True
1599570321.5769844,0.0,10,0.5,0.5,-13.547716818237305,-0.15025,-0.00825,-0.12575,0.22105292369378532,10,1,100,0.2922520389887846,-10,-1,-100,6444.596852060407,-0.025491368780219344,0.012785786216397194,0.9995932741813238,209.00147096936362,22.044702013021062,498.48946376215434,-28.80169073157581,-3.155792236328125,4381.2578125,True
1599570321.6478333,0.0,10,0.5,0.5,-12.759600728607179,-0.15025,-0.00825,-0.12575,0.295957736594207,10,1,100,0.2917059545357267,-10,-1,-100,6442.875231325626,-0.025602789128651156,0.014218890005634512,0.9995710681866705,214.99959167377332,22.71919002663885,523.6017931320887,-29.372462275753087,-6.9796142578125,4381.2578125,True
1599570321.7216387,0.0,10,0.5,0.5,-12.424723020172118,-0.15025,-0.00825,-0.12575,0.2723264482168459,10,1,100,0.2790482383565278,-10,-1,-100,6441.686309150071,-0.025586971117560066,0.0153023521956526,0.9995554736613218,219.32143881179547,23.21097716242459,541.4850561155101,-29.75268300876884,-9.896331787109375,4381.2578125,True
1599570321.7934444,0.0,10,0.5,0.5,-12.345418562316894,-0.15025,-0.00825,-0.12575,0.2281406251283648,10,1,100,0.2764599034571577,-10,-1,-100,6441.086721807718,-0.025547316020015382,0.01588012860180519,0.9995474756907566,221.7038545346672,23.48263951972708,551.0877196122209,-29.94269347801477,-11.4649658203125,4381.2578125,True
1599570321.874261,0.0,10,0.5,0.5,-11.601554878234863,-0.15025,-0.00825,-0.12575,0.30469249147023686,10,1,100,0.26158959690600486,-10,-1,-100,6439.903660079581,-0.02537450784639901,0.01709532000158194,0.9995318326024423,226.41502806975208,24.02448926334515,570.399381331749,-30.322501564320284,-14.82281494140625,4381.2578125,True
1599570321.9496398,0.0,10,0.5,0.5,-10.46475679168701,-0.15025,-0.00825,-0.12575,0.4008930164812523,10,1,100,0.23201788083809444,-10,-1,-100,6438.051186738885,-0.02494743427476118,0.01906766273205713,0.9995069033083479,233.65347112761427,24.863446456158474,600.3996267767379,-30.891649618283793,-20.410736083984375,4381.2578125,True
1599570322.0254393,0.0,10,0.5,0.5,-10.017418453979491,-0.15025,-0.00825,-0.12575,0.35780752826141005,10,1,100,0.22638255335010082,-10,-1,-100,6436.80220953119,-0.02450759014136463,0.02046071043393991,0.9994902387487341,238.2809933194478,25.404002584228977,620.2843506820237,-31.270689760993456,-24.50347900390625,4381.2578125,True
1599570322.1042628,0.0,10,0.5,0.5,-9.91349209136963,-0.15025,-0.00825,-0.12575,0.29787854422419235,10,1,100,0.24053960683838624,-10,-1,-100,6436.145982682123,-0.024236591578332106,0.021172923543985925,0.9994820133135291,240.39529488718694,25.65271426198558,629.8186228328098,-31.460095887604588,-26.660125732421875,4381.2578125,True
1599570322.192262,0.0,10,0.5,0.5,-8.253706522369384,-0.15025,-0.00825,-0.12575,0.4637326904325544,10,1,100,0.15308329250818437,-10,-1,-100,6434.240284844185,-0.023195913066769634,0.02331884104771122,0.9994589442639403,246.04926105759984,26.31943535943306,656.9997038428143,-32.02788948404343,-33.571533203125,4381.2578125,True
1599570322.2660654,0.0,10,0.5,0.5,-8.41870044555664,-0.15025,-0.00825,-0.12575,0.329772775779616,10,1,100,0.21125161021161495,-10,-1,-100,6433.574778354261,-0.022780525388484223,0.02404119195164785,0.9994513838864643,247.51871825319736,26.494040235423014,665.0691071971875,-32.21702870030481,-36.022308349609375,4381.2578125,True
1599570322.3438578,0.0,10,0.5,0.5,-6.546884024810791,-0.15025,-0.00825,-0.12575,0.49278035944178106,10,1,100,0.09093398720160456,-10,-1,-100,6431.669562695781,-0.021311449321052466,0.02616877430848659,0.9994303464369229,250.28004908607218,26.82671626208669,685.0660999663529,-32.78416514418316,-43.81610107421875,4381.2578125,True
1599570322.4166625,0.0,10,0.5,0.5,-5.95782179107666,-0.15025,-0.00825,-0.12575,0.43063333534431003,10,1,100,0.1097118239529667,-10,-1,-100,6430.290689777699,-0.020150433156998857,0.02752580078827926,0.9994179757911847,250.47514256132627,26.857410821806504,694.0008524040428,-33.16211047551643,-49.37982177734375,4381.2578125,True
1599570322.4904664,0.0,10,0.5,0.5,-5.005595220947266,-0.15025,-0.00825,-0.12575,0.435119387448232,10,1,100,0.0825792224413168,-10,-1,-100,6428.974312491482,-0.018853260590454807,0.028788146324687666,0.9994077232022459,249.0992113516043,26.707420999517968,698.5601114451837,-33.54003773147888,-55.23809814453125,4381.2578125,True
1599570322.5712492,0.0,10,0.5,0.5,-4.006651184844971,-0.15025,-0.00825,-0.12575,0.43569105659448626,10,1,100,0.05594857586491758,-10,-1,-100,6427.59933425847,-0.017438037570653955,0.029928670355362133,0.9993999147170489,245.94738456805038,26.35672517780715,698.0133894376293,-33.91803910525441,-61.39105224609375,4381.2578125,True
1599570322.6460495,0.0,10,0.5,0.5,-2.9597339836120606,-0.15025,-0.00825,-0.12575,0.43479991884728836,10,1,100,0.029626746327359066,-10,-1,-100,6426.2829425795935,-0.015919553900902068,0.030944637729406616,0.999394315172641,240.83003215411702,25.789220590664712,691.6446319217529,-34.29620574072365,-67.83837890625,4381.2578125,True
1599570322.719997,0.0,10,0.5,0.5,-2.806508823394775,-0.15025,-0.00825,-0.12575,0.38382517903630076,10,1,100,0.0935238029995934,-10,-1,-100,6425.562732386286,-0.015128591947189298,0.03139224741868551,0.9993926418118654,237.48490833262187,25.420781399414505,686.0736577145955,-34.485376456749606,-71.17257690429688,4381.2578125,True
1599570322.793657,0.0,10,0.5,0.5,-0.3012689842224121,-0.15025,-0.00825,-0.12575,0.4602002069107272,10,1,100,-0.09761840147304743,-10,-1,-100,6423.46654202207,-0.012680805441633292,0.03248227958535508,0.9993918644287086,224.11438289260644,23.967639021121673,658.9351151099794,-35.05332378200815,-81.61691284179688,4381.2578125,True
1599570322.876433,0.0,10,0.5,0.5,-0.566006480407715,-0.15025,-0.00825,-0.12575,0.3828753951343372,10,1,100,0.05442311675910527,-10,-1,-100,6422.742905940162,-0.011848492224783522,0.03275933638513168,0.999393035352761,218.51406016668096,23.367030718037455,646.2212252687195,-35.2427943441347,-85.24560546875,4381.2578125,True
1599570322.9522305,0.0,10,0.5,0.5,2.1438148597717284,-0.15025,-0.00825,-0.12575,0.4202247327850711,10,1,100,-0.13907884620453656,-10,-1,-100,6420.6535299276,-0.009343997000117486,0.03334021253371603,0.9994003802021831,211.37844962882144,22.627169957513008,636.0384829293611,-35.81145053846206,-96.5419692993164,4381.2578125,True
1599570323.0290258,0.0,10,0.5,0.5,3.9930297002792363,-0.15025,-0.00825,-0.12575,0.3851390205296089,10,1,100,-0.15855947454948552,-10,-1,-100,6418.4918742413865,-0.006902679189163964,0.033540210401483056,0.999413531680573,228.84632838860753,24.562023442383005,700.4154623463248,-36.37909487015905,-108.20059967041016,4381.2578125,True
1599570323.0988393,0.0,10,0.5,0.5,3.661767357635498,-0.15025,-0.00825,-0.12575,0.36500746339212375,10,1,100,0.002264815912897261,-10,-1,-100,6417.705726269283,-0.006159772770863625,0.03353037701779427,0.9994187165630108,233.65702410711896,25.104103210957163,719.149715539303,-36.56802572339317,-112.09648132324219,4381.2578125,True
1599570323.1774805,0.0,10,0.5,0.5,6.350136225128174,-0.15025,-0.00825,-0.12575,0.343268145977943,10,1,100,-0.15651200396494686,-10,-1,-100,6415.488391423831,-0.004054751915837632,0.03331711505366709,0.9994366057091372,244.85959622962682,26.382305281493643,766.1963451736356,-37.13408444008946,-123.40787506103516,4381.2578125,True
1599570323.246297,0.0,10,0.5,0.5,4.988801606559753,-0.15025,-0.00825,-0.12575,0.36517347381719983,10,1,100,0.05238051341353628,-10,-1,-100,6415.488391423831,-0.004054751915837632,0.03331711505366709,0.9994366057091372,244.85959622962682,26.382305281493643,766.1963451736356,-37.13408444008946,-123.40787506103516,4381.2578125,True
1599570323.3191023,0.0,10,0.5,0.5,7.986210892486572,-0.15025,-0.00825,-0.12575,0.3114400799091991,10,1,100,-0.1542814267407204,-10,-1,-100,6413.257863269537,-0.002189460195048587,0.03282451241020438,0.999458732339203,250.95847491450493,27.087670516325876,798.1244612187538,-37.69934902771185,-134.0642852783203,4381.2578125,True
1599570323.3929076,0.0,10,0.5,0.5,8.563828962707518,-0.15025,-0.00825,-0.12575,0.3116120346201812,10,1,100,-0.08653563304872221,-10,-1,-100,6411.757820408675,-0.001123473643690898,0.032375622466197344,0.9994751406998066,251.97143140117745,27.208841785618258,809.9496098147359,-38.07599649612905,-140.79510498046875,4381.2578125,True
1599570323.46927,0.0,10,0.5,0.5,8.67555262069702,-0.15025,-0.00825,-0.12575,0.32659714405066265,10,1,100,-0.035006829087115554,-10,-1,-100,6410.971663996228,-0.0006362896150687059,0.03210246807125279,0.999484380407848,251.67507976065966,27.177021834771196,813.3020885084106,-38.264312387595766,-144.04849243164062,4381.2578125,True
1599570323.5470705,0.0,10,0.5,0.5,10.05999726486206,-0.15025,-0.00825,-0.12575,0.29872787217639385,10,1,100,-0.07867713134910854,-10,-1,-100,6409.412534618634,0.00019043288394038626,0.031600143221852964,0.9995005726279876,249.66360869950879,26.950984033333945,815.3686077711204,-38.64099571989365,-150.3290557861328,4381.2578125,True
1599570324.2307615,0.0,10,0.5,0.5,11.77217566947937,-0.15025,-0.00825,-0.12575,0.24847828233678812,10,1,100,-0.10622215005498654,-10,-1,-100,6407.116073911544,0.001180706927342476,0.030687471756914435,0.999528331268464,243.7204232418532,26.283172867370304,808.5826278506806,-39.206293348912524,-159.18873596191406,4381.2578125,True
1599570324.2955873,0.0,10,0.5,0.5,12.245715815734863,-0.15025,-0.00825,-0.12575,0.2695927362087923,10,1,100,-0.0595502184459624,-10,-1,-100,6405.494441172341,0.0016448210438513142,0.0300516035191051,0.999546995238175,238.2473284756071,25.674839561825273,798.7093904890949,-39.58340512299087,-164.7200469970703,4381.2578125,True
1599570324.3693912,0.0,10,0.5,0.5,13.0501697763443,-0.15025,-0.00825,-0.12575,0.26297409061656224,10,1,100,-0.0498444454070748,-10,-1,-100,6403.932379216072,0.001968518833011308,0.029416361623907802,0.9995653068221285,231.90003227327173,24.978138520109866,785.5379092920713,-39.960730275719854,-169.9510955810547,4381.2578125,True
1599570324.4421957,0.0,10,0.5,0.5,13.804290777206422,-0.15025,-0.00825,-0.12575,0.2555308799238074,10,1,100,-0.03802041646871542,-10,-1,-100,6402.300493839779,0.0021472336527878764,0.028774952393592103,0.9995836090604862,224.94105699859168,24.2250450320257,769.8657474916193,-40.33825768831929,-174.88218688964844,4381.2578125,True
1599570324.511011,0.0,10,0.5,0.5,13.885452433395384,-0.15025,-0.00825,-0.12575,0.28413536815056006,10,1,100,-0.024723175145069193,-10,-1,-100,6401.517755214823,0.002181265834711926,0.02845621700866122,0.9995926599334923,221.3068409291607,23.83610539149568,761.32502606805,-40.527089686303654,-177.23526000976562,4381.2578125,True
1599570324.584325,0.0,10,0.5,0.5,-83.90186826457978,-0.15025,-0.00825,-0.12575,0.21370519172521618,10,1,100,-0.011203394673613736,-10,-1,-100,6399.040634534904,0.0020836279796746034,0.027530602234898206,0.9996187895568119,219.3487865343444,23.651656218361733,766.207160842551,-41.0936338593972,176.15542602539062,4381.2578125,True
1599570324.6511464,0.0,10,0.5,0.5,-39.14343555450439,-0.15025,-0.00825,-0.12575,0.2729841570732404,10,1,100,-0.010651908611290204,-10,-1,-100,6398.198815931217,0.0019842724382599943,0.02723329440993093,0.9996271356553267,222.73743502960542,24.031989501294504,781.9825098704466,-41.28234059211374,174.10218811035156,4381.2578125,True
1599570324.7257118,0.0,10,0.5,0.5,-38.055218331909174,-0.15025,-0.00825,-0.12575,0.20797321444109784,10,1,100,0.0342690306345608,-10,-1,-100,6395.7182833848055,0.0014817827414359691,0.02637708892512327,0.9996509658374483,231.57972736430432,25.046085976942738,825.3162342746724,-41.84795284621871,168.302734375,4381.2578125,True
1599570324.7945268,0.0,10,0.5,0.5,-37.935985459136965,-0.15025,-0.00825,-0.12575,0.23463968607282704,10,1,100,0.03824252697478323,-10,-1,-100,6394.034651323105,0.0009864828172438088,0.025846595984260274,0.9996654341967005,237.37752183938744,25.722336813932586,854.3762266678833,-42.22459460876101,164.30447387695312,4381.2578125,True
1599570324.8683302,0.0,10,0.5,0.5,-38.11342146377564,-0.15025,-0.00825,-0.12575,0.2597385840132429,10,1,100,0.02156481092469531,-10,-1,-100,6393.182583036483,0.0006863505116769054,0.02559818863028587,0.9996720770641858,240.18049051043,26.05253771970896,868.7107452275958,-42.412780987913756,162.2039794921875,4381.2578125,True
1599570324.939716,0.0,10,0.5,0.5,-36.77643714408874,-0.15025,-0.00825,-0.12575,0.20447228351946795,10,1,100,0.10767075954702253,-10,-1,-100,6390.587807751726,-0.00036972922415756,0.02487539917181261,0.9996904910102645,248.48422825234948,27.037601342281974,911.9063625489736,-42.976793674535884,155.46861267089844,4381.2578125,True
1599570325.009565,0.0,10,0.5,0.5,-36.54309460792541,-0.15025,-0.00825,-0.12575,0.23012810405882267,10,1,100,0.09719378736054636,-10,-1,-100,6388.890516200685,-0.0012331470221741089,0.02445683628045387,0.9997001262916658,253.79499011204172,27.670390355725527,940.3406738836682,-43.35234242398092,150.61387634277344,4381.2578125,True
1599570325.0916874,0.0,10,0.5,0.5,-36.71356601753235,-0.15025,-0.00825,-0.12575,0.25057575167324125,10,1,100,0.0634202931296752,-10,-1,-100,6387.986209189752,-0.0017084241927575743,0.024267298418657598,0.9997040459627226,256.1819994786984,27.956155073073802,953.6938013236662,-43.53998829673195,148.07705688476562,4381.2578125,True
1599570325.1647575,0.0,10,0.5,0.5,-35.83404280090332,-0.15025,-0.00825,-0.12575,0.22657827671767972,10,1,100,0.1306078654627201,-10,-1,-100,6386.226426121197,-0.00274794778447407,0.023881513374887926,0.9997110192960259,260.2813831647694,28.44848347856603,978.1086537118176,-43.91505302951773,142.783935546875,4381.2578125,True
1599570325.235569,0.0,10,0.5,0.5,-35.220484501266476,-0.15025,-0.00825,-0.12575,0.22971828356705154,10,1,100,0.15511837888061528,-10,-1,-100,6384.473974110326,-0.0039113419157996935,0.023563793796472245,0.9997146838105035,263.2925448914066,28.811005389290703,998.6799311324802,-44.28986944841047,137.19972229003906,4381.2578125,True
1599570325.3074102,0.0,10,0.5,0.5,-34.5606166015625,-0.15025,-0.00825,-0.12575,0.2330522822578147,10,1,100,0.17925244700548487,-10,-1,-100,6382.72104273946,-0.005182834829275882,0.023309714552566918,0.9997148570620576,264.9751477812885,29.014149504835412,1014.3852815815065,-44.66452071970658,131.3247528076172,4381.2578125,True
1599570325.38417,0.0,10,0.5,0.5,-31.778894182205196,-0.15025,-0.00825,-0.12575,0.2167568551624217,10,1,100,0.3740016886312875,-10,-1,-100,6379.083374869195,-0.008102579253753395,0.02293443034604244,0.9997041362894019,263.3791925644186,28.83324629678494,1026.9040913748354,-45.41373977293011,118.70332336425781,4381.2578125,True
1599570325.453984,0.0,10,0.5,0.5,-33.32033487129211,-0.15025,-0.00825,-0.12575,0.2538553894084807,10,1,100,0.08303593135273751,-10,-1,-100,6379.083374869195,-0.008102579253753395,0.02293443034604244,0.9997041362894019,263.3791925644186,28.83324629678494,1026.9040913748354,-45.41373977293011,118.70332336425781,4381.2578125,True
1599570325.5367646,0.0,10,0.5,0.5,-30.45695991287231,-0.15025,-0.00825,-0.12575,0.2401600223719545,10,1,100,0.36457115992689326,-10,-1,-100,6376.357354330132,-0.010653277366250094,0.022813056698964093,0.9996829858137067,256.93350124178875,28.09833865496216,1015.554945445887,-45.97602317402857,108.47703552246094,4381.2578125,True
1599570325.6006277,0.0,10,0.5,0.5,-29.715634827804564,-0.15025,-0.00825,-0.12575,0.25486965615229545,10,1,100,0.3133786182062623,-10,-1,-100,6374.479969123378,-0.012496125489074543,0.02283919872624624,0.9996610514816032,249.76818808339002,27.29701374985116,996.2600769711568,-46.351246779787026,101.29869079589844,4381.2578125,True
1599570325.6803792,0.0,10,0.5,0.5,-28.507308893585204,-0.15025,-0.00825,-0.12575,0.2648815388154236,10,1,100,0.34222537762296135,-10,-1,-100,6372.657779208617,-0.014421701162702442,0.022956489493353025,0.9996324395125017,240.11672951293,26.237169805876125,966.5128908067204,-46.72684759948497,93.83218383789062,4381.2578125,True
1599570325.7521868,0.0,10,0.5,0.5,-27.255201313400267,-0.15025,-0.00825,-0.12575,0.2772562972061781,10,1,100,0.3869877738087402,-10,-1,-100,6370.7682287183125,-0.016566380856836208,0.023177359730346472,0.9995941001332673,232.26622607121826,25.396081995932505,943.4281751026591,-47.10277205367954,86.07794189453125,4381.2578125,True
1599570325.8269875,0.0,10,0.5,0.5,-25.957680030822754,-0.15025,-0.00825,-0.12575,0.29501845707614227,10,1,100,0.4183664222267393,-10,-1,-100,6368.796186335152,-0.018787410806362658,0.023540788196022105,0.9995463293346152,246.2554906702659,26.96894941444969,1009.2961401547166,-47.47822109971753,78.03672790527344,4381.2578125,True
1599570325.8987942,0.0,10,0.5,0.5,-25.771716076278686,-0.15025,-0.00825,-0.12575,0.28471545976430057,10,1,100,0.3252482984263664,-10,-1,-100,6367.869991035666,-0.019944474192643672,0.023778174562185606,0.9995182921606134,253.00264318973137,27.737048095466292,1041.5917007844603,-47.6656762280605,73.90859985351562,4381.2578125,True
1599570325.9755902,0.0,10,0.5,0.5,-22.697553878402708,-0.15025,-0.00825,-0.12575,0.3696467969021239,10,1,100,0.6136789778549941,-10,-1,-100,6364.916163356393,-0.023602813878242875,0.024766177358871457,0.9994146004717253,269.94549048026,29.696881469959976,1126.1436534452114,-48.22700958539279,61.095367431640625,4381.2578125,True
1599570326.0473979,0.0,10,0.5,0.5,-23.027838952636717,-0.15025,-0.00825,-0.12575,0.31795626763410834,10,1,100,0.38931957191607114,-10,-1,-100,6363.943128921441,-0.02487104492755881,0.025193354741092636,0.9993731665404574,275.0514415984174,30.290294246327157,1152.4489390469791,-48.413803413083485,56.68162536621094,4381.2578125,True
1599570326.1241932,0.0,10,0.5,0.5,-21.02586926193237,-0.15025,-0.00825,-0.12575,0.3830095881956255,10,1,100,0.5464401326371562,-10,-1,-100,6362.001971008955,-0.027434452606130175,0.026171379238954295,0.9992809463403837,282.9059549184442,31.205525406874276,1195.6341944013689,-48.78702034460537,47.6402587890625,4381.2578125,True
1599570326.1955113,0.0,10,0.5,0.5,-18.214639149093625,-0.15025,-0.00825,-0.12575,0.5058825655434587,10,1,100,0.7308178864070776,-10,-1,-100,6359.023909694166,-0.03142341019060127,0.028174576804815277,0.9991089843024447,287.79709013845263,31.770030897007658,1232.0233273750648,-49.34637813476579,33.54766845703125,4381.2578125,True
1599570326.2683582,0.0,10,0.5,0.5,-17.22581534500122,-0.15025,-0.00825,-0.12575,0.4840895040858627,10,1,100,0.6261060995345324,-10,-1,-100,6357.080419625621,-0.03407660917679108,0.029792782991020957,0.9989750621455282,285.79056750216876,31.534084873347176,1233.9506628575798,-49.719373928249404,23.7987060546875,4381.2578125,True
1599570326.3451517,0.0,10,0.5,0.5,-15.613565967941286,-0.15025,-0.00825,-0.12575,0.5371291556710412,10,1,100,0.648776167812176,-10,-1,-100,6355.0759400305105,-0.036673405846932634,0.03173971296898951,0.9988231334546834,279.1479055830851,30.778544957834356,1215.6869850199332,-50.09274682095172,13.7685546875,4381.2578125,True
1599570326.4150066,0.0,10,0.5,0.5,-13.95658044281006,-0.15025,-0.00825,-0.12575,0.5863730902787581,10,1,100,0.6646312207409406,-10,-1,-100,6353.070529387682,-0.039156287591542945,0.0339492300688104,0.9986562145802645,267.686636706702,29.507028710425175,1175.9134876100359,-50.46668240053051,3.45672607421875,4381.2578125,True
1599570326.5097125,0.0,10,0.5,0.5,-13.726549300384521,-0.15025,-0.00825,-0.12575,0.4984124621894964,10,1,100,0.550065298711552,-10,-1,-100,6352.037078209454,-0.04034945844416802,0.035148246503676595,0.9985672345771109,260.13770085297045,28.683783135082034,1147.7236659019352,-50.65388961664474,-1.8048095703125,4381.2578125,True
1599570326.5795915,0.0,10,0.5,0.5,-11.353148249053953,-0.15025,-0.00825,-0.12575,0.6668728354042847,10,1,100,0.6772088854793737,-10,-1,-100,6350.03123726591,-0.04256838902845526,0.03775883675844091,0.9983797887087718,261.6858066371462,28.909166241066767,1164.5923379378019,-51.02834967349743,-12.53863525390625,4381.2578125,True
1599570326.650411,0.0,10,0.5,0.5,-8.038506109237671,-0.15025,-0.00825,-0.12575,0.8800391124086293,10,1,100,0.7736906596620305,-10,-1,-100,6346.929505956941,-0.045441086617447723,0.042057050373209406,0.9980813154051783,286.6744595571146,31.826119781699667,1292.2038028623995,-51.588145985243386,-29.16796875,4381.2578125,True
1599570326.7321913,0.0,10,0.5,0.5,-6.887519713211059,-0.15025,-0.00825,-0.12575,0.7869911316336953,10,1,100,0.6584240191966559,-10,-1,-100,6344.861213425873,-0.04698157259191492,0.045102009401580434,0.9978770167634539,298.10348141883264,33.203498075297524,1354.9606483327245,-51.96023401109824,-40.606689453125,4381.2578125,True
1599570326.8049624,0.0,10,0.5,0.5,-5.006960548019409,-0.15025,-0.00825,-0.12575,0.8223228527645015,10,1,100,0.6324605922131114,-10,-1,-100,6342.731388657587,-0.04812472981547681,0.04817286431761351,0.9976789992395471,304.8558104147154,34.034210838232106,1397.0830679338112,-52.331743347946,-52.327972412109375,4381.2578125,True
1599570326.875771,0.0,10,0.5,0.5,-3.077875568389892,-0.15025,-0.00825,-0.12575,0.8490460307439545,10,1,100,0.609273110991585,-10,-1,-100,6340.664031928172,-0.048932028657712,0.05118659812329631,0.9974896434269407,304.8844044254812,34.07350876644063,1408.6886931476442,-52.70313348744966,-64.33197021484375,4381.2578125,True
1599570326.9475796,0.0,10,0.5,0.5,-2.8092180000305174,-0.15025,-0.00825,-0.12575,0.7120038265829912,10,1,100,0.5614803335816956,-10,-1,-100,6339.568082330632,-0.04921191365051628,0.0526577768007407,0.9973992912055117,302.2008939933573,33.77890600261416,1402.028699991816,-52.88893537084853,-70.43988037109375,4381.2578125,True
1599570327.0244176,0.0,10,0.5,0.5,1.683215648651123,-0.15025,-0.00825,-0.12575,1.0153962028239505,10,1,100,0.5742998341504904,-10,-1,-100,6336.40368795651,-0.04956672410054566,0.05673106701879348,0.9971583253911335,283.03291302392387,31.64902340455736,1329.5138857690708,-53.44735368939032,-89.1888427734375,4381.2578125,True
1599570327.1032073,0.0,10,0.5,0.5,4.76945114364624,-0.15025,-0.00825,-0.12575,0.9956890615595748,10,1,100,0.5235967987025598,-10,-1,-100,6333.17715301679,-0.04941426044656959,0.060230412947321885,0.9969606452717749,269.1677006756318,30.202628252255504,1280.2578872459399,-54.00728015842882,-108.57544708251953,4381.2578125,True
1599570327.177043,0.0,10,0.5,0.5,4.230973036003112,-0.15025,-0.00825,-0.12575,0.752821829996867,10,1,100,0.5291587232310767,-10,-1,-100,6332.082081083092,-0.049314637479941824,0.061177851959070065,0.9969078879013326,280.60206763215723,31.54903163696777,1340.1315793566862,-54.193487822752516,-115.09158325195312,4381.2578125,True
1599570327.245827,0.0,10,0.5,0.5,7.0582007966995235,-0.15025,-0.00825,-0.12575,0.8444529104264494,10,1,100,0.5182063528319738,-10,-1,-100,6329.888964031357,-0.04911526927948074,0.06284741668102801,0.9968138705596574,297.8709047408163,33.63292031268724,1434.1360111395722,-54.56499198770135,-127.94966125488281,4381.2578125,True
1599570327.3325942,0.0,10,0.5,0.5,7.290308091545105,-0.15025,-0.00825,-0.12575,0.757854434980485,10,1,100,0.5300615649050577,-10,-1,-100,6328.79238630156,-0.049033831197148416,0.0635527628604107,0.9967731586127999,303.87408530294175,34.37554227559849,1468.8661274516498,-54.750389864498274,-134.27191162109375,4381.2578125,True
1599570327.406396,0.0,10,0.5,0.5,10.02275015621185,-0.15025,-0.00825,-0.12575,0.8210837579808634,10,1,100,0.5220275188529611,-10,-1,-100,6326.599686928443,-0.0488808821198557,0.06474534966339661,0.9967039174499863,311.82898088638035,35.37357883127892,1519.2413456437137,-55.120754450391296,-146.68870544433594,4381.2578125,True
1599570327.478205,0.0,10,0.5,0.5,13.540085360145568,-0.15025,-0.00825,-0.12575,0.8302458477062364,10,1,100,0.5579140067956634,-10,-1,-100,6323.247839096119,-0.049064951216793794,0.06589218548244156,0.9966197120539213,309.0912192587677,35.12381330104662,1523.8300862134336,-55.67630612288464,-164.73867797851562,4381.2578125,True
1599570327.5506246,0.0,10,0.5,0.5,14.5874136346817,-0.15025,-0.00825,-0.12575,0.7671370380586231,10,1,100,0.5881996735015227,-10,-1,-100,6321.054600983043,-0.049505717021677255,0.06634214688833971,0.9965680626672799,298.38444097755433,33.92881913661447,1482.8580931878682,-56.047337862035,-176.3861541748047,4381.2578125,True
1599570327.623434,0.0,10,0.5,0.5,-83.0055453989029,-0.15025,-0.00825,-0.12575,0.7525258283980504,10,1,100,0.6299873512607339,-10,-1,-100,6318.798874546657,-0.05028504574464941,0.06660185600354125,0.9965117194249862,281.63382902908006,32.07371953165924,1410.9559779179299,-56.419170847951655,172.27557373046875,4381.2578125,True
1599570327.701223,0.0,10,0.5,0.5,-36.31255368671417,-0.15025,-0.00825,-0.12575,0.7418878153895825,10,1,100,0.6772200459649964,-10,-1,-100,6316.4801906229695,-0.05142168452003836,0.0667272321192109,0.9964453255722717,276.74563431714085,31.622451027122256,1397.6711892433657,-56.79143136970532,161.2466583251953,4381.2578125,True
1599570327.7756069,0.0,10,0.5,0.5,-36.40062507762909,-0.15025,-0.00825,-0.12575,0.7343445104726789,10,1,100,0.6422347031547018,-10,-1,-100,6315.3826336176135,-0.052134935044053345,0.06675984449301285,0.9964060777169222,286.8844624943351,32.85499349302119,1454.6566293391302,-56.97714493154803,155.8482666015625,4381.2578125,True
1599570327.8454204,0.0,10,0.5,0.5,-34.28247000484466,-0.15025,-0.00825,-0.12575,0.7364932326436731,10,1,100,0.7620153863240795,-10,-1,-100,6313.065492256195,-0.05386992517565812,0.0667999088730471,0.9963110976678528,303.2860018471096,34.90476353277542,1549.9332272964969,-57.34769614351554,144.98175048828125,4381.2578125,True
1599570327.9182053,0.0,10,0.5,0.5,-31.234226271820063,-0.15025,-0.00825,-0.12575,0.7482292081178028,10,1,100,0.9593827914160218,-10,-1,-100,6309.587970451103,-0.057237387464562764,0.06693704945381966,0.9961141063586282,320.08631764564063,37.07456273052079,1654.7045451197093,-57.90181127873704,128.228515625,4381.2578125,True
1599570328.0039778,0.0,10,0.5,0.5,-30.364542913818354,-0.15025,-0.00825,-0.12575,0.7611929373311405,10,1,100,0.9261070548465657,-10,-1,-100,6307.269095125492,-0.05998900762204046,0.06717433915873892,0.9959362063521485,324.3108951366513,37.66081490233947,1689.3073668690688,-58.27064393684584,116.71713256835938,4381.2578125,True
1599570328.0857582,0.0,10,0.5,0.5,-30.39675772666931,-0.15025,-0.00825,-0.12575,0.7586618625225665,10,1,100,0.8201556098185292,-10,-1,-100,6306.110190686537,-0.06151740032099934,0.06736311373542603,0.9958302166361562,323.76369896915713,37.625935762625765,1692.888342165999,-58.45508650372579,110.85774230957031,4381.2578125,True
1599570328.1665418,0.0,10,0.5,0.5,-26.370170626068116,-0.15025,-0.00825,-0.12575,0.8446208187616354,10,1,100,1.2448841566569535,-10,-1,-100,6302.569729960174,-0.06675666813756231,0.06831270808833764,0.9954280090357158,310.68225405548856,36.15604412703582,1643.4335878779145,-59.009266634734225,92.86630249023438,4381.2578125,True
1599570328.2408555,0.0,10,0.5,0.5,-25.425230360794068,-0.15025,-0.00825,-0.12575,0.8655279560741909,10,1,100,1.1511741440912706,-10,-1,-100,6300.188308831188,-0.07065147896018817,0.06936279751343967,0.9950865142498152,292.1641120811666,34.06522877935662,1557.703236344873,-59.37985944693605,80.52935791015625,4381.2578125,True
1599570328.3196445,0.0,10,0.5,0.5,-23.69863763999939,-0.15025,-0.00825,-0.12575,0.9241765835875966,10,1,100,1.2257472531391274,-10,-1,-100,6297.806096747983,-0.07485052931051638,0.07084743850271702,0.994674840698979,294.4475571548335,34.47397079991021,1582.2895217794262,-59.75080953492688,67.91954040527344,4381.2578125,True
