Timestamp,Input Throttle,horizon,dT,dt,Input Roll,Roll P,Roll I,Roll D,Input Pitch,Pitch P,Pitch I,Pitch D,Input Yaw,Yaw P,Yaw I,Yaw D,Altitude,Direction X,Direction Y,Direction Z,Drag X,Drag Y,Drag Z,Vertical Velocity,Roll,Mass,Has Fuel
1599572484.8213012,0.0,10,0.5,0.5,-10.811093261718751,-0.2,-0.00825,-0.001,-0.067176203520569,10,1,100,0.690360533815914,-10,-1,-100,6483.617967502563,-0.06725805076963944,-0.007002589733459796,0.9977110395017655,205.07321209103793,21.498776830829737,-156.7652356927951,9.590824283751036,-35.944549560546875,4381.2578125,True
1599572484.8961005,0.0,10,0.5,0.5,-10.856023206329347,-0.2,-0.00825,-0.001,-0.06907690569088544,10,1,100,0.6894733852220678,-10,-1,-100,6483.776675284607,-0.06735047870099134,-0.006987596546031992,0.9977049095365109,204.84268932045183,21.477782557900866,-153.5132061626733,9.400810355557859,-35.94287109375,4381.2578125,True
1599572484.9738925,0.0,10,0.5,0.5,-10.90129953689575,-0.2,-0.00825,-0.001,-0.06773396550655662,10,1,100,0.7080693869245943,-10,-1,-100,6484.156591914594,-0.0675423309461515,-0.006955405468016424,0.9976921648811,204.38112182445727,21.4356058675614,-147.02546263001713,9.020798207772229,-35.939483642578125,4381.2578125,True
1599572485.0646524,0.0,10,0.5,0.5,-10.916863696289063,-0.2,-0.00825,-0.001,-0.037137098577392176,10,1,100,0.6997803811671922,-10,-1,-100,6484.5389358027605,-0.06757998536127877,-0.006641664420038943,0.9976917529338913,203.94234440551887,21.39559902533367,-140.5757862104902,8.640801344161172,-36.08392333984375,4381.2578125,True
1599572485.1374564,0.0,10,0.5,0.5,-10.735547920227052,-0.2,-0.00825,-0.001,0.03703061612208164,10,1,100,0.6916273887046169,-10,-1,-100,6485.175624314463,-0.06747866218413352,-0.005676155456955072,0.9977045712078642,203.31726763899715,21.34040349201784,-127.89845762830204,7.880820782971239,-37.2080078125,4381.2578125,True
1599572485.2181334,0.0,10,0.5,0.5,-10.780225398254396,-0.2,-0.00825,-0.001,-0.06008789573200095,10,1,100,0.7085075726375547,-10,-1,-100,6485.175624314463,-0.06747866218413352,-0.005676155456955072,0.9977045712078642,203.31726763899715,21.34040349201784,-127.89845762830204,7.880820782971239,-37.2080078125,4381.2578125,True
1599572485.2979512,0.0,10,0.5,0.5,-10.622686781311035,-0.2,-0.00825,-0.001,0.02742343620757541,10,1,100,0.6885959229488561,-10,-1,-100,6485.4939297310775,-0.06723630294861432,-0.00487543775254351,0.997725167404593,203.08598669067854,21.319953589244953,-121.62879723171524,7.500821488767419,-38.208465576171875,4381.2578125,True
1599572485.3797321,0.0,10,0.5,0.5,-10.406227968597413,-0.2,-0.00825,-0.001,0.05599499468319506,10,1,100,0.6746075735095519,-10,-1,-100,6485.750195454573,-0.06682768564601355,-0.0038833389098886896,0.9977569744732975,202.84924651721,21.297717032557372,-115.36478779833246,7.120805454552459,-39.5029296875,4381.2578125,True
1599572485.4585218,0.0,10,0.5,0.5,-9.94822215805054,-0.2,-0.00825,-0.001,0.16620893867340547,10,1,100,0.6258073788179785,-10,-1,-100,6486.165063437773,-0.0659518247958658,-0.0019759556176461323,0.9978208518594371,202.33736233008256,21.245279217431378,-105.90389596620331,6.550731077349365,-41.995269775390625,4381.2578125,True
1599572485.535357,0.0,10,0.5,0.5,-9.7937717086792,-0.2,-0.00825,-0.001,0.05484612686048667,10,1,100,0.677786064555499,-10,-1,-100,6486.26118536992,-0.0655681649617127,-0.0012525636815270272,0.997847306368954,202.08466554012125,21.21841790140636,-102.71631793306153,6.36068805872187,-42.973114013671875,4381.2578125,True
1599572485.6116533,0.0,10,0.5,0.5,-9.155159465789797,-0.2,-0.00825,-0.001,0.2468561648939455,10,1,100,0.5653440943853028,-10,-1,-100,6486.675490502617,-0.06413757614278835,0.0011517498458686274,0.9979404014262678,200.8950931103384,21.090155341321708,-92.99206142659483,5.790481590171295,-46.348175048828125,4381.2578125,True
1599572485.6964283,0.0,10,0.5,0.5,-8.623755765533447,-0.2,-0.00825,-0.001,0.20472221503044155,10,1,100,0.5762736531412618,-10,-1,-100,6486.869144580793,-0.06293923727302662,0.00294704047239707,0.99801300961658,199.59582651391406,20.949607319987372,-86.34379394199057,5.410257866725695,-48.966064453125,4381.2578125,True
1599572485.777735,0.0,10,0.5,0.5,-8.030166721343994,-0.2,-0.00825,-0.001,0.23397286773792736,10,1,100,0.5401123410859985,-10,-1,-100,6487.061801751377,-0.06152510931949354,0.004836006396565135,0.9980938202220055,197.7384412108683,20.749081432046836,-79.54448914779489,5.029942650989603,-51.878814697265625,4381.2578125,True
1599572485.8585188,0.0,10,0.5,0.5,-7.70492851638794,-0.2,-0.00825,-0.001,0.15213327435801025,10,1,100,0.5939187664244648,-10,-1,-100,6487.157878443133,-0.06073415797538284,0.005798532377023601,0.9981371344045334,196.55619917577383,20.62174927804123,-76.08693061965212,4.839743996541684,-53.44598388671875,4381.2578125,True
1599572485.9373095,0.0,10,0.5,0.5,-6.658292957305909,-0.2,-0.00825,-0.001,0.38925463247245207,10,1,100,0.37574713015461847,-10,-1,-100,6487.4475480344845,-0.05803795626681624,0.008817895435937985,0.9982754331107482,191.7475579425488,20.106189315234914,-65.49026618870161,4.268939205116256,-58.58966064453125,4381.2578125,True
1599572486.0210886,0.0,10,0.5,0.5,-5.882354998016358,-0.2,-0.00825,-0.001,0.3158402509184586,10,1,100,0.4152708458710356,-10,-1,-100,6487.578632783145,-0.05595475277092068,0.010882191065466671,0.9983739998417225,187.29080322030885,19.63109201040533,-58.272940931977004,3.888186915709221,-62.38787841796875,4381.2578125,True
1599572486.096886,0.0,10,0.5,0.5,-5.461404663848877,-0.2,-0.00825,-0.001,0.2261978122803624,10,1,100,0.4981575106128243,-10,-1,-100,6487.675177149358,-0.054824922826316624,0.011928839153307856,0.9984247245704321,184.62985853974033,19.34840317840245,-54.635742825071375,3.697733965034815,-64.397705078125,4381.2578125,True
1599572486.1767058,0.0,10,0.5,0.5,-4.14027080078125,-0.2,-0.00825,-0.001,0.44729403536216794,10,1,100,0.20741849849884475,-10,-1,-100,6487.839802231407,-0.05116600583938794,0.014875026463992755,0.998579377633115,174.75543173507742,18.30421231835442,-43.72784033590442,3.1260045736443423,-70.87301635742188,4381.2578125,True
1599572486.2524655,0.0,10,0.5,0.5,-3.1788561775207524,-0.2,-0.00825,-0.001,0.36824295832677045,10,1,100,0.27297796390172957,-10,-1,-100,6487.9694058147725,-0.048449950700212296,0.01681767935031734,0.9986840180649817,166.39715547945363,17.424771681881097,-36.559382092260996,2.744462828452919,-75.55963134765625,4381.2578125,True
1599572486.344223,0.0,10,0.5,0.5,-2.6624980377197267,-0.2,-0.00825,-0.001,0.2794949259600882,10,1,100,0.3847359201657776,-10,-1,-100,6488.003934456152,-0.04701270187981274,0.01775984201185352,0.9987363985925786,161.68737748566042,16.930173289306737,-33.0557905900299,2.553577912811325,-78.01412963867188,4381.2578125,True
1599572486.4220655,0.0,10,0.5,0.5,-1.0660501678466798,-0.2,-0.00825,-0.001,0.4639540003723582,10,1,100,0.0389129102670816,-10,-1,-100,6488.167101280531,-0.042579135101354,0.020275970193640337,0.9988873321284675,145.3534780870046,15.217821481422604,-23.052563429610238,1.98060963856621,-85.82504272460938,4381.2578125,True
1599572486.5008547,0.0,10,0.5,0.5,-0.48811941680908205,-0.2,-0.00825,-0.001,0.30076616556251834,10,1,100,0.3081529315884275,-10,-1,-100,6488.200662232819,-0.04101585498844141,0.021062448023950017,0.9989364709143447,148.01024512576709,15.49595101848368,-21.210790611401062,1.7895620393776217,-88.5771484375,4381.2578125,True
1599572486.5786464,0.0,10,0.5,0.5,0.6929816329956054,-0.2,-0.00825,-0.001,0.38596613758139986,10,1,100,0.10380817550281501,-10,-1,-100,6488.2692545067985,-0.03775694199618311,0.022535504517538146,0.9990328144596838,155.96468781579398,16.328430025496715,-17.580473561130038,1.407464449263005,-94.30438232421875,4381.2578125,True
1599572486.660427,0.0,10,0.5,0.5,1.9335046913146974,-0.2,-0.00825,-0.001,0.37647141638830084,10,1,100,0.07528678662871624,-10,-1,-100,6488.273410631111,-0.034556615892841314,0.023772240684389205,0.9991199732118652,164.76920412165273,17.24855374873621,-13.53335994890402,1.0254434047722043,-100.33049774169922,4381.2578125,True
1599572486.7387295,0.0,10,0.5,0.5,3.8509841512680056,-0.2,-0.00825,-0.001,0.4298585541962797,10,1,100,-0.16663265950716571,-10,-1,-100,6488.311656190781,-0.029471758599552155,0.025365544172228735,0.9992437163244492,176.41566104617962,18.465104473497348,-6.396337453069167,0.45257942467576084,-109.7077407836914,4381.2578125,True
1599572486.816596,0.0,10,0.5,0.5,5.116236943054201,-0.2,-0.00825,-0.001,0.3634591102076754,10,1,100,-0.030363255814053747,-10,-1,-100,6488.318297929945,-0.02611394309165145,0.026195327262426186,0.9993156992691651,183.10101991193764,19.164171177976478,-1.0366132700671307,0.07065928186258263,-115.83937072753906,4381.2578125,True
1599572486.8923936,0.0,10,0.5,0.5,6.333308125686646,-0.2,-0.00825,-0.001,0.3563176363942786,10,1,100,-0.060683313576222364,-10,-1,-100,6488.3220327742165,-0.022812874659066795,0.026870832004123026,0.9993785724825183,187.4822428826044,19.622021346006495,4.67801868587136,-0.31137660988065097,-121.70556640625,4381.2578125,True
1599572486.9773276,0.0,10,0.5,0.5,7.495460921096803,-0.2,-0.00825,-0.001,0.34854721623959695,10,1,100,-0.09008237446939427,-10,-1,-100,6488.327746372903,-0.019573741028749408,0.02740070341075867,0.9994328742415546,190.4086584008428,19.927623200290107,10.583821009617836,-0.6935525809096408,-127.28138732910156,4381.2578125,True
1599572487.0626237,0.0,10,0.5,0.5,8.597986993408204,-0.2,-0.00825,-0.001,0.33990715051132936,10,1,100,-0.1166344794129699,-10,-1,-100,6488.268542150967,-0.01641641156061986,0.02779247165840067,0.999478904204881,191.90817785762363,20.08380292356302,16.54947550867184,-1.0758514176257528,-132.56280517578125,4381.2578125,True
1599572487.1434052,0.0,10,0.5,0.5,9.148250680541992,-0.2,-0.00825,-0.001,0.3188716651350798,10,1,100,0.027358925649957705,-10,-1,-100,6488.241634676582,-0.014884264398473785,0.027947415841647418,0.9994985745968278,192.0684997620147,20.100140934885147,19.508231332613946,-1.2670442342223618,-135.09274291992188,4381.2578125,True
1599572487.226002,0.0,10,0.5,0.5,10.165269552612305,-0.2,-0.00825,-0.001,0.3309166139765499,10,1,100,-0.14995838795452424,-10,-1,-100,6488.18295218877,-0.011908635434192372,0.02818851229422165,0.999531686429567,191.3737342315251,20.026340992452454,25.308681103809224,-1.6495038011221501,-139.93084716796875,4381.2578125,True
1599572487.3017983,0.0,10,0.5,0.5,11.55231711959839,-0.2,-0.00825,-0.001,0.32887409144002133,10,1,100,-0.32350750435406317,-10,-1,-100,6488.033442695276,-0.007653681226365426,0.0283819292806838,0.9995678502502927,188.26774707265963,19.69912871356484,33.566722460495505,-2.2233184126100025,-146.63357543945312,4381.2578125,True
1599572487.3835804,0.0,10,0.5,0.5,12.417311602783204,-0.2,-0.00825,-0.001,0.3154858949124441,10,1,100,-0.1960054648992272,-10,-1,-100,6487.974806362763,-0.004974979735895871,0.02842939795334711,0.9995834226859895,185.16380364396846,19.37226701113013,38.69993770713019,-2.6058967830319806,-150.73208618164062,4381.2578125,True
1599572487.4603753,0.0,10,0.5,0.5,13.223873262786865,-0.2,-0.00825,-0.001,0.3171057650597655,10,1,100,-0.20927953145566264,-10,-1,-100,6487.853688613512,-0.002448925014283488,0.028481919299438673,0.9995913080050741,181.4939319768845,18.98579290627391,43.50842097527474,-2.9884672472467484,-154.5336151123047,4381.2578125,True
1599572487.5401676,0.0,10,0.5,0.5,13.624458342552185,-0.2,-0.00825,-0.001,0.31546042952628117,10,1,100,-0.0929590374137092,-10,-1,-100,6487.76091101917,-0.001239159477634132,0.0285104268559311,0.9995927270865278,179.54014248834991,18.780085095470056,45.7982248809496,-3.179739386901898,-156.32301330566406,4381.2578125,True
1599572488.2283323,0.0,10,0.5,0.5,14.335867129516602,-0.2,-0.00825,-0.001,0.3140383834088779,10,1,100,-0.2318627458491504,-10,-1,-100,6487.640795987449,0.0010977223604402768,0.028520556140144454,0.9995926034555659,175.49790506768807,18.354433850174242,50.16003153943596,-3.5622533259807185,-159.679931640625,4381.2578125,True
1599572488.2931607,0.0,10,0.5,0.5,14.98363697166443,-0.2,-0.00825,-0.001,0.31894047973447515,10,1,100,-0.24056768199481496,-10,-1,-100,6487.518742423272,0.003276558300512061,0.02857221524795501,0.9995863607920669,171.27146319631035,17.90911603183593,54.21632072130188,-3.9447425277504102,-162.7394256591797,4381.2578125,True
1599572488.3699534,0.0,10,0.5,0.5,15.29959548110962,-0.2,-0.00825,-0.001,0.315011072614923,10,1,100,-0.14020491251000694,-10,-1,-100,6487.426957784453,0.004321211766206721,0.028581909478292464,0.9995821134751494,169.1300136949346,17.68336363385562,56.138278128803215,-4.135988671026056,-164.1581573486328,4381.2578125,True
1599572488.4417632,0.0,10,0.5,0.5,15.853921755218506,-0.2,-0.00825,-0.001,0.3258109029721,10,1,100,-0.2543862420624519,-10,-1,-100,6487.243398592807,0.006287186137501405,0.028687828867239456,0.9995686468499082,164.8670611399597,17.233831381736973,59.793515087278735,-4.518510242972058,-166.77169799804688,4381.2578125,True
1599572488.5178313,0.0,10,0.5,0.5,16.345204882812503,-0.2,-0.00825,-0.001,0.32756565765585144,10,1,100,-0.2621916459677539,-10,-1,-100,6487.058872562135,0.008124754149001026,0.028799257575035517,0.9995521953020488,160.76650844851872,16.801479353711855,63.25307718847047,-4.9011047901608675,-169.08848571777344,4381.2578125,True
1599572488.5966587,0.0,10,0.5,0.5,16.776808224868777,-0.2,-0.00825,-0.001,0.33461285004670077,10,1,100,-0.267441936564284,-10,-1,-100,6486.812831606367,0.009822083148016887,0.028963847384100214,0.9995322016960455,156.9767324413398,16.402266454247727,66.59530746083665,-5.283805819574306,-171.10775756835938,4381.2578125,True
1599572488.669466,0.0,10,0.5,0.5,17.1465460521698,-0.2,-0.00825,-0.001,0.34385943299748545,10,1,100,-0.2713875058544324,-10,-1,-100,6486.62832191959,0.011381223123776102,0.029196829478175364,0.9995088858577642,153.57534014549952,16.044673184339487,69.88445218331017,-5.666633353332032,-172.82933044433594,4381.2578125,True
1599572488.7462673,0.0,10,0.5,0.5,17.45264076538086,-0.2,-0.00825,-0.001,0.3531709792379958,10,1,100,-0.27381638975482214,-10,-1,-100,6486.381320257322,0.012803399405969711,0.029492540983886966,0.9994829978493706,150.67607093194493,15.740793781055993,73.21169074944817,-6.049591051073989,-174.25323486328125,4381.2578125,True
1599572488.8240604,0.0,10,0.5,0.5,17.69694309768677,-0.2,-0.00825,-0.001,0.365078255317106,10,1,100,-0.2743839812126935,-10,-1,-100,6486.134325382649,0.014085284694724672,0.029868651096134388,0.9994545854798835,149.99812815268885,15.670253505979185,77.51167696038073,-6.432661558513098,-175.37921142578125,4381.2578125,True
1599572488.9018526,0.0,10,0.5,0.5,17.803715620040894,-0.2,-0.00825,-0.001,0.35182086084389197,10,1,100,-0.21256352356555014,-10,-1,-100,6485.98006887245,0.014673599697065144,0.030088786946787648,0.9994395181160293,150.90889539854925,15.7659757679828,80.31248188370071,-6.624229591147774,-175.83045959472656,4381.2578125,True
1599572489.0539787,0.0,10,0.5,0.5,18.00158480644226,-0.2,-0.00825,-0.001,0.4174379473811735,10,1,100,-0.32547413904970734,-10,-1,-100,6485.577852488728,0.016220425513435457,0.030883994543092392,0.9993913531130962,153.03386335256528,15.991095164118569,88.53828762650774,-7.1990601838903565,-176.737060546875,4381.2578125,True
1599572489.2800488,0.0,10,0.5,0.5,18.06139045829773,-0.2,-0.00825,-0.001,0.40750754626991376,10,1,100,-0.26620704277891805,-10,-1,-100,6485.267885001958,0.017074091104807662,0.03151448558562803,0.9993574498702743,153.9971649603462,16.0946522024106,93.86051448961373,-7.582381091514371,-176.96910095214844,4381.2578125,True
1599572489.5608127,0.0,10,0.5,0.5,18.030435055160524,-0.2,-0.00825,-0.001,0.4707530299353645,10,1,100,-0.28990500727883917,-10,-1,-100,6484.8026952083455,0.018053043562595954,0.032659943411857545,0.9993034652769203,154.56002810945742,16.15830572948155,101.38516099390297,-8.157503541900416,-176.75784301757812,4381.2578125,True
1599572489.8081524,0.0,10,0.5,0.5,17.86382883453369,-0.2,-0.00825,-0.001,0.5042781737098065,10,1,100,-0.26222825905868946,-10,-1,-100,6484.274036891991,0.018678910056950868,0.034002335439166975,0.9992471863877159,154.04437363219446,16.10871450825418,108.21455132227034,-8.73278578241174,-175.87619018554688,4381.2578125,True
1599572489.9487765,0.0,10,0.5,0.5,17.67918980255127,-0.2,-0.00825,-0.001,0.48242647755317747,10,1,100,-0.22043272067950614,-10,-1,-100,6483.9030461194925,0.018856654953899623,0.03501920867477717,0.9992087277379748,153.08248317821452,16.01001639551115,112.29309844358825,-9.116391095971865,-174.91583251953125,4381.2578125,True
1599572490.0749648,0.0,10,0.5,0.5,17.432073001480102,-0.2,-0.00825,-0.001,0.5024592433477071,10,1,100,-0.202985910538005,-10,-1,-100,6483.5276623276295,0.0188498775854713,0.03612010044064603,0.9991696655018959,153.95940125435277,16.102258104607213,117.7224910698038,-9.500050498062095,-173.65769958496094,4381.2578125,True
1599572490.2145922,0.0,10,0.5,0.5,17.122737158966064,-0.2,-0.00825,-0.001,0.5224441902441177,10,1,100,-0.18169423014482916,-10,-1,-100,6483.155697076581,0.01864194852474627,0.0372960867877155,0.9991303616973735,157.37356637825397,16.45804717347766,125.23009452203276,-9.883732102971457,-172.10198974609375,4381.2578125,True
1599572490.3387773,0.0,10,0.5,0.5,16.542683321762084,-0.2,-0.00825,-0.001,0.610083830134727,10,1,100,-0.12743617300645954,-10,-1,-100,6482.501069611288,0.017953066381555634,0.03915452632286644,0.9990718745295212,163.36760749459577,17.07871168996906,137.6342990797292,-10.459255253602668,-169.21139526367188,4381.2578125,True
1599572490.5116794,0.0,10,0.5,0.5,16.317902496719363,-0.2,-0.00825,-0.001,0.4960303357723147,10,1,100,-0.15990739180279306,-10,-1,-100,6482.282859783154,0.017617321270462102,0.03979838323758265,0.9990524103784185,165.56159859541415,17.30478178156569,142.06409222155497,-10.651086078047994,-168.09939575195312,4381.2578125,True
1599572490.668002,0.0,10,0.5,0.5,15.553235027694702,-0.2,-0.00825,-0.001,0.6440042244325876,10,1,100,-0.04342342654678158,-10,-1,-100,6481.629202752607,0.016249942361162662,0.04171989784592582,0.9989971919364862,172.88027454737153,18.05572786296798,156.43771828614024,-11.226505058872927,-164.31942749023438,4381.2578125,True
1599572490.9728544,0.0,10,0.5,0.5,14.966625450134279,-0.2,-0.00825,-0.001,0.5947609481549877,10,1,100,-0.05107940586143142,-10,-1,-100,6481.191797978245,0.015075037398601717,0.04300848942289676,0.9989609667474456,178.06278489240287,18.584524196393247,166.69066442066458,-11.610027434500264,-161.42941284179688,4381.2578125,True
1599572491.1239095,0.0,10,0.5,0.5,13.974441495513917,-0.2,-0.00825,-0.001,0.6674104089610371,10,1,100,0.07551786369376065,-10,-1,-100,6480.476113227778,0.012857098971330779,0.044829363686670974,0.9989119196192873,185.93668059193573,19.383672419193413,182.78401128163128,-12.18511787828519,-156.5416259765625,4381.2578125,True
1599572491.284996,0.0,10,0.5,0.5,13.23351424369812,-0.2,-0.00825,-0.001,0.6111630977052258,10,1,100,0.04735497430921101,-10,-1,-100,6479.975706447847,0.011100651206519901,0.04596126029859375,0.9988815435748906,191.01846901940635,19.89704330867518,193.7584918943225,-12.568348225156004,-152.91494750976562,4381.2578125,True
1599572491.5637667,0.0,10,0.5,0.5,12.013516233444214,-0.2,-0.00825,-0.001,0.6580397848002186,10,1,100,0.20776672482192007,-10,-1,-100,6479.195051762508,0.0080519122269,0.04740431681312645,0.9988433297854931,197.96670510942783,20.596760961224557,210.10767845820655,-13.142900912010152,-146.9251251220703,4381.2578125,True
1599572491.6834455,0.0,10,0.5,0.5,10.659199613189697,-0.2,-0.00825,-0.001,0.6377357330647893,10,1,100,0.2887033968010555,-10,-1,-100,6478.352361409459,0.004554204316371632,0.048519420463857765,0.9988118566881833,203.49428029834692,21.153209895972914,225.54304168809048,-13.717079507566417,-140.27626037597656,4381.2578125,True
1599572491.8081505,0.0,10,0.5,0.5,9.673040682601929,-0.2,-0.00825,-0.001,0.5796389882933908,10,1,100,0.22092941785406656,-10,-1,-100,6477.789905171958,0.002003599161443495,0.0489927259104289,0.9987971257458974,206.03192530252093,21.410624858290735,234.8191410549941,-14.099668800043954,-135.47909545898438,4381.2578125,True
1599572491.9398286,0.0,10,0.5,0.5,8.62355793685913,-0.2,-0.00825,-0.001,0.5598537974573832,10,1,100,0.26050814100566094,-10,-1,-100,6477.225481543108,-0.0006596245731201895,0.04923143583110279,0.9987871798443504,207.37711650099502,21.550797526128292,242.86273607678308,-14.482130777166654,-130.390625,4381.2578125,True
1599572492.0535243,0.0,10,0.5,0.5,7.512881153106689,-0.2,-0.00825,-0.001,0.5381968857337553,10,1,100,0.3005249794837497,-10,-1,-100,6476.6634855292505,-0.0034269796151626493,0.04924071351691572,0.998781061065468,207.70597865923995,21.593127926242904,249.77489655298578,-14.864509210081291,-125.01075744628906,4381.2578125,True
1599572492.1672635,0.0,10,0.5,0.5,5.750091980361939,-0.2,-0.00825,-0.001,0.4868757234719735,10,1,100,0.49388692377903487,-10,-1,-100,6475.756260305177,-0.007681156377888643,0.0487734224950985,0.9987803327533102,205.58633842552922,21.399473269795788,256.93263575550543,-15.43804528439476,-116.39531707763672,4381.2578125,True
1599572492.2689486,0.0,10,0.5,0.5,5.71605155582428,-0.2,-0.00825,-0.001,0.5345023295794468,10,1,100,0.07099909527127056,-10,-1,-100,6475.756260305177,-0.007681156377888643,0.0487734224950985,0.9987803327533102,205.58633842552922,21.399473269795788,256.93263575550543,-15.43804528439476,-116.39531707763672,4381.2578125,True
1599572492.3746665,0.0,10,0.5,0.5,3.813160496520996,-0.2,-0.00825,-0.001,0.41959213656439986,10,1,100,0.537092502827204,-10,-1,-100,6474.786998361815,-0.011896613629543445,0.04772237208164428,0.9987897905901173,199.08242885617028,20.76128268119098,258.22979323621576,-16.01176909360529,-107.1249008178711,4381.2578125,True
1599572492.46447,0.0,10,0.5,0.5,2.4621295301437383,-0.2,-0.00825,-0.001,0.41532045347087826,10,1,100,0.4259782835146874,-10,-1,-100,6474.161479767761,-0.014694198545453892,0.04672375287523684,0.9987997654416828,193.15434533687363,20.170722424658987,256.65418811414605,-16.39446199023827,-100.58012390136719,4381.2578125,True
1599572492.5532744,0.0,10,0.5,0.5,1.0484182229995729,-0.2,-0.00825,-0.001,0.3778526916056576,10,1,100,0.454938141509025,-10,-1,-100,6473.472966918023,-0.017475682362123927,0.045473579044102104,0.9988126721937891,184.7963208668077,19.32155138053592,251.41182500683325,-16.77737760899153,-93.74386596679688,4381.2578125,True
1599572492.648021,0.0,10,0.5,0.5,0.2973441003799438,-0.2,-0.00825,-0.001,0.4266873626545392,10,1,100,0.31705194918514756,-10,-1,-100,6473.129684499116,-0.01872481468927176,0.044781452281018985,0.9988213067643557,179.61732903518603,18.788828257962834,247.220391461108,-16.968926063334536,-90.21603393554688,4381.2578125,True
1599572492.7826912,0.0,10,0.5,0.5,-1.9612989015579225,-0.2,-0.00825,-0.001,0.23682017760890206,10,1,100,0.6033510487703607,-10,-1,-100,6472.096897665877,-0.022438766140257027,0.04242856523646682,0.9988474951793581,177.52738767427596,18.577128350002152,252.8217906045907,-17.543741626309213,-79.1942138671875,4381.2578125,True
1599572492.8978627,0.0,10,0.5,0.5,-4.326854645347595,-0.2,-0.00825,-0.001,0.17079178573381143,10,1,100,0.6029251757867171,-10,-1,-100,6471.001598561765,-0.025786675004522665,0.03969485604730711,0.9988790546385456,197.9311910297662,20.69195197700774,291.3391235517231,-18.11794619365311,-67.62115478515625,4381.2578125,True
1599572492.9839709,0.0,10,0.5,0.5,-4.371264387321472,-0.2,-0.00825,-0.001,0.4432329176634703,10,1,100,0.2709133167767499,-10,-1,-100,6471.001598561765,-0.025786675004522665,0.03969485604730711,0.9988790546385456,197.9311910297662,20.69195197700774,291.3391235517231,-18.11794619365311,-67.62115478515625,4381.2578125,True
1599572493.083987,0.0,10,0.5,0.5,-5.990233343315124,-0.2,-0.00825,-0.001,0.23208946244057319,10,1,100,0.48694385012682084,-10,-1,-100,6470.249583435012,-0.027727746170949308,0.03778403970872059,0.9989011654991544,208.78944875866455,21.807931369745692,313.9710261694363,-18.500235122738985,-59.82421875,4381.2578125,True
1599572493.173024,0.0,10,0.5,0.5,-7.559068786811829,-0.2,-0.00825,-0.001,0.2130277173983349,10,1,100,0.48628404145989346,-10,-1,-100,6469.500011781231,-0.02946426645567802,0.03588406051308358,0.9989215140356735,217.0328968865442,22.653478335818214,333.2764546095201,-18.882127744204087,-52.247833251953125,4381.2578125,True
1599572493.256279,0.0,10,0.5,0.5,-9.779480908966066,-0.2,-0.00825,-0.001,0.06723260934415942,10,1,100,0.5595629714161328,-10,-1,-100,6468.341713576694,-0.03168929052314467,0.03284311422745017,0.998958016492176,223.9106100977327,23.36666187386345,354.5332666288474,-19.454438491775576,-41.426605224609375,4381.2578125,True
1599572493.354019,0.0,10,0.5,0.5,-11.206133288383485,-0.2,-0.00825,-0.001,0.16005654046044798,10,1,100,0.4744791595868717,-10,-1,-100,6467.591652533971,-0.03291672490044356,0.030936953621811192,0.9989791760204165,225.44713535163277,23.5400306588392,364.15654123658595,-19.835812615095513,-34.58270263671875,4381.2578125,True
1599572494.1778164,0.0,10,0.5,0.5,-11.92448914680481,-0.2,-0.00825,-0.001,0.2459091745054212,10,1,100,0.41375707083713265,-10,-1,-100,6467.183908959152,-0.0334614461536532,0.029999818306602637,0.9989896608688585,225.2548576025622,23.53113929988112,367.44389973110464,-20.026499829882653,-31.272491455078125,4381.2578125,True
1599572494.2526186,0.0,10,0.5,0.5,-13.26440686569214,-0.2,-0.00825,-0.001,0.14682388327889745,10,1,100,0.47139061299070273,-10,-1,-100,6466.370381738176,-0.0344635274510506,0.02826230531305249,0.9990062599273452,223.1608326043633,23.342077337783767,371.17198040380606,-20.40794595809523,-24.874237060546875,4381.2578125,True
1599572494.331426,0.0,10,0.5,0.5,-14.541086766815187,-0.2,-0.00825,-0.001,0.13633958495804266,10,1,100,0.46479333100089243,-10,-1,-100,6465.557839145069,-0.035299091662332756,0.026603082855754634,0.999022647446185,219.06793977405073,22.949966518123425,371.39983398939466,-20.789553374015053,-18.7734375,4381.2578125,True
1599572494.4042234,0.0,10,0.5,0.5,-16.321644035339354,-0.2,-0.00825,-0.001,0.05674302676191628,10,1,100,0.495101417359874,-10,-1,-100,6464.275070285425,-0.03631915602405904,0.024387619519542037,0.9990426231747424,211.0295910551021,22.162963473301556,367.9815827004148,-21.36235645900476,-10.177825927734375,4381.2578125,True
1599572494.4810166,0.0,10,0.5,0.5,-16.916155126190187,-0.2,-0.00825,-0.001,0.2044412584856859,10,1,100,0.4275197957461524,-10,-1,-100,6463.806794226519,-0.03661949034742746,0.023732673998398422,0.9990474328637156,207.84510879030773,21.845185646304465,365.7918802333745,-21.553398459505612,-7.4605712890625,4381.2578125,True
1599572494.5586286,0.0,10,0.5,0.5,-18.010750955963132,-0.2,-0.00825,-0.001,0.1359906105362891,10,1,100,0.45781855547123473,-10,-1,-100,6462.9298177682795,-0.03715811680676959,0.022529501436045082,0.9990554018273549,200.77808915078668,21.129431047341413,359.86704245017665,-21.935634023128348,-2.24822998046875,4381.2578125,True
1599572494.648428,0.0,10,0.5,0.5,-19.519487726593017,-0.2,-0.00825,-0.001,0.09058177687071375,10,1,100,0.4849221325191124,-10,-1,-100,6461.58507566317,-0.037883835704968366,0.02103850548659251,0.9990606569569085,190.31178948287155,20.048145267830737,350.39566134189175,-22.50926513790278,5.015533447265625,4381.2578125,True
1599572494.7252207,0.0,10,0.5,0.5,-20.46471453094483,-0.2,-0.00825,-0.001,0.15135878779892434,10,1,100,0.4606984859256711,-10,-1,-100,6460.708610907197,-0.03831413238017777,0.020250796117548563,0.9990605249515965,195.68812718085692,20.613182600439362,366.6740316157424,-22.891641743398644,9.4881591796875,4381.2578125,True
1599572494.805528,0.0,10,0.5,0.5,-21.350720821380616,-0.2,-0.00825,-0.001,0.16110497196388238,10,1,100,0.46689158217708715,-10,-1,-100,6459.770144483773,-0.038753566718176924,0.019637510423913263,0.9990558188864977,204.36712644960426,21.515590775951992,389.6045796267658,-23.273743873622095,13.665008544921875,4381.2578125,True
1599572494.882325,0.0,10,0.5,0.5,-21.78946763687134,-0.2,-0.00825,-0.001,0.1943429590959989,10,1,100,0.4479658886428777,-10,-1,-100,6459.301404166035,-0.03897457865132422,0.019394146588903628,0.9990519752730785,208.22760205644596,21.91301493605667,400.36241691764457,-23.464684120478644,15.642486572265625,4381.2578125,True
1599572494.9670975,0.0,10,0.5,0.5,-22.932180883789066,-0.2,-0.00825,-0.001,0.1653985940976892,10,1,100,0.4973694296226469,-10,-1,-100,6457.892268065945,-0.03961911455059159,0.018920269608940152,0.9990357096521386,218.08113258864898,22.913651713670088,429.9876079327807,-24.037052131879562,21.131317138671875,4381.2578125,True
1599572495.042926,0.0,10,0.5,0.5,-23.631127969360353,-0.2,-0.00825,-0.001,0.2009186624389565,10,1,100,0.4834355963389406,-10,-1,-100,6456.892311682575,-0.04007278718516738,0.018822454383619115,0.9990194627424376,223.3691127110881,23.440830029987314,447.70762000885685,-24.41826374485936,24.420883178710938,4381.2578125,True
1599572495.1256742,0.0,10,0.5,0.5,-23.976818721389773,-0.2,-0.00825,-0.001,0.21147367006115236,10,1,100,0.46424860284566205,-10,-1,-100,6456.423099371721,-0.04030569031235728,0.018838067748919437,0.9990097990169725,225.67573856214068,23.668223285532918,456.0158933101601,-24.60876556844362,25.95477294921875,4381.2578125,True
1599572495.202467,0.0,10,0.5,0.5,-24.84806417579651,-0.2,-0.00825,-0.001,0.24540998599033487,10,1,100,0.5260730769880396,-10,-1,-100,6454.889017063775,-0.04107490964868787,0.01916783278500942,0.9989721948000745,231.43973563750203,24.228696408735292,479.003539012475,-25.17988919885642,30.113372802734375,4381.2578125,True
1599572495.2922268,0.0,10,0.5,0.5,-25.126064882278442,-0.2,-0.00825,-0.001,0.23378221659068762,10,1,100,0.4793754530558735,-10,-1,-100,6454.419330397272,-0.04134535268812814,0.01936665744758037,0.9989572034829133,233.12901760460048,24.391606947345068,486.3090772465323,-25.37014558015201,31.351776123046875,4381.2578125,True
1599572495.37002,0.0,10,0.5,0.5,-25.61013638420105,-0.2,-0.00825,-0.001,0.2718123136113625,10,1,100,0.5154690284311587,-10,-1,-100,6453.354968344327,-0.04191503717072125,0.019897104401515386,0.9989230375236183,236.2523615321063,24.69206284124621,500.5482690082276,-25.75049465921054,33.60694885253906,4381.2578125,True
1599572495.4508057,0.0,10,0.5,0.5,-26.031462954711913,-0.2,-0.00825,-0.001,0.3004787834950056,10,1,100,0.5273089570636518,-10,-1,-100,6452.353122800239,-0.04253624339667952,0.020642326264975364,0.9988816558351988,238.89805522137848,24.944936062519975,513.9695142489686,-26.13064397163648,35.56715393066406,4381.2578125,True
1599572495.5315893,0.0,10,0.5,0.5,-26.53439230003357,-0.2,-0.00825,-0.001,0.38576116646776143,10,1,100,0.5771736323485221,-10,-1,-100,6450.7576177166775,-0.04355006209769339,0.022095455239892776,0.9988068797064971,242.1796828125184,25.257767048354456,532.9276012728933,-26.700536041410082,37.953643798828125,4381.2578125,True
1599572495.60938,0.0,10,0.5,0.5,-26.801197735977173,-0.2,-0.00825,-0.001,0.3763712811110194,10,1,100,0.5575968769389512,-10,-1,-100,6449.6933241238585,-0.04428898502242125,0.023329442023736092,0.9987463256205475,244.02669717325924,25.434415859868015,544.9951301822621,-27.08026709629426,39.17607116699219,4381.2578125,True
1599572495.6887436,0.0,10,0.5,0.5,-26.921656884002683,-0.2,-0.00825,-0.001,0.32975621521870835,10,1,100,0.5269772466440422,-10,-1,-100,6449.098686954239,-0.044677340661943545,0.024024118563118257,0.998712559728094,244.8747119680638,25.51592619747415,550.9081185139125,-27.270078784736587,39.67674255371094,4381.2578125,True
1599572495.76957,0.0,10,0.5,0.5,-27.097926780319217,-0.2,-0.00825,-0.001,0.43562197936867836,10,1,100,0.5769106978142,-10,-1,-100,6448.033944972325,-0.04547914737941014,0.025613849662125213,0.9986368598540352,246.45470311152485,25.668820902467825,562.5606896571122,-27.649601560243244,40.457550048828125,4381.2578125,True
1599572495.846934,0.0,10,0.5,0.5,-27.237491375350952,-0.2,-0.00825,-0.001,0.5838430084047741,10,1,100,0.6396295942049746,-10,-1,-100,6446.315552095883,-0.04677290705990607,0.028400438579684058,0.9985017327244089,248.62052822804503,25.881195614197136,579.7799266169736,-28.218651472708643,41.07646179199219,4381.2578125,True
1599572495.9275224,0.0,10,0.5,0.5,-27.2625010723114,-0.2,-0.00825,-0.001,0.42085306209307904,10,1,100,0.5609159190693198,-10,-1,-100,6445.787368610385,-0.047227382341055744,0.029443267188998447,0.9984501331435882,249.30576541773317,25.949117631096225,585.4872449765028,-28.408276042494464,41.13560485839844,4381.2578125,True
1599572496.0132952,0.0,10,0.5,0.5,-27.254539785003665,-0.2,-0.00825,-0.001,0.5720530262775549,10,1,100,0.6171591557991912,-10,-1,-100,6444.594312266912,-0.04814555139234637,0.03175619723601578,0.9983353894449671,250.63950313530916,26.082219293025968,596.8921676086368,-28.78744140880222,41.03398132324219,4381.2578125,True
1599572496.096073,0.0,10,0.5,0.5,-27.122414796066284,-0.2,-0.00825,-0.001,0.7805823681581046,10,1,100,0.6810334067062369,-10,-1,-100,6442.867799518979,-0.04955449768199858,0.0357431382372629,0.9981316445381525,252.56634535473543,26.276006694495486,614.0119626404992,-29.355990055630066,40.33131408691406,4381.2578125,True
1599572496.1771984,0.0,10,0.5,0.5,-27.053914574432373,-0.2,-0.00825,-0.001,0.5425764570803356,10,1,100,0.5944854438473484,-10,-1,-100,6442.279625387164,-0.0500410954238799,0.037189052246062664,0.9980545391719923,253.18839847442035,26.33874745196088,619.7190514520554,-29.54545544863622,39.950164794921875,4381.2578125,True
1599572496.2547266,0.0,10,0.5,0.5,-26.862307441329957,-0.2,-0.00825,-0.001,0.7489306172286467,10,1,100,0.6496974183521236,-10,-1,-100,6441.091111577931,-0.05097799672267618,0.040363746484642964,0.9978837666882181,254.39373833554387,26.460196942830752,631.1109038763822,-29.924314289532887,38.968963623046875,4381.2578125,True
1599572496.339499,0.0,10,0.5,0.5,-26.61017100219727,-0.2,-0.00825,-0.001,0.8221312777007541,10,1,100,0.6533431895988604,-10,-1,-100,6439.899242503219,-0.05185519422989223,0.04389736414198997,0.9976893605991625,255.52876696780777,26.57394155846289,642.4229663133963,-30.30308274264887,37.695709228515625,4381.2578125,True
1599572496.4172907,0.0,10,0.5,0.5,-26.296291793823244,-0.2,-0.00825,-0.001,0.884028350692937,10,1,100,0.6656552820112889,-10,-1,-100,6438.650801588083,-0.052757024501899626,0.04765262457686882,0.9974697608131496,256.5569663576481,26.675789280414445,653.5566368627888,-30.681768427812884,36.12884521484375,4381.2578125,True
1599572496.4996524,0.0,10,0.5,0.5,-25.713231079483034,-0.2,-0.00825,-0.001,1.2132020909127041,10,1,100,0.6994265858606379,-10,-1,-100,6436.79928310879,-0.053876183839191814,0.05403687426279918,0.9970844362614594,257.8064944730323,26.79590858454843,669.6630902325979,-31.24966473699282,33.232757568359375,4381.2578125,True
1599572496.5774436,0.0,10,0.5,0.5,-25.249457974243164,-0.2,-0.00825,-0.001,1.092962022332055,10,1,100,0.6553042934569208,-10,-1,-100,6435.549584924127,-0.05448412708471706,0.05872036175773025,0.996786536331053,258.36161578597,26.845348549340223,679.767403890761,-31.62819360707102,30.937469482421875,4381.2578125,True
1599572496.6612208,0.0,10,0.5,0.5,-24.991284373474123,-0.2,-0.00825,-0.001,0.9004543906652681,10,1,100,0.6226611992450356,-10,-1,-100,6434.884488971205,-0.05473186101535441,0.06119791145424625,0.9966239205555094,258.5297811870845,26.858174709043876,684.553204417774,-31.817443429128932,29.680679321289062,4381.2578125,True
1599572496.7420037,0.0,10,0.5,0.5,-24.13769198074341,-0.2,-0.00825,-0.001,1.5375799737254887,10,1,100,0.644178953878073,-10,-1,-100,6432.977738712449,-0.055145454218092846,0.06921246423083138,0.9960766103438913,258.48183879669665,26.837639689843506,697.4953616224556,-32.38516361231128,25.474472045898438,4381.2578125,True
1599572496.8187985,0.0,10,0.5,0.5,-23.49228657608032,-0.2,-0.00825,-0.001,1.3749771080707989,10,1,100,0.6047127169546062,-10,-1,-100,6431.6619567655725,-0.05515546581957169,0.07498405961537356,0.9956582071141804,257.8857054730001,26.764843314173124,704.6175700604127,-32.76364590304316,22.306854248046875,4381.2578125,True
1599572496.895594,0.0,10,0.5,0.5,-22.784975413894653,-0.2,-0.00825,-0.001,1.4756838540392538,10,1,100,0.5758412836677536,-10,-1,-100,6430.351182438899,-0.05489572705064723,0.0811071823261439,0.9951924859677621,256.7392409650934,26.63574967210986,710.2111167842586,-33.14215663140685,18.8489990234375,4381.2578125,True
1599572496.9773757,0.0,10,0.5,0.5,-22.017331468200684,-0.2,-0.00825,-0.001,1.5764245182162286,10,1,100,0.540359634369604,-10,-1,-100,6428.973158118897,-0.05433218478585213,0.08754824169746318,0.9946774950063355,254.95209160080134,26.442586132008707,713.9693522143764,-33.5207193535324,15.100845336914062,4381.2578125,True
1599572497.0581586,0.0,10,0.5,0.5,-21.602010924911504,-0.2,-0.00825,-0.001,1.3035461683621488,10,1,100,0.5532849468353055,-10,-1,-100,6428.322528824909,-0.05393347548630663,0.09087725686412416,0.9944005754256279,253.78953178353578,26.319633440421786,715.0593041937823,-33.710026863268126,13.117919921875,4381.2578125,True
1599572497.140938,0.0,10,0.5,0.5,-20.74176439552307,-0.2,-0.00825,-0.001,1.7298402908524424,10,1,100,0.4771665963628289,-10,-1,-100,6426.945692103589,-0.05287634068354854,0.09773311402883729,0.9938069888153049,250.8626232943147,26.015856679828765,715.4330742729098,-34.088705965176345,8.934326171875,4381.2578125,True
1599572497.2187304,0.0,10,0.5,0.5,-19.35150878868103,-0.2,-0.00825,-0.001,2.2283494939628197,10,1,100,0.331909712503453,-10,-1,-100,6424.911229255027,-0.05059386360372535,0.10844867170695552,0.9928137522066487,244.7921183498393,25.40237280492752,710.8098042383493,-34.65690753190976,2.1148681640625,4381.2578125,True
1599572497.3104854,0.0,10,0.5,0.5,-18.84421205863953,-0.2,-0.00825,-0.001,1.5669513826673758,10,1,100,0.4544949306388868,-10,-1,-100,6424.188554455643,-0.049635262024115646,0.11212210854153161,0.9924540158314633,242.27485494339007,25.15242425433039,707.7042545613692,-34.84635890862415,-0.303314208984375,4381.2578125,True
1599572497.3922663,0.0,10,0.5,0.5,-17.273076202011108,-0.2,-0.00825,-0.001,2.4331444877725077,10,1,100,0.1654297407948797,-10,-1,-100,6422.09545629262,-0.04613979606390228,0.12328327458821223,0.9912983170700881,233.09316141203078,24.255007142134545,693.0583756204126,-35.414847915202586,-7.994293212890625,4381.2578125,True
1599572497.4702415,0.0,10,0.5,0.5,-16.145056161117555,-0.2,-0.00825,-0.001,2.153835853011164,10,1,100,0.198714064271082,-10,-1,-100,6420.660191900679,-0.043272270250783625,0.13083192621206377,0.9904597506769187,226.00351701094849,23.576232719611856,679.8685164716793,-35.7939132048204,-13.48480224609375,4381.2578125,True
1599572497.5569742,0.0,10,0.5,0.5,-15.541237424468996,-0.2,-0.00825,-0.001,1.823374282166761,10,1,100,0.30795371201430954,-10,-1,-100,6419.9440774954855,-0.04166893411903652,0.13462683703083622,0.9900198557001048,225.40541217356386,23.550958983586174,682.0047245095191,-35.98340165753964,-16.339019775390625,4381.2578125,True
1599572498.305152,0.0,10,0.5,0.5,-13.700196799087525,-0.2,-0.00825,-0.001,2.6784661496496867,10,1,100,-0.12733211807509964,-10,-1,-100,6417.720704643172,-0.03626646328945276,0.1457908507770196,0.9886504799322093,237.19100203668995,24.928806464992164,730.0703223738016,-36.55115191709708,-25.34100341796875,4381.2578125,True
1599572498.3769605,0.0,10,0.5,0.5,-12.390342242050172,-0.2,-0.00825,-0.001,2.3769835504802472,10,1,100,-0.04547780908423388,-10,-1,-100,6416.285781827173,-0.03211642807386641,0.15313483347095352,0.9876832780935392,245.58767273202383,25.931340238364037,764.4488862813116,-36.92897232517159,-31.7069091796875,4381.2578125,True
1599572498.4487686,0.0,10,0.5,0.5,-11.69318641319275,-0.2,-0.00825,-0.001,2.0471036973362993,10,1,100,0.12144851632390974,-10,-1,-100,6415.497555683716,-0.029881889289749924,0.15674679393581684,0.9871866668889514,249.4503478221459,26.403580565042407,780.7940973041198,-37.117675557806024,-34.99951171875,4381.2578125,True
1599572498.5305507,0.0,10,0.5,0.5,-10.286937847137452,-0.2,-0.00825,-0.001,2.453735979736523,10,1,100,-0.1674237302517625,-10,-1,-100,6414.003170305747,-0.025246606603952556,0.16366414369638702,0.9861930120027792,256.35838000856563,27.269759589967553,811.2723829992549,-37.49468929018559,-41.8065185546875,4381.2578125,True
1599572498.6053488,0.0,10,0.5,0.5,-8.085749971771241,-0.2,-0.00825,-0.001,2.8618113308676563,10,1,100,-0.5487991646349806,-10,-1,-100,6411.7904597696615,-0.017591742821455106,0.17359624950097724,0.9846597751221985,265.9002357090856,28.488305635834152,855.1850379097615,-38.05931528700252,-52.566131591796875,4381.2578125,True
1599572498.6841393,0.0,10,0.5,0.5,-6.529990762329102,-0.2,-0.00825,-0.001,2.5528673363097303,10,1,100,-0.3824033106775358,-10,-1,-100,6410.22435036418,-0.012177542235036098,0.179747888340558,0.9836373336256733,270.20988089222334,29.07447249898157,878.3146028230871,-38.43528460111526,-60.107330322265625,4381.2578125,True
1599572498.7589395,0.0,10,0.5,0.5,-5.706090706634522,-0.2,-0.00825,-0.001,2.2663618724144388,10,1,100,-0.14921827976408733,-10,-1,-100,6409.445438490016,-0.009410329547839885,0.18267087468964366,0.9831290847279016,271.64025706597005,29.285310231036615,887.6229824139095,-38.62318523218565,-63.98846435546875,4381.2578125,True
1599572498.8447108,0.0,10,0.5,0.5,-3.228072277832031,-0.2,-0.00825,-0.001,2.8717045828965952,10,1,100,-0.7923542504620162,-10,-1,-100,6407.108611632837,-0.0010845591281133163,0.19076711531487922,0.9816347240424704,272.6659935991229,29.543828640249256,905.0397571933242,-39.18677889612153,-76.0748291015625,4381.2578125,True
1599572498.9125688,0.0,10,0.5,0.5,-1.4903426948547362,-0.2,-0.00825,-0.001,2.6026841594920302,10,1,100,-0.586390240061584,-10,-1,-100,6405.5379345695255,0.004570963670783463,0.19562034490620944,0.9806690506740264,270.31622822849636,29.371500454883034,906.5946370681304,-39.56260475889243,-84.50094604492188,4381.2578125,True
1599572498.9873688,0.0,10,0.5,0.5,0.312789714050293,-0.2,-0.00825,-0.001,2.6084131065461276,10,1,100,-0.6267441959532289,-10,-1,-100,6403.915894406266,0.010035708328866792,0.20002555458182494,0.9797392827036036,265.25011938267977,28.897464190638733,898.8478940347193,-39.93865525780093,-93.2221908569336,4381.2578125,True
1599572499.0621712,0.0,10,0.5,0.5,2.179553367424011,-0.2,-0.00825,-0.001,2.617213580828139,10,1,100,-0.6651359098748313,-10,-1,-100,6402.352348870132,0.015305669378731747,0.20405084158262915,0.9788406359230749,257.3189083563464,28.113077200269984,881.0044875617888,-40.31500621628729,-102.23739624023438,4381.2578125,True
1599572499.1449485,0.0,10,0.5,0.5,3.1621734563827517,-0.2,-0.00825,-0.001,2.4257850134608856,10,1,100,-0.42600461964266145,-10,-1,-100,6401.508769885171,0.01787573848316363,0.2059169700701983,0.9784061832443571,252.2403424860796,27.6026457209038,868.0638031570915,-40.5033022015647,-106.85528564453125,4381.2578125,True
1599572499.224733,0.0,10,0.5,0.5,5.999992148399354,-0.2,-0.00825,-0.001,2.8117100259138503,10,1,100,-0.9624531190370307,-10,-1,-100,6399.037951569771,0.025043522057544124,0.21107387595701607,0.9771492418722103,232.81064782169048,25.63203299154533,813.5362092256275,-41.068597503044344,-120.68831634521484,4381.2578125,True
1599572499.3090208,0.0,10,0.5,0.5,7.8563093593597415,-0.2,-0.00825,-0.001,2.6438028817826202,10,1,100,-0.7314943836979569,-10,-1,-100,6397.422381810029,0.02941013188449182,0.2141861553783654,0.9763500063946186,229.44351046925223,25.394198280002733,809.8375794870976,-41.445464054187866,-129.64083862304688,4381.2578125,True
1599572499.3840923,0.0,10,0.5,0.5,9.660315268325807,-0.2,-0.00825,-0.001,2.668232052956924,10,1,100,-0.731417577436621,-10,-1,-100,6395.727165839286,0.033329390998897174,0.2171916545796476,0.9755598069193901,242.90543472697104,27.041210683180278,865.8261878274849,-41.82153393491187,-138.30001831054688,4381.2578125,True
1599572499.465873,0.0,10,0.5,0.5,10.569876840591432,-0.2,-0.00825,-0.001,2.538238303793068,10,1,100,-0.5411046846962588,-10,-1,-100,6394.882978085894,0.03511594468360752,0.218702533038343,0.9751595112962752,248.61869152109324,27.759460782605963,890.5029220835393,-42.00928597083522,-142.51638793945312,4381.2578125,True
1599572499.544663,0.0,10,0.5,0.5,13.08534740638733,-0.2,-0.00825,-0.001,2.8747511722108436,10,1,100,-0.8969126513458707,-10,-1,-100,6392.353860851494,0.03993170819659645,0.2230998534912297,0.9739773683472803,262.308169025778,29.539919592861,953.1125013998064,-42.57166023485351,-154.71389770507812,4381.2578125,True
1599572499.6203315,0.0,10,0.5,0.5,14.706128689193728,-0.2,-0.00825,-0.001,2.770450620969204,10,1,100,-0.7142936750982432,-10,-1,-100,6390.665075347875,0.04260464611729483,0.22611247709274673,0.973169045866237,269.6576301052945,30.525339855764678,989.0979402919869,-42.946031605659726,-162.46578979492188,4381.2578125,True
1599572499.6951315,0.0,10,0.5,0.5,16.266282899856567,-0.2,-0.00825,-0.001,2.824569977454245,10,1,100,-0.6998393827150079,-10,-1,-100,6388.911423653713,0.044863469564222665,0.2293110878241918,0.9723187204304697,274.8179424919093,31.256022396082386,1017.5038375990882,-43.32015962283804,-169.91172790527344,4381.2578125,True
1599572499.779907,0.0,10,0.5,0.5,-53.90119284133911,-0.2,-0.00825,-0.001,3.079094633722634,10,1,100,-0.775542993143831,-10,-1,-100,6386.323703437578,0.04756853051451596,0.23450214832529268,0.970951068455827,279.0089552332842,31.934995512272035,1047.5544830775955,-43.881199621609014,179.49371337890625,4381.2578125,True
1599572499.8577967,0.0,10,0.5,0.5,-53.0978018857956,-0.2,-0.00825,-0.001,2.767861648087264,10,1,100,-0.5888179006725726,-10,-1,-100,6385.413852235884,0.04829605524487511,0.23636056109893241,0.9704644126421028,279.585383368107,32.06566529083692,1054.6099537290213,-44.06822252286911,176.11572265625,4381.2578125,True
1599572499.9415746,0.0,10,0.5,0.5,-52.001524065208436,-0.2,-0.00825,-0.001,3.0221993990237728,10,1,100,-0.654668858854694,-10,-1,-100,6383.6568100187,0.04952609517788804,0.24033281615664925,0.9694262753683979,279.6987096672779,32.208614229470605,1064.8866665186151,-44.442329183244134,169.50230407714844,4381.2578125,True
1599572500.0153756,0.0,10,0.5,0.5,-50.87298776569366,-0.2,-0.00825,-0.001,3.0999298777611597,10,1,100,-0.6397776041850174,-10,-1,-100,6381.844834730495,0.050480165204816616,0.24461931070119858,0.968304263004643,278.38691988927144,32.193310531952925,1069.7815646014196,-44.81655109249935,162.72048950195312,4381.2578125,True
1599572500.0966666,0.0,10,0.5,0.5,-49.69723971252442,-0.2,-0.00825,-0.001,3.1857429671028386,10,1,100,-0.6260091594838219,-10,-1,-100,6380.036051308969,0.05119920969278875,0.24926574706776397,0.9670807764946955,275.3517606440312,31.99027884005997,1067.981687164452,-45.1909211314952,155.67401123046875,4381.2578125,True
1599572500.1754565,0.0,10,0.5,0.5,-48.4672085395813,-0.2,-0.00825,-0.001,3.279107767466398,10,1,100,-0.6163470325923994,-10,-1,-100,6378.217321301578,0.051745240730288404,0.2543066605027745,0.9657383457674708,270.3001684704737,31.56959125079494,1058.135285369181,-45.56544859357337,148.34832763671875,4381.2578125,True
1599572500.2552416,0.0,10,0.5,0.5,-47.95358868865967,-0.2,-0.00825,-0.001,3.072238035884615,10,1,100,-0.5879914833593345,-10,-1,-100,6377.311991059338,0.05196711318068623,0.2569749342421105,0.9650198455570375,266.934788620607,31.268505734537428,1049.7874714356699,-45.75276572716582,144.58001708984375,4381.2578125,True
1599572500.3320374,0.0,10,0.5,0.5,-46.63698599319458,-0.2,-0.00825,-0.001,3.430365969146508,10,1,100,-0.609271558296522,-10,-1,-100,6375.4244626564905,0.05234695139093407,0.26262155303370244,0.9634779273871518,258.36011860742417,30.464303548207024,1025.4053072314423,-46.12747747882367,136.83262634277344,4381.2578125,True
1599572500.4188058,0.0,10,0.5,0.5,-44.44370856132508,-0.2,-0.00825,-0.001,3.8888102377064127,10,1,100,-0.6312879802574487,-10,-1,-100,6372.594436290325,0.0528811215606275,0.2718865891952011,0.9608752622470256,260.378912259499,31.061222020008323,1047.41125156888,-46.68916225884068,124.68560791015625,4381.2578125,True
1599572500.4985988,0.0,10,0.5,0.5,-42.124543126297,-0.2,-0.00825,-0.001,4.091161335757382,10,1,100,-0.6570165581992394,-10,-1,-100,6369.775214641006,0.0535912847185075,0.282107291949661,0.9578848834964714,284.4479340257296,34.36534957473541,1159.2584829590228,-47.24869861857089,111.90843200683594,4381.2578125,True
1599572500.581297,0.0,10,0.5,0.5,-41.485640919113166,-0.2,-0.00825,-0.001,3.471715586101702,10,1,100,-0.6225491471951179,-10,-1,-100,6368.805937797762,0.053915613111857046,0.2857195183621861,0.9567954136019114,291.626814848684,35.38051831957057,1193.6007196291223,-47.43475365959425,107.509521484375,4381.2578125,True
1599572500.6561694,0.0,10,0.5,0.5,-40.53242492027283,-0.2,-0.00825,-0.001,3.5236084067462397,10,1,100,-0.6326776290811482,-10,-1,-100,6367.838255558978,0.05429676413877751,0.28942855222485303,0.9556583984672994,298.40392778157815,36.35107829006291,1226.5261303080058,-47.62061879295885,103.04072570800781,4381.2578125,True
1599572500.741941,0.0,10,0.5,0.5,-36.74337596282959,-0.2,-0.00825,-0.001,4.886443411000581,10,1,100,-0.8482107044870082,-10,-1,-100,6364.029392943019,0.05659720147703674,0.3051415666922025,0.9506236800446304,321.28059779767943,39.727293216522185,1342.9376980295838,-48.362738953358225,84.46743774414062,4381.2578125,True
1599572500.8151736,0.0,10,0.5,0.5,-36.69179548606873,-0.2,-0.00825,-0.001,3.3216228393191902,10,1,100,-0.6188740812909994,-10,-1,-100,6364.029392943019,0.05659720147703674,0.3051415666922025,0.9506236800446304,321.28059779767943,39.727293216522185,1342.9376980295838,-48.362738953358225,84.46743774414062,4381.2578125,True
1599572500.89596,0.0,10,0.5,0.5,-34.6764730770111,-0.2,-0.00825,-0.001,4.2398861648003265,10,1,100,-0.8102374391815329,-10,-1,-100,6362.031996153761,0.05833130742488503,0.3134343948729483,0.9478166165903257,327.1756343458611,40.73164641020298,1379.1642868839929,-48.733521590722106,74.76214599609375,4381.2578125,True
1599572500.974573,0.0,10,0.5,0.5,-32.612404153060915,-0.2,-0.00825,-0.001,4.346858950161301,10,1,100,-0.889075735592391,-10,-1,-100,6360.097588723875,0.06061799543781664,0.32188747431526676,0.9448353891065043,328.4089363739367,41.16507924390653,1396.212593676346,-49.10447580419675,64.77696228027344,4381.2578125,True
1599572501.0583482,0.0,10,0.5,0.5,-29.43763625869751,-0.2,-0.00825,-0.001,4.929255810317414,10,1,100,-1.1382303332581327,-10,-1,-100,6357.134314025054,0.064953778378618,0.334805171797146,0.9400460114336026,320.13785824046124,40.595131125397224,1378.758284086516,-49.66154651191615,49.27543640136719,4381.2578125,True
1599572501.1411304,0.0,10,0.5,0.5,-27.226636841201785,-0.2,-0.00825,-0.001,4.586038781820423,10,1,100,-1.1079920961574503,-10,-1,-100,6355.138910782291,0.06860870011006946,0.3433576235783771,0.9366954620365234,307.17844538619926,39.317380657021204,1334.3722096260665,-50.03335502576066,38.58949279785156,4381.2578125,True
1599572501.2179613,0.0,10,0.5,0.5,-24.951587186813356,-0.2,-0.00825,-0.001,4.661929136371343,10,1,100,-1.2121215304882622,-10,-1,-100,6353.143761378829,0.0728632040428335,0.3517490956294641,0.9332542671857798,288.5692852813942,37.33625550306238,1264.1207690549704,-50.40532954930092,27.62091064453125,4381.2578125,True
1599572501.3206868,0.0,10,0.5,0.5,-22.620635459518436,-0.2,-0.00825,-0.001,4.72396407976554,10,1,100,-1.3215872238011181,-10,-1,-100,6351.0886918430915,0.07770791202775204,0.35986905833727745,0.9297611205356612,311.02135166355345,40.71023416321982,1373.5312971443007,-50.77604588775839,16.367965698242188,4381.2578125,True
1599572501.400473,0.0,10,0.5,0.5,-21.400602294540406,-0.2,-0.00825,-0.001,4.351786544108418,10,1,100,-1.129123644090562,-10,-1,-100,6350.060196645907,0.08034059890093725,0.36379671795987245,0.9280071854085312,324.03861309147567,42.65810817438236,1436.653385835087,-50.96073346591055,10.634307861328125,4381.2578125,True
1599572501.4793067,0.0,10,0.5,0.5,-17.7824026096344,-0.2,-0.00825,-0.001,5.188300322178809,10,1,100,-1.8196589655789075,-10,-1,-100,6346.974112675991,0.08898752172119143,0.3749010090541463,0.9227840778795998,356.48922519489406,47.68163813580033,1598.9005647862818,-51.51295294725496,-6.997589111328125,4381.2578125,True
1599572501.5610852,0.0,10,0.5,0.5,-15.274188932037355,-0.2,-0.00825,-0.001,4.82890052456668,10,1,100,-1.6485949049039892,-10,-1,-100,6344.9177955585765,0.09526169577203013,0.38165084601898563,0.9193844903257993,371.1160030669339,50.10996934944465,1677.4190519685833,-51.880332698757776,-19.112335205078125,4381.2578125,True
1599572501.636888,0.0,10,0.5,0.5,-12.707752312469482,-0.2,-0.00825,-0.001,4.840503670660845,10,1,100,-1.7461692695154658,-10,-1,-100,6342.79916296876,0.10181738050171965,0.38782299069758036,0.9160930896552776,377.04510589833393,51.384917238909175,1717.7435610294085,-52.24781406815868,-31.51580810546875,4381.2578125,True
1599572502.4028704,0.0,10,0.5,0.5,-10.073325198364257,-0.2,-0.00825,-0.001,4.844992158542489,10,1,100,-1.8340114906748015,-10,-1,-100,6340.7406915687025,0.10853455028559074,0.39339967081885835,0.9129386345170845,373.095883560781,51.36185213368092,1713.5693592958123,-52.615772150118126,-44.20806884765625,4381.2578125,True
1599572502.4766743,0.0,10,0.5,0.5,-7.378725338745117,-0.2,-0.00825,-0.001,4.844324492968915,10,1,100,-1.9106316598916324,-10,-1,-100,6338.620253536152,0.11529197595211682,0.3983906146275823,0.9099410302089436,358.5038177346597,49.93693887138226,1660.0410019416945,-52.98428629683099,-57.188873291015625,4381.2578125,True
1599572502.551473,0.0,10,0.5,0.5,-4.624031228256226,-0.2,-0.00825,-0.001,4.84141444127801,10,1,100,-1.9756550492350051,-10,-1,-100,6336.500322569045,0.12197650829706728,0.4028318329471301,0.9071098311605443,333.0471864725693,47.022428642410176,1554.4655727770212,-53.35314623254095,-70.45779418945312,4381.2578125,True
1599572502.622287,0.0,10,0.5,0.5,-1.8136416023254398,-0.2,-0.00825,-0.001,4.838752604023463,10,1,100,-2.0289932479018837,-10,-1,-100,6334.315962725785,0.12848640975315892,0.40678326320699587,0.9044438176489522,344.2168603791821,49.286971138398364,1618.5817665755449,-53.72095923719336,-84.014404296875,4381.2578125,True
1599572502.7010736,0.0,10,0.5,0.5,1.0564793453216554,-0.2,-0.00825,-0.001,4.839348633332728,10,1,100,-2.070585284578623,-10,-1,-100,6332.194156081765,0.13472817712880977,0.41032323131002296,0.9019330153258884,374.685476323929,54.34351100656642,1774.2775684644023,-54.08646828524672,-97.85783386230469,4381.2578125,True
1599572502.7774522,0.0,10,0.5,0.5,2.5589111366271977,-0.2,-0.00825,-0.001,4.672234194236316,10,1,100,-1.7822102236194555,-10,-1,-100,6331.101123456494,0.1377246787587854,0.4119689127430979,0.9007294420601889,386.4707057553873,56.37579516318897,1836.4396156208081,-54.268736371419166,-104.88646697998047,4381.2578125,True
1599572502.8552454,0.0,10,0.5,0.5,6.957303305244446,-0.2,-0.00825,-0.001,5.019254471871669,10,1,100,-2.4139473993228022,-10,-1,-100,6327.823020358686,0.14613727568631094,0.4165723530658457,0.8972799849078142,405.6660042074256,60.105543925300694,1948.3463877758602,-54.81526995102065,-126.3062973022461,4381.2578125,True
1599572502.9330366,0.0,10,0.5,0.5,9.887483016967773,-0.2,-0.00825,-0.001,4.887688074795415,10,1,100,-2.1391987466266764,-10,-1,-100,6325.637369053322,0.1512275608897463,0.4195132628084633,0.8950635995029266,400.1926658481866,59.93898593614141,1936.5315434183549,-55.180411875793524,-140.42880249023438,4381.2578125,True
1599572503.014818,0.0,10,0.5,0.5,12.762069360351564,-0.2,-0.00825,-0.001,4.925633646467386,10,1,100,-2.150947422780142,-10,-1,-100,6323.389181102393,0.15590531718592943,0.42249122026808417,0.8928576039153946,380.3995381639084,57.69461765034463,1854.8713170438189,-55.546461449000795,-154.25282287597656,4381.2578125,True
1599572503.0916135,0.0,10,0.5,0.5,14.225242574691773,-0.2,-0.00825,-0.001,4.8011670183425394,10,1,100,-1.9307503745806875,-10,-1,-100,6322.295884195482,0.1581009009975428,0.4240298119081963,0.8917414556455616,365.6968979000155,55.85196141054543,1789.888783727274,-55.72974171360612,-161.04638671875,4381.2578125,True
1599572503.171404,0.0,10,0.5,0.5,17.008025025558474,-0.2,-0.00825,-0.001,5.007194919444659,10,1,100,-2.1728233627944316,-10,-1,-100,6320.046961413929,0.16224638297322913,0.427268597208126,0.8894479507266878,344.8374008196211,53.429761815089286,1699.8363907805342,-56.09619163594487,-174.39321899414062,4381.2578125,True
1599572503.252185,0.0,10,0.5,0.5,-51.355358190536506,-0.2,-0.00825,-0.001,5.281859106208472,10,1,100,-2.396899330492692,-10,-1,-100,6316.642059675301,0.16800322826412123,0.4326791047001065,0.8857560090954777,398.8463593071668,63.017645588383445,1985.3648261586497,-56.641471474880724,166.19105529785156,4381.2578125,True
1599572503.3289788,0.0,10,0.5,0.5,-48.67889174880982,-0.2,-0.00825,-0.001,5.190470977355709,10,1,100,-2.2300998220326163,-10,-1,-100,6314.393291278044,0.17167244549501154,0.4367357753486341,0.8830574352715623,423.7751062694725,67.70765431179987,2123.106323739446,-57.00330135934369,153.65289306640625,4381.2578125,True
1599572503.4097629,0.0,10,0.5,0.5,-46.40392553710938,-0.2,-0.00825,-0.001,5.2773744387871835,10,1,100,-2.270507823436503,-10,-1,-100,6312.083158515394,0.1753302648656763,0.4411828674581258,0.8801232730041615,437.01734765380576,70.58245312065733,2204.245792159292,-57.36500211540008,141.3524169921875,4381.2578125,True
1599572503.4865572,0.0,10,0.5,0.5,-45.356742477416994,-0.2,-0.00825,-0.001,5.096827201854012,10,1,100,-2.1139992955680524,-10,-1,-100,6310.928117176867,0.1771901650810106,0.4435530675816793,0.8785580923521488,439.2842850768175,71.35375299966111,2223.450959178438,-57.5459998279776,135.15634155273438,4381.2578125,True
1599572503.574861,0.0,10,0.5,0.5,-41.74728398170472,-0.2,-0.00825,-0.001,5.7066328034988025,10,1,100,-2.5780194331639557,-10,-1,-100,6307.464654214447,0.18306074653859344,0.4512212733123427,0.8734346716195327,426.2077075392239,70.62161670289407,2180.8516714818893,-58.0899960127783,116.21160888671875,4381.2578125,True
1599572503.6546483,0.0,10,0.5,0.5,-39.345485884284976,-0.2,-0.00825,-0.001,5.5506497260102075,10,1,100,-2.468790839429789,-10,-1,-100,6305.0938784087775,0.18736343694992197,0.4567386574898047,0.869646331130491,401.2417606604142,67.54799657527654,2067.8062274895897,-58.453318681866655,103.2606201171875,4381.2578125,True
1599572503.7324743,0.0,10,0.5,0.5,-38.22655882797242,-0.2,-0.00825,-0.001,5.316807984952888,10,1,100,-2.2969525524451124,-10,-1,-100,6303.941029451205,0.18967532911375665,0.4595921124556818,0.8676395332706504,383.8224048422167,65.1526938857947,1984.6759736420513,-58.63503703907956,96.6871337890625,4381.2578125,True
1599572503.8160577,0.0,10,0.5,0.5,-35.746496659851076,-0.2,-0.00825,-0.001,5.677246736395047,10,1,100,-2.620579150902622,-10,-1,-100,6301.570995450253,0.19468415673210734,0.4654264430290014,0.8634096972161477,411.42673164130775,70.94743694146543,2140.448716282821,-58.996430242823855,83.34257507324219,4381.2578125,True
1599572503.8988311,0.0,10,0.5,0.5,-31.832247467041018,-0.2,-0.00825,-0.001,6.071243374117961,10,1,100,-3.0706265430500217,-10,-1,-100,6298.0497662482085,0.20329372282326963,0.47427313550880845,0.8565842954405006,465.81347328833294,81.9308628198383,2444.1639230182304,-59.53380621057456,62.82710266113281,4381.2578125,True
1599572503.9761384,0.0,10,0.5,0.5,-29.2210417591095,-0.2,-0.00825,-0.001,5.826012092565849,10,1,100,-2.9329521406018677,-10,-1,-100,6295.6202995316125,0.20982793122768328,0.48004053218215875,0.8517824409665771,484.8435507256543,86.28474505890735,2559.3299032357054,-59.89122593578942,48.81507873535156,4381.2578125,True
1599572504.0609117,0.0,10,0.5,0.5,-26.548430151367192,-0.2,-0.00825,-0.001,5.860084669065417,10,1,100,-3.0728591591757413,-10,-1,-100,6293.2527101633605,0.21699674672031777,0.48554539627613325,0.8468518642996844,484.94784884292903,87.41014967353067,2576.6037351655723,-60.24936357384303,34.53263854980469,4381.2578125,True
1599572504.1506732,0.0,10,0.5,0.5,-23.528574607086185,-0.2,-0.00825,-0.001,5.877624389934077,10,1,100,-3.2150001019388883,-10,-1,-100,6290.824242048315,0.22476150254014482,0.4906612099225742,0.8418633167285602,467.1337638567125,85.49063167824309,2498.9407010216323,-60.608548790651966,19.977813720703125,4381.2578125,True
