Timestamp,Input Throttle,horizon,dT,dt,Input Roll,Roll P,Roll I,Roll D,Input Pitch,Pitch P,Pitch I,Pitch D,Input Yaw,Yaw P,Yaw I,Yaw D,Altitude,Direction X,Direction Y,Direction Z,Drag X,Drag Y,Drag Z,Vertical Velocity,Roll,Mass,Has Fuel
1599565763.4655511,0.0,10,0.5,0.5,-0.05485810852050781,-0.001,-0.02275,-0.2505,-0.06718553647209899,10,1,100,0.6903477286434544,-10,-1,-100,6483.617967169383,-0.0672576320194863,-0.007002634724330199,0.9977110674148347,205.07321265843797,21.49877666349624,-156.76523590360208,9.590824253468206,-35.944580078125,4381.2578125,True
1599565763.5214388,0.0,10,0.5,0.5,-0.1778680938720703,-0.001,-0.02275,-0.2505,-0.06733788611223594,10,1,100,0.6999249961754381,-10,-1,-100,6483.997883014497,-0.06744511304474654,-0.006971828137025662,0.9976986270105863,204.61216081127313,21.45674345049516,-150.26673275284747,9.210801945782167,-35.941253662109375,4381.2578125,True
1599565763.5772874,0.0,10,0.5,0.5,-0.30006452560424807,-0.001,-0.02275,-0.2505,-0.03475679074773089,10,1,100,0.7027439936179286,-10,-1,-100,6484.538936012075,-0.06757986385078327,-0.006641292346946923,0.9976917636413923,203.9321126820963,21.394551815002078,-140.56873696931714,8.640801382901055,-35.941070556640625,4381.2578125,True
1599565763.6311448,0.0,10,0.5,0.5,-0.4230027221679688,-0.001,-0.02275,-0.2505,-0.0684744989902995,10,1,100,0.6960268993993344,-10,-1,-100,6484.538936012075,-0.06757986385078327,-0.006641292346946923,0.9976917636413923,203.9321126820963,21.394551815002078,-140.56873696931714,8.640801382901055,-35.941070556640625,4381.2578125,True
1599565763.6969693,0.0,10,0.5,0.5,-0.5272900703430176,-0.001,-0.02275,-0.2505,0.0018676410425196716,10,1,100,0.6988908324326124,-10,-1,-100,6485.016948988079,-0.0675444633657669,-0.005995780808151342,0.9976982490117597,203.32235093317524,21.339198752026153,-130.96542437810163,8.070819506498626,-36.015411376953125,4381.2578125,True
1599565763.7657838,0.0,10,0.5,0.5,-0.6319402908325196,-0.001,-0.02275,-0.2505,0.013062003848529666,10,1,100,0.6905039321127366,-10,-1,-100,6485.335755182779,-0.06737463250069337,-0.005301734492093313,0.9977136615817045,202.9570550998614,21.306207276001455,-124.61259482600478,7.690829868959588,-36.16168212890625,4381.2578125,True
1599565763.8210537,0.0,10,0.5,0.5,-0.677340280151367,-0.001,-0.02275,-0.2505,0.1020646847287826,10,1,100,0.6573073535370356,-10,-1,-100,6485.750197262852,-0.06685720406130133,-0.003856848256318175,0.9977550997046487,202.47342153318758,21.262605910785457,-115.15160701358171,7.120823802498115,-36.613861083984375,4381.2578125,True
1599565763.879929,0.0,10,0.5,0.5,-0.7854165794372558,-0.001,-0.02275,-0.2505,0.09214708967029644,10,1,100,0.6581016569396818,-10,-1,-100,6486.005465171649,-0.06633325623454962,-0.002629969044093998,0.9977940581002417,202.1907990988898,21.236981722010402,-108.88372306163035,6.740793271886705,-37.117431640625,4381.2578125,True
1599565764.4028416,0.0,10,0.5,0.5,-0.9508881187438963,-0.001,-0.02275,-0.2505,0.04326455313259897,10,1,100,0.6808323001946267,-10,-1,-100,6486.165071454598,-0.06600327927960707,-0.0019566201205564564,0.9978174877010535,202.05798981139228,21.22480094839291,-105.75876193768254,6.550766836721352,-37.439422607421875,4381.2578125,True
1599565764.4546692,0.0,10,0.5,0.5,-1.0578688430786134,-0.001,-0.02275,-0.2505,0.055411884440124785,10,1,100,0.6799352131693083,-10,-1,-100,6486.261196069536,-0.06563514191190221,-0.0012322757053443141,0.9978429283423271,201.92808092475883,21.21273502756895,-102.63804920081252,6.360731327625912,-37.810211181640625,4381.2578125,True
1599565764.5125144,0.0,10,0.5,0.5,-0.9044366722106933,-0.001,-0.02275,-0.2505,0.2540792427600601,10,1,100,0.5752790466292099,-10,-1,-100,6486.675023543881,-0.064289383570977,0.001233406362034631,0.9979305355929389,201.51841868158243,21.17318454270528,-93.28290525525082,5.7905596152088545,-39.261688232421875,4381.2578125,True
1599565764.568126,0.0,10,0.5,0.5,-0.9341139602661133,-0.001,-0.02275,-0.2505,0.21394649242074062,10,1,100,0.586818494559814,-10,-1,-100,6486.869180376525,-0.06317356937718548,0.0031026050192158906,0.9979977324494483,201.18362563393828,21.13916881574062,-87.03405968048305,5.410378434765846,-40.55938720703125,4381.2578125,True
1599565764.6259694,0.0,10,0.5,0.5,-0.8503859809875489,-0.001,-0.02275,-0.2505,0.24707660435264692,10,1,100,0.5531932270749478,-10,-1,-100,6487.061856057146,-0.06185739180902855,0.005093900785892328,0.9980719990328192,200.72948717806963,21.09160228501848,-80.75267042177337,5.030130794711881,-42.14306640625,4381.2578125,True
1599565764.6868055,0.0,10,0.5,0.5,-1.0081439483642578,-0.001,-0.02275,-0.2505,0.16305895171460377,10,1,100,0.6033974079909523,-10,-1,-100,6487.157943905448,-0.061122470639069344,0.00612970446513157,0.998111451846008,200.4329340590227,21.060140023657866,-77.59359597341675,4.839977930017094,-43.037078857421875,4381.2578125,True
1599565764.7456481,0.0,10,0.5,0.5,-0.7147389633178711,-0.001,-0.02275,-0.2505,0.30152137210552354,10,1,100,0.49911750402192157,-10,-1,-100,6487.352061997983,-0.05951223171503498,0.008318483452710081,0.9981929157779786,199.64185604017536,20.97570678215555,-71.22817139492174,4.459604573682602,-45.02996826171875,4381.2578125,True
1599565764.8025296,0.0,10,0.5,0.5,-0.31708327865600583,-0.001,-0.02275,-0.2505,0.4623725950951533,10,1,100,0.3494452464107354,-10,-1,-100,6487.578766380437,-0.05669502328912999,0.011757553410177306,0.9983223098138456,197.79116703700058,20.777652721361484,-61.554259232920714,3.888843629989146,-48.5145263671875,4381.2578125,True
1599565764.8593473,0.0,10,0.5,0.5,-0.8346161018371581,-0.001,-0.02275,-0.2505,0.2518528748636539,10,1,100,0.5149228005892731,-10,-1,-100,6487.674352212693,-0.055647974857395394,0.012954656562222723,0.9983664055684294,196.94288586236738,20.6869342370968,-58.29614411470068,3.698527262989059,-49.815704345703125,4381.2578125,True
1599565764.9187315,0.0,10,0.5,0.5,-0.06550492782592765,-0.001,-0.02275,-0.2505,0.5206869001045247,10,1,100,0.23684432209736028,-10,-1,-100,6487.838543727994,-0.05217831668698647,0.016471594652800528,0.9985019328160094,193.50378294690952,20.32006575813455,-48.44508173167492,3.127350158435134,-54.050384521484375,4381.2578125,True
1599565764.9875474,0.0,10,0.5,0.5,-0.7147642135620116,-0.001,-0.02275,-0.2505,0.2986057986520842,10,1,100,0.4436912478762741,-10,-1,-100,6487.935103667318,-0.05091737671146627,0.017632526936760987,0.9985472020603968,192.03935894503297,20.164264642331432,-45.1538122446869,2.9368720692065056,-55.53350830078125,4381.2578125,True
1599565765.046431,0.0,10,0.5,0.5,-0.26089673843383776,-0.001,-0.02275,-0.2505,0.45084011274455793,10,1,100,0.27151858451132094,-10,-1,-100,6488.004201542586,-0.04821957606910118,0.020054059916604514,0.9986354225464754,188.72730320909042,19.812540279249465,-38.62280779761622,2.555773158592119,-58.651702880859375,4381.2578125,True
1599565765.1052728,0.0,10,0.5,0.5,0.23884057693481453,-0.001,-0.02275,-0.2505,0.5782381125100322,10,1,100,0.05646276366254499,-10,-1,-100,6488.1674294041,-0.04382780944636478,0.023394265954673896,0.9987651532965971,182.4729736689874,19.1509364674944,-28.991104900428745,1.9837424372736763,-63.555999755859375,4381.2578125,True
1599565765.1651142,0.0,10,0.5,0.5,-0.5043687309265137,-0.001,-0.02275,-0.2505,0.3694848244018607,10,1,100,0.32010462616987995,-10,-1,-100,6488.201010740129,-0.04225063997042074,0.024512913497760285,0.9988062877725297,180.00527960611151,18.890943394863957,-25.85022811884397,1.7929516156075445,-65.26593017578125,4381.2578125,True
1599565765.2219608,0.0,10,0.5,0.5,0.005217041778564524,-0.001,-0.02275,-0.2505,0.48578738429440005,10,1,100,0.11841127728595768,-10,-1,-100,6488.269646787201,-0.03900229448371484,0.02656769789188141,0.9988858685824579,174.44150729508038,18.30650728199487,-19.719848097866738,1.4111922341529226,-68.77175903320312,4381.2578125,True
1599565765.2867875,0.0,10,0.5,0.5,0.9706214904785158,-0.001,-0.02275,-0.2505,0.6905453751640755,10,1,100,-0.32205931435374213,-10,-1,-100,6488.341534479754,-0.032065752387553395,0.030277598351619493,0.9990270539689494,161.54254751781008,16.954661222156993,-8.376228090133743,0.6471246807834881,-75.86135864257812,4381.2578125,True
1599565765.351867,0.0,10,0.5,0.5,-0.27451256866455087,-0.001,-0.02275,-0.2505,0.41028029277541117,10,1,100,0.17158021071789953,-10,-1,-100,6488.312153649167,-0.03027385227192293,0.031080418117042177,0.9990583073466172,157.95795828711428,16.578837952713855,-5.772244700441535,0.45604176389070084,-77.67501831054688,4381.2578125,True
1599565765.4101076,0.0,10,0.5,0.5,-0.19723409347534177,-0.001,-0.02275,-0.2505,0.4165361968809372,10,1,100,0.14726965849674722,-10,-1,-100,6488.345766223269,-0.028450427491560314,0.03184643345505455,0.9990877728466805,154.21904906369383,16.186642576738688,-3.27433620641742,0.2649489732029724,-79.49343872070312,4381.2578125,True
1599565765.474935,0.0,10,0.5,0.5,0.29725715332031244,-0.001,-0.02275,-0.2505,0.48392447804519134,10,1,100,-0.06269326901998651,-10,-1,-100,6488.350996448426,-0.02490969161907633,0.03313716915470004,0.9991403481412686,146.41572823904056,15.367598672188588,1.375739285655825,-0.11724069190709319,-82.99057006835938,4381.2578125,True
1599565765.540316,0.0,10,0.5,0.5,0.7918069076538087,-0.001,-0.02275,-0.2505,0.5480313116860085,10,1,100,-0.33400999541147064,-10,-1,-100,6488.328358871047,-0.01925226902529405,0.034875006903301115,0.9992062269776307,145.98969527389596,15.322362307520468,8.080038966686637,-0.6904820090436079,-88.14010620117188,4381.2578125,True
1599565765.598162,0.0,10,0.5,0.5,0.45375577316284177,-0.001,-0.02275,-0.2505,0.47063221786788434,10,1,100,-0.18054254489063146,-10,-1,-100,6488.269185645971,-0.015534248988101147,0.03573450090163687,0.9992405779158924,151.51763420233326,15.901532200559998,13.028309186283286,-1.0726000667189663,-91.61666107177734,4381.2578125,True
1599565765.6664891,0.0,10,0.5,0.5,0.097277707862854,-0.001,-0.02275,-0.2505,0.42585130355276846,10,1,100,-0.016162096026356793,-10,-1,-100,6488.241315681022,-0.013680764969167699,0.03609230352092753,0.9992548134967436,154.1136695343924,16.173194975244844,15.612820482153262,-1.263654469247213,-93.33558654785156,4381.2578125,True
1599565765.7258437,0.0,10,0.5,0.5,0.9755350103378296,-0.001,-0.02275,-0.2505,0.47775498141267625,10,1,100,-0.4282255258119515,-10,-1,-100,6488.154806018458,-0.008281147236722734,0.03687485002482336,0.9992855788192335,161.1249697388916,16.90614392714868,23.731744834478814,-1.8368649627262812,-98.22601318359375,4381.2578125,True
1599565765.7893114,0.0,10,0.5,0.5,0.604490196800232,-0.001,-0.02275,-0.2505,0.4332210553106546,10,1,100,-0.2845285606598158,-10,-1,-100,6488.096667978563,-0.004711055037891857,0.03716914698737378,0.9992978837527181,165.64458175599913,17.379106728950042,29.478124166199176,-2.2191039626751037,-101.30805206298828,4381.2578125,True
1599565765.843676,0.0,10,0.5,0.5,1.0221178676605225,-0.001,-0.02275,-0.2505,0.4190663689813884,10,1,100,-0.4832332938026207,-10,-1,-100,6487.885224775644,0.0003067630942230503,0.037296505047163,0.999304196232394,171.70389869573967,18.01567411391087,38.46272268369154,-2.7927045007161095,-105.71235656738281,4381.2578125,True
1599565765.905513,0.0,10,0.5,0.5,0.34475650482177733,-0.001,-0.02275,-0.2505,0.4038337992506375,10,1,100,-0.16525215803295285,-10,-1,-100,6487.854464238393,0.001941942836805133,0.037264053733823396,0.9993035670692573,173.6894957600664,18.225096284736598,41.57533772995053,-2.9839756802312554,-107.07170867919922,4381.2578125,True
1599565765.97732,0.0,10,0.5,0.5,0.719350364112854,-0.001,-0.02275,-0.2505,0.39068847001562657,10,1,100,-0.3454741856312279,-10,-1,-100,6487.73533639079,0.005035935858023747,0.037108698223758015,0.9992985459141686,177.21742587017224,18.598201766859212,47.86672046320661,-3.3666118801819342,-109.63277435302734,4381.2578125,True
1599565766.0261886,0.0,10,0.5,0.5,0.7330355098724365,-0.001,-0.02275,-0.2505,0.37546102330265124,10,1,100,-0.3636475091558474,-10,-1,-100,6487.551766294055,0.00798176901105544,0.036823554353483605,0.9992899064877171,180.12708747533776,18.907156276616753,54.19287290968345,-3.7493638174086708,-111.94898986816406,4381.2578125,True
1599565766.0850315,0.0,10,0.5,0.5,0.5044588752746582,-0.001,-0.02275,-0.2505,0.3829483189333511,10,1,100,-0.23011254092634492,-10,-1,-100,6487.521507514757,0.009412724714904577,0.036627874321787386,0.9992846438508444,181.40006921904353,19.04279602610292,57.36706383983455,-3.9407813816611634,-113.05355834960938,4381.2578125,True
1599565766.146867,0.0,10,0.5,0.5,0.8267442520141601,-0.001,-0.02275,-0.2505,0.3539984492073641,10,1,100,-0.38578086770202885,-10,-1,-100,6487.338923720177,0.012097557946970029,0.03618362938167541,0.9992719319867288,183.6591846572218,19.28437016227204,63.73649561216357,-4.32369390676006,-115.16324615478516,4381.2578125,True
1599565766.2296455,0.0,10,0.5,0.5,0.8413486425399781,-0.001,-0.02275,-0.2505,0.3408412150403425,10,1,100,-0.3959206847445399,-10,-1,-100,6487.154880042886,0.014601995742895753,0.035658969468711256,0.9992573340320069,185.5635831548243,19.489082459600205,70.11511529153161,-4.706697143974957,-117.07817077636719,4381.2578125,True
1599565766.3144197,0.0,10,0.5,0.5,0.8565190071105957,-0.001,-0.02275,-0.2505,0.3224922104692659,10,1,100,-0.41115053284414405,-10,-1,-100,6486.909315217519,0.01698981395397827,0.03501526544394581,0.9992423516883675,187.2210958145286,19.668055560313466,76.5142267909194,-5.089773602897215,-118.81548309326172,4381.2578125,True
1599565766.3872247,0.0,10,0.5,0.5,1.1908291860580444,-0.001,-0.02275,-0.2505,0.2329587734449819,10,1,100,-0.6301130855782029,-10,-1,-100,6486.476779594552,0.021123244098978235,0.03361711875582644,0.9992115381065672,189.7777493895891,19.946367603698192,89.27434488199268,-5.8560850654973144,-121.64466857910156,4381.2578125,True
1599565766.4570367,0.0,10,0.5,0.5,0.6749014879226685,-0.001,-0.02275,-0.2505,0.3304393291192684,10,1,100,-0.3207201047718947,-10,-1,-100,6486.385001168819,0.022041513140433854,0.0332352247557287,0.9992044793403981,190.26618551977901,20.00007486438507,92.44293052820092,-6.047686544284218,-122.1993637084961,4381.2578125,True
1599565766.5517852,0.0,10,0.5,0.5,0.7071596334457397,-0.001,-0.02275,-0.2505,0.3258966866036918,10,1,100,-0.32704888046438385,-10,-1,-100,6486.231210721657,0.022909516986072204,0.03285032793479974,0.9991976831368461,190.70347531991575,20.04839460298362,95.6019487787259,-6.239294691221517,-122.6911392211914,4381.2578125,True
1599565766.6196027,0.0,10,0.5,0.5,0.8896791137695312,-0.001,-0.02275,-0.2505,0.24147844036044333,10,1,100,-0.4907686993961609,-10,-1,-100,6485.828426898224,0.02516642542340336,0.03173702511093694,0.999179369416981,191.7546685185043,20.165896395810034,105.02323773369889,-6.8141456327788035,-123.75309753417969,4381.2578125,True
1599565766.6892142,0.0,10,0.5,0.5,0.8017746057510375,-0.001,-0.02275,-0.2505,0.22066237021565258,10,1,100,-0.4711612291647741,-10,-1,-100,6485.426602732972,0.027018797471067623,0.030540719204857104,0.999168278646629,192.52056377575138,20.253472225069988,114.38146214237885,-7.389011110740551,-124.31041717529297,4381.2578125,True
1599565766.751567,0.0,10,0.5,0.5,0.7162748781204222,-0.001,-0.02275,-0.2505,0.2582491099247183,10,1,100,-0.39349012021662766,-10,-1,-100,6485.115576884011,0.0279766866497674,0.029800836904884123,0.9991642583298651,192.9216537988831,20.300506065131817,120.59634233300699,-7.772249596961104,-124.39279174804688,4381.2578125,True
1599565766.8153915,0.0,10,0.5,0.5,0.7109517950057983,-0.001,-0.02275,-0.2505,0.29005989097036095,10,1,100,-0.34568079044127153,-10,-1,-100,6484.962257526931,0.028394687525501495,0.0294237898393678,0.9991636414080619,193.08712555878367,20.320430133361715,123.69215317684753,-7.963864819177566,-124.34111022949219,4381.2578125,True
1599565766.8772266,0.0,10,0.5,0.5,0.6793110063552856,-0.001,-0.02275,-0.2505,0.24359597397741373,10,1,100,-0.38230272900737505,-10,-1,-100,6484.588717394392,0.02909035870603289,0.028665169702128367,0.9991656814944669,193.35090339655858,20.353514429069328,129.857130770046,-8.347083393609653,-124.06172180175781,4381.2578125,True
1599565766.9538498,0.0,10,0.5,0.5,0.6445785446166992,-0.001,-0.02275,-0.2505,0.235016343382979,10,1,100,-0.37078555575361766,-10,-1,-100,6484.277665940928,0.029602637476246304,0.027904353353488155,0.9991721728102588,193.526849151795,20.37791333023552,135.98092415886316,-8.730282028082623,-123.56484985351562,4381.2578125,True
1599565767.0146875,0.0,10,0.5,0.5,0.6058610004425049,-0.001,-0.02275,-0.2505,0.22790400788294085,10,1,100,-0.3574498412022784,-10,-1,-100,6483.90654331597,0.029933474733488733,0.027155094183010545,0.9991829601981268,193.6083825657132,20.393119034597056,142.05063309083528,-9.113456924260467,-122.85733032226562,4381.2578125,True
1599565767.0755246,0.0,10,0.5,0.5,0.4310061197280884,-0.001,-0.02275,-0.2505,0.17849263046700697,10,1,100,-0.3447564007322412,-10,-1,-100,6483.314680720796,0.03010707399872741,0.026031900752668716,0.9992076382006088,193.52104349740173,20.39565847943938,151.0093396485856,-9.688168335543548,-121.42081451416016,4381.2578125,True
1599565767.137007,0.0,10,0.5,0.5,0.7903440616607667,-0.001,-0.02275,-0.2505,0.29005345170087415,10,1,100,-0.3282948571983483,-10,-1,-100,6483.314680720796,0.03010707399872741,0.026031900752668716,0.9992076382006088,193.52104349740173,20.39565847943938,151.0093396485856,-9.688168335543548,-121.42081451416016,4381.2578125,True
1599565767.1948876,0.0,10,0.5,0.5,0.4887403923034668,-0.001,-0.02275,-0.2505,0.2061480400238384,10,1,100,-0.31927884249943006,-10,-1,-100,6482.942063308437,0.030017777900684252,0.0252756727592439,0.9992297400380319,193.29305054994128,20.380925742706957,156.84522860968892,-10.071274102855707,-120.2286376953125,4381.2578125,True
1599565767.2592216,0.0,10,0.5,0.5,0.05802139148712149,-0.001,-0.02275,-0.2505,0.11111377050100132,10,1,100,-0.2569423123676175,-10,-1,-100,6482.069353697239,0.02936344184588798,0.02373113091062787,0.9992870567102657,192.8353697933928,20.355434282523802,168.48746440670183,-10.837402486387191,-117.35087585449219,4381.2578125,True
1599565767.317605,0.0,10,0.5,0.5,0.5538901674270629,-0.001,-0.02275,-0.2505,0.22229328443845436,10,1,100,-0.29498345906685797,-10,-1,-100,6481.85202340025,0.029110604023864027,0.023345002896954063,0.9993035492647401,192.62688984830297,20.340080111160255,171.30865672303207,-11.028918842579959,-116.51411437988281,4381.2578125,True
1599565767.3774428,0.0,10,0.5,0.5,0.5255156238555907,-0.001,-0.02275,-0.2505,0.21684537691382827,10,1,100,-0.28825876843736287,-10,-1,-100,6481.6317613135325,0.028817716264889753,0.02295099255821573,0.9993211651765759,192.3629578433501,20.319262612875946,174.07451979877732,-11.220430307513885,-115.63838195800781,4381.2578125,True
1599565767.4361088,0.0,10,0.5,0.5,0.03854716033935546,-0.001,-0.02275,-0.2505,0.12300938767994271,10,1,100,-0.20153261412615275,-10,-1,-100,6480.977311638417,0.027762270508797482,0.02174597402482435,0.9993779910273729,191.262010724911,20.226396715377334,182.0369941778931,-11.794944853504262,-112.90906524658203,4381.2578125,True
1599565767.492957,0.0,10,0.5,0.5,-0.0624153356552124,-0.001,-0.02275,-0.2505,0.10171885276316892,10,1,100,-0.15651135374122283,-10,-1,-100,6480.198333265143,0.026394065106138512,0.020463932145965643,0.999442134797357,189.63527747927455,20.080790323553785,189.38494115668686,-12.369450849137701,-109.89257049560547,4381.2578125,True
1599565767.5587835,0.0,10,0.5,0.5,0.394229296875,-0.001,-0.02275,-0.2505,0.18183109642426132,10,1,100,-0.23882396558135077,-10,-1,-100,6479.978547228267,0.02590098966008597,0.020034188323518717,0.9994637412296886,188.93869360302403,20.016402202302096,191.64706267460315,-12.560956707846188,-108.83192443847656,4381.2578125,True
1599565767.6166627,0.0,10,0.5,0.5,0.0886217731475829,-0.001,-0.02275,-0.2505,0.12638115816570925,10,1,100,-0.16992758591765014,-10,-1,-100,6479.479891507537,0.024829773664746528,0.01914657646897101,0.9995083246022893,187.36779171841445,19.869295407433338,195.9251961913846,-12.943980610934823,-106.6936264038086,4381.2578125,True
1599565767.678461,0.0,10,0.5,0.5,0.31924194393157956,-0.001,-0.02275,-0.2505,0.16425496288104685,10,1,100,-0.21386200148152534,-10,-1,-100,6479.200046213111,0.024259984447808393,0.018691244387443472,0.9995309352580544,186.5081553543184,19.788032662408337,197.95126434199418,-13.135500183955294,-105.62702178955078,4381.2578125,True
1599565767.7392986,0.0,10,0.5,0.5,-0.0001231576919555888,-0.001,-0.02275,-0.2505,0.10373188066096765,10,1,100,-0.13309482726809035,-10,-1,-100,6478.637422701344,0.023013062748243333,0.017733769617113378,0.9995778670809556,184.63732688475667,19.609467934488332,201.76237842915785,-13.518558487221043,-103.43768310546875,4381.2578125,True
1599565767.7959592,0.0,10,0.5,0.5,-0.34676945419311533,-0.001,-0.02275,-0.2505,0.0352778203248969,10,1,100,-0.03907705390972541,-10,-1,-100,6477.793488285737,0.021031239637426764,0.016248572123881335,0.9996467730469839,181.607156409055,19.317015924890796,207.0176431396548,-14.093205020877559,-100.0414047241211,4381.2578125,True
1599565767.862782,0.0,10,0.5,0.5,-0.13153046550750735,-0.001,-0.02275,-0.2505,0.06801120136927942,10,1,100,-0.0799415755405529,-10,-1,-100,6477.231354584335,0.019609247495385822,0.015204175231015103,0.9996921078353119,179.4909533416285,19.110520399327815,210.25948822017958,-14.476346219968093,-97.69705963134766,4381.2578125,True
1599565767.9196286,0.0,10,0.5,0.5,-0.466479065322876,-0.001,-0.02275,-0.2505,-0.0057865554995697455,10,1,100,0.02150308338814777,-10,-1,-100,6476.38694340107,0.017403170643588144,0.013591586589310457,0.9997561694861079,176.12266470236236,18.776742944466406,214.6506572698777,-15.051129505306882,-94.20801544189453,4381.2578125,True
1599565767.9754798,0.0,10,0.5,0.5,0.07272397289276122,-0.001,-0.02275,-0.2505,0.09285101597281004,10,1,100,-0.1135021626328194,-10,-1,-100,6476.044603541377,0.016635609772490206,0.013031168852334817,0.9997766976309457,175.0677723644456,18.671573465824753,216.13125075979502,-15.242740407536758,-93.07856750488281,4381.2578125,True
1599565768.042302,0.0,10,0.5,0.5,-0.2515317987442017,-0.001,-0.02275,-0.2505,0.024398020752759417,10,1,100,-0.02075659510091818,-10,-1,-100,6475.418524372159,0.015105760281649706,0.011908416247361848,0.9998149856992508,172.87451619286045,18.45031159139035,218.8925332253797,-15.625982296680998,-90.86839294433594,4381.2578125,True
1599565768.0941627,0.0,10,0.5,0.5,-0.27945059623718266,-0.001,-0.02275,-0.2505,0.008631966562268889,10,1,100,-0.00033597876538413174,-10,-1,-100,6474.7924539846135,0.013540851968950895,0.010753347529997837,0.9998504942464418,170.6463741644355,18.222362521475873,221.47727731559914,-16.009244782154596,-88.75537109375,4381.2578125,True
1599565768.260718,0.0,10,0.5,0.5,-0.5902573369979859,-0.001,-0.02275,-0.2505,-0.07339193224249563,10,1,100,0.10778831148128298,-10,-1,-100,6473.824067028472,0.011146944694379718,0.008966441056547212,0.9998976690435676,167.12896147384203,17.855542947304567,224.8672987402216,-16.584158764918126,-85.60614013671875,4381.2578125,True
1599565768.3464885,0.0,10,0.5,0.5,-0.8582411226272584,-0.001,-0.02275,-0.2505,-0.15853084959706548,10,1,100,0.21917526671611642,-10,-1,-100,6472.447958992561,0.007971469438058076,0.006578052056793255,0.9999465910268089,168.572582285418,18.009009864005478,237.5316035802846,-17.350642209732747,-81.61398315429688,4381.2578125,True
1599565768.4143076,0.0,10,0.5,0.5,-0.1500070888519287,-0.001,-0.02275,-0.2505,0.013699056174870716,10,1,100,-0.010031932011243902,-10,-1,-100,6472.103694547783,0.0071837012882204855,0.005983941677136512,0.9999562924837297,170.85601865287842,18.250511892547642,243.46988743820208,-17.542202807297503,-80.68060302734375,4381.2578125,True
1599565768.5095668,0.0,10,0.5,0.5,-0.19760839710235598,-0.001,-0.02275,-0.2505,0.006891332138875092,10,1,100,-0.001073595033625932,-10,-1,-100,6471.759921910474,0.006401632891443956,0.005393505025039792,0.9999649639861729,173.045925287879,18.481159925577654,249.34765820668383,-17.733733438546853,-79.78732299804688,4381.2578125,True
1599565769.0851498,0.0,10,0.5,0.5,-0.8231931329727173,-0.001,-0.02275,-0.2505,-0.19078013602699243,10,1,100,0.2607256696257569,-10,-1,-100,6470.258880659705,0.0033257696064316303,0.0030709495076185907,0.9999897542103351,180.78715565150233,19.28722861334168,272.0399329386968,-18.49954790213673,-76.62411499023438,4381.2578125,True
1599565769.1381884,0.0,10,0.5,0.5,-0.2689403522491455,-0.001,-0.02275,-0.2505,-0.023241992372563088,10,1,100,0.03857240091680876,-10,-1,-100,6469.914631937514,0.002565201308348131,0.002494589091018004,0.9999935983632668,182.5295480604438,19.466409320374922,277.5779352755951,-18.690923063858392,-75.88909912109375,4381.2578125,True
1599565769.1950343,0.0,10,0.5,0.5,-0.6605649522781373,-0.001,-0.02275,-0.2505,-0.14364345197617384,10,1,100,0.20447229606723893,-10,-1,-100,6468.757389918785,0.00038108930525652767,0.0008876205214755521,0.9999995334502667,187.5041157630195,19.973222572854485,294.13921203364447,-19.264853605182843,-73.797119140625,4381.2578125,True
1599565769.2521658,0.0,10,0.5,0.5,-0.3425639350891113,-0.001,-0.02275,-0.2505,-0.046469715194489634,10,1,100,0.07028768212468602,-10,-1,-100,6468.351627262309,-0.0003691323150414199,0.00032168667087757475,0.9999998801295027,189.04620015456214,20.128619783098983,299.5849048625721,-19.456098446330042,-73.16250610351562,4381.2578125,True
1599565769.308019,0.0,10,0.5,0.5,-0.6597174266815186,-0.001,-0.02275,-0.2505,-0.1598970579538164,10,1,100,0.23048751453119487,-10,-1,-100,6467.194411782431,-0.0024920552262009694,-0.0012124022345858685,0.9999961598634122,193.30948643297566,20.553127990859764,315.6354579079967,-20.029638288790338,-71.44952392578125,4381.2578125,True
1599565769.365381,0.0,10,0.5,0.5,-0.3992231887817383,-0.001,-0.02275,-0.2505,-0.0642544616250511,10,1,100,0.09795707854853403,-10,-1,-100,6466.7871925742365,-0.0032011649860419606,-0.0017256223470348165,0.9999933873632604,194.59193089138734,20.678976747290385,320.8515094988646,-20.22075497971291,-70.95477294921875,4381.2578125,True
1599565769.42522,0.0,10,0.5,0.5,-0.4330840667724609,-0.001,-0.02275,-0.2505,-0.06918396782196731,10,1,100,0.10555348777497853,-10,-1,-100,6466.379975343356,-0.0038996484725423637,-0.0022256552602539777,0.999989919549419,195.81852720908486,20.798490764049603,326.0174680472048,-20.41184086223329,-70.48837280273438,4381.2578125,True
1599565769.4970286,0.0,10,0.5,0.5,-0.5536673713684082,-0.001,-0.02275,-0.2505,-0.1179633319362921,10,1,100,0.18236160637791293,-10,-1,-100,6465.566033700248,-0.005219210362872205,-0.0031135047675681666,0.9999815327951065,198.0976691700042,21.01792953448109,336.17755098673706,-20.793922306834418,-69.68112182617188,4381.2578125,True
1599565769.552879,0.0,10,0.5,0.5,-0.543798639678955,-0.001,-0.02275,-0.2505,-0.13008711775677853,10,1,100,0.19850262794960508,-10,-1,-100,6464.690086205956,-0.006553557114004779,-0.004022046411836068,0.9999704365789093,200.12948882432056,21.209833192468782,346.0639576904976,-21.175888405904665,-69.02426147460938,4381.2578125,True
1599565769.6167095,0.0,10,0.5,0.5,-0.5388684371948242,-0.001,-0.02275,-0.2505,-0.13300225046911573,10,1,100,0.20850862482490373,-10,-1,-100,6463.81512143102,-0.007845074806262358,-0.00486539821483816,0.9999573904429605,201.95707628734482,21.3789637925546,355.72924142477694,-21.55774424216979,-68.49505615234375,4381.2578125,True
1599565769.676548,0.0,10,0.5,0.5,-0.5848357643127442,-0.001,-0.02275,-0.2505,-0.2138449447324332,10,1,100,0.3510571206193378,-10,-1,-100,6462.062762933783,-0.01030212566308437,-0.00635768898065215,0.9999267203138674,205.02880949635426,21.652620435971446,374.3731310155109,-22.321147830679855,-67.8873291015625,4381.2578125,True
1599565769.7324002,0.0,10,0.5,0.5,-0.46880908966064455,-0.001,-0.02275,-0.2505,-0.13767516359074494,10,1,100,0.23547676191026978,-10,-1,-100,6461.185855534975,-0.011472688730776929,-0.007013292904205637,0.9999095914811131,206.24573597567252,21.75457732397391,383.2647176553902,-22.702708767981957,-67.8223876953125,4381.2578125,True
1599565769.795232,0.0,10,0.5,0.5,-0.4457491760253906,-0.001,-0.02275,-0.2505,-0.1309030267957184,10,1,100,0.2386403514006991,-10,-1,-100,6460.247914106469,-0.012552835160374863,-0.0075390880620310905,0.9998927884931612,207.24512249110262,21.832976146976048,391.8334727894936,-23.084185443250952,-67.92236328125,4381.2578125,True
1599565769.857066,0.0,10,0.5,0.5,-0.4566656677246094,-0.001,-0.02275,-0.2505,-0.10780309795342015,10,1,100,0.19125198211534367,-10,-1,-100,6459.778210324817,-0.01309222498971918,-0.007799423662775603,0.9998838745751164,207.66094944327983,21.8631542487642,395.9860232990004,-23.274894472228752,-68.03167724609375,4381.2578125,True
1599565769.9218934,0.0,10,0.5,0.5,-0.4143109138488769,-0.001,-0.02275,-0.2505,-0.1310712492535217,10,1,100,0.25096529164597914,-10,-1,-100,6458.8388035303215,-0.014113861200606446,-0.008240238211331853,0.9998664397789491,208.33438651266795,21.906588117262633,404.032720294726,-23.656258354382885,-68.35537719726562,4381.2578125,True
1599565769.9897115,0.0,10,0.5,0.5,-0.4491328735351562,-0.001,-0.02275,-0.2505,-0.1080827100944569,10,1,100,0.20336232620796374,-10,-1,-100,6458.369588415488,-0.014599301882908908,-0.00842560304859445,0.999857924706205,208.59442058482776,21.920143722384758,407.9266242435601,-23.846914861967193,-68.56732177734375,4381.2578125,True
1599565770.0505495,0.0,10,0.5,0.5,-0.37577398071289053,-0.001,-0.02275,-0.2505,-0.12658068025992691,10,1,100,0.2599126039477692,-10,-1,-100,6457.368168152869,-0.01554434308545768,-0.008756189010608756,0.9998408386098521,208.9662408303507,21.931594855949584,415.4536277101237,-24.228180985475696,-69.09170532226562,4381.2578125,True
1599565770.1173708,0.0,10,0.5,0.5,-0.25243141021728516,-0.001,-0.02275,-0.2505,-0.13192989712399694,10,1,100,0.3090122889391832,-10,-1,-100,6455.897529751761,-0.016839246138048585,-0.009099414098703894,0.9998168034457925,209.1384433307907,21.908486186868274,426.0266587659445,-24.799975673349216,-70.1170654296875,4381.2578125,True
1599565770.1782086,0.0,10,0.5,0.5,-0.4061204704284669,-0.001,-0.02275,-0.2505,-0.10769453408207826,10,1,100,0.22586008591044504,-10,-1,-100,6455.427823824808,-0.017249937943983447,-0.009185673688108272,0.9998090132819489,209.0914992857031,21.890010718753707,429.34673215917906,-24.990549048787543,-70.5233154296875,4381.2578125,True
1599565770.243035,0.0,10,0.5,0.5,-0.2781963592529297,-0.001,-0.02275,-0.2505,-0.11105524686571945,10,1,100,0.2690972077505152,-10,-1,-100,6454.425909592421,-0.018006634892624888,-0.009289949224439651,0.9997947078992021,208.8260609211604,21.83555769623895,435.634181138509,-25.37166373243707,-71.42303466796875,4381.2578125,True
1599565770.303893,0.0,10,0.5,0.5,-0.1133942626953125,-0.001,-0.02275,-0.2505,-0.10439409505033463,10,1,100,0.30559028791342224,-10,-1,-100,6452.893244917621,-0.019017058701883204,-0.009320166921865042,0.9997757178321935,208.0456155298428,21.715634190746314,444.2417871460174,-25.943266214027254,-72.94796752929688,4381.2578125,True
1599565770.3705351,0.0,10,0.5,0.5,-0.3429301536560059,-0.001,-0.02275,-0.2505,-0.09950359213656884,10,1,100,0.2395933413478688,-10,-1,-100,6452.360057422658,-0.019327730893305008,-0.009300485276725515,0.9997699434330546,207.6839226575883,21.66568209734804,446.8823729152829,-26.133784248159007,-73.50839233398438,4381.2578125,True
1599565770.4689476,0.0,10,0.5,0.5,-0.015688432312011724,-0.001,-0.02275,-0.2505,-0.08276672875696844,10,1,100,0.29574915268263235,-10,-1,-100,6450.764391952776,-0.020113526586584017,-0.009128360302809104,0.9997560297824829,206.2436075385804,21.481345444369758,453.9723917691344,-26.705299643515247,-75.31631469726562,4381.2578125,True
1599565770.5347726,0.0,10,0.5,0.5,0.03819278945922855,-0.001,-0.02275,-0.2505,-0.06690466276742882,10,1,100,0.2875388690084667,-10,-1,-100,6449.105239310069,-0.02074637400941233,-0.008826237660943119,0.9997458104409411,204.3844722925711,21.258241550669418,460.0101748223597,-27.27676525878463,-77.264404296875,4381.2578125,True
1599565770.616554,0.0,10,0.5,0.5,-0.08544275588989259,-0.001,-0.02275,-0.2505,-0.06754634749275412,10,1,100,0.258091628635142,-10,-1,-100,6448.039820965147,-0.021047029345844487,-0.008556480744024118,0.9997418712812784,202.88187604197216,21.085488755768107,463.35026690522994,-27.657718854188193,-78.629638671875,4381.2578125,True
1599565770.6833827,0.0,10,0.5,0.5,-0.060150964355468683,-0.001,-0.02275,-0.2505,-0.06014993594596894,10,1,100,0.25356361891691825,-10,-1,-100,6446.914826526889,-0.02127288577412147,-0.00824371958500635,0.9997397188359802,201.2561916963743,20.903031641404095,466.32013171100675,-28.038654059753647,-79.9970703125,4381.2578125,True
1599565770.7561939,0.0,10,0.5,0.5,-0.37668991241455074,-0.001,-0.02275,-0.2505,-0.0914078635013869,10,1,100,0.2316453344783412,-10,-1,-100,6446.914826526889,-0.02127288577412147,-0.00824371958500635,0.9997397188359802,201.2561916963743,20.903031641404095,466.32013171100675,-28.038654059753647,-79.9970703125,4381.2578125,True
1599565770.8289988,0.0,10,0.5,0.5,-0.009153125762939474,-0.001,-0.02275,-0.2505,-0.05208280567122499,10,1,100,0.24802660313673808,-10,-1,-100,6445.7898268116405,-0.02141659863220811,-0.007886684940573608,0.9997395308297432,199.54929168324867,20.715455420194363,469.00537969237047,-28.419568492100133,-81.35980224609375,4381.2578125,True
1599565770.9028037,0.0,10,0.5,0.5,0.19934300003051758,-0.001,-0.02275,-0.2505,-0.02095588931082125,10,1,100,0.2415913977632847,-10,-1,-100,6444.067649581935,-0.02148458358844261,-0.007280238505229381,0.9997426722888937,196.79157445406804,20.420278030890945,472.3722691472622,-28.990896422410913,-83.44442749023438,4381.2578125,True
1599565770.9795969,0.0,10,0.5,0.5,0.26494696502685544,-0.001,-0.02275,-0.2505,-0.006923478196410537,10,1,100,0.22309567401576624,-10,-1,-100,6442.285893359454,-0.021374395473092476,-0.006603088404042604,0.9997497359047853,198.60334035514754,20.607977857479117,486.6904442593303,-29.56208804953055,-85.66473388671875,4381.2578125,True
1599565771.0494115,0.0,10,0.5,0.5,-0.07300100860595704,-0.001,-0.02275,-0.2505,-0.04881035716643811,10,1,100,0.22634662704178782,-10,-1,-100,6441.691158027854,-0.02130071697702849,-0.006370729812527964,0.9997528160790148,200.21922664950145,20.77756918792992,494.0068744083025,-29.752412096499448,-86.40365600585938,4381.2578125,True
1599565771.135182,0.0,10,0.5,0.5,0.13470968170166014,-0.001,-0.02275,-0.2505,-0.018579098241602032,10,1,100,0.21143954442763674,-10,-1,-100,6440.4982672804035,-0.021096141540227906,-0.005887346409206451,0.9997601172103101,203.31818318018142,21.105946997555847,508.47946278551564,-30.132943846746628,-87.84381103515625,4381.2578125,True
1599565771.2159646,0.0,10,0.5,0.5,-0.018419153594970678,-0.001,-0.02275,-0.2505,-0.03975647661682219,10,1,100,0.21813767305135995,-10,-1,-100,6439.904018387897,-0.02096944830276402,-0.005643531426750276,0.9997641885919465,204.7913902356024,21.26366159922082,515.6063094671246,-30.323150855335136,-88.53970336914062,4381.2578125,True
1599565771.291762,0.0,10,0.5,0.5,0.18579578475952152,-0.001,-0.02275,-0.2505,-0.007314550308662099,10,1,100,0.19665706321844922,-10,-1,-100,6438.657412127126,-0.020658216250482954,-0.005130122866148715,0.9997734343043561,207.59191523916036,21.56669058856281,529.6452200621479,-30.70344638584117,-89.92520141601562,4381.2578125,True
1599565771.3645682,0.0,10,0.5,0.5,0.3819985427856445,-0.001,-0.02275,-0.2505,0.02623333914064311,10,1,100,0.16264071307436212,-10,-1,-100,6436.801413247944,-0.02006611861778931,-0.0043617671022397895,0.9997891407048601,211.55147509999242,22.002812912526096,550.4508689301797,-31.27358735248905,-91.97079467773438,4381.2578125,True
1599565771.4483442,0.0,10,0.5,0.5,0.2383920845031738,-0.001,-0.02275,-0.2505,0.007048479256544199,10,1,100,0.16942050973850536,-10,-1,-100,6435.552358543035,-0.01959037429476735,-0.0038414830554887418,0.999800710263263,214.02406759024677,22.28035785329828,564.1170357383088,-31.653477039538497,-93.31657409667969,4381.2578125,True
1599565771.5211508,0.0,10,0.5,0.5,0.09680920906066894,-0.001,-0.02275,-0.2505,-0.0160757516774292,10,1,100,0.1882712516028927,-10,-1,-100,6434.9019523377065,-0.01933077939213214,-0.003582719872868927,0.9998067238653706,215.22240429029355,22.4163600037214,570.9159876416244,-31.84335976286583,-93.97356414794922,4381.2578125,True
1599565771.6009357,0.0,10,0.5,0.5,0.27713448390960693,-0.001,-0.02275,-0.2505,0.01405469459703474,10,1,100,0.15360067739868233,-10,-1,-100,6433.5816071091685,-0.018781362539136388,-0.0030778047404577302,0.9998188773668724,217.5534688531251,22.683721568039406,584.4668589470541,-32.223000373565775,-95.21851348876953,4381.2578125,True
1599565771.6946852,0.0,10,0.5,0.5,0.28810667839050297,-0.001,-0.02275,-0.2505,0.019743083495884044,10,1,100,0.1414137000941343,-10,-1,-100,6432.323272960843,-0.018173497639183515,-0.0025714500666399356,0.9998315416249445,219.6723621874338,22.93158666111827,597.6084453258684,-32.602477266440076,-96.37677764892578,4381.2578125,True
1599565771.7954156,0.0,10,0.5,0.5,0.5688543970108032,-0.001,-0.02275,-0.2505,0.07740204015277934,10,1,100,0.052675678347200744,-10,-1,-100,6429.634727811674,-0.016817193974208108,-0.0015912360194143373,0.9998573147978487,223.49721941996586,23.39092156467467,623.2011193135288,-33.360950835942745,-98.52974700927734,4381.2578125,True
1599565771.8896449,0.0,10,0.5,0.5,0.058803477096557616,-0.001,-0.02275,-0.2505,-0.020118179331317657,10,1,100,0.1878503246948531,-10,-1,-100,6429.634727811674,-0.016817193974208108,-0.0015912360194143373,0.9998573147978487,223.49721941996586,23.39092156467467,623.2011193135288,-33.360950835942745,-98.52974700927734,4381.2578125,True
1599565771.960456,0.0,10,0.5,0.5,0.541313063621521,-0.001,-0.02275,-0.2505,0.07987529569881568,10,1,100,0.02611996794286614,-10,-1,-100,6426.943255329621,-0.015350993933738063,-0.000686549422588683,0.9998819308474058,226.96528100021234,23.820248133737003,648.3337808821185,-34.118791966793395,-100.33858489990234,4381.2578125,True
1599565772.0562005,0.0,10,0.5,0.5,0.2931805763244629,-0.001,-0.02275,-0.2505,0.037320067907118844,10,1,100,0.08557628078322163,-10,-1,-100,6425.561388450675,-0.01456381960241079,-0.0002557007662958937,0.9998939092602307,228.49234826768824,24.01529248118149,660.494246296953,-34.49748663578304,-101.04059600830078,4381.2578125,True
1599565772.1220243,0.0,10,0.5,0.5,0.29258083095550536,-0.001,-0.02275,-0.2505,0.03726988547465785,10,1,100,0.0821352038557984,-10,-1,-100,6424.185871583992,-0.013822747355227925,0.00013062559852931082,0.9999044527316131,229.86355392662256,24.195029725466448,672.3137825982268,-34.876038421307236,-101.62435150146484,4381.2578125,True
1599565772.2157743,0.0,10,0.5,0.5,0.2839486175537109,-0.001,-0.02275,-0.2505,0.03997276297138118,10,1,100,0.07095105069793418,-10,-1,-100,6422.748832760495,-0.013053585255349514,0.0005016204997363652,0.9999146725040369,231.0083453785771,24.35179234688672,683.5682804474474,-35.25445540832121,-102.06563568115234,4381.2578125,True
1599565772.2761972,0.0,10,0.5,0.5,0.24217619495391843,-0.001,-0.02275,-0.2505,0.022961504946706388,10,1,100,0.10450321330647584,-10,-1,-100,6422.0901283446,-0.012665741673139918,0.00067981953006212,0.9999195551809534,231.50737708842692,24.42270360848002,689.0109680820882,-35.443616017116526,-102.24775695800781,4381.2578125,True
1599565772.344528,0.0,10,0.5,0.5,0.2569894556045532,-0.001,-0.02275,-0.2505,0.024397561566890387,10,1,100,0.10021422813086878,-10,-1,-100,6421.365995371249,-0.012280460944645338,0.0008507634336457963,0.9999242303697652,231.96883826862063,24.489802386173075,694.3612995655192,-35.632745803710165,-102.40726470947266,4381.2578125,True
1599565772.417332,0.0,10,0.5,0.5,0.32442825298309325,-0.001,-0.02275,-0.2505,0.060808240045715146,10,1,100,0.01004956026166308,-10,-1,-100,6419.200921837008,-0.011116936318518837,0.0013331427109779864,0.9999373162640758,233.14726720849816,24.670111380710686,709.8987546555167,-36.199956994590025,-102.75799560546875,4381.2578125,True
1599565772.4826746,0.0,10,0.5,0.5,0.28858503036499017,-0.001,-0.02275,-0.2505,0.04589031982585827,10,1,100,0.03870674036852405,-10,-1,-100,6417.70431887242,-0.01032667413775768,0.0016320419179617915,0.9999453466267196,233.78026441272584,24.774689069673926,719.870554715036,-36.57795545404734,-102.89661407470703,4381.2578125,True
1599565772.5455046,0.0,10,0.5,0.5,0.28393278350830076,-0.001,-0.02275,-0.2505,0.04697461600672852,10,1,100,0.031530515513748095,-10,-1,-100,6416.266798859579,-0.009550149041569051,0.0019098043514235242,0.999952572525629,234.29951756615063,24.86752106924701,729.5449266208707,-36.95584502238064,-102.95720672607422,4381.2578125,True
1599565772.609336,0.0,10,0.5,0.5,0.25963886795043944,-0.001,-0.02275,-0.2505,0.06154195073142423,10,1,100,-0.018987081998861358,-10,-1,-100,6414.039723173599,-0.008391572653948975,0.0022915632062761168,0.9999621644074664,234.85486599799086,24.98341571492179,743.4415568549974,-37.52248540229932,-102.88091278076172,4381.2578125,True
1599565772.6781495,0.0,10,0.5,0.5,0.2886494033813476,-0.001,-0.02275,-0.2505,0.023754345168734013,10,1,100,0.09602799463112037,-10,-1,-100,6414.039723173599,-0.008391572653948975,0.0022915632062761168,0.9999621644074664,234.85486599799086,24.98341571492179,743.4415568549974,-37.52248540229932,-102.88091278076172,4381.2578125,True
1599565772.7349975,0.0,10,0.5,0.5,0.25490415039062503,-0.001,-0.02275,-0.2505,0.04936089915278811,10,1,100,0.012196884874171685,-10,-1,-100,6412.480138257495,-0.007635798402776522,0.0025216426855594587,0.9999676674277616,235.07913665781496,25.045275026667124,752.2885604287768,-37.90012388505819,-102.72373962402344,4381.2578125,True
1599565772.7978294,0.0,10,0.5,0.5,0.23852858257293702,-0.001,-0.02275,-0.2505,0.04962994625950426,10,1,100,0.008227378940009591,-10,-1,-100,6410.970360239851,-0.006918942685217941,0.002730726873649139,0.9999723352987624,235.194394076788,25.095507787120553,760.8131326129767,-38.277670741513276,-102.48685455322266,4381.2578125,True
1599565772.860664,0.0,10,0.5,0.5,0.12011827945709225,-0.001,-0.02275,-0.2505,0.06951657013224188,10,1,100,-0.07921365248830016,-10,-1,-100,6407.842410032754,-0.005478613387789152,0.003099227169596354,0.9999801895969231,235.10473796381763,25.161362368524113,776.8741448594972,-39.0325083485399,-101.77229309082031,4381.2578125,True
1599565772.919504,0.0,10,0.5,0.5,0.2416484691619873,-0.001,-0.02275,-0.2505,0.041762212256888115,10,1,100,0.026330379685677044,-10,-1,-100,6407.059690449154,-0.0051356006570423725,0.003179553633708915,0.9999817578559029,235.0137687600792,25.17032055975746,780.6695604849065,-39.22116789795829,-101.54644775390625,4381.2578125,True
1599565772.986326,0.0,10,0.5,0.5,0.17109023361206055,-0.001,-0.02275,-0.2505,0.05009266180847908,10,1,100,-0.01170448916526718,-10,-1,-100,6405.493277453701,-0.004484844949551351,0.0033260365660042097,0.9999844117017724,234.75893250924753,25.18011045275277,788.0183452821741,-39.59843111964377,-101.04729461669922,4381.2578125,True
1599565773.0511522,0.0,10,0.5,0.5,0.0810939121246338,-0.001,-0.02275,-0.2505,0.056274280351944685,10,1,100,-0.05071446335461419,-10,-1,-100,6403.078719290439,-0.00354569964647008,0.003513149152002021,0.9999875428209357,234.2541378607039,25.180644552314366,798.6213998552613,-40.16419237537992,-100.20458984375,4381.2578125,True
1599565773.1149814,0.0,10,0.5,0.5,0.12686170768737792,-0.001,-0.02275,-0.2505,0.04900974582812411,10,1,100,-0.020303705619437333,-10,-1,-100,6401.516703691799,-0.0029752755655087586,0.003615228455928004,0.9999890388691872,233.9036520208193,25.17866154058071,805.633735189691,-40.54128068063264,-99.5703125,4381.2578125,True
1599565773.183798,0.0,10,0.5,0.5,0.10935586833953859,-0.001,-0.02275,-0.2505,0.04827163477630687,10,1,100,-0.021666491557961007,-10,-1,-100,6399.825782886241,-0.002451002345713932,0.0036995148258096807,0.9999901530402961,233.5328961262827,25.173682668780753,812.5681891261232,-40.91830138622563,-98.89904022216797,4381.2578125,True
1599565773.2446363,0.0,10,0.5,0.5,0.1809472318649292,-0.001,-0.02275,-0.2505,0.04395973877318553,10,1,100,0.0018438380993284625,-10,-1,-100,6399.039648612263,-0.0021945743670538625,0.0037353127343333872,0.9999906155970285,233.33230222626648,25.169213579245184,815.9789597405208,-41.10678697270528,-98.55180358886719,4381.2578125,True
1599565773.3034778,0.0,10,0.5,0.5,0.16856960449218747,-0.001,-0.02275,-0.2505,0.04399372393165722,10,1,100,-8.670008622631287e-05,-10,-1,-100,6398.197850859491,-0.0019495413104822967,0.003766852743951902,0.9999910050140872,233.1520717593685,25.16669675248948,819.458632885034,-41.29525605314184,-98.19589233398438,4381.2578125,True
1599565773.3618295,0.0,10,0.5,0.5,0.06150050792694092,-0.001,-0.02275,-0.2505,0.04640671058737242,10,1,100,-0.026469491845573484,-10,-1,-100,6396.566013602191,-0.0014927968170081415,0.0038161205499864393,0.9999916043555622,232.82504734273724,25.164488954606533,826.5308570090905,-41.6721432991329,-97.45805358886719,4381.2578125,True
1599565773.4286516,0.0,10,0.5,0.5,-0.1705040742874146,-0.001,-0.02275,-0.2505,0.046824694508655104,10,1,100,-0.07165090823684475,-10,-1,-100,6393.18515272683,-0.0006724189480980511,0.003863532520334564,0.9999923104550468,232.01877243733662,25.139983288353537,840.1083447357721,-42.42572168382573,-95.84829711914062,4381.2578125,True
1599565773.4934812,0.0,10,0.5,0.5,0.0009786415100097867,-0.001,-0.02275,-0.2505,0.04187750131303812,10,1,100,-0.028566275737014896,-10,-1,-100,6391.4947226179065,-0.00032397802066653103,0.003860630004648445,0.9999924952589441,231.52386311324705,25.11562750803342,846.5457238006749,-42.80241757858897,-94.98683166503906,4381.2578125,True
1599565773.5589836,0.0,10,0.5,0.5,0.20133881301879886,-0.001,-0.02275,-0.2505,0.04224389316515521,10,1,100,0.0057623534694248475,-10,-1,-100,6391.4947226179065,-0.00032397802066653103,0.003860630004648445,0.9999924952589441,231.52386311324705,25.11562750803342,846.5457238006749,-42.80241757858897,-94.98683166503906,4381.2578125,True
1599565774.0801184,0.0,10,0.5,0.5,-0.13021389503479006,-0.001,-0.02275,-0.2505,0.03835647673274495,10,1,100,-0.042599986365085815,-10,-1,-100,6388.893159082159,0.00011130541179595154,0.0038246706949256796,0.9999926797257971,230.7653847356154,25.074251683707377,856.1098537146648,-43.367348086689,-93.72786712646484,4381.2578125,True
1599565774.1309824,0.0,10,0.5,0.5,-0.04051290473937988,-0.001,-0.02275,-0.2505,0.03693063815717277,10,1,100,-0.027127675476290063,-10,-1,-100,6387.140229330515,0.00036218193289884037,0.003778564940737126,0.9999927956096665,230.2928930125819,25.048143189077027,862.5874552406303,-43.74389072809066,-92.89678192138672,4381.2578125,True
1599565774.1943347,0.0,10,0.5,0.5,0.042552460289001476,-0.001,-0.02275,-0.2505,0.03832536127061165,10,1,100,-0.014694814464642797,-10,-1,-100,6386.233002894325,0.00047367286872342877,0.0037490886326981263,0.9999928599587287,230.0466417458599,25.033328786982644,865.7826159755036,-43.93213852456127,-92.46538543701172,4381.2578125,True
1599565774.253692,0.0,10,0.5,0.5,-0.2899507606506348,-0.001,-0.02275,-0.2505,0.023825134813549566,10,1,100,-0.038651063396435516,-10,-1,-100,6382.72714318661,0.0007896769384582318,0.003590350057437771,0.9999932428755696,229.0167803380477,24.964329735697852,878.3473027262544,-44.68497638022002,-90.77789306640625,4381.2578125,True
1599565774.3165245,0.0,10,0.5,0.5,0.009919656944274893,-0.001,-0.02275,-0.2505,0.03406603960223198,10,1,100,-0.013800258452905856,-10,-1,-100,6381.816009384813,0.0008480908848358085,0.0035392406368876263,0.9999933772368522,228.77310433064207,24.947343811142364,881.5294673651216,-44.87314652153913,-90.36289978027344,4381.2578125,True
1599565774.375391,0.0,10,0.5,0.5,-0.11120486545562744,-0.001,-0.02275,-0.2505,0.026918835626471516,10,1,100,-0.017020253889074216,-10,-1,-100,6379.9971612794325,0.0009277010989152363,0.0034279811930600776,0.9999936941379236,228.28264134201683,24.911493108225326,887.8684216187866,-45.24943919012814,-89.54202270507812,4381.2578125,True
1599565774.4332361,0.0,10,0.5,0.5,-0.022368973731994632,-0.001,-0.02275,-0.2505,0.03132751833139863,10,1,100,-0.011800542048175839,-10,-1,-100,6379.08651644364,0.0009500064200616422,0.003367223242853363,0.9999938796289878,228.05385982540423,24.894589684018037,891.0953841105613,-45.437561236642374,-89.15591430664062,4381.2578125,True
1599565774.4940739,0.0,10,0.5,0.5,-0.3187314687728882,-0.001,-0.02275,-0.2505,0.005741888452984685,10,1,100,-0.010611833127926427,-10,-1,-100,6375.390225039097,0.000957256809795135,0.0030798001958681626,0.9999947992315529,227.29291709216312,24.838852732831015,904.576849278832,-46.189878577734454,-87.66806030273438,4381.2578125,True
1599565774.5469604,0.0,10,0.5,0.5,-0.054686859703063966,-0.001,-0.02275,-0.2505,0.025401651202188465,10,1,100,-0.0075903431433815075,-10,-1,-100,6374.489345214912,0.0009348984590043626,0.002997944116623893,0.9999950691358157,227.12692033693483,24.826330828039666,908.03749315846,-46.377914027802404,-87.30999755859375,4381.2578125,True
1599565774.6027832,0.0,10,0.5,0.5,-0.07177290363311767,-0.001,-0.02275,-0.2505,0.02407011059338164,10,1,100,-0.006466372765964021,-10,-1,-100,6373.5747941521695,0.0009032103398728915,0.00291220884440179,0.9999953516145603,226.96911801290483,24.81421255554858,911.5292386881473,-46.56593155822863,-86.95486450195312,4381.2578125,True
1599565774.6617362,0.0,10,0.5,0.5,-0.3198192953109741,-0.001,-0.02275,-0.2505,-0.007617030407373826,10,1,100,0.014346169041043882,-10,-1,-100,6369.742271481897,0.0006840824075437193,0.0025470649707023257,0.9999965222396,226.51370801512093,24.780215422591183,926.1996740914591,-47.31781570144465,-85.68753051757812,4381.2578125,True
1599565774.726563,0.0,10,0.5,0.5,-0.16737781524658205,-0.001,-0.02275,-0.2505,0.006281283905806925,10,1,100,0.010304095169726739,-10,-1,-100,6367.828695800039,0.0005211006160784933,0.0023426257662992043,0.9999971202751871,226.39540128504493,24.77253208715909,933.9865128977451,-47.693640212588505,-85.10409545898438,4381.2578125,True
1599565774.8252988,0.0,10,0.5,0.5,-0.10737216815948486,-0.001,-0.02275,-0.2505,0.015607425204261541,10,1,100,0.00397621129432679,-10,-1,-100,6366.844319808064,0.0004303170966290331,0.0022428604460772612,0.9999973921987074,226.3532530894656,24.769910262982826,937.9534746416555,-47.88152219998723,-84.83206176757812,4381.2578125,True
1599565774.8901258,0.0,10,0.5,0.5,-0.1787055088043213,-0.001,-0.02275,-0.2505,0.002017384365385382,10,1,100,0.017806619130021257,-10,-1,-100,6364.935627075727,0.00022209505841602363,0.002029988172964458,0.9999979149087275,226.35776704404557,24.77320217080673,946.2667526118743,-48.25722308626195,-84.34652709960938,4381.2578125,True
1599565774.9639275,0.0,10,0.5,0.5,-0.12718656730651856,-0.001,-0.02275,-0.2505,0.010938536840430144,10,1,100,0.009864328568786631,-10,-1,-100,6363.952716568601,0.00010552092139727723,0.0019189878216209282,0.9999981531738326,226.4039984179457,24.779118908173267,950.6145514177202,-48.44504070544515,-84.12594604492188,4381.2578125,True
1599565775.0367332,0.0,10,0.5,0.5,-0.27746976852416994,-0.001,-0.02275,-0.2505,-0.028583601998376028,10,1,100,0.057560716485623366,-10,-1,-100,6360.003984800074,-0.00043338402971515474,0.0014602591971515423,0.9999988399100072,228.84201661675306,25.046218883802226,977.6920801731737,-49.1959921629658,-83.3651123046875,4381.2578125,True
1599565775.1264942,0.0,10,0.5,0.5,-0.1413278121948242,-0.001,-0.02275,-0.2505,0.00373587607658522,10,1,100,0.02079526202844191,-10,-1,-100,6359.033281050855,-0.0005878288673624157,0.0013388354501298468,0.9999989309878587,229.50410635424257,25.118045119639454,984.7543211761133,-49.38364380824303,-83.20449829101562,4381.2578125,True
1599565775.1943128,0.0,10,0.5,0.5,-0.2149633071899414,-0.001,-0.02275,-0.2505,-0.023225014963870024,10,1,100,0.059185758017684,-10,-1,-100,6356.057695684372,-0.0010758397421371955,0.000985195205008461,0.9999989359790628,231.3760293370224,25.319577063055483,1005.618288716211,-49.94639647808311,-82.80557250976562,4381.2578125,True
1599565775.2571442,0.0,10,0.5,0.5,-0.12609455871582032,-0.001,-0.02275,-0.2505,0.011929549049182583,10,1,100,0.010587980195399253,-10,-1,-100,6356.057695684372,-0.0010758397421371955,0.000985195205008461,0.9999989359790628,231.3760293370224,25.319577063055483,1005.618288716211,-49.94639647808311,-82.80557250976562,4381.2578125,True
1599565775.3214836,0.0,10,0.5,0.5,-0.1802057273864746,-0.001,-0.02275,-0.2505,-0.015133217240584291,10,1,100,0.050412032037913744,-10,-1,-100,6354.052325043711,-0.001436048633249926,0.0007409998286575035,0.9999986943409359,232.47867708486154,25.437068404077532,1019.0297199850152,-50.321401335811956,-82.63116455078125,4381.2578125,True
1599565775.4037747,0.0,10,0.5,0.5,-0.1748048095703125,-0.001,-0.02275,-0.2505,-0.016560983747166993,10,1,100,0.05529823857801754,-10,-1,-100,6351.985432072426,-0.00180580472192324,0.000507998162838376,0.9999982405020386,233.47544083097986,25.542440772641903,1032.0743419995888,-50.69628003518019,-82.51803588867188,4381.2578125,True
1599565775.4666066,0.0,10,0.5,0.5,-0.16929565277099606,-0.001,-0.02275,-0.2505,-0.021137638363497618,10,1,100,0.06374563178489658,-10,-1,-100,6349.979574574041,-0.0022164775706620013,0.00025642621267967614,0.9999975107332898,234.37614835954406,25.636947435978694,1044.7848575276014,-51.07103644892006,-82.4559326171875,4381.2578125,True
1599565775.5310338,0.0,10,0.5,0.5,-0.15350041427612302,-0.001,-0.02275,-0.2505,-0.0487088218210458,10,1,100,0.11706242383244234,-10,-1,-100,6345.844326999388,-0.003072025926141527,-0.0002210261374844713,0.9999952568908294,235.95361973721504,25.800976146454072,1069.4544845426506,-51.820193953730005,-82.4808349609375,4381.2578125,True
1599565775.6138132,0.0,10,0.5,0.5,-0.15531699981689454,-0.001,-0.02275,-0.2505,-0.014325785379764835,10,1,100,0.05668979063920783,-10,-1,-100,6344.809660973027,-0.0032977710902546272,-0.0003402607730915404,0.9999945044491206,236.29574457376617,25.836282867391674,1075.434325081665,-52.007411804158664,-82.51968383789062,4381.2578125,True
1599565775.6776435,0.0,10,0.5,0.5,-0.12126559448242187,-0.001,-0.02275,-0.2505,-0.03975485022454745,10,1,100,0.10945758957588014,-10,-1,-100,6341.645606080419,-0.003979501351464766,-0.0006776744413723034,0.9999918521299788,237.19826025425036,25.92902363408877,1092.9132216900541,-52.56889986347532,-82.71029663085938,4381.2578125,True
1599565775.7354875,0.0,10,0.5,0.5,-0.17223470153808593,-0.001,-0.02275,-0.2505,-0.006273149622770478,10,1,100,0.04169306568215247,-10,-1,-100,6341.645606080419,-0.003979501351464766,-0.0006776744413723034,0.9999918521299788,237.19826025425036,25.92902363408877,1092.9132216900541,-52.56889986347532,-82.71029663085938,4381.2578125,True
1599565775.7948387,0.0,10,0.5,0.5,-0.06977956771850585,-0.001,-0.02275,-0.2505,-0.0544071717802255,10,1,100,0.14732567741708286,-10,-1,-100,6337.385853099986,-0.0049365740787625425,-0.0011133128849505091,0.9999871953034124,238.12548948215272,26.02410733503477,1115.1630736712304,-53.317179511599996,-83.12359619140625,4381.2578125,True
1599565775.8651588,0.0,10,0.5,0.5,-0.10494053344726563,-0.001,-0.02275,-0.2505,-0.03505293233319741,10,1,100,0.10821929901657289,-10,-1,-100,6335.25500150607,-0.0054471742588364305,-0.001331170976562186,0.9999842780146222,238.48129491436117,26.06091857575363,1125.8664995458616,-53.69116673152308,-83.39617919921875,4381.2578125,True
1599565775.9257138,0.0,10,0.5,0.5,-0.09462067642211915,-0.001,-0.02275,-0.2505,-0.03359628830470503,10,1,100,0.10963758275776365,-10,-1,-100,6333.123662429047,-0.005920275788808336,-0.0015138757812396245,0.99998132908305,238.7602180854223,26.090256254733784,1136.2548851818756,-54.0650563977799,-83.703369140625,4381.2578125,True
1599565776.0010295,0.0,10,0.5,0.5,-0.1695292694091797,-0.001,-0.02275,-0.2505,-0.015575714935585983,10,1,100,0.06281187336524018,-10,-1,-100,6333.123662429047,-0.005920275788808336,-0.0015138757812396245,0.99998132908305,238.7602180854223,26.090256254733784,1136.2548851818756,-54.0650563977799,-83.703369140625,4381.2578125,True
1599565776.0658555,0.0,10,0.5,0.5,0.009362174987792987,-0.001,-0.02275,-0.2505,-0.055574340761990526,10,1,100,0.1730464652766632,-10,-1,-100,6328.737938718172,-0.006918331872407129,-0.0018754497654706684,0.9999743093561355,241.464222093295,26.386730177662695,1167.5452939103968,-54.812432376577135,-84.40496826171875,4381.2578125,True
1599565776.1286864,0.0,10,0.5,0.5,-0.11258310623168945,-0.001,-0.02275,-0.2505,-0.029343060035048826,10,1,100,0.10220780284303568,-10,-1,-100,6327.640287477523,-0.0071770199925089775,-0.00196352042822823,0.9999723171026061,242.20684528466904,26.468897241004438,1175.771271544062,-54.999181960958985,-84.60183715820312,4381.2578125,True
1599565776.2014928,0.0,10,0.5,0.5,-0.050999696350097656,-0.001,-0.02275,-0.2505,-0.037943947003252654,10,1,100,0.13118369890965276,-10,-1,-100,6325.448404231574,-0.0076710986637327705,-0.00211975641531795,0.999968329937519,243.74210082233807,26.639748588484665,1192.5721029383024,-55.37256464755505,-85.02337646484375,4381.2578125,True
1599565776.2653208,0.0,10,0.5,0.5,0.015555993652343753,-0.001,-0.02275,-0.2505,-0.04673068511233328,10,1,100,0.16472537563683362,-10,-1,-100,6322.095882818918,-0.008421004450785507,-0.0023399424497749437,0.9999618049472548,246.07946793076437,26.902616114365035,1218.2130127007442,-55.932342392191714,-85.68487548828125,4381.2578125,True
1599565776.3261578,0.0,10,0.5,0.5,-0.08449459915161134,-0.001,-0.02275,-0.2505,-0.03221204171767677,10,1,100,0.11713176018448027,-10,-1,-100,6320.937685453217,-0.008665410268211573,-0.0024063060123510754,0.9999595593604067,246.8697554136174,26.99225267995172,1226.8883229797434,-56.118854811686305,-85.91729736328125,4381.2578125,True
1599565776.3930137,0.0,10,0.5,0.5,-0.0758533508300781,-0.001,-0.02275,-0.2505,-0.03273032119485846,10,1,100,0.12000244624613648,-10,-1,-100,6319.839547500364,-0.008909434603780556,-0.002469776672148321,0.9999572601757691,247.66534658125696,27.082886846565717,1235.6270874113882,-56.305326571407036,-86.15414428710938,4381.2578125,True
1599565776.4558477,0.0,10,0.5,0.5,0.05301776428222657,-0.001,-0.02275,-0.2505,-0.04558640715038141,10,1,100,0.17498929529558083,-10,-1,-100,6316.4245276059955,-0.009626673597245202,-0.002642721596804411,0.9999501703475098,250.04709525610537,27.35681300298282,1262.0417954027496,-56.86449579110698,-86.87130737304688,4381.2578125,True
1599565776.5176456,0.0,10,0.5,0.5,0.07227706832885743,-0.001,-0.02275,-0.2505,-0.045189369326270934,10,1,100,0.1823752317173923,-10,-1,-100,6313.00950891641,-0.010341590195576364,-0.002794944449261803,0.9999426182525436,252.43469570339673,27.635360847785638,1288.8226406590604,-57.42329162158084,-87.6282958984375,4381.2578125,True
1599565776.5754921,0.0,10,0.5,0.5,-0.04287297286987303,-0.001,-0.02275,-0.2505,-0.03475554990655284,10,1,100,0.1359159767801581,-10,-1,-100,6311.849847557838,-0.010564708043778254,-0.002837145253614086,0.9999401669853849,253.23973743930102,27.730147132226865,1297.8717835887912,-57.60947253567365,-87.88613891601562,4381.2578125,True
1599565776.6333375,0.0,10,0.5,0.5,0.02953006591796875,-0.001,-0.02275,-0.2505,-0.039331444856818026,10,1,100,0.1628325054176024,-10,-1,-100,6309.531013691798,-0.011008015954979494,-0.0029159056939618683,0.9999351584371453,254.83072573315067,27.919048563995766,1315.985639533383,-57.98170677249335,-88.39300537109375,4381.2578125,True
1599565776.6941745,0.0,10,0.5,0.5,0.09979699554443361,-0.001,-0.02275,-0.2505,-0.042749333817825697,10,1,100,0.19104479808699792,-10,-1,-100,6306.0530072475085,-0.011662873316551334,-0.003017303239457447,0.9999274340006695,257.137441515788,28.197136252512887,1343.0230652975283,-58.53973957075916,-89.13482666015625,4381.2578125,True
1599565776.7500584,0.0,10,0.5,0.5,-0.012869670104980455,-0.001,-0.02275,-0.2505,-0.03574140370040098,10,1,100,0.1486165391055484,-10,-1,-100,6304.832310502417,-0.011868173525926971,-0.0030447363220459426,0.9999249352015819,257.8975592435609,28.28979010132619,1352.0630981581187,-58.72566531673796,-89.3829345703125,4381.2578125,True
