Timestamp,Input Throttle,horizon,dT,dt,Input Roll,Roll P,Roll I,Roll D,Input Pitch,Pitch P,Pitch I,Pitch D,Input Yaw,Yaw P,Yaw I,Yaw D,Altitude,Direction X,Direction Y,Direction Z,Drag X,Drag Y,Drag Z,Vertical Velocity,Roll,Mass,Has Fuel
1599573060.0830064,0.0,10,0.5,0.5,-10.811486930847169,-0.2,-0.0155,-0.12575,-0.06717994118274417,10,1,100,0.6903744612764046,-10,-1,-100,6483.617967177415,-0.06725855264820912,-0.007002665032024994,0.9977110051403247,205.0730417934593,21.498758641759707,-156.7651021732234,9.590824076116501,-35.944580078125,4381.2578125,True
1599573060.1637993,0.0,10,0.5,0.5,-10.895963406372072,-0.2,-0.0155,-0.12575,-0.06733156637196328,10,1,100,0.6999117535112127,-10,-1,-100,6483.997882927419,-0.06744582875515731,-0.0069717982097387285,0.9976985788369415,204.6119590748271,21.456722218270617,-150.2665789977443,9.210801602272301,-35.94122314453125,4381.2578125,True
1599573060.2495832,0.0,10,0.5,0.5,-10.979889077758791,-0.2,-0.0155,-0.12575,-0.06933017997449996,10,1,100,0.6986132036241482,-10,-1,-100,6484.15659182251,-0.06754296037272312,-0.006955568678401786,0.9976921211317893,204.38101992060578,21.435594827943504,-147.02538368093255,9.020797840779757,-35.93951416015625,4381.2578125,True
1599573060.3283718,0.0,10,0.5,0.5,-10.960199768066406,-0.2,-0.0155,-0.12575,-0.018333260588374423,10,1,100,0.7012817025705932,-10,-1,-100,6484.69714023394,-0.06759411823332087,-0.006470882956695786,0.9976919178053015,203.75661826709882,21.378971615282634,-137.38152402095847,8.450805519875221,-36.25653076171875,4381.2578125,True
1599573060.4101534,0.0,10,0.5,0.5,-10.900510369873047,-0.2,-0.0155,-0.12575,-0.015045063239247577,10,1,100,0.697820737266176,-10,-1,-100,6485.016948943026,-0.06754771285997566,-0.005994484249283091,0.9976980368057118,203.44700613035803,21.351715600624484,-131.04562320632027,8.070816241293834,-36.81787109375,4381.2578125,True
1599573060.493738,0.0,10,0.5,0.5,-10.926434239196778,-0.2,-0.0155,-0.12575,-0.0281239108970274,10,1,100,0.7015816648521266,-10,-1,-100,6485.175623909687,-0.06747830939602503,-0.005674843599206564,0.9977046025308187,203.317681603366,21.34044684814582,-127.89870995798047,7.880820250962451,-37.208038330078125,4381.2578125,True
1599573061.310074,0.0,10,0.5,0.5,-10.532544525146484,-0.2,-0.0155,-0.12575,0.07889651612437068,10,1,100,0.667430950897643,-10,-1,-100,6485.590081205359,-0.0670434103843055,-0.004406189268397733,0.9977403302564114,202.97277268107757,21.309539841210654,-118.4986556960163,7.310815607199566,-38.81903076171875,4381.2578125,True
1599573061.3768926,0.0,10,0.5,0.5,-10.074362232971191,-0.2,-0.0155,-0.12575,0.14397411367130036,10,1,100,0.6336180116123602,-10,-1,-100,6486.005456889863,-0.0662797087343449,-0.002657246999719074,0.9977975442185016,202.54320220829013,21.266832236586012,-109.07260119784257,6.740763595461635,-41.09100341796875,4381.2578125,True
1599573061.461707,0.0,10,0.5,0.5,-10.435871739196777,-0.2,-0.0155,-0.12575,-0.031185837896537512,10,1,100,0.7166161474818551,-10,-1,-100,6486.005456889863,-0.0662797087343449,-0.002657246999719074,0.9977975442185016,202.54320220829013,21.266832236586012,-109.07260119784257,6.740763595461635,-41.09100341796875,4381.2578125,True
1599573061.5394995,0.0,10,0.5,0.5,-9.55595316772461,-0.2,-0.0155,-0.12575,0.20405693947759473,10,1,100,0.5956134523673573,-10,-1,-100,6486.420286288718,-0.06511942995263642,-0.000516260617227218,0.9978773438241891,201.77000168769175,21.184656543403545,-99.50454008683909,6.170632737310848,-44.024932861328125,4381.2578125,True
1599573061.6158037,0.0,10,0.5,0.5,-9.23932024230957,-0.2,-0.0155,-0.12575,0.17277002572027145,10,1,100,0.6088227641213851,-10,-1,-100,6486.67499834206,-0.06412551623070839,0.0011461334787144643,0.9979411829091903,200.8958551680708,21.09024297996985,-92.99240388291501,5.790480879474745,-46.348297119140625,4381.2578125,True
1599573061.6930285,0.0,10,0.5,0.5,-8.662540298461915,-0.2,-0.0155,-0.12575,0.20341294294257756,10,1,100,0.5757097906017301,-10,-1,-100,6486.869141738163,-0.06292377948461104,0.0029285648147635585,0.9980140387206474,199.59662021748008,20.9496992354368,-86.3441227074635,5.410256893380258,-48.96630859375,4381.2578125,True
1599573061.7778406,0.0,10,0.5,0.5,-8.022688261413574,-0.2,-0.0155,-0.12575,0.23288150872369595,10,1,100,0.5398121309389836,-10,-1,-100,6487.061798190698,-0.06150906012692535,0.0048078526609779005,0.9980949454210719,197.7405198571124,20.749311207664206,-79.54531008333448,5.029941609343008,-51.87921142578125,4381.2578125,True
1599573061.856638,0.0,10,0.5,0.5,-7.319390010070801,-0.2,-0.0155,-0.12575,0.2636358948913695,10,1,100,0.5014856585658992,-10,-1,-100,6487.255412325263,-0.05988001450767922,0.0067851874669339896,0.9981825209317176,195.17565724932723,20.473382216726122,-72.59011368020448,4.649512153770153,-55.08685302734375,4381.2578125,True
1599573061.9394503,0.0,10,0.5,0.5,-6.552464714050293,-0.2,-0.0155,-0.12575,0.2894874336157633,10,1,100,0.4598873337400438,-10,-1,-100,6487.448522058781,-0.058027910176971,0.008805727578548896,0.9982761245278311,191.7486253175371,20.10631540606994,-65.4906141255637,4.268938072121584,-58.58984375,4381.2578125,True
1599573062.0172079,0.0,10,0.5,0.5,-5.721840447998048,-0.2,-0.0155,-0.12575,0.31311921248173413,10,1,100,0.41602173406120924,-10,-1,-100,6487.578630672535,-0.05595405515441322,0.010843961840773244,0.9983744549032557,187.29096676852623,19.631124352227534,-58.272976161733375,3.8881858218054064,-62.388397216796875,4381.2578125,True
1599573062.1091666,0.0,10,0.5,0.5,-5.505668603515626,-0.2,-0.0155,-0.12575,0.2229757561585875,10,1,100,0.4990837975140733,-10,-1,-100,6487.675176314311,-0.05483431866915183,0.011862399016730427,0.9984250001806134,184.62969059384397,19.34839995234117,-54.635678298509774,3.6977329282261886,-64.3985595703125,4381.2578125,True
1599573062.1883945,0.0,10,0.5,0.5,-4.336816201782227,-0.2,-0.0155,-0.12575,0.3432000172925295,10,1,100,0.3464433399442283,-10,-1,-100,6487.805272016441,-0.05243983506074757,0.01386640919764995,0.9985278095249851,178.3789394499035,18.686578496697702,-47.35327430652359,3.3166524245443707,-68.64102172851562,4381.2578125,True
1599573062.2703795,0.0,10,0.5,0.5,-2.5736872665405275,-0.2,-0.0155,-0.12575,0.464604680372947,10,1,100,0.14661787677014215,-10,-1,-100,6487.9694043895,-0.048459018363955275,0.016776893884492067,0.9986842641049224,166.39776753179615,17.424851041948457,-36.55950533150272,2.7444619430954496,-75.5601806640625,4381.2578125,True
1599573062.3556602,0.0,10,0.5,0.5,-2.5907914596557617,-0.2,-0.0155,-0.12575,0.27933311484947976,10,1,100,0.384894343130045,-10,-1,-100,6488.003933589673,-0.04702244441593448,0.01772083469424046,0.9987366328211305,161.68795337018537,16.93024832489944,-33.055899918388576,2.5535771997183923,-78.01467895507812,4381.2578125,True
1599573062.4352417,0.0,10,0.5,0.5,-0.3025345153808593,-0.2,-0.0155,-0.12575,0.4678409963975315,10,1,100,0.035644207356215984,-10,-1,-100,6488.167098602746,-0.042557918670277764,0.020276091539619956,0.9988882338231495,145.3640387775338,15.218939880784236,-23.054231344568354,1.9806089873177783,-85.82504272460938,4381.2578125,True
1599573062.5155375,0.0,10,0.5,0.5,-0.3269606033325196,-0.2,-0.0155,-0.12575,0.2996917925344489,10,1,100,0.3100987738230194,-10,-1,-100,6488.200659255846,-0.04101390732170663,0.021053032311154286,0.9989367493674022,148.0054188621983,15.49545851908895,-21.210091261006028,1.7895613413426776,-88.5772705078125,4381.2578125,True
1599573062.5963213,0.0,10,0.5,0.5,1.2538311248779297,-0.2,-0.0155,-0.12575,0.3898291280505286,10,1,100,0.10086367309881483,-10,-1,-100,6488.269252778613,-0.037728041427479105,0.02256229563769859,0.9990333015999034,155.96649179700853,16.32863205811773,-17.580666348253196,1.4074635602701306,-94.30401611328125,4381.2578125,True
1599573062.6771057,0.0,10,0.5,0.5,3.506139796447754,-0.2,-0.0155,-0.12575,0.4434904262550673,10,1,100,-0.11327608055145028,-10,-1,-100,6488.306987698888,-0.03281578468926935,0.02440604278825584,0.9991633847127533,168.64202912208702,17.65287399221291,-11.272513010909542,0.8344696941501724,-103.22708129882812,4381.2578125,True
1599573062.7558973,0.0,10,0.5,0.5,3.445181897735596,-0.2,-0.0155,-0.12575,0.3201063003646592,10,1,100,0.1866389934706386,-10,-1,-100,6488.341058342485,-0.031101201263659846,0.024944483730375697,0.9992049279358977,172.3893865940682,18.044198309827728,-8.886720528262325,0.6435162567310506,-106.25547790527344,4381.2578125,True
1599573062.8446586,0.0,10,0.5,0.5,5.0704374118804925,-0.2,-0.0155,-0.12575,0.3693804403076843,10,1,100,-0.01179458418821272,-10,-1,-100,6488.345250045182,-0.027763026269764658,0.025867250626192318,0.9992797905078368,179.4216579625637,18.779346654020365,-3.7607206968433546,0.2616186161958023,-112.18700408935547,4381.2578125,True
1599573062.9304287,0.0,10,0.5,0.5,6.247964817810059,-0.2,-0.0155,-0.12575,0.36353150513693017,10,1,100,-0.04077589896927125,-10,-1,-100,6488.350442314404,-0.024490483439927272,0.026639299949213827,0.9993450674912518,184.81921041928462,19.343559694992457,1.7823805215542685,-0.12035599723332258,-117.85462951660156,4381.2578125,True
1599573063.0112143,0.0,10,0.5,0.5,8.210038744354248,-0.2,-0.0155,-0.12575,0.3790215149738901,10,1,100,-0.2650801928053965,-10,-1,-100,6488.327750889817,-0.019503899864500532,0.027468547695085305,0.9994323772910294,189.82449745946224,19.866449124947124,10.551569432958619,-0.6935683044975938,-125.81140899658203,4381.2578125,True
1599573063.0909982,0.0,10,0.5,0.5,8.114085709762573,-0.2,-0.0155,-0.12575,0.32046985626425073,10,1,100,0.054409942467500194,-10,-1,-100,6488.298877029796,-0.017905039603135508,0.027677755895337712,0.9994565280118032,190.9040890031281,19.97910465292377,13.536879812214448,-0.8847019630551851,-128.31639099121094,4381.2578125,True
1599573063.1737778,0.0,10,0.5,0.5,10.184462966918947,-0.2,-0.0155,-0.12575,0.3520593107299851,10,1,100,-0.3007093298558728,-10,-1,-100,6488.211312107276,-0.013250949597828295,0.028145212152518535,0.9995160125619025,192.0813469165204,20.101136813769553,22.45570574169611,-1.4582789616480163,-135.38809204101562,4381.2578125,True
1599573063.2535644,0.0,10,0.5,0.5,10.103776568603516,-0.2,-0.0155,-0.12575,0.31971428098669563,10,1,100,-0.0013056111174354068,-10,-1,-100,6488.181973973638,-0.011772512031369448,0.028266649954600036,0.9995310922931889,191.86107351363506,20.07756250844685,25.373385866556376,-1.6495233360967703,-137.59730529785156,4381.2578125,True
1599573063.3353481,0.0,10,0.5,0.5,11.920987904357911,-0.2,-0.0155,-0.12575,0.32706900304744135,10,1,100,-0.33417246248939103,-10,-1,-100,6488.033439790597,-0.007430402328151724,0.028436644922121834,0.9995679798527036,189.81587079502447,19.861495060784357,33.84350440179236,-2.223368450344101,-143.78233337402344,4381.2578125,True
1599573063.4151316,0.0,10,0.5,0.5,11.85197621536255,-0.2,-0.0155,-0.12575,0.31782293963677644,10,1,100,-0.051349061996587814,-10,-1,-100,6488.003145409864,-0.006084682152427964,0.02850041830467109,0.9995752611982566,188.7448241562404,19.74851534620651,36.55092599066467,-2.41467525184754,-145.69541931152344,4381.2578125,True
1599573063.5058904,0.0,10,0.5,0.5,12.865658101654054,-0.2,-0.0155,-0.12575,0.30942571281521775,10,1,100,-0.21532524501878644,-10,-1,-100,6487.882996983128,-0.0033993742918182407,0.02847665738800445,0.9995886775261265,186.20205164860099,19.48017700115765,41.77882313070519,-2.797306993640323,-149.30123901367188,4381.2578125,True
1599573063.5866735,0.0,10,0.5,0.5,14.063779234313966,-0.2,-0.0155,-0.12575,0.3178980997903983,10,1,100,-0.35341556435095234,-10,-1,-100,6487.732592375367,0.00027043902048533286,0.028528377695718466,0.999592946418084,181.6968770731398,19.00414036578596,49.14438963734154,-3.3712685253978005,-154.15200805664062,4381.2578125,True
1599573063.6694517,0.0,10,0.5,0.5,14.460867809295655,-0.2,-0.0155,-0.12575,0.31140834226045744,10,1,100,-0.24182463622265138,-10,-1,-100,6487.549494801788,0.0025636502847911683,0.028513140276126888,0.9995901302678069,178.56034326547075,18.672268461866967,53.78599160503866,-3.7539004792656265,-157.01565551757812,4381.2578125,True
1599573063.7549894,0.0,10,0.5,0.5,15.006106270217895,-0.2,-0.0155,-0.12575,0.31787285692764355,10,1,100,-0.25003750205987024,-10,-1,-100,6487.426957591437,0.0046954805085397755,0.028555651037427205,0.9995811759215069,175.3465448282568,18.331858378826414,58.21081639559092,-4.136530506278297,-159.58160400390625,4381.2578125,True
1599573063.8337789,0.0,10,0.5,0.5,15.129714164352418,-0.2,-0.0155,-0.12575,0.31782287775882645,10,1,100,-0.15090658197064885,-10,-1,-100,6487.336642189883,0.005705785107546981,0.02859210069063078,0.9995748775326456,173.75158249605127,18.162712016929312,60.35400504201646,-4.327851601097542,-160.7530517578125,4381.2578125,True
1599573063.91536,0.0,10,0.5,0.5,15.727371269226074,-0.2,-0.0155,-0.12575,0.32072273754731473,10,1,100,-0.2646382304594196,-10,-1,-100,6487.151135581778,0.007635250015658677,0.028650577688897064,0.9995603270214813,170.6924232072329,17.8377755395871,64.54442104481352,-4.7105229637120445,-162.87371826171875,4381.2578125,True
1599573063.996339,0.0,10,0.5,0.5,16.36875362701416,-0.2,-0.0155,-0.12575,0.3354930608226668,10,1,100,-0.3614891451625719,-10,-1,-100,6486.813322172966,0.0102465534388627,0.02883712987910274,0.9995316043442349,166.58733338759868,17.400499841865507,70.68753339467001,-5.284651924305903,-165.4968719482422,4381.2578125,True
1599573064.0823421,0.0,10,0.5,0.5,16.322024660491945,-0.2,-0.0155,-0.12575,0.3250264427993372,10,1,100,-0.19095663263536947,-10,-1,-100,6486.7210661264835,0.011048808706949343,0.028910942690235284,0.9995209258534405,165.3860781156509,17.272202016224913,72.72607504863967,-5.476071030907183,-166.2227783203125,4381.2578125,True
1599573064.1805935,0.0,10,0.5,0.5,16.838712201690672,-0.2,-0.0155,-0.12575,0.35968484017115965,10,1,100,-0.35189979869059274,-10,-1,-100,6486.3813189759385,0.013220504714131668,0.029292535864885404,0.999483449386586,162.42743282557637,16.95501151190133,78.93846158439884,-6.0504718454457045,-167.95294189453125,4381.2578125,True
1599573064.2619557,0.0,10,0.5,0.5,16.913304555511477,-0.2,-0.0155,-0.12575,0.3554667517510203,10,1,100,-0.2768858410941327,-10,-1,-100,6486.1352974646725,0.014494055190654796,0.029600314409890825,0.9994567243012404,161.0809984820822,16.809280875723708,83.25614124514775,-6.433520659929407,-168.7348175048828,4381.2578125,True
1599573064.3477275,0.0,10,0.5,0.5,16.941745309448244,-0.2,-0.0155,-0.12575,0.34321806305476427,10,1,100,-0.21595551421438194,-10,-1,-100,6485.980061550741,0.015079208345548012,0.02976776146619777,0.999443093854254,160.61200990774424,16.757828289804355,85.4939727526841,-6.625078758030426,-169.0143280029297,4381.2578125,True
1599573064.4310155,0.0,10,0.5,0.5,17.064333628845215,-0.2,-0.0155,-0.12575,0.40391949655365,10,1,100,-0.32377215003089155,-10,-1,-100,6485.577835523174,0.016574518282294327,0.03047064354548651,0.9993982315501834,160.04376162906564,16.691146625634286,92.61195057155284,-7.199883702268654,-169.40475463867188,4381.2578125,True
1599573064.5173433,0.0,10,0.5,0.5,16.948116983795163,-0.2,-0.0155,-0.12575,0.4239535594956939,10,1,100,-0.30454180072886744,-10,-1,-100,6485.111649225932,0.017744247704534567,0.031289989402631425,0.9993528297035953,160.79453510259853,16.761697745641445,100.5112434573677,-7.774867968669538,-169.12612915039062,4381.2578125,True
1599573064.5981278,0.0,10,0.5,0.5,16.92307752990723,-0.2,-0.0155,-0.12575,0.37855258126439234,10,1,100,-0.22148234331965225,-10,-1,-100,6484.957393276389,0.018038751568833063,0.03161958869872724,0.9993371828629019,161.33718744964497,16.815465068569587,103.34933700911886,-7.966564014871102,-168.8840789794922,4381.2578125,True
1599573064.6769183,0.0,10,0.5,0.5,16.737608804321287,-0.2,-0.0155,-0.12575,0.4225912495673402,10,1,100,-0.2451618024840593,-10,-1,-100,6484.584916949854,0.018509619918726038,0.0323167905546036,0.9993062688779222,162.8478143574415,16.966746878281956,109.36498371973,-8.349999205434969,-168.17701721191406,4381.2578125,True
1599573064.7736592,0.0,10,0.5,0.5,16.68653155822754,-0.2,-0.0155,-0.12575,0.3942298693593095,10,1,100,-0.21818833317632486,-10,-1,-100,6484.429684687406,0.018680828847820994,0.03268939361272367,0.9992909637231746,163.81259464213667,17.063844495219893,112.55356956477767,-8.541734900151827,-167.71194458007812,4381.2578125,True
1599573064.8544436,0.0,10,0.5,0.5,16.376968717193606,-0.2,-0.0155,-0.12575,0.442034642486972,10,1,100,-0.22795614256177332,-10,-1,-100,6484.119218226871,0.018915230160654883,0.03345904086133537,0.9992610803251617,166.14036916441984,17.298592337803143,119.30998755300908,-8.925232998026694,-166.55908203125,4381.2578125,True
1599573064.9442046,0.0,10,0.5,0.5,15.778651199340823,-0.2,-0.0155,-0.12575,0.5053886593464565,10,1,100,-0.20431805926988583,-10,-1,-100,6483.529001502437,0.01890554998173963,0.03473046404881201,0.999217881668879,170.53289712965395,17.741714946263023,130.4133702949844,-9.500513382119163,-164.27224731445312,4381.2578125,True
1599573065.020998,0.0,10,0.5,0.5,15.76653500366211,-0.2,-0.0155,-0.12575,0.42749653535356436,10,1,100,-0.19657313431767354,-10,-1,-100,6483.3098007711815,0.018819198918364935,0.035172902618074875,0.9992040355570481,172.20741436965747,17.91047164729179,134.3719786658401,-9.692272625607405,-163.36154174804688,4381.2578125,True
1599573065.1127524,0.0,10,0.5,0.5,15.20812437286377,-0.2,-0.0155,-0.12575,0.48372058535972984,10,1,100,-0.16935916628248035,-10,-1,-100,6482.9368245772785,0.01848820852024597,0.036080901438594264,0.999177839374498,175.81568907362666,18.27361121960146,142.65929982718433,-10.075774610149672,-161.31759643554688,4381.2578125,True
1599573065.1915414,0.0,10,0.5,0.5,14.27401789703369,-0.2,-0.0155,-0.12575,0.5449329424700216,10,1,100,-0.10820552087571055,-10,-1,-100,6482.282622297993,0.017627734878867558,0.037456939442770266,0.9991427528890058,181.7032557893901,18.864481022130764,155.92786721174215,-10.65094696591279,-157.69630432128906,4381.2578125,True
1599573065.2748272,0.0,10,0.5,0.5,14.270397968292238,-0.2,-0.0155,-0.12575,0.4592089763018229,10,1,100,-0.1531512124877398,-10,-1,-100,6482.065366092022,0.017251766468148067,0.037921584137786124,0.9991317881091609,183.7403148160882,19.068425594704557,160.5403928146312,-10.842639683841107,-156.3411102294922,4381.2578125,True
1599573065.3566089,0.0,10,0.5,0.5,13.465538307952881,-0.2,-0.0155,-0.12575,0.5124101949779886,10,1,100,-0.08936172757328999,-10,-1,-100,6481.628895963659,0.016329456915375483,0.03882086226613632,0.9991127511396113,187.8386410786196,19.478003361921477,169.9812089182196,-11.225964017750172,-153.40933227539062,4381.2578125,True
1599573065.4478743,0.0,10,0.5,0.5,12.758795616149904,-0.2,-0.0155,-0.12575,0.5154591324106262,10,1,100,-0.05763803758910083,-10,-1,-100,6481.191439099377,0.015203882677352468,0.039659259202330016,0.999097585379454,191.84947827165297,19.877962723769432,179.6000872721983,-11.609189768978315,-150.18276977539062,4381.2578125,True
1599573065.5286574,0.0,10,0.5,0.5,11.988261257934571,-0.2,-0.0155,-0.12575,0.5230638297902471,10,1,100,-0.0269311412845539,-10,-1,-100,6480.69342799671,0.013904056920827919,0.040483263056408474,0.9990834712942896,195.6185798731902,20.25319862114628,189.23955734497386,-11.992298530644607,-146.66078186035156,4381.2578125,True
1599573065.613439,0.0,10,0.5,0.5,10.497485044860841,-0.2,-0.0155,-0.12575,0.5546789889993616,10,1,100,0.09833996342267048,-10,-1,-100,6479.97520340269,0.011587755793010742,0.04151234394156102,0.9990707928951577,200.4499805201198,20.734244836753245,203.3136954557002,-12.566719977284606,-140.82711791992188,4381.2578125,True
1599573065.6962144,0.0,10,0.5,0.5,10.508103324127198,-0.2,-0.0155,-0.12575,0.48508382442871156,10,1,100,-0.03810217692735966,-10,-1,-100,6479.693961356184,0.010728858837317955,0.041807167840758476,0.9990680919262628,201.74517162355497,20.86358675626619,207.78308090615758,-12.758129223330112,-138.73565673828125,4381.2578125,True
1599573065.7799914,0.0,10,0.5,0.5,8.541035433197022,-0.2,-0.0155,-0.12575,0.528447173044303,10,1,100,0.18490331495476114,-10,-1,-100,6478.913694931311,0.007928162925326448,0.04246181262109843,0.9990666337645153,204.33772632994012,21.125392463799162,220.04858553339213,-13.332177920029729,-132.0220947265625,4381.2578125,True
1599573065.8577838,0.0,10,0.5,0.5,7.758072728729249,-0.2,-0.0155,-0.12575,0.49166553240630984,10,1,100,0.13062397278254967,-10,-1,-100,6478.351673451718,0.005885503740587376,0.04271553718963274,0.9990699393577612,204.7166008244553,21.168169005953768,226.8718172269847,-13.714757999250923,-127.18032836914062,4381.2578125,True
1599573065.94107,0.0,10,0.5,0.5,7.486473190307618,-0.2,-0.0155,-0.12575,0.4750883152943674,10,1,100,0.045878856660730806,-10,-1,-100,6478.070415832335,0.004810708896639098,0.04278863697403576,0.9990725647448316,204.62091565049062,21.162668478865154,229.9742623313285,-13.906025501817023,-124.64964294433594,4381.2578125,True
1599573066.021439,0.0,10,0.5,0.5,5.132487155151368,-0.2,-0.0155,-0.12575,0.4515439475913344,10,1,100,0.29904719096677224,-10,-1,-100,6477.225647065439,0.0015445264535617481,0.04263495367570599,0.9990895230974572,202.62056086068617,20.979053371421557,237.26921016620884,-14.479808520131385,-116.62083435058594,4381.2578125,True
1599573066.1157298,0.0,10,0.5,0.5,4.215798631286621,-0.2,-0.0155,-0.12575,0.43207590228628956,10,1,100,0.22495874696659302,-10,-1,-100,6476.663594847661,-0.0007365779052112084,0.04231355207060312,0.9991041090718014,199.2013182810822,20.64738798745679,239.53207856426502,-14.862393229506354,-110.90281677246094,4381.2578125,True
1599573066.978525,0.0,10,0.5,0.5,3.8974192031860353,-0.2,-0.0155,-0.12575,0.43852535406316556,10,1,100,0.12605022875289973,-10,-1,-100,6476.319821944344,-0.0018947877527227214,0.04207600747490591,0.9991126159619564,196.79143163895378,20.41005777325565,239.73406155137047,-15.053728717090817,-107.93431091308594,4381.2578125,True
1599573067.0593085,0.0,10,0.5,0.5,3.2095122810363774,-0.2,-0.0155,-0.12575,0.4293630367039075,10,1,100,0.13349893196375087,-10,-1,-100,6476.038546221796,-0.0029988537844972,0.04177380482536177,0.9991225931317897,194.0654086751753,20.140122652553824,239.4730923399245,-15.245101553820145,-104.89299011230469,4381.2578125,True
1599573067.1590445,0.0,10,0.5,0.5,0.40666051559448224,-0.2,-0.0155,-0.12575,0.33095649352406253,10,1,100,0.39521497600202543,-10,-1,-100,6475.131231741514,-0.0063652389987657225,0.04060254789175666,0.9991551014918485,183.92643903304577,19.12300114277855,235.68064105844675,-15.819493029089223,-95.33013916015625,4381.2578125,True
1599573067.2557847,0.0,10,0.5,0.5,1.5296265266418456,-0.2,-0.0155,-0.12575,0.44809411536810856,10,1,100,0.06060338416713257,-10,-1,-100,6475.131231741514,-0.0063652389987657225,0.04060254789175666,0.9991551014918485,183.92643903304577,19.12300114277855,235.68064105844675,-15.819493029089223,-95.33013916015625,4381.2578125,True
1599573067.35703,0.0,10,0.5,0.5,-1.8617086631774902,-0.2,-0.0155,-0.12575,0.27389619436377094,10,1,100,0.41586158249214583,-10,-1,-100,6474.161403820617,-0.00957853807918241,0.039019757515398865,0.999192529061194,169.29792106508265,17.621347690968896,224.9861392499948,-16.3943475438285,-85.13577270507812,4381.2578125,True
1599573067.4627469,0.0,10,0.5,0.5,-1.7997311027526859,-0.2,-0.0155,-0.12575,0.3662329668559767,10,1,100,0.2064764522780977,-10,-1,-100,6473.817618392059,-0.010577756607691233,0.038422816387116705,0.9992055835742866,168.64975570670788,17.554579108868328,226.8019658148123,-16.586016735462934,-81.64572143554688,4381.2578125,True
1599573067.556475,0.0,10,0.5,0.5,-4.944192655181885,-0.2,-0.0155,-0.12575,0.19695820172834072,10,1,100,0.4331108867485519,-10,-1,-100,6472.785766708315,-0.013529626565582459,0.03634495294773076,0.999247713832873,188.8006918015874,19.637239294020212,262.8972575476179,-17.160600711551513,-70.88516235351562,4381.2578125,True
1599573067.6542137,0.0,10,0.5,0.5,-4.833266980743408,-0.2,-0.0155,-0.12575,0.32509850033780785,10,1,100,0.23629877321770654,-10,-1,-100,6472.441490718513,-0.014406293558561187,0.03562668943041315,0.9992613260334522,194.4924214176093,20.220620105014135,273.91190713754827,-17.351952960497037,-67.33963012695312,4381.2578125,True
1599573067.7323527,0.0,10,0.5,0.5,-8.868304806518555,-0.2,-0.0155,-0.12575,0.04955076870761144,10,1,100,0.5051026074964462,-10,-1,-100,6471.003839276149,-0.017629464770662028,0.032475254079435016,0.9993170467095897,211.8948495791696,21.993809385890355,311.8787881690603,-18.11644333877716,-53.856719970703125,4381.2578125,True
1599573067.8166444,0.0,10,0.5,0.5,-8.30807353591919,-0.2,-0.0155,-0.12575,0.2761095057674111,10,1,100,0.2610951443799717,-10,-1,-100,6470.659076509182,-0.018323939852218276,0.031679173824176954,0.9993301072088792,214.7112486883012,22.28029087933917,319.43327747732747,-18.307365942319066,-50.67034912109375,4381.2578125,True
1599573067.9103956,0.0,10,0.5,0.5,-10.003800064086915,-0.2,-0.0155,-0.12575,0.1788278126295128,10,1,100,0.3344257209603659,-10,-1,-100,6469.908031788189,-0.019605933929866624,0.03008075308927639,0.9993551699212448,218.64333397033604,22.683134297517096,332.2288260457504,-18.68904193932889,-44.52130126953125,4381.2578125,True
1599573068.0051756,0.0,10,0.5,0.5,-11.23487465286255,-0.2,-0.0155,-0.12575,0.16609737063043736,10,1,100,0.3310259770505776,-10,-1,-100,6469.1574825689895,-0.020724375286569643,0.0285228168160894,0.999378281327875,221.13598239979208,22.9467819820275,343.04820515274326,-19.070567108498608,-38.67010498046875,4381.2578125,True
1599573068.0909114,0.0,10,0.5,0.5,-12.41068453063965,-0.2,-0.0155,-0.12575,0.15252305545341155,10,1,100,0.3271988140236154,-10,-1,-100,6468.344436353771,-0.02169023365468903,0.02699515460068215,0.9994002178267174,221.75301962146207,23.026285388800616,351.0681241785079,-19.4520328971979,-33.116912841796875,4381.2578125,True
1599573068.1746867,0.0,10,0.5,0.5,-12.676987300109865,-0.2,-0.0155,-0.12575,0.22410761555726366,10,1,100,0.2800954958766635,-10,-1,-100,6468.000659791753,-0.022126142920138068,0.02626950985424792,0.99940999927532,221.4454105326323,23.005577830519567,354.11307250603585,-19.642770106188777,-30.45172119140625,4381.2578125,True
1599573068.2664423,0.0,10,0.5,0.5,-14.901660404968261,-0.2,-0.0155,-0.12575,0.06523346437958255,10,1,100,0.36234357051120725,-10,-1,-100,6466.780858846963,-0.023255805745477254,0.024178552381362888,0.9994371241373168,218.4640815362673,22.73974911288589,359.82496800055077,-20.21509515168491,-22.902191162109375,4381.2578125,True
1599573068.3502185,0.0,10,0.5,0.5,-14.820148793029785,-0.2,-0.0155,-0.12575,0.20063467904974197,10,1,100,0.28621002898579195,-10,-1,-100,6466.373122223769,-0.023578214965857925,0.023522094089499797,0.9994452355525382,216.89510351011435,22.593512456390286,360.718227375697,-20.4059254783024,-20.5341796875,4381.2578125,True
1599573068.4310021,0.0,10,0.5,0.5,-16.78617290649414,-0.2,-0.0155,-0.12575,0.06177271888620714,10,1,100,0.34501916484340495,-10,-1,-100,6465.091323375818,-0.024394124166402138,0.02167647847931723,0.9994673866549573,211.0240913382436,22.034721465734734,361.1334235915395,-20.978625324752237,-13.875457763671875,4381.2578125,True
1599573068.5178115,0.0,10,0.5,0.5,-17.362551261901856,-0.2,-0.0155,-0.12575,0.12321950378805159,10,1,100,0.313465464056234,-10,-1,-100,6464.277813786175,-0.02483913116192185,0.02057058821868477,0.999479798927151,207.01327125314546,21.64962621770416,360.95064612748945,-21.36059779963913,-9.806854248046875,4381.2578125,True
1599573068.6095657,0.0,10,0.5,0.5,-18.16896938171387,-0.2,-0.0155,-0.12575,0.12268936675608413,10,1,100,0.3123157335167055,-10,-1,-100,6463.40229644964,-0.02522374648239555,0.019574101373466216,0.9994901786254895,202.54918695103387,21.212519208121098,359.72183623555287,-21.74269651110162,-6.034423828125,4381.2578125,True
1599573068.690864,0.0,10,0.5,0.5,-18.34700454711914,-0.2,-0.0155,-0.12575,0.17159746930991604,10,1,100,0.2949800932839062,-10,-1,-100,6462.93304664141,-0.025408896151880977,0.019124551676216885,0.9994941918388154,200.3550604576202,20.995668642527132,359.07319655947015,-21.933786451268773,-4.2591552734375,4381.2578125,True
1599573068.77464,0.0,10,0.5,0.5,-19.279878359985354,-0.2,-0.0155,-0.12575,0.12351329092094072,10,1,100,0.31071863306381603,-10,-1,-100,6462.0560737465275,-0.025713850798230853,0.0182901545316795,0.9995020100651792,196.36870190273467,20.598967140986577,358.30682968896417,-22.316024818905,-0.930908203125,4381.2578125,True
1599573068.8519423,0.0,10,0.5,0.5,-20.374402201843264,-0.2,-0.0155,-0.12575,0.09227936923146271,10,1,100,0.32423534822989053,-10,-1,-100,6460.710837778286,-0.02610840887199654,0.01725838565633898,0.9995101295688351,190.3387911055576,19.985010507462817,356.60075373632816,-22.889478275718794,3.506500244140625,4381.2578125,True
1599573068.9377208,0.0,10,0.5,0.5,-20.72493625640869,-0.2,-0.0155,-0.12575,0.1343968569735295,10,1,100,0.31002546179410484,-10,-1,-100,6459.772839835263,-0.026333022668198727,0.01671354059564798,0.9995134963960786,188.7220846504089,19.819007222440774,359.7297116634425,-23.271784730785186,6.094879150390625,4381.2578125,True
1599573069.0150948,0.0,10,0.5,0.5,-20.845682139587407,-0.2,-0.0155,-0.12575,0.16271399203654105,10,1,100,0.29970478071938106,-10,-1,-100,6459.304087567027,-0.026439171937690943,0.0164850023265063,0.9995144895825896,191.58173176661333,20.118761423404532,368.3094972573025,-23.462884100447027,7.278167724609375,4381.2578125,True
1599573069.0998688,0.0,10,0.5,0.5,-21.767200019836427,-0.2,-0.0155,-0.12575,0.12835486783310368,10,1,100,0.3219848009703171,-10,-1,-100,6457.895394027233,-0.02673429597676733,0.015973779595916924,0.9995149402505437,198.999507794732,20.887800457536375,392.332463036769,-24.035910449924614,10.38433837890625,4381.2578125,True
1599573069.1866345,0.0,10,0.5,0.5,-21.717310223388672,-0.2,-0.0155,-0.12575,0.16628897798074527,10,1,100,0.3024510567761459,-10,-1,-100,6457.36365775764,-0.02682184880122495,0.015861346090164638,0.9995143851526562,201.11767665207145,21.104542712020383,399.8012362373672,-24.226828638349616,11.271881103515625,4381.2578125,True
1599573069.2911575,0.0,10,0.5,0.5,-22.3779577545166,-0.2,-0.0155,-0.12575,0.15936213431038687,10,1,100,0.3208861994567123,-10,-1,-100,6455.892965394771,-0.02706608572615942,0.01570312682247688,0.9995102995024421,206.52770721078406,21.650015051950987,420.71160906719297,-24.799320263923157,13.491241455078125,4381.2578125,True
1599573069.38095,0.0,10,0.5,0.5,-22.64771114501953,-0.2,-0.0155,-0.12575,0.1866531926483015,10,1,100,0.3205773622262079,-10,-1,-100,6454.422283792053,-0.027282882627131848,0.015812821974611632,0.9995026758227081,210.6718316462835,22.05637285856324,439.53171112700113,-25.37144321240196,15.045867919921875,4381.2578125,True
1599573069.4622688,0.0,10,0.5,0.5,-22.61146828842163,-0.2,-0.0155,-0.12575,0.18622037017052945,10,1,100,0.3067155516140143,-10,-1,-100,6453.890554047655,-0.027351732666573012,0.01591293533243082,0.9994992052069087,211.80096024394155,22.164397120041983,445.369840898207,-25.56207604786291,15.416488647460938,4381.2578125,True
1599573069.5560522,0.0,10,0.5,0.5,-22.76746327362061,-0.2,-0.0155,-0.12575,0.20795783398270798,10,1,100,0.3134801959890788,-10,-1,-100,6452.889110544231,-0.02747388584567086,0.016204889116050825,0.9994911641256642,213.70983408040388,22.34283144447547,456.4185528446582,-25.943239735436137,15.936370849609375,4381.2578125,True
1599573069.6363132,0.0,10,0.5,0.5,-22.80662724380493,-0.2,-0.0155,-0.12575,0.22398663689023524,10,1,100,0.3129292502932116,-10,-1,-100,6451.824683326064,-0.02757804832971212,0.016618672275373957,0.9994815010704939,215.17592940088414,22.474021790663734,466.6431467521509,-26.324280229505423,16.16119384765625,4381.2578125,True
1599573069.7250757,0.0,10,0.5,0.5,-22.805440005493164,-0.2,-0.0155,-0.12575,0.21027052921284747,10,1,100,0.3077854826481914,-10,-1,-100,6451.293448208948,-0.027624285247948098,0.016871666425197194,0.9994759855727283,215.74899363328433,22.52271019760826,471.44632063160265,-26.514759073109694,16.163009643554688,4381.2578125,True
1599573069.8018932,0.0,10,0.5,0.5,-22.68260689620972,-0.2,-0.0155,-0.12575,0.29017805868787844,10,1,100,0.31363527731457674,-10,-1,-100,6449.633343359223,-0.027718120692060717,0.017828444755928728,0.9994567786267124,216.8373284123597,22.60292099995815,484.5780694320897,-27.08605399369152,15.726409912109375,4381.2578125,True
1599573069.897636,0.0,10,0.5,0.5,-22.53765075531006,-0.2,-0.0155,-0.12575,0.2819342283721388,10,1,100,0.30758612291121534,-10,-1,-100,6448.5703953404445,-0.027747174148474482,0.018622285777214052,0.9994414964364878,217.03428226993896,22.60192528174575,492.2105399173567,-27.466818945289575,15.067047119140625,4381.2578125,True
1599573069.9804516,0.0,10,0.5,0.5,-22.321949157714844,-0.2,-0.0155,-0.12575,0.3045497894969105,10,1,100,0.3027408542510565,-10,-1,-100,6447.443488467834,-0.027728349391748477,0.019547612458197992,0.9994243490565923,216.7917470757539,22.556347666945197,498.85945971103894,-27.847523630901883,14.11328125,4381.2578125,True
1599573070.066185,0.0,10,0.5,0.5,-22.0411237487793,-0.2,-0.0155,-0.12575,0.3283321540606345,10,1,100,0.2968611475262789,-10,-1,-100,6446.313168492401,-0.027656880412304147,0.02060177290706972,0.9994051550392088,216.08279110737095,22.46409896481707,504.41918617568575,-28.22818357920908,12.865264892578125,4381.2578125,True
1599573070.1519556,0.0,10,0.5,0.5,-21.698167948913575,-0.2,-0.0155,-0.12575,0.3532800359035572,10,1,100,0.28977698469824487,-10,-1,-100,6445.191155717359,-0.02752674801290801,0.02178259003478249,0.9993837085500296,214.87060899842834,22.32217688930136,508.75677463926513,-28.608813531919832,11.323089599609375,4381.2578125,True
1599573070.230745,0.0,10,0.5,0.5,-21.601646798706057,-0.2,-0.0155,-0.12575,0.30600935180782585,10,1,100,0.292672188763869,-10,-1,-100,6444.597437109216,-0.027434347084701972,0.022420799874367174,0.999372135059323,214.0614976579768,22.231394748033114,510.41757309905495,-28.799121748157233,10.4417724609375,4381.2578125,True
1599573070.3125396,0.0,10,0.5,0.5,-21.059353392028807,-0.2,-0.0155,-0.12575,0.3934269721855324,10,1,100,0.2743731325610142,-10,-1,-100,6443.469085501274,-0.027183853489527284,0.023789689024787168,0.9993473314146406,212.00545857696292,22.007537545606706,512.6124898052694,-29.179732286883464,8.458709716796875,4381.2578125,True
1599573070.3923163,0.0,10,0.5,0.5,-20.149503214263916,-0.2,-0.0155,-0.12575,0.5076725598250911,10,1,100,0.23957516598170303,-10,-1,-100,6441.686970856739,-0.026639939506081144,0.02606556927308101,0.9993052084931723,207.717243641245,21.556782074209316,512.7066547901529,-29.750652499108295,4.933197021484375,4381.2578125,True
1599573070.471103,0.0,10,0.5,0.5,-19.690566230010987,-0.2,-0.0155,-0.12575,0.46328224615535996,10,1,100,0.23931530729651032,-10,-1,-100,6440.498578573926,-0.026143868029755254,0.027722038756207826,0.9992737296314969,203.96555387996253,21.172003783249693,510.3155542979311,-30.131278692767893,2.215728759765625,4381.2578125,True
1599573070.5593581,0.0,10,0.5,0.5,-19.029774008941654,-0.2,-0.0155,-0.12575,0.4912576022534321,10,1,100,0.21755850857256454,-10,-1,-100,6439.24476378446,-0.025496408681332173,0.029472147554050285,0.9992403743158633,204.40816565469868,21.230826202977212,518.3211666470155,-30.511853755752554,-0.79547119140625,4381.2578125,True
1599573070.6391523,0.0,10,0.5,0.5,-18.305545393371585,-0.2,-0.0155,-0.12575,0.5192300827991807,10,1,100,0.19524394926370242,-10,-1,-100,6438.051989618456,-0.02470688407683664,0.031305995846933096,0.9992044357904171,209.66165825360656,21.798663429936994,538.7296434587262,-30.89220027748768,-4.1004638671875,4381.2578125,True
1599573070.718937,0.0,10,0.5,0.5,-18.11624839324951,-0.2,-0.0155,-0.12575,0.441308438275679,10,1,100,0.2243358076440266,-10,-1,-100,6437.397255620337,-0.024256343364039305,0.032252499752893814,0.9991853712231257,212.2883702369385,22.08630232785895,549.0702320153442,-31.082276305876384,-5.863067626953125,4381.2578125,True
1599573070.7967288,0.0,10,0.5,0.5,-16.439260939025882,-0.2,-0.0155,-0.12575,0.6674764812945646,10,1,100,0.08838343981993091,-10,-1,-100,6435.488724414492,-0.022614003763808527,0.03515663986396099,0.9991259267516013,220.1562538345535,22.96253775558836,580.5998377557613,-31.6520712093809,-11.59197998046875,4381.2578125,True
1599573070.8805406,0.0,10,0.5,0.5,-15.756008856201172,-0.2,-0.0155,-0.12575,0.5974218488594019,10,1,100,0.10773603595853987,-10,-1,-100,6434.241280654678,-0.02130154986088421,0.037145716917878976,0.9990827992154508,225.74496104234024,23.593548805959347,602.9808562847066,-32.03152915472723,-15.7786865234375,4381.2578125,True
1599573070.9633222,0.0,10,0.5,0.5,-14.77829803314209,-0.2,-0.0155,-0.12575,0.6166593216331233,10,1,100,0.06998153480130012,-10,-1,-100,6432.921088865376,-0.019770964784570307,0.03911381495210115,0.99903914759702,230.98647869909766,24.194995524244156,624.7957637076416,-32.41063981352608,-20.260009765625,4381.2578125,True
1599573071.0413122,0.0,10,0.5,0.5,-14.526928671264649,-0.2,-0.0155,-0.12575,0.5272448307597541,10,1,100,0.12864468947737562,-10,-1,-100,6432.262947009411,-0.018919875924275024,0.04007438031625676,0.9990175585730603,233.5917497279246,24.49579008321387,635.7908618591243,-32.60006157059349,-22.611328125,4381.2578125,True
1599573071.130583,0.0,10,0.5,0.5,-12.329720932006836,-0.2,-0.0155,-0.12575,0.7449030482770862,10,1,100,-0.09694003110328442,-10,-1,-100,6430.285103091854,-0.01610312901978279,0.04291028391524497,0.9989491462382284,241.03019073161104,25.36017218441289,668.2418751733398,-33.16779279795103,-30.1068115234375,4381.2578125,True
1599573071.208332,0.0,10,0.5,0.5,-12.350538360595705,-0.2,-0.0155,-0.12575,0.5616943344938873,10,1,100,0.06863375272608199,-10,-1,-100,6429.633797504008,-0.015057739618211132,0.04380546197548658,0.9989265968922364,243.06559860157918,25.600483339809784,677.9821524078841,-33.35687210732091,-32.752899169921875,4381.2578125,True
1599573071.291111,0.0,10,0.5,0.5,-9.894795550537111,-0.2,-0.0155,-0.12575,0.7497923638786775,10,1,100,-0.2033247256294021,-10,-1,-100,6427.597361253342,-0.011645565086176014,0.046313115122202125,0.9988590872497989,247.44506753108254,26.128783342455076,702.6987423786358,-33.92370715158552,-41.1337890625,4381.2578125,True
1599573071.3699002,0.0,10,0.5,0.5,-9.92317855834961,-0.2,-0.0155,-0.12575,0.5805688665624844,10,1,100,0.00153323415840112,-10,-1,-100,6426.946052336483,-0.010419113603254645,0.04703750339237269,0.9988387834612424,248.23136130327686,26.2287403715402,709.1100563485048,-34.11254743651138,-44.07568359375,4381.2578125,True
1599573071.4506843,0.0,10,0.5,0.5,-6.152422773742677,-0.2,-0.0155,-0.12575,0.7846597096980772,10,1,100,-0.4534223929109712,-10,-1,-100,6424.188945904723,-0.0051819040954937225,0.04953544097936194,0.9987589238434494,247.25126662870701,26.160332589324923,722.977214646568,-34.86768673065573,-56.581024169921875,4381.2578125,True
1599573071.5319057,0.0,10,0.5,0.5,-7.643624482727051,-0.2,-0.0155,-0.12575,0.5366888955123954,10,1,100,0.06834605986698679,-10,-1,-100,6424.188945904723,-0.0051819040954937225,0.04953544097936194,0.9987589238434494,247.25126662870701,26.160332589324923,722.977214646568,-34.86768673065573,-56.581024169921875,4381.2578125,True
1599573071.611691,0.0,10,0.5,0.5,-4.256672859191895,-0.2,-0.0155,-0.12575,0.6744131531623873,10,1,100,-0.3914527857147367,-10,-1,-100,6422.03429284133,-0.0010192549895403687,0.05077176792051962,0.9987097619936891,241.44957040831673,25.542850620709036,718.27730343998,-35.43417251557343,-66.73709106445312,4381.2578125,True
1599573071.690481,0.0,10,0.5,0.5,-3.122165344238281,-0.2,-0.0155,-0.12575,0.6053825155469705,10,1,100,-0.28782863108077256,-10,-1,-100,6420.655451331986,0.0018033021112227622,0.05125395468138049,0.9986840242193797,234.85125545926783,24.83581617279217,706.6462123216386,-35.81207829910026,-73.87802124023438,4381.2578125,True
1599573071.7852268,0.0,10,0.5,0.5,-2.7309877334594725,-0.2,-0.0155,-0.12575,0.5764925958692797,10,1,100,-0.1677708210517548,-10,-1,-100,6419.93233499676,0.00325682406440535,0.051416844978035454,0.998671968741247,230.6782681326105,24.390478142961477,698.033333543002,-36.00113494345422,-77.55905151367188,4381.2578125,True
1599573071.8630197,0.0,10,0.5,0.5,0.6375321334838868,-0.2,-0.0155,-0.12575,0.5544834658971353,10,1,100,-0.46547364307075456,-10,-1,-100,6417.714614188182,0.00726366259579045,0.051353659493405986,0.9986541147275817,214.59075747997278,22.69074116950428,660.4099259867022,-36.568772667127945,-89.0482177734375,4381.2578125,True
1599573071.9467957,0.0,10,0.5,0.5,1.9109620559692384,-0.2,-0.0155,-0.12575,0.5253595252357776,10,1,100,-0.35452469052642976,-10,-1,-100,6416.273707664455,0.009873813020719347,0.051021201156660353,0.9986487594990361,203.16858651679067,21.502567249999384,632.2636351479346,-36.9475407507314,-97.07650756835938,4381.2578125,True
1599573072.6594713,0.0,10,0.5,0.5,2.3488990550994875,-0.2,-0.0155,-0.12575,0.5306401706366886,10,1,100,-0.23412501335247102,-10,-1,-100,6415.487085902598,0.011128519121763717,0.050759598611225865,0.9986488968656522,209.17412922997988,22.15544122396795,654.5597683233486,-37.13680801941448,-101.20142364501953,4381.2578125,True
1599573072.723707,0.0,10,0.5,0.5,4.614866050338745,-0.2,-0.0155,-0.12575,0.48707499098949547,10,1,100,-0.3591527780420978,-10,-1,-100,6413.9875596849015,0.01338197138467341,0.05011940908527845,0.9986535774105063,221.00577303148498,23.45525415717033,699.1927656559395,-37.514892768487634,-109.42423248291016,4381.2578125,True
1599573072.7995026,0.0,10,0.5,0.5,3.686698026275635,-0.2,-0.0155,-0.12575,0.5514745729805447,10,1,100,-0.13631030539821337,-10,-1,-100,6413.9875596849015,0.01338197138467341,0.05011940908527845,0.9986535774105063,221.00577303148498,23.45525415717033,699.1927656559395,-37.514892768487634,-109.42423248291016,4381.2578125,True
1599573072.875301,0.0,10,0.5,0.5,7.670154759979248,-0.2,-0.0155,-0.12575,0.40918976014817704,10,1,100,-0.48013300644246215,-10,-1,-100,6411.763387137558,0.016485994953268465,0.04882310905435428,0.9986713753746361,233.34247646987777,24.84470322843104,750.2194409820784,-38.080995970669406,-121.34185791015625,4381.2578125,True
1599573072.9510996,0.0,10,0.5,0.5,8.742186684036255,-0.2,-0.0155,-0.12575,0.42376460899727597,10,1,100,-0.3675151570213425,-10,-1,-100,6410.197417574935,0.018264337839936733,0.047777800681165036,0.9986909911105334,239.25579638817914,25.52029630958148,777.3997463738033,-38.45785478789995,-128.92526245117188,4381.2578125,True
1599573073.0419142,0.0,10,0.5,0.5,9.09953433418274,-0.2,-0.0155,-0.12575,0.4641991795338335,10,1,100,-0.28101428290324826,-10,-1,-100,6409.424924584106,0.01907332684316573,0.047196705201596426,0.9987034991534011,241.2561093790709,25.75195785839739,788.0123960665404,-38.64616907620324,-132.60546875,4381.2578125,True
1599573073.1157146,0.0,10,0.5,0.5,12.18776524925232,-0.2,-0.0155,-0.12575,0.3409361210676567,10,1,100,-0.4216759847919298,-10,-1,-100,6407.069348383229,0.021069248152514007,0.045551113382040556,0.9987397973706386,243.56827095954415,26.031588881957717,808.0271055924735,-39.21087834176011,-143.19309997558594,4381.2578125,True
1599573073.19653,0.0,10,0.5,0.5,13.140984688186647,-0.2,-0.0155,-0.12575,0.3753468374476907,10,1,100,-0.3391825799496277,-10,-1,-100,6405.496513985796,0.02211626752968125,0.04437312991435311,0.9987701918119902,242.43064215517674,25.914742471271182,812.5474529339577,-39.58732218834305,-149.87667846679688,4381.2578125,True
1599573073.278315,0.0,10,0.5,0.5,14.491455336380005,-0.2,-0.0155,-0.12575,0.36903681349958417,10,1,100,-0.3252429318405764,-10,-1,-100,6403.927090931451,0.02292423430478257,0.043251275376075995,0.9988011847509404,239.516759351531,25.598631168025214,811.0106019668264,-39.96386355181055,-156.2583770751953,4381.2578125,True
1599573073.3630805,0.0,10,0.5,0.5,14.795627909469607,-0.2,-0.0155,-0.12575,0.42210831158031,10,1,100,-0.28166955964974577,-10,-1,-100,6403.092086494435,0.02324839110613168,0.04272124158211915,0.9988165035824441,237.49427256501923,25.378227487060123,808.2578803752945,-40.1521928584465,-159.33587646484375,4381.2578125,True
1599573073.4378843,0.0,10,0.5,0.5,17.365487395095826,-0.2,-0.0155,-0.12575,0.30339282891002645,10,1,100,-0.3210000418115983,-10,-1,-100,6400.677401232184,0.023888470237842793,0.04116770643567812,0.9988666382137915,229.6368861939874,24.526277718246323,793.4601909549716,-40.71747131152584,-168.11669921875,4381.2578125,True
1599573073.5166724,0.0,10,0.5,0.5,17.269260164642333,-0.2,-0.0155,-0.12575,0.406058114163128,10,1,100,-0.2705369423057017,-10,-1,-100,6399.8355597490445,0.02400000495196649,0.040697442434101325,0.9988832353892163,226.54243826512783,24.193676275119703,786.7152837268602,-40.90599973922929,-170.892578125,4381.2578125,True
1599573073.596466,0.0,10,0.5,0.5,19.580705842971803,-0.2,-0.0155,-0.12575,0.3112853461435703,10,1,100,-0.26481527573600483,-10,-1,-100,6397.362278326997,0.02403973223820234,0.03941692451126388,0.9989336300956081,216.3098513293094,23.106967140839178,762.5339854213006,-41.471876513706256,-178.76744079589844,4381.2578125,True
1599573073.6886961,0.0,10,0.5,0.5,-97.76620577697754,-0.2,-0.0155,-0.12575,0.3977580461253136,10,1,100,-0.2549516017388322,-10,-1,-100,6396.576101694722,0.023976489315848337,0.03904866229449479,0.9989496133104501,212.68406862497602,22.72672818314324,753.48510902132,-41.66058931516596,178.7586669921875,4381.2578125,True
1599573073.7680886,0.0,10,0.5,0.5,-51.734346495819096,-0.2,-0.0155,-0.12575,0.3600974397467026,10,1,100,-0.2284581043265443,-10,-1,-100,6394.885096686194,0.023671336233267008,0.03838039517286266,0.9989827891947421,212.3979420601551,22.719021956254846,759.9368195424192,-42.038005363821384,174.03692626953125,4381.2578125,True
1599573073.8501318,0.0,10,0.5,0.5,-51.35788735122681,-0.2,-0.0155,-0.12575,0.36598142587246274,10,1,100,-0.21380346962493296,-10,-1,-100,6393.191166144097,0.023255784935093577,0.03783491348662064,0.9990133571622117,218.99467645187286,23.458513782605714,791.2427862304246,-42.41507810281719,169.616943359375,4381.2578125,True
1599573073.9289203,0.0,10,0.5,0.5,-50.94214662704468,-0.2,-0.0155,-0.12575,0.3745125740186335,10,1,100,-0.18884652218144515,-10,-1,-100,6391.442064550007,0.022647327452638817,0.03742508765656124,0.999042772544375,225.09522827183534,24.154506847620596,821.2026058591789,-42.791804275750366,165.19638061523438,4381.2578125,True
1599573074.0148654,0.0,10,0.5,0.5,-48.844305927276615,-0.2,-0.0155,-0.12575,0.3670509355305267,10,1,100,-0.07447675366721346,-10,-1,-100,6387.995150099043,0.021053024500914088,0.03699207293909307,0.9990937677210446,236.76724776442182,25.510298883930734,880.419786312011,-43.5441589076745,155.5824737548828,4381.2578125,True
1599573074.09166,0.0,10,0.5,0.5,-50.52671640090942,-0.2,-0.0155,-0.12575,0.40961430157981776,10,1,100,-0.23380072453680967,-10,-1,-100,6387.995150099043,0.021053024500914088,0.03699207293909307,0.9990937677210446,236.76724776442182,25.510298883930734,880.419786312011,-43.5441589076745,155.5824737548828,4381.2578125,True
1599573074.1724446,0.0,10,0.5,0.5,-48.415258428955084,-0.2,-0.0155,-0.12575,0.4117027761818041,10,1,100,-0.06355701422244295,-10,-1,-100,6385.393507649889,0.019507055506968816,0.03701674925587202,0.9991242340469857,244.94286650095597,26.471507423106704,923.6922734416512,-44.10747133186198,147.6168212890625,4381.2578125,True
1599573074.2551,0.0,10,0.5,0.5,-48.9805304145813,-0.2,-0.0155,-0.12575,0.4163142805573483,10,1,100,-0.15413827714586775,-10,-1,-100,6384.482352515333,0.018928496389594398,0.037086290940290784,0.9991327834921248,247.34254656502108,26.755518689591028,937.0671391777814,-44.29507180778627,144.81655883789062,4381.2578125,True
1599573074.3388755,0.0,10,0.5,0.5,-47.923000720214844,-0.2,-0.0155,-0.12575,0.4440168559341561,10,1,100,-0.07882344934558219,-10,-1,-100,6382.725972316926,0.017722362370022556,0.037405062625456446,0.9991430223756814,251.39026764530058,27.237232920259306,961.1878938468972,-44.67005673931967,139.00010681152344,4381.2578125,True
1599573074.418662,0.0,10,0.5,0.5,-46.115829708862314,-0.2,-0.0155,-0.12575,0.4883790567908837,10,1,100,0.026167237934551224,-10,-1,-100,6380.003294769325,0.015677123052030527,0.038101140874130614,0.9991509049572546,255.15267057580996,27.690685688463613,988.9515088653097,-45.23213647577106,129.7324981689453,4381.2578125,True
1599573074.4984496,0.0,10,0.5,0.5,-46.70619644775391,-0.2,-0.0155,-0.12575,0.45457675867574315,10,1,100,-0.0992386365703871,-10,-1,-100,6379.0921651845565,0.01496547035770646,0.03842784182973052,0.9991493059944953,255.68339249602568,27.757255710883673,995.4849377681054,-45.4194357964464,126.49931335449219,4381.2578125,True
1599573074.5822263,0.0,10,0.5,0.5,-43.73141135330201,-0.2,-0.0155,-0.12575,0.5558885619002875,10,1,100,0.08549989853423284,-10,-1,-100,6376.362224572105,0.012647263970059074,0.0396464234736488,0.9991337286969246,254.7085883713424,27.660671333649823,1005.1213393345513,-45.98133593966905,116.36775207519531,4381.2578125,True
1599573074.666107,0.0,10,0.5,0.5,-42.598906655883795,-0.2,-0.0155,-0.12575,0.5491777458701586,10,1,100,0.03281181539091632,-10,-1,-100,6374.48484068457,0.011028808075558153,0.040692066614845354,0.9991108652732414,251.67983626195542,27.327648702378955,1002.0832222626234,-46.35607320652681,109.25444030761719,4381.2578125,True
1599573074.7414145,0.0,10,0.5,0.5,-42.206225666046144,-0.2,-0.0155,-0.12575,0.5099271086047356,10,1,100,-0.03774593691649708,-10,-1,-100,6373.577165963361,0.010210034080497015,0.04128322990158544,0.999095315839769,249.3813730418926,27.075092503919358,997.3727036333207,-46.54352105304717,105.59022521972656,4381.2578125,True
1599573074.8202035,0.0,10,0.5,0.5,-38.854084507751466,-0.2,-0.0155,-0.12575,0.6830350473109257,10,1,100,0.17172282235002573,-10,-1,-100,6370.705265665427,0.00757273926744772,0.04339085220300087,0.9990294728210398,239.1216359573933,25.960398590551783,969.2160022748049,-47.106301856643626,94.16880798339844,4381.2578125,True
1599573074.894008,0.0,10,0.5,0.5,-37.598391708374024,-0.2,-0.0155,-0.12575,0.655535631440696,10,1,100,0.10255508962677858,-10,-1,-100,6368.793318156619,0.005816250903281033,0.04505106071522743,0.998967753810834,229.36753093709146,24.91763501913023,937.9841802635478,-47.48191278884637,86.19721984863281,4381.2578125,True
1599573074.9817717,0.0,10,0.5,0.5,-35.803781435394285,-0.2,-0.0155,-0.12575,0.7014223077461907,10,1,100,0.12554474153875567,-10,-1,-100,6366.878485753434,0.004024298076291191,0.04697016643114141,0.998888186180227,230.3257567510507,25.060069594591823,950.2689467297736,-47.85761787777828,77.94091796875,4381.2578125,True
1599573075.0605614,0.0,10,0.5,0.5,-35.354571649932865,-0.2,-0.0155,-0.12575,0.6280821093751034,10,1,100,0.04652177317698594,-10,-1,-100,6365.8932580852415,0.003127715907253494,0.04803903035389399,0.9988405623300753,237.1120532118889,25.826076989084285,982.5735693918793,-48.04522431808006,73.70625305175781,4381.2578125,True
1599573075.1373558,0.0,10,0.5,0.5,-32.948293447875976,-0.2,-0.0155,-0.12575,0.774347132323669,10,1,100,0.14800293510480328,-10,-1,-100,6363.951164725935,0.00140444953649574,0.0503304498200982,0.9987316322928829,249.3608657555839,27.228735453020505,1042.3696877263792,-48.41992314735859,65.02301025390625,4381.2578125,True
1599573075.2201262,0.0,10,0.5,0.5,-29.50936666488648,-0.2,-0.0155,-0.12575,0.9793535456351882,10,1,100,0.24588590089991677,-10,-1,-100,6361.036674001836,-0.0010371669324818616,0.054265502740211614,0.9985260034155876,263.9048847754124,28.9304294008359,1117.440059254167,-48.98079754194642,51.46604919433594,4381.2578125,True
1599573075.2969198,0.0,10,0.5,0.5,-28.033318550109865,-0.2,-0.0155,-0.12575,0.9106277181322187,10,1,100,0.16377959628010907,-10,-1,-100,6359.032234130544,-0.002495202507750055,0.05720334845222765,0.9983594297097104,271.3586402112388,29.811729116182676,1158.749261013693,-49.35408001313649,42.07380676269531,4381.2578125,True
1599573075.3846858,0.0,10,0.5,0.5,-27.519246570587157,-0.2,-0.0155,-0.12575,0.7908945273955625,10,1,100,0.09196365596714541,-10,-1,-100,6358.06031266856,-0.0031519438707256005,0.05876856508679763,0.9982666582669556,273.8796527291021,30.113784532319396,1174.4348050475812,-49.540599890099124,37.271697998046875,4381.2578125,True
1599573075.4655097,0.0,10,0.5,0.5,-23.169833618927004,-0.2,-0.0155,-0.12575,1.195032157655028,10,1,100,0.19831930883561313,-10,-1,-100,6355.084108782117,-0.0047014881287432714,0.06384808399184444,0.9979485548764254,275.96805134828,30.38870393125742,1198.3409188316944,-50.10003757483453,22.442291259765625,4381.2578125,True
1599573075.5452595,0.0,10,0.5,0.5,-23.24377589416504,-0.2,-0.0155,-0.12575,0.8847823204102121,10,1,100,0.08713596089359682,-10,-1,-100,6354.050733973039,-0.005085106749100732,0.06562432446022776,0.9978314435456968,274.6920149296845,30.25579530004591,1197.8059772157264,-50.28657778473748,17.35772705078125,4381.2578125,True
1599573075.650973,0.0,10,0.5,0.5,-18.63934767532349,-0.2,-0.0155,-0.12575,1.3177942953247137,10,1,100,0.12558834050495757,-10,-1,-100,6351.012702022563,-0.00576951336332025,0.07115343275383657,0.9974486962861276,264.5385045420172,29.161518352712772,1168.1726891895862,-50.84673845899927,1.679901123046875,4381.2578125,True
1599573075.7257733,0.0,10,0.5,0.5,-16.947461824035646,-0.2,-0.0155,-0.12575,1.1824994804974926,10,1,100,0.05926274675685376,-10,-1,-100,6348.944600610645,-0.005776611930690898,0.07492470326727817,0.9971724623127699,252.39760211756925,27.861710211649605,1123.997655045672,-51.220777392641374,-9.1259765625,4381.2578125,True
1599573075.8055604,0.0,10,0.5,0.5,-14.546003563690185,-0.2,-0.0155,-0.12575,1.221443823435114,10,1,100,0.02158452888491564,-10,-1,-100,6346.878483448527,-0.005429996954161165,0.07868001263115613,0.9968851341781755,246.37961985178973,27.27043811508279,1106.438916073453,-51.5951117075403,-20.215911865234375,4381.2578125,True
1599573075.885689,0.0,10,0.5,0.5,-13.947377628326416,-0.2,-0.0155,-0.12575,1.0526028619832672,10,1,100,0.021998888009659538,-10,-1,-100,6345.845187982079,-0.005110064517513215,0.08053018527039203,0.996739071422879,254.77563315163962,28.25040395589613,1148.9053627740361,-51.7819884774115,-25.86761474609375,4381.2578125,True
1599573075.9764836,0.0,10,0.5,0.5,-10.751809167480472,-0.2,-0.0155,-0.12575,1.2636455370959632,10,1,100,-0.041229084935956985,-10,-1,-100,6343.777131121024,-0.004236928202486958,0.08410119275716145,0.996448211306654,268.6776994207901,29.911259595404104,1221.5707636701227,-52.15504532641597,-37.38543701171875,4381.2578125,True
1599573076.0572681,0.0,10,0.5,0.5,-6.238950761413575,-0.2,-0.0155,-0.12575,1.4540951272255818,10,1,100,-0.15951963924234489,-10,-1,-100,6340.615681674797,-0.0023626707153695773,0.08904822243455103,0.996024513688462,281.80003030521647,31.54662442313744,1296.7487205698544,-52.713274892143716,-55.198150634765625,4381.2578125,True
1599573076.134063,0.0,10,0.5,0.5,-4.328719388580323,-0.2,-0.0155,-0.12575,1.2846684130322785,10,1,100,-0.14100004512590006,-10,-1,-100,6338.485534523963,-0.0008259552156097407,0.0919736586306985,0.9957610978121537,284.9613136210916,31.985148754349463,1321.7216441764813,-53.08495277583811,-67.43099975585938,4381.2578125,True
1599573076.2198336,0.0,10,0.5,0.5,-1.6191695861816404,-0.2,-0.0155,-0.12575,1.2783512816313216,10,1,100,-0.1685554199079566,-10,-1,-100,6336.3562995299,0.0008200447846523153,0.0945441082415707,0.9955203358663034,282.030716757106,31.714016033429377,1318.5227818387464,-53.45671710649319,-79.95010375976562,4381.2578125,True
1599573076.300128,0.0,10,0.5,0.5,1.1594583305358885,-0.2,-0.0155,-0.12575,1.2672656121397148,10,1,100,-0.18889427158607733,-10,-1,-100,6334.226499304175,0.0024976961740958473,0.09674757858048103,0.9953058160950509,272.7496736862235,30.718868184243643,1285.316497037902,-53.8289240666931,-92.75505065917969,4381.2578125,True
1599573076.3824186,0.0,10,0.5,0.5,1.8482911289215087,-0.2,-0.0155,-0.12575,1.1559857453363507,10,1,100,-0.11246027788118135,-10,-1,-100,6333.130074385321,0.0033214345996337865,0.0977091896498338,0.9952094665597655,265.7273623843709,29.956886503763663,1257.2322020867077,-54.015268565528665,-99.26464080810547,4381.2578125,True
1599573076.466502,0.0,10,0.5,0.5,5.521132600402832,-0.2,-0.0155,-0.12575,1.2457950084507645,10,1,100,-0.19988803161768384,-10,-1,-100,6331.001126820571,0.004857443164683086,0.09937066131829499,0.9950386308656899,247.09426401382456,27.934404994431038,1178.4253385779648,-54.38849447853598,-112.49766540527344,4381.2578125,True
1599573076.5434914,0.0,10,0.5,0.5,8.339018982315064,-0.2,-0.0155,-0.12575,1.2314181933629613,10,1,100,-0.19378542438782742,-10,-1,-100,6328.8091134282295,0.006188675470340115,0.10072473976285744,0.9948950834613807,258.88453655398564,29.387082717923803,1244.3929899666664,-54.761355288174286,-125.71321105957031,4381.2578125,True
1599573076.6378317,0.0,10,0.5,0.5,11.07776735420227,-0.2,-0.0155,-0.12575,1.216937132209037,10,1,100,-0.18101252707561116,-10,-1,-100,6326.6155656275805,0.0072718918750072385,0.10180061957788256,0.9947782433498017,273.77177651737026,31.213028155130086,1326.1263171512517,-55.13313472165372,-138.6676025390625,4381.2578125,True
1599573076.7166219,0.0,10,0.5,0.5,13.753863663864138,-0.2,-0.0155,-0.12575,1.2129136794522999,10,1,100,-0.1543042903992431,-10,-1,-100,6324.360440572258,0.008002284737802033,0.1027210965601653,0.9946780080812345,282.73230429153466,32.355628028015275,1379.953988318246,-55.50420669982288,-151.31997680664062,4381.2578125,True
1599573076.8004596,0.0,10,0.5,0.5,16.378141000747682,-0.2,-0.0155,-0.12575,1.2119667618532373,10,1,100,-0.12416393424819461,-10,-1,-100,6322.16778063972,0.008380354694192028,0.10352911191925834,0.9945911183196888,286.74483784256296,32.90645120926219,1410.1301808069954,-55.874967615717146,-163.6633758544922,4381.2578125,True
1599573076.8812437,0.0,10,0.5,0.5,-96.40732224769593,-0.2,-0.0155,-0.12575,1.264245246263101,10,1,100,-0.07024946696011727,-10,-1,-100,6318.752553038648,0.008222452876567067,0.10472126854110342,0.994467619977561,281.2770795373433,32.37818649184103,1399.0683103916701,-56.43142056090272,178.40573120117188,4381.2578125,True
1599573076.966017,0.0,10,0.5,0.5,-51.85818166770935,-0.2,-0.0155,-0.12575,1.1943210988428188,10,1,100,-0.05994439349472323,-10,-1,-100,6317.655003371299,0.007975600443957214,0.10515512499704496,0.9944238480066808,276.69209830462603,31.88440817600949,1381.5326327277628,-56.61713127305371,172.585205078125,4381.2578125,True
1599573077.0497928,0.0,10,0.5,0.5,-47.39830249595642,-0.2,-0.0155,-0.12575,1.3194295366112465,10,1,100,0.05734388661573683,-10,-1,-100,6314.239854477462,0.006676930635435377,0.10667490624000812,0.994271533825632,256.0231189025272,29.637337328811427,1293.093890845278,-57.175140618061754,155.505126953125,4381.2578125,True
1599573077.1295795,0.0,10,0.5,0.5,-46.16519151420594,-0.2,-0.0155,-0.12575,1.310560585679593,10,1,100,0.06880506982464277,-10,-1,-100,6311.921339262277,0.005386804702288396,0.10796487072696102,0.9941401153881729,264.913177698743,30.80533772440126,1348.1495752617968,-57.54704121302781,144.005859375,4381.2578125,True
1599573077.2223325,0.0,10,0.5,0.5,-44.148290252304086,-0.2,-0.0155,-0.12575,1.3548333312324878,10,1,100,0.1145527997294602,-10,-1,-100,6309.603403286077,0.0037954480289035344,0.10952984768181136,0.9939762608035764,280.5646324852412,32.7894859163939,1438.440834736639,-57.91784635131624,132.24864196777344,4381.2578125,True
1599573077.308102,0.0,10,0.5,0.5,-44.037468234252934,-0.2,-0.0155,-0.12575,1.2988313926671315,10,1,100,0.0538446109574909,-10,-1,-100,6308.443498391076,0.0029002218479085903,0.11043269941923389,0.9938793727672459,286.6821449234791,33.58575948220535,1475.1997652098285,-58.10291237613219,126.26817321777344,4381.2578125,True
1599573077.3908815,0.0,10,0.5,0.5,-39.18175171432495,-0.2,-0.0155,-0.12575,1.5683512667378392,10,1,100,0.291419594371049,-10,-1,-100,6304.903429954313,-7.161341919481897e-05,0.11369359800107814,0.9935158582755925,299.1256705632772,35.25643844704295,1556.0735415005186,-58.65725256459554,107.91714477539062,4381.2578125,True
