Timestamp,Input Throttle,horizon,dT,dt,Input Roll,Roll P,Roll I,Roll D,Input Pitch,Pitch P,Pitch I,Pitch D,Input Yaw,Yaw P,Yaw I,Yaw D,Altitude,Direction X,Direction Y,Direction Z,Drag X,Drag Y,Drag Z,Vertical Velocity,Roll,Mass,Has Fuel
1599574170.0330443,0.0,10,0.5,0.5,-10.812310829162598,-0.2,-0.03,-0.37525,-0.06720251949913804,10,1,100,0.6903510138935383,-10,-1,-100,6483.617966910941,-0.06725766463092715,-0.007002693822286001,0.9977110648016414,205.07324590389922,21.49878148644164,-156.76525889635292,9.590824079960466,-35.9444580078125,4381.2578125,True
1599574170.1028693,0.0,10,0.5,0.5,-10.974223007202148,-0.2,-0.03,-0.37525,-0.0690453031646418,10,1,100,0.6894917247648876,-10,-1,-100,6483.776674912311,-0.06735029473995009,-0.006987403781918303,0.9977049233048969,204.84271917702344,21.477786840433346,-153.51322535002126,9.400810115677604,-35.94281005859375,4381.2578125,True
1599574170.177236,0.0,10,0.5,0.5,-11.13774237060547,-0.2,-0.03,-0.37525,-0.06771722235465383,10,1,100,0.7080710907651608,-10,-1,-100,6484.156592000974,-0.06754217971657347,-0.006955078098055125,0.9976921774013185,204.38125586568452,21.435621168010133,-147.0255555756092,9.02079795396214,-35.93939208984375,4381.2578125,True
1599574170.2544794,0.0,10,0.5,0.5,-11.116277801513672,-0.2,-0.03,-0.37525,-0.01854942022260138,10,1,100,0.7014348927154115,-10,-1,-100,6484.697140435339,-0.06759488954967285,-0.006472388295071708,0.9976918557834002,203.75666507149867,21.378978022681196,-137.38155900856938,8.450805720180082,-36.25640869140625,4381.2578125,True
1599574170.3332362,0.0,10,0.5,0.5,-11.073558029174805,-0.2,-0.03,-0.37525,-0.015102750383074626,10,1,100,0.6978057242069011,-10,-1,-100,6485.016949403216,-0.06754836523918613,-0.00599636203173193,0.9976979813530233,203.4464570134719,21.351660187728164,-131.0452725930995,8.070816420777707,-36.8177490234375,4381.2578125,True
1599574170.4120586,0.0,10,0.5,0.5,-10.952622436523438,-0.2,-0.03,-0.37525,0.012327223895609564,10,1,100,0.689339239356177,-10,-1,-100,6485.335756100714,-0.06736769476261054,-0.005308796242497065,0.9977140925058778,203.19889218806935,21.330033463667732,-124.76085327342112,7.690822375443522,-37.6715087890625,4381.2578125,True
1599574170.4978313,0.0,10,0.5,0.5,-10.769921913146973,-0.2,-0.03,-0.37525,0.042003571502487076,10,1,100,0.6787137126360152,-10,-1,-100,6485.590081864037,-0.06704560981848343,-0.004409125277455122,0.9977401694922157,202.97247921007937,21.309511322868715,-118.49848691902352,7.3108157505176266,-38.818939208984375,4381.2578125,True
1599574170.5835662,0.0,10,0.5,0.5,-10.524957191467287,-0.2,-0.03,-0.37525,0.07321409016989414,10,1,100,0.6653557484956438,-10,-1,-100,6485.909322369145,-0.06657041873180224,-0.0033035022983701505,0.997776260602765,202.70961644712045,21.283866238734554,-112.22443613321586,6.930788143337575,-40.26019287109375,4381.2578125,True
1599574170.6693373,0.0,10,0.5,0.5,-10.21674606323242,-0.2,-0.03,-0.37525,0.10481294106187483,10,1,100,0.6488740030940344,-10,-1,-100,6486.16505990806,-0.06592807422323034,-0.002008125034458197,0.9978223571673778,202.33866522934608,21.245424451998957,-105.90457289762483,6.550730695880971,-41.99554443359375,4381.2578125,True
1599574170.7550173,0.0,10,0.5,0.5,-9.844491744995118,-0.2,-0.03,-0.37525,0.13685205161044653,10,1,100,0.6294620897297336,-10,-1,-100,6486.420283608022,-0.06510771811737749,-0.0005374191304289891,0.9978780968746765,201.77009951663723,21.18467523547803,-99.50459126504175,6.170632904627323,-44.0250244140625,4381.2578125,True
1599574170.841822,0.0,10,0.5,0.5,-10.096787673950196,-0.2,-0.03,-0.37525,0.0774188133182952,10,1,100,0.6651972058411267,-10,-1,-100,6486.517857231898,-0.06462761569659904,0.0002597726334238505,0.9979094166343715,201.3792340815628,21.142515105021324,-96.26463930583877,5.98056481772157,-45.15008544921875,4381.2578125,True
1599574170.9295511,0.0,10,0.5,0.5,-9.069902420043947,-0.2,-0.03,-0.37525,0.1850881348857789,10,1,100,0.5909249534549267,-10,-1,-100,6486.7720680892235,-0.06351834760959348,0.001956702190762002,0.9979787526964107,200.3100018438534,21.026858574172753,-89.68763350587922,5.600379365013644,-47.62109375,4381.2578125,True
1599574171.0163443,0.0,10,0.5,0.5,-8.371205207824708,-0.2,-0.03,-0.37525,0.21634511437425705,10,1,100,0.556711808706295,-10,-1,-100,6486.9652211469365,-0.06220237707562845,0.0037753887782622318,0.9980564166046497,198.74985954854688,20.858223356159357,-82.96524893521322,5.220112190015684,-50.386688232421875,4381.2578125,True
1599574171.1041186,0.0,10,0.5,0.5,-6.66160196685791,-0.2,-0.03,-0.37525,0.3604116528143242,10,1,100,0.4265823581499281,-10,-1,-100,6487.254426188301,-0.05982789958754868,0.006728681055557308,0.9981860283946048,195.18109941307125,20.473980970392635,-72.59214271783813,4.649512391077381,-55.08734130859375,4381.2578125,True
1599574171.1999059,0.0,10,0.5,0.5,-6.354074264526368,-0.2,-0.03,-0.37525,0.29058544364733885,10,1,100,0.45859031820964674,-10,-1,-100,6487.448511912022,-0.05796732604434826,0.008766707524897848,0.9982799877541576,191.75494817394056,20.10701135604754,-65.49277903814271,4.268938355852815,-58.590087890625,4381.2578125,True
1599574171.287262,0.0,10,0.5,0.5,-6.532012573242189,-0.2,-0.03,-0.37525,0.20254178181783908,10,1,100,0.5321017090227846,-10,-1,-100,6487.5440857198555,-0.056952890957189896,0.00980564096261504,0.9983287122070219,189.66433979479572,19.883869102621844,-61.895814921478724,4.078586459383421,-60.4521484375,4381.2578125,True
1599574171.37307,0.0,10,0.5,0.5,-3.6932131958007814,-0.2,-0.03,-0.37525,0.43370141872723955,10,1,100,0.2638106010062411,-10,-1,-100,6487.770731927478,-0.05360113517217319,0.012837836753166028,0.9984798987740081,181.66298919292922,19.03394937649746,-50.992191240781416,3.5072245104557345,-66.48291015625,4381.2578125,True
1599574171.4543521,0.0,10,0.5,0.5,-3.347856025695801,-0.2,-0.03,-0.37525,0.35431315129709473,10,1,100,0.3208178909568507,-10,-1,-100,6487.839790740167,-0.051084554798660184,0.014856987802455953,0.9985838162990928,174.75823284017184,18.30455805451319,-43.72852042449777,3.1260029598064025,-70.87301635742188,4381.2578125,True
1599574171.53913,0.0,10,0.5,0.5,-3.576843437194824,-0.2,-0.03,-0.37525,0.26343423023659873,10,1,100,0.4232893725219399,-10,-1,-100,6487.934866127907,-0.04974239144054294,0.015849898119350624,0.9986363077834604,170.76258666812143,17.883798749402867,-40.12439943294087,2.9352721541554945,-73.1790771484375,4381.2578125,True
1599574171.6179152,0.0,10,0.5,0.5,-0.1117910766601562,-0.2,-0.03,-0.37525,0.4625773608876376,10,1,100,0.09347008191341422,-10,-1,-100,6488.100466902135,-0.04553860000288856,0.018546701392306308,0.9987903963180871,156.61524996332057,16.39805802917667,-29.626285549974362,2.362628501377033,-80.5443115234375,4381.2578125,True
1599574171.6977034,0.0,10,0.5,0.5,-1.2684703826904302,-0.2,-0.03,-0.37525,0.2893272454999104,10,1,100,0.3472946614170974,-10,-1,-100,6488.134022909566,-0.044042257707885786,0.019405990481902377,0.9988411720936459,151.1634762801662,15.826504531117429,-26.28483634796427,2.171633509274913,-83.14764404296875,4381.2578125,True
1599574171.7727773,0.0,10,0.5,0.5,2.5953780555725094,-0.2,-0.03,-0.37525,0.4643066978030822,10,1,100,-0.020699288240563496,-10,-1,-100,6488.234702141257,-0.03935526095007608,0.02176047902261084,0.9989883107365459,152.0520182404009,15.919122744768186,-19.464747031639536,1.5985059155917418,-91.36451721191406,4381.2578125,True
1599574171.8486073,0.0,10,0.5,0.5,2.9018692264556885,-0.2,-0.03,-0.37525,0.3814318773501658,10,1,100,0.08726166108284217,-10,-1,-100,6488.301350483554,-0.036097784424697785,0.02312951225838125,0.9990805651309195,159.99278475868545,16.749551615283124,-15.587684260108817,1.2164358506958588,-97.02925872802734,4381.2578125,True
1599574171.9234023,0.0,10,0.5,0.5,4.270210618972778,-0.2,-0.03,-0.37525,0.3770027383147853,10,1,100,0.04716611281683841,-10,-1,-100,6488.306978516164,-0.032795668592527416,0.024316228369232598,0.9991662349976927,168.228781590995,17.60964348504965,-11.244740275485537,0.8344589578419708,-102.85995483398438,4381.2578125,True
1599574172.6345062,0.0,10,0.5,0.5,3.867948703765869,-0.2,-0.03,-0.37525,0.317435462312351,10,1,100,0.1953094940194834,-10,-1,-100,6488.341051252442,-0.031165077875119327,0.02483755182697199,0.9992056014356006,171.78772515861027,17.981197227706804,-8.8554883521466,0.6435010210274417,-105.71504211425781,4381.2578125,True
1599574172.6992993,0.0,10,0.5,0.5,7.630896968841553,-0.2,-0.03,-0.37525,0.41350923117705857,10,1,100,-0.19450411003426266,-10,-1,-100,6488.3178101036465,-0.026163328320777217,0.026170270283412348,0.999315064033597,181.26487697984032,18.971782744934565,-1.0256042918434949,0.07061722258854397,-113.87313842773438,4381.2578125,True
1599574172.7671185,0.0,10,0.5,0.5,6.210974016189576,-0.2,-0.03,-0.37525,0.32102324473710425,10,1,100,0.12162849618658964,-10,-1,-100,6488.350438999711,-0.024518206566688877,0.02652617388588509,0.9993473968774467,183.6260438068491,19.21855178612702,1.7713213814824742,-0.120386704563332,-116.44791412353516,4381.2578125,True
1599574172.8339674,0.0,10,0.5,0.5,9.584140771865846,-0.2,-0.03,-0.37525,0.37840524802251546,10,1,100,-0.25529089900936863,-10,-1,-100,6488.327747050906,-0.01962254040537757,0.02735893324787976,0.9994330616302312,188.80163595105785,19.75927936844903,10.495138680220235,-0.6935989240411011,-123.73075866699219,4381.2578125,True
1599574172.9018028,0.0,10,0.5,0.5,8.321369548797609,-0.2,-0.03,-0.37525,0.32075628383556554,10,1,100,0.05967104611410512,-10,-1,-100,6488.298386089853,-0.01806382704566549,0.027580540315770438,0.9994563582009743,190.0460687354377,19.88924372414917,13.476431594770455,-0.8847311937644355,-126.01071166992188,4381.2578125,True
1599574172.9697733,0.0,10,0.5,0.5,10.120552654266358,-0.2,-0.03,-0.37525,0.3310790987627783,10,1,100,-0.14072364037061708,-10,-1,-100,6488.2416304727085,-0.014853843718243286,0.027865180838467153,0.9995013231725275,191.62168596776064,20.053528668506615,19.46335992274208,-1.2670855277609459,-130.35011291503906,4381.2578125,True
1599574173.0376284,0.0,10,0.5,0.5,12.066627666473389,-0.2,-0.03,-0.37525,0.3374936354672935,10,1,100,-0.3130105130295391,-10,-1,-100,6488.153609471279,-0.010397327993037124,0.028173787575099613,0.9995489649158156,192.02459800509314,20.094471689607367,28.342135497971867,-1.840821605277875,-136.3040771484375,4381.2578125,True
1599574173.1064398,0.0,10,0.5,0.5,11.04878491973877,-0.2,-0.03,-0.37525,0.3103677054592319,10,1,100,-0.03241868219131848,-10,-1,-100,6488.124278767034,-0.0089273711865743,0.028199769065516564,0.9995624418055874,191.7528141277354,20.06545406369646,31.24543895969381,-2.0321130610747336,-138.14138793945312,4381.2578125,True
1599574173.176253,0.0,10,0.5,0.5,12.48526727294922,-0.2,-0.03,-0.37525,0.3153649753285084,10,1,100,-0.19376090825629105,-10,-1,-100,6488.003131656209,-0.006151961025347891,0.028262964428304574,0.9995815915758288,190.70709522861222,19.954574336005425,36.93201069757871,-2.4147489827285322,-141.59310913085938,4381.2578125,True
1599574173.245069,0.0,10,0.5,0.5,13.138683715820314,-0.2,-0.03,-0.37525,0.31442215802722023,10,1,100,-0.20766309255822224,-10,-1,-100,6487.882981065777,-0.0035297008609421004,0.02830717691703658,0.9995930396650528,189.1765073064629,19.792422002531268,42.448270981513275,-2.7974367790258587,-144.74822998046875,4381.2578125,True
1599574173.3158824,0.0,10,0.5,0.5,14.48424557495117,-0.2,-0.03,-0.37525,0.2986601612398682,10,1,100,-0.3624548975850531,-10,-1,-100,6487.732567955623,0.00023476481809654896,0.02820045107368265,0.9996022606240548,186.2959725788681,19.486685157414705,50.39271281648948,-3.3715288667702734,-148.92703247070312,4381.2578125,True
1599574173.386692,0.0,10,0.5,0.5,13.761627025604247,-0.2,-0.03,-0.37525,0.30684461028681626,10,1,100,-0.11779535102696846,-10,-1,-100,6487.640771891456,0.0014042833369734462,0.028174774480836145,0.9996020258439173,185.27589809290623,19.37810338085843,52.965861001402885,-3.562904419907301,-150.1714324951172,4381.2578125,True
1599574173.4601767,0.0,10,0.5,0.5,15.294979568481445,-0.2,-0.03,-0.37525,0.30145951582126324,10,1,100,-0.3663591374149371,-10,-1,-100,6487.426924140425,0.004702091310699658,0.028100654442927545,0.9995940393765786,182.25448063923886,19.055167966538082,60.513462277946324,-4.137063985939496,-153.4594268798828,4381.2578125,True
1599574173.5289924,0.0,10,0.5,0.5,15.219820526123048,-0.2,-0.03,-0.37525,0.303299025828164,10,1,100,-0.2624101130338947,-10,-1,-100,6487.243358809501,0.006728543521643658,0.028048564062566967,0.9995839158150281,180.36878079510953,18.852341580039525,65.44001132786182,-4.519871615607107,-155.2805938720703,4381.2578125,True
1599574173.5983162,0.0,10,0.5,0.5,15.50763642501831,-0.2,-0.03,-0.37525,0.30785612249426286,10,1,100,-0.26803121178186967,-10,-1,-100,6487.058825496468,0.008597918171186138,0.028042010385735807,0.9995697681786138,178.67020890282973,18.668382070006857,70.32684249489041,-4.902716654304112,-156.80438232421875,4381.2578125,True
1599574173.6711216,0.0,10,0.5,0.5,15.733655456542968,-0.2,-0.03,-0.37525,0.31349080899822745,10,1,100,-0.2726971064721429,-10,-1,-100,6486.8132663690485,0.010315528945030102,0.02808685740222537,0.9995522589158864,177.2152588569665,18.509231908575135,75.21542180746525,-5.285608526447962,-158.03070068359375,4381.2578125,True
1599574173.7409344,0.0,10,0.5,0.5,15.645217124938965,-0.2,-0.03,-0.37525,0.3120211484089758,10,1,100,-0.19227214785667437,-10,-1,-100,6486.721006960492,0.011122976049599198,0.028114065342255634,0.9995428348668862,176.6083284239666,18.442022053609808,77.68031038452769,-5.477074769980968,-158.53256225585938,4381.2578125,True
1599574173.8137407,0.0,10,0.5,0.5,15.972554206848145,-0.2,-0.03,-0.37525,0.32064594427468013,10,1,100,-0.2782676225577367,-10,-1,-100,6486.473015619209,0.012619232001905636,0.028217261361273952,0.9995221564052253,175.65635150623376,18.334520889451156,82.67979349688441,-5.860052194381952,-159.31304931640625,4381.2578125,True
1599574173.883595,0.0,10,0.5,0.5,16.09606923675537,-0.2,-0.03,-0.37525,0.335935839541075,10,1,100,-0.3473242352542762,-10,-1,-100,6486.13521427894,0.014587664252890504,0.028450059069807142,0.9994887664153957,174.97637340066174,18.250299354824683,90.46251925121994,-6.4346388118326185,-159.92648315429688,4381.2578125,True
1599574173.9530082,0.0,10,0.5,0.5,15.942383476257325,-0.2,-0.03,-0.37525,0.33601772663896495,10,1,100,-0.27635146286563916,-10,-1,-100,6485.825217382982,0.01571308689090892,0.028662267692416768,0.9994656438873158,175.06441218623667,18.249902270020815,95.91758280827038,-6.817777831517485,-159.9638671875,4381.2578125,True
1599574174.0218246,0.0,10,0.5,0.5,15.920581443786622,-0.2,-0.03,-0.37525,0.32898714393995665,10,1,100,-0.22120239602318842,-10,-1,-100,6485.732475159806,0.01621734978349261,0.02879094742409328,0.9994538903383302,175.272937823176,18.266619253139233,98.74139734917152,-7.0093707032421175,-159.87100219726562,4381.2578125,True
1599574174.0936692,0.0,10,0.5,0.5,15.75298565673828,-0.2,-0.03,-0.37525,0.35054854778354677,10,1,100,-0.26923598527951664,-10,-1,-100,6485.4234558203025,0.01709790996547586,0.029103404945695098,0.9994301642913223,176.02705985352384,18.334660911416307,104.6119224863737,-7.39259900972432,-159.46200561523438,4381.2578125,True
1599574174.167978,0.0,10,0.5,0.5,15.528315826416016,-0.2,-0.03,-0.37525,0.3564749317376148,10,1,100,-0.26346407791861404,-10,-1,-100,6485.111505501904,0.017831680403426517,0.029440489246311135,0.9994074688368744,177.21968205323782,18.447617236392446,110.80771129735118,-7.775876361302485,-158.75619506835938,4381.2578125,True
1599574174.237791,0.0,10,0.5,0.5,14.879564414978029,-0.2,-0.03,-0.37525,0.3878801439233574,10,1,100,-0.279519457263461,-10,-1,-100,6484.584736449411,0.01863276644188688,0.030031213416920298,0.9993752779789129,179.77102168596707,18.69483459834194,120.7605446801997,-8.350857869569486,-157.140380859375,4381.2578125,True
1599574174.3061178,0.0,10,0.5,0.5,14.658227519989016,-0.2,-0.03,-0.37525,0.37826073661114396,10,1,100,-0.23621921429348627,-10,-1,-100,6484.273753738962,0.018956565883559946,0.03047898382431364,0.9993556324727146,181.91532553635338,18.904680133661316,127.84494566780482,-8.734201148226518,-155.69187927246094,4381.2578125,True
1599574174.3759303,0.0,10,0.5,0.5,14.19450012588501,-0.2,-0.03,-0.37525,0.3861233400628711,10,1,100,-0.22148991051177652,-10,-1,-100,6483.901242436026,0.01910760929823594,0.03095531061383367,0.9993381149599504,184.34765642058534,19.14365380927526,135.2783775637878,-9.117542472651367,-153.9466552734375,4381.2578125,True
1599574174.4457436,0.0,10,0.5,0.5,13.6626891746521,-0.2,-0.03,-0.37525,0.3931378329713032,10,1,100,-0.20497100653262884,-10,-1,-100,6483.528724683099,0.019086756838718952,0.03144949540055435,0.9993230833681519,186.98932529222316,19.40371756072294,143.0275623946959,-9.50086411781247,-151.90501403808594,4381.2578125,True
1599574174.5155575,0.0,10,0.5,0.5,13.75778233718872,-0.2,-0.03,-0.37525,0.3717052323028588,10,1,100,-0.19975112462014266,-10,-1,-100,6483.310969707323,0.019013106784690797,0.03170088026417065,0.9993165444246737,188.3618452329274,19.538945826318557,147.00575395391098,-9.692512064528437,-150.7730712890625,4381.2578125,True
1599574174.5853708,0.0,10,0.5,0.5,12.726909439086917,-0.2,-0.03,-0.37525,0.4020786625650846,10,1,100,-0.1766821714977392,-10,-1,-100,6482.936486927443,0.018730621821022638,0.03220236712538489,0.9993058447531065,191.14174598592663,19.812910198040445,155.12183991413957,-10.075772995886723,-148.28717041015625,4381.2578125,True
1599574174.654189,0.0,10,0.5,0.5,12.024701080322266,-0.2,-0.03,-0.37525,0.40599830033290496,10,1,100,-0.15516792247305028,-10,-1,-100,6482.500472466461,0.018274466901492474,0.03269048615341841,0.9992984418953725,193.87312826453083,20.082206366449636,163.37446606433366,-10.458973757915091,-145.50555419921875,4381.2578125,True
1599574174.7259948,0.0,10,0.5,0.5,10.306295433044435,-0.2,-0.03,-0.37525,0.4330692616897934,10,1,100,-0.0915774928387793,-10,-1,-100,6481.846677817055,0.01727935726887115,0.033376668356274224,0.9992934613124465,197.59143038094965,20.449365772889237,175.74363016177534,-11.033631404472793,-140.77920532226562,4381.2578125,True
1599574174.795808,0.0,10,0.5,0.5,9.997998439788818,-0.2,-0.03,-0.37525,0.40838396201963545,10,1,100,-0.09541294303011974,-10,-1,-100,6481.409663311439,0.01640861441596815,0.03377188970647609,0.9992948598079556,199.59779551320864,20.64825933414846,183.75333706327189,-11.416628731177415,-137.2597198486328,4381.2578125,True
1599574174.8676171,0.0,10,0.5,0.5,10.176223373413086,-0.2,-0.03,-0.37525,0.38863754948123663,10,1,100,-0.12804191773590118,-10,-1,-100,6481.192373085418,0.015914283679335717,0.03394742492470982,0.9992969067879451,200.39742190791662,20.727937365362926,187.61623898765012,-11.608094721553044,-135.3894805908203,4381.2578125,True
1599574174.9384274,0.0,10,0.5,0.5,7.326788494110108,-0.2,-0.03,-0.37525,0.41304932937264355,10,1,100,0.008898850923109103,-10,-1,-100,6480.475055604242,0.014221719109791676,0.03432483045331836,0.9993095359896819,201.72452337012922,20.86283423987853,198.3082009754091,-12.182368965102423,-129.33795166015625,4381.2578125,True
1599574175.0112321,0.0,10,0.5,0.5,8.269279041290284,-0.2,-0.03,-0.37525,0.38474268415871776,10,1,100,-0.09016780273724839,-10,-1,-100,6480.193301764084,0.013587640031965885,0.034406689961893715,0.999315543621847,201.73060334035907,20.865266415540017,201.466674375784,-12.373758506716753,-127.17378234863281,4381.2578125,True
1599574175.0810459,0.0,10,0.5,0.5,6.379159793853761,-0.2,-0.03,-0.37525,0.38728522088005113,10,1,100,-0.0021804512193138448,-10,-1,-100,6479.694239283097,0.012216200334553572,0.0345006510252129,0.9993300103210263,201.0689634011049,20.804668380903134,207.0946165575076,-12.756503529624908,-122.62503051757812,4381.2578125,True
1599574175.149863,0.0,10,0.5,0.5,5.207028388977051,-0.2,-0.03,-0.37525,0.3711999277207061,10,1,100,0.0200049487267505,-10,-1,-100,6479.195167467347,0.010774016436454233,0.034436617199135044,0.9993488079573154,199.7744621888049,20.68415904337019,212.01624438090607,-13.1392281335633,-117.78350830078125,4381.2578125,True
1599574175.8541324,0.0,10,0.5,0.5,3.9673376083374023,-0.2,-0.03,-0.37525,0.3606937559025801,10,1,100,0.050066642279884055,-10,-1,-100,6478.632609777618,0.00919720907897386,0.034280178411809865,0.9993699418699825,197.11241896827121,20.426833708816726,215.37055486621765,-13.521977085019738,-112.64816284179688,4381.2578125,True
1599574175.921653,0.0,10,0.5,0.5,2.6574995708465585,-0.2,-0.03,-0.37525,0.3413863604788472,10,1,100,0.07081016306367131,-10,-1,-100,6478.070533085265,0.007584093926598834,0.033960094739346094,0.9993944133747232,192.89318336009632,20.011080942764014,216.81690923927252,-13.90480425689005,-107.22008514404297,4381.2578125,True
1599574175.9874837,0.0,10,0.5,0.5,1.2799857273101805,-0.2,-0.03,-0.37525,0.32330409614474587,10,1,100,0.09376180651749169,-10,-1,-100,6477.507961586001,0.005919107509309011,0.033503127427147235,0.9994210847380064,187.61928262872365,19.486439323536896,216.7899325440325,-14.287755864498447,-101.49874877929688,4381.2578125,True
1599574176.053308,0.0,10,0.5,0.5,-0.16486295700073228,-0.2,-0.03,-0.37525,0.3023621085920487,10,1,100,0.11343659920027814,-10,-1,-100,6476.945384598686,0.004237853886831279,0.032896582128056726,0.9994497763663396,180.8870201670667,18.80774074830207,214.71090183895214,-14.670866766166032,-95.48439025878906,4381.2578125,True
1599574176.1221237,0.0,10,0.5,0.5,-1.6722371559143066,-0.2,-0.03,-0.37525,0.2803966214710838,10,1,100,0.13093342896003596,-10,-1,-100,6476.320791566512,0.002562235326201034,0.03214592750617314,0.9994799018964318,172.18028832697303,17.91726969611855,209.81181038067078,-15.054160940258491,-89.17691040039062,4381.2578125,True
1599574176.1919458,0.0,10,0.5,0.5,-3.246503051757813,-0.2,-0.03,-0.37525,0.2572976886367783,10,1,100,0.14549861378984436,-10,-1,-100,6475.757231271011,0.0009191225718023411,0.03125500206251284,0.9995110204793993,162.4251862895179,16.907481315952392,203.0603557243014,-15.437613920940528,-82.57647705078125,4381.2578125,True
1599574176.2607992,0.0,10,0.5,0.5,-6.698904449462891,-0.2,-0.03,-0.37525,0.1734619901717549,10,1,100,0.2423265314727971,-10,-1,-100,6474.7878656296525,-0.0014412381283073741,0.02968537478483253,0.9995582531081125,181.37717734066894,18.868109611368258,235.36478236583966,-16.012498923494743,-72.54470825195312,4381.2578125,True
1599574176.3290088,0.0,10,0.5,0.5,-4.975338310241699,-0.2,-0.03,-0.37525,0.2661935118621802,10,1,100,0.09045387722766159,-10,-1,-100,6474.444562559482,-0.0021921210377803388,0.02910567241655292,0.9995739364541956,186.88546514486936,19.43324454441571,245.47086066862278,-16.203976830564475,-69.29312133789062,4381.2578125,True
1599574176.3994143,0.0,10,0.5,0.5,-9.293140907287597,-0.2,-0.03,-0.37525,0.1209355301800712,10,1,100,0.24854276673209397,-10,-1,-100,6473.475689875311,-0.004297568350005377,0.027262962264229865,0.9996190583391537,200.61794675622787,20.832918297394922,273.0347973281483,-16.777916523523643,-59.967926025390625,4381.2578125,True
1599574176.470258,0.0,10,0.5,0.5,-7.684848648071289,-0.2,-0.03,-0.37525,0.23453150275587664,10,1,100,0.11097273200855678,-10,-1,-100,6473.131901609944,-0.004945962164828202,0.02662704159349894,0.9996332017866564,204.2253614723098,21.1987188641672,281.17698051558426,-16.969071543423713,-57.0074462890625,4381.2578125,True
1599574176.5410366,0.0,10,0.5,0.5,-11.607154960632325,-0.2,-0.03,-0.37525,0.07377905326263129,10,1,100,0.2478038629170332,-10,-1,-100,6472.099076570477,-0.006765039569652118,0.02459464560253736,0.9996746158862426,211.97015967805427,21.983167913769893,301.9077250526375,-17.542141226934504,-48.57476806640625,4381.2578125,True
1599574176.6098516,0.0,10,0.5,0.5,-11.654372932434082,-0.2,-0.03,-0.37525,0.12487494186444367,10,1,100,0.1863071491442332,-10,-1,-100,6471.3494990495965,-0.007845174131876926,0.02322032599150628,0.9996995897286788,214.93628234143443,22.28673841741073,312.9428827509891,-17.92394026882113,-43.32598876953125,4381.2578125,True
1599574176.6806626,0.0,10,0.5,0.5,-12.724331527709962,-0.2,-0.03,-0.37525,0.11081045085102398,10,1,100,0.18824693679014254,-10,-1,-100,6470.660473091877,-0.008830722468809131,0.021852848943854065,0.9997221970796268,216.95198011718531,22.50011288846341,322.7593603027316,-18.30561757090612,-38.37530517578125,4381.2578125,True
1599574176.7525074,0.0,10,0.5,0.5,-12.415786483764649,-0.2,-0.03,-0.37525,0.17366321550812489,10,1,100,0.14204291561259852,-10,-1,-100,6470.254683420644,-0.009293230009880629,0.02119166792331051,0.9997322386952475,217.4480372379332,22.556895026636166,326.9496620042698,-18.49643052249811,-36.01141357421875,4381.2578125,True
1599574176.8233144,0.0,10,0.5,0.5,-15.529158363342285,-0.2,-0.03,-0.37525,0.017841131582428837,10,1,100,0.23541445675441275,-10,-1,-100,6469.159394493676,-0.010550222617692381,0.019184670700041626,0.9997602918764318,217.23997233703398,22.562559003531433,337.0021472038089,-19.068850617545817,-29.367340087890625,4381.2578125,True
1599574176.8950894,0.0,10,0.5,0.5,-15.549472564697266,-0.2,-0.03,-0.37525,0.07464933212506897,10,1,100,0.19217521613486724,-10,-1,-100,6468.347340886132,-0.011287938748303658,0.01788834891728131,0.9997762696782856,215.96631341580195,22.455873099934298,341.9137382655778,-19.45050293057266,-25.309844970703125,4381.2578125,True
1599574176.9668965,0.0,10,0.5,0.5,-16.361959030151368,-0.2,-0.03,-0.37525,0.06720703874896479,10,1,100,0.19488551286943287,-10,-1,-100,6467.595839047222,-0.011972131508882591,0.016654368859666646,0.9997896279043007,214.02878650100922,22.28400265415141,345.6874441216333,-19.832217797370472,-21.549285888671875,4381.2578125,True
1599574177.040701,0.0,10,0.5,0.5,-17.09622710418701,-0.2,-0.03,-0.37525,0.05946478562364749,10,1,100,0.1973158255676359,-10,-1,-100,6466.78379705234,-0.012606645139955672,0.015474031056991492,0.9998007935889842,211.62055885790556,22.065176398300984,348.57801620540533,-20.214008025758357,-18.085693359375,4381.2578125,True
1599574177.1125493,0.0,10,0.5,0.5,-16.882284255981446,-0.2,-0.03,-0.37525,0.1129755842382375,10,1,100,0.16726256542876744,-10,-1,-100,6466.37606949918,-0.012900796508666781,0.014899850897746317,0.9998057630823434,210.29303093057544,21.943132846085117,349.7662410556144,-20.40493309938465,-16.46527099609375,4381.2578125,True
1599574177.1833515,0.0,10,0.5,0.5,-18.141099647521973,-0.2,-0.03,-0.37525,0.049059331491200245,10,1,100,0.20092880683273515,-10,-1,-100,6465.5635478416225,-0.013466442467386895,0.013808051283792623,0.9998139790216063,207.49936300349563,21.684098224806664,351.7918233250481,-20.78684180819254,-13.446807861328125,4381.2578125,True
1599574177.2581189,0.0,10,0.5,0.5,-18.704942619323727,-0.2,-0.03,-0.37525,0.04424160448854468,10,1,100,0.20399859979870252,-10,-1,-100,6464.686577697401,-0.01400082738382074,0.012783362289546674,0.9998202650882521,205.01476433414524,21.455763223315273,354.1871657388885,-21.168817814171213,-10.72479248046875,4381.2578125,True
1599574177.3299663,0.0,10,0.5,0.5,-19.82602032470703,-0.2,-0.03,-0.37525,-0.01152345013171896,10,1,100,0.23132259558309087,-10,-1,-100,6463.404333110433,-0.014728453826060339,0.011355609328514316,0.9998270464358682,201.50325554047663,21.131125207744244,357.8898178547032,-21.741873920466183,-7.19769287109375,4381.2578125,True
1599574177.399861,0.0,10,0.5,0.5,-19.201998573303225,-0.2,-0.03,-0.37525,0.08191262133519013,10,1,100,0.1852780101354275,-10,-1,-100,6462.936068044975,-0.014965087742486505,0.010917857028786792,0.9998284085515668,200.49820918240036,21.038777227284076,359.3518608051813,-21.93290859290523,-6.170074462890625,4381.2578125,True
1599574177.469639,0.0,10,0.5,0.5,-19.96747331237793,-0.2,-0.03,-0.37525,0.03362910966084941,10,1,100,0.21226773085044123,-10,-1,-100,6462.059110077331,-0.015419993886397983,0.010090900279190552,0.9998301843413705,198.9287143652958,20.898038890510477,362.9920829090673,-22.314984387775112,-4.337005615234375,4381.2578125,True
1599574177.5374577,0.0,10,0.5,0.5,-20.637069641113282,-0.2,-0.03,-0.37525,-0.005319547226771193,10,1,100,0.24172451122554617,-10,-1,-100,6460.713895497494,-0.016095764053476173,0.008995134323892075,0.9998299925177428,197.04097621535553,20.73052401815213,369.15869982067153,-22.888083351880596,-2.142425537109375,4381.2578125,True
1599574177.6102705,0.0,10,0.5,0.5,-20.23086678314209,-0.2,-0.03,-0.37525,0.06654918205850548,10,1,100,0.19805150664322252,-10,-1,-100,6460.244171159691,-0.016308031853311783,0.008661598754737928,0.999829497866553,196.56742963494915,20.689755803130502,371.47348867397017,-23.079104373837833,-1.5589599609375,4381.2578125,True
1599574177.684073,0.0,10,0.5,0.5,-20.626929885864257,-0.2,-0.03,-0.37525,0.03346297085678866,10,1,100,0.2264851454159531,-10,-1,-100,6459.306677113287,-0.016754926484637153,0.008065988817457227,0.9998270911827161,195.89816883112047,20.635829784760162,376.59946307811265,-23.461117311752112,-0.61370849609375,4381.2578125,True
1599574177.7553928,0.0,10,0.5,0.5,-20.912229637145998,-0.2,-0.03,-0.37525,-0.013518648709025388,10,1,100,0.27966774133674854,-10,-1,-100,6457.366757210693,-0.01764032448059858,0.007105227223914833,0.9998191509959768,195.7641928010105,20.650313495496636,389.1480885420408,-24.22497725162402,0.389678955078125,4381.2578125,True
1599574177.824756,0.0,10,0.5,0.5,-20.629194366455078,-0.2,-0.03,-0.37525,0.06116348885143416,10,1,100,0.21654185971099366,-10,-1,-100,6456.897525710985,-0.01786678402638334,0.006918344120183269,0.9998164404245357,196.00269677064688,20.682124886597723,392.8345183919304,-24.415898137529926,0.455841064453125,4381.2578125,True
1599574177.8945692,0.0,10,0.5,0.5,-20.603869079589845,-0.2,-0.03,-0.37525,0.04560059151800532,10,1,100,0.24520532270687312,-10,-1,-100,6455.895100279944,-0.018328718742952284,0.006614225419921187,0.9998101370216929,196.81343081486105,20.78097872218551,400.91884828391005,-24.797675658358287,0.366729736328125,4381.2578125,True
1599574177.9643826,0.0,10,0.5,0.5,-20.457570289611816,-0.2,-0.03,-0.37525,0.05055015750929098,10,1,100,0.2497174054618837,-10,-1,-100,6454.894631416653,-0.01878525807735545,0.006389289770389047,0.9998031261479419,198.0666024154227,20.927168960131937,409.9831583303071,-25.17935666038892,-0.01776123046875,4381.2578125,True
1599574178.0332308,0.0,10,0.5,0.5,-20.459665672302247,-0.2,-0.03,-0.37525,0.06312753963786286,10,1,100,0.2292689575648537,-10,-1,-100,6454.4234510036185,-0.019010049372573026,0.006304955447000626,0.9997994126621917,198.857193569765,21.01805304834451,414.8924998490415,-25.370157036833433,-0.320770263671875,4381.2578125,True
1599574178.1050088,0.0,10,0.5,0.5,-19.81672491455078,-0.2,-0.03,-0.37525,0.060606450146090805,10,1,100,0.2834668495772814,-10,-1,-100,6452.828269510064,-0.019703220845114243,0.006209960388432782,0.99978658696759,201.86585387753007,21.360979921198872,431.153327632439,-25.942375911033515,-1.671966552734375,4381.2578125,True
1599574178.1788087,0.0,10,0.5,0.5,-19.60695779418945,-0.2,-0.03,-0.37525,0.07435692613846931,10,1,100,0.26438815651302616,-10,-1,-100,6451.826829825412,-0.02015562667129246,0.006252885477520323,0.9997773012709843,204.3569310055405,21.6442709818928,443.2251897247487,-26.323684898464066,-2.941497802734375,4381.2578125,True
1599574178.2476256,0.0,10,0.5,0.5,-19.658766815185547,-0.2,-0.03,-0.37525,0.07554583554533506,10,1,100,0.2440907781304883,-10,-1,-100,6451.294616880594,-0.02037807795271786,0.0063062056574820224,0.9997724569666632,205.73441798345885,21.801130106459198,449.6150610080423,-26.514282255751432,-3.686859130859375,4381.2578125,True
1599574178.3184364,0.0,10,0.5,0.5,-18.393498764038085,-0.2,-0.03,-0.37525,0.10595781591022818,10,1,100,0.29346908909225466,-10,-1,-100,6449.636454994092,-0.0210253071137577,0.006633595577733877,0.9997569363952838,210.3118022347565,22.324626586835517,470.0668748989234,-27.085819076220123,-6.364532470703125,4381.2578125,True
1599574178.3881545,0.0,10,0.5,0.5,-18.78568427276611,-0.2,-0.03,-0.37525,0.0898666367022124,10,1,100,0.25185345367967227,-10,-1,-100,6449.103754909709,-0.0212310848698064,0.00678678296986906,0.9997515594447306,211.95827313988173,22.51401095032802,477.2612888044468,-27.276238651051976,-7.4044189453125,4381.2578125,True
1599574178.4607236,0.0,10,0.5,0.5,-17.106886070251463,-0.2,-0.03,-0.37525,0.140884423451005,10,1,100,0.2949094368765174,-10,-1,-100,6447.445596861653,-0.02180550435129002,0.007391005211206057,0.9997349113749874,217.67144197373165,23.17097534197036,500.9635107479821,-27.847178031746097,-10.965728759765625,4381.2578125,True
1599574179.1029015,0.0,10,0.5,0.5,-17.641686401367185,-0.2,-0.03,-0.37525,0.1084710347313899,10,1,100,0.2566729897198577,-10,-1,-100,6446.913385988446,-0.021976313287695778,0.007645371189527471,0.9997292583263008,219.72236338119254,23.407697245649942,509.3331426765196,-28.03737433078654,-12.299957275390625,4381.2578125,True
1599574179.1597497,0.0,10,0.5,0.5,-17.294177406311036,-0.2,-0.03,-0.37525,0.11262157548287272,10,1,100,0.2584773091461409,-10,-1,-100,6446.323068981408,-0.022144261107156938,0.007913684242951923,0.9997234644148956,221.78258833869353,23.64638812444595,517.793594195195,-28.227508359685828,-13.7078857421875,4381.2578125,True
1599574179.2270818,0.0,10,0.5,0.5,-16.92807730102539,-0.2,-0.03,-0.37525,0.1181819382873403,10,1,100,0.2592921701578225,-10,-1,-100,6445.784510783968,-0.022300880095533094,0.008206972627175648,0.9997176183039196,223.91989804393177,23.894179236118664,526.5044609980558,-28.41757761331678,-15.1893310546875,4381.2578125,True
1599574179.2929454,0.0,10,0.5,0.5,-15.607200416564943,-0.2,-0.03,-0.37525,0.16192762113328119,10,1,100,0.27229936816997224,-10,-1,-100,6444.596065922291,-0.022558312228696253,0.008869634017926873,0.9997061829066481,228.49713886927026,24.42418762369926,544.8619860247338,-28.79750983108599,-18.372772216796875,4381.2578125,True
1599574179.3602803,0.0,10,0.5,0.5,-13.683434341430665,-0.2,-0.03,-0.37525,0.2219350353490971,10,1,100,0.2788302920976288,-10,-1,-100,6442.874921185314,-0.022848487782863164,0.010015243885507289,0.9996887723166397,235.0123267218999,25.18400520339035,572.1143063677868,-29.366881826498485,-23.699493408203125,4381.2578125,True
1599574179.4271457,0.0,10,0.5,0.5,-14.510259078979493,-0.2,-0.03,-0.37525,0.15413080083033984,10,1,100,0.25705572742272154,-10,-1,-100,6442.280698827002,-0.022911473819663245,0.010436845920867079,0.999683018068545,237.01226695577898,25.41845147311693,580.9208161385022,-29.5565335698523,-25.622039794921875,4381.2578125,True
1599574179.494007,0.0,10,0.5,0.5,-12.824891670227052,-0.2,-0.03,-0.37525,0.21064918301800947,10,1,100,0.2568001188104273,-10,-1,-100,6441.092253355426,-0.022963904822871216,0.011330120372497206,0.9996720899613187,240.6226748087955,25.843081853951926,597.7640151687302,-29.935639936331576,-29.68768310546875,4381.2578125,True
1599574179.5617914,0.0,10,0.5,0.5,-11.764615829467774,-0.2,-0.03,-0.37525,0.22562289592723866,10,1,100,0.24584277044228398,-10,-1,-100,6439.903316371026,-0.022909606361649747,0.012273745523413027,0.9996621954976495,243.6241858546897,26.19685058748839,613.3129186390838,-30.31450732783483,-34.04736328125,4381.2578125,True
1599574179.6296425,0.0,10,0.5,0.5,-10.640697257995607,-0.2,-0.03,-0.37525,0.24215199279115354,10,1,100,0.23780596012417357,-10,-1,-100,6438.648459553602,-0.022785469212876597,0.013276723677603292,0.9996522150233739,246.03396292997232,26.479119926475885,627.5531054945372,-30.693171749565824,-38.700714111328125,4381.2578125,True
1599574179.6984265,0.0,10,0.5,0.5,-9.446993499755859,-0.2,-0.03,-0.37525,0.25478478977249774,10,1,100,0.22206573853011752,-10,-1,-100,6437.396041274071,-0.022528111259188615,0.014297465662417812,0.9996439699606683,247.41590502162228,26.640798847500175,639.3025951031008,-31.071684364946368,-43.648101806640625,4381.2578125,True
1599574179.769245,0.0,10,0.5,0.5,-6.619551765441896,-0.2,-0.03,-0.37525,0.3234950578730123,10,1,100,0.18287690622821062,-10,-1,-100,6435.552807589062,-0.021937230455902297,0.01584377312184368,0.9996337993351306,247.09631007913114,26.60449221721111,650.8193957706512,-31.639313205552593,-51.6201171875,4381.2578125,True
1599574179.839499,0.0,10,0.5,0.5,-7.879939346313477,-0.2,-0.03,-0.37525,0.2258196534609202,10,1,100,0.2138984662119949,-10,-1,-100,6434.8931470600655,-0.021682115800796223,0.016354095861273343,0.999631146675093,246.24617938354174,26.506803710165254,652.6896672207566,-31.82852421012932,-54.42437744140625,4381.2578125,True
1599574179.9103098,0.0,10,0.5,0.5,-5.457003189086914,-0.2,-0.03,-0.37525,0.2846519641493798,10,1,100,0.1739982547987495,-10,-1,-100,6433.577728016418,-0.021087884324494252,0.017345191710996924,0.999627153222253,243.2767259930677,26.168089506102415,652.9588116386468,-32.20701216280826,-60.2532958984375,4381.2578125,True
1599574179.9791262,0.0,10,0.5,0.5,-2.1624197998046886,-0.2,-0.03,-0.37525,0.33652738065238996,10,1,100,0.11310759455815908,-10,-1,-100,6431.669042655616,-0.019995225158188037,0.018709475161605888,0.9996250029436293,235.3030573841214,25.27274589533203,643.4307275559838,-32.77506726189185,-69.5478515625,4381.2578125,True
1599574180.048939,0.0,10,0.5,0.5,-1.721001571655274,-0.2,-0.03,-0.37525,0.2914513848860629,10,1,100,0.12878149797572647,-10,-1,-100,6430.296969307121,-0.019146718753588008,0.019531005754153175,0.9996259015127621,227.41231081347664,24.402260427788843,629.5528422152337,-33.1540871227957,-76.11138916015625,4381.2578125,True
1599574180.117756,0.0,10,0.5,0.5,-2.0754687957763673,-0.2,-0.03,-0.37525,0.2509733935934627,10,1,100,0.1633880266051815,-10,-1,-100,6429.631926975679,-0.018693319345155095,0.019901219315746482,0.9996271811438536,222.65249276798863,23.883188649301406,620.1598500740668,-33.343707747869146,-79.50341796875,4381.2578125,True
1599574180.188546,0.0,10,0.5,0.5,2.920792194366455,-0.2,-0.03,-0.37525,0.31771188805683004,10,1,100,0.051220030569071734,-10,-1,-100,6427.657298876904,-0.01726526369577373,0.02083588670923021,0.9996338212038224,205.00444774118418,21.988662302727278,581.5003458684376,-33.91300889786721,-90.12049865722656,4381.2578125,True
1599574180.2583585,0.0,10,0.5,0.5,3.4009076290130613,-0.2,-0.03,-0.37525,0.27920121992249536,10,1,100,0.08154159090870437,-10,-1,-100,6426.275444969302,-0.016247862418630146,0.02132684575086989,0.9996405216962465,215.3342519185561,23.120276913861534,618.1706006566616,-34.2923817410195,-97.56574249267578,4381.2578125,True
1599574180.3291707,0.0,10,0.5,0.5,3.0024805965423584,-0.2,-0.03,-0.37525,0.2529803214858241,10,1,100,0.12531350278381304,-10,-1,-100,6425.562055785791,-0.015726934769130622,0.0215265702572749,0.9996445719833257,221.5904534636207,23.810254641914703,639.9209970925667,-34.48186505512419,-101.39859008789062,4381.2578125,True
1599574180.3984933,0.0,10,0.5,0.5,6.115046619415283,-0.2,-0.03,-0.37525,0.26598022207620653,10,1,100,0.06748154100569312,-10,-1,-100,6424.183125913376,-0.014734035921097005,0.021818819044301413,0.9996533635820908,232.43789633175146,25.02088925879308,679.1858367193581,-34.86040542110399,-108.98268127441406,4381.2578125,True
1599574180.4738004,0.0,10,0.5,0.5,11.732561422348024,-0.2,-0.03,-0.37525,0.2654442251806527,10,1,100,-0.05319029866269587,-10,-1,-100,6421.3700801800005,-0.012741469403479356,0.02207278946674604,0.9996751707042628,247.4851839310793,26.730652710082186,739.9921146982251,-35.61600303849459,-123.3545913696289,4381.2578125,True
1599574180.5426567,0.0,10,0.5,0.5,6.55470558166504,-0.2,-0.03,-0.37525,0.24067008457068023,10,1,100,0.1451467769938268,-10,-1,-100,6421.3700801800005,-0.012741469403479356,0.02207278946674604,0.9996751707042628,247.4851839310793,26.730652710082186,739.9921146982251,-35.61600303849459,-123.3545913696289,4381.2578125,True
1599574180.6144636,0.0,10,0.5,0.5,12.514992483139038,-0.2,-0.03,-0.37525,0.23252058803176873,10,1,100,-0.002323269813777812,-10,-1,-100,6419.211827340885,-0.011408960474680511,0.021993504322205506,0.9996930135739253,252.84883574302836,27.34633631439316,768.8996655776222,-36.181820356829554,-133.3563232421875,4381.2578125,True
1599574180.6872704,0.0,10,0.5,0.5,10.812961643218996,-0.2,-0.03,-0.37525,0.23378930333865672,10,1,100,0.08559792603610616,-10,-1,-100,6418.487689846894,-0.011005671341543974,0.02192873495485745,0.9996989575775308,253.49908067469852,27.420712575017596,775.1809161300712,-36.370348145771366,-136.5406951904297,4381.2578125,True
1599574180.7610726,0.0,10,0.5,0.5,15.056916721343995,-0.2,-0.03,-0.37525,0.19858050239059305,10,1,100,-0.001656547502771763,-10,-1,-100,6416.26449198788,-0.009853994691808816,0.021546847103382952,0.999719276681468,252.54622811939566,27.30779785999324,785.164237223636,-36.93590756848859,-145.64614868164062,4381.2578125,True
1599574180.8308856,0.0,10,0.5,0.5,15.12548986053467,-0.2,-0.03,-0.37525,0.19989227364947892,10,1,100,0.042068181213329434,-10,-1,-100,6414.763967595412,-0.009212961384070302,0.021209768939533073,0.9997325977700573,249.8578739070877,26.996828817604353,785.3550972856086,-37.31304218983896,-151.34243774414062,4381.2578125,True
1599574180.901696,0.0,10,0.5,0.5,16.308188301086425,-0.2,-0.03,-0.37525,0.18947996867319084,10,1,100,0.04464183310239355,-10,-1,-100,6413.257583686733,-0.008662219174173222,0.020807487336590758,0.9997459749504952,245.8717181818057,26.540552239263555,781.2807763085026,-37.69032719915799,-156.73959350585938,4381.2578125,True
1599574180.9745417,0.0,10,0.5,0.5,17.415365196228027,-0.2,-0.03,-0.37525,0.17982196776734938,10,1,100,0.04891652058664465,-10,-1,-100,6411.753641367424,-0.008208226182779613,0.02035400259783795,0.9997591407940112,240.86521571230324,25.974339933845645,773.6996606697234,-38.06779627340197,-161.83755493164062,4381.2578125,True
1599574181.0463498,0.0,10,0.5,0.5,17.09699137878418,-0.2,-0.03,-0.37525,0.19765624767905013,10,1,100,0.07267189659666426,-10,-1,-100,6410.970421118429,-0.008018772005454557,0.020104757964671795,0.9997657215581591,238.06332615773903,25.660597622541395,768.8313301967465,-38.256603747408484,-164.27444458007812,4381.2578125,True
1599574181.1201532,0.0,10,0.5,0.5,19.04577787399292,-0.2,-0.03,-0.37525,0.1646642823695589,10,1,100,0.057289986219742,-10,-1,-100,6409.470386886154,-0.0077137128069721915,0.019579537533791373,0.9997785456513328,232.01026300643596,24.99024401054711,757.3665218670202,-38.63436208364495,-168.9239044189453,4381.2578125,True
1599574181.1909637,0.0,10,0.5,0.5,21.170431972503664,-0.2,-0.03,-0.37525,0.12229718426263311,10,1,100,0.05780074910945504,-10,-1,-100,6407.118774772738,-0.007447411673816636,0.018718944687937583,0.9997970479898062,222.2229561391605,23.927144763854766,737.0934947584655,-39.20132348294107,-175.33770751953125,4381.2578125,True
1599574181.2608552,0.0,10,0.5,0.5,20.06353604888916,-0.2,-0.03,-0.37525,0.1744642837763128,10,1,100,0.080133728948415,-10,-1,-100,6406.342391855898,-0.007413159603783643,0.018413882864357415,0.9998029675803861,218.87116681779887,23.568841552194346,729.8223625821387,-39.390383782598384,-177.3262939453125,4381.2578125,True
1599574181.3316698,0.0,10,0.5,0.5,-185.4517702102661,-0.2,-0.03,-0.37525,0.13608033657162072,10,1,100,0.08252993544054432,-10,-1,-100,6404.70710770553,-0.00740864897168182,0.017790935237971324,0.999814280025932,219.547580175931,23.655914215489915,739.8085994019534,-39.76846745613723,178.92056274414062,4381.2578125,True
1599574181.4014452,0.0,10,0.5,0.5,-50.719627311706546,-0.2,-0.03,-0.37525,0.1264870686938207,10,1,100,0.09162614460514229,-10,-1,-100,6403.1382315803785,-0.007490877854451962,0.017141228205171454,0.9998250172128061,225.6245837862449,24.3360445758382,768.2444011580784,-40.146242834260484,175.4658203125,4381.2578125,True
1599574181.471429,0.0,10,0.5,0.5,-51.136195480346686,-0.2,-0.03,-0.37525,0.11678672692918389,10,1,100,0.1055222203325605,-10,-1,-100,6401.516623823438,-0.007695154612207795,0.016466752801810952,0.9998348016785864,230.85173694246737,24.934189736255693,794.1935742270821,-40.52371581090828,172.3092041015625,4381.2578125,True
1599574181.541241,0.0,10,0.5,0.5,-50.49579844665528,-0.2,-0.03,-0.37525,0.0688623151415964,10,1,100,0.13510125348610008,-10,-1,-100,6399.036608639057,-0.008151723638908549,0.01542253514096113,0.9998478358288028,238.2167095650503,25.79438629831687,832.155709830057,-41.0893637560076,167.4786376953125,4381.2578125,True
1599574181.6120543,0.0,10,0.5,0.5,-52.26426566314697,-0.2,-0.03,-0.37525,0.13350609743554634,10,1,100,0.1114470559651205,-10,-1,-100,6398.24997763196,-0.008352712992759567,0.015066178228132264,0.999851610219866,240.7635513529006,26.094286530527345,845.30586276929,-41.27775310117488,165.73910522460938,4381.2578125,True
1599574181.6838622,0.0,10,0.5,0.5,-51.758135925292976,-0.2,-0.03,-0.37525,0.08845737946616607,10,1,100,0.14308795935842683,-10,-1,-100,6396.559531030827,-0.0088233565327282,0.014337902970482983,0.9998582764161655,245.74996594934578,26.68610903375053,871.4924031885845,-41.654282754430696,162.04275512695312,4381.2578125,True
1599574182.380527,0.0,10,0.5,0.5,-51.8217658996582,-0.2,-0.03,-0.37525,0.07706198255390771,10,1,100,0.156244231312988,-10,-1,-100,6394.872504962375,-0.009370257559241195,0.01357770921853343,0.9998639127829599,251.09992160266538,27.320419019558866,899.3251139509377,-42.03046289577706,158.05307006835938,4381.2578125,True
1599574182.4483461,0.0,10,0.5,0.5,-51.822035385131834,-0.2,-0.03,-0.37525,0.06961504817064157,10,1,100,0.17428169358427528,-10,-1,-100,6393.18890106678,-0.010030188617124906,0.01282485826668245,0.9998674503786711,256.12620389196593,27.919525299913378,926.3533420102592,-42.40629180073159,153.76998901367188,4381.2578125,True
1599574182.5151675,0.0,10,0.5,0.5,-51.7644527015686,-0.2,-0.03,-0.37525,0.05735399768613331,10,1,100,0.18946778065636177,-10,-1,-100,6391.484794378281,-0.010766075392392563,0.01203512483265613,0.9998696151953553,260.5845256941221,28.45293440169374,951.6493160585336,-42.781789692117144,149.1930389404297,4381.2578125,True
1599574182.5829864,0.0,10,0.5,0.5,-50.189965236663824,-0.2,-0.03,-0.37525,0.0020639632962088234,10,1,100,0.25770361516192464,-10,-1,-100,6388.890069637215,-0.012052372171124117,0.010820624870774053,0.999868818596947,265.74561442176616,29.07024550380879,984.5099710295309,-43.3445039613874,141.77786254882812,4381.2578125,True
1599574182.6498075,0.0,10,0.5,0.5,-52.42374132537842,-0.2,-0.03,-0.37525,0.07726980033922638,10,1,100,0.18203852260271877,-10,-1,-100,6388.04144112987,-0.012529650935280622,0.010407126385811946,0.9998673409847075,266.94618889403466,29.21297212588435,993.648789954149,-43.53196308563033,139.15972900390625,4381.2578125,True
1599574182.7199214,0.0,10,0.5,0.5,-48.51616372299195,-0.2,-0.03,-0.37525,-0.02463693073350795,10,1,100,0.309010352429358,-10,-1,-100,6385.377400231897,-0.014113174626607257,0.009111506397778045,0.9998588894204633,268.56896395684305,29.40141905740088,1013.8665685837018,-44.09414368262869,130.8663787841797,4381.2578125,True
1599574182.7887373,0.0,10,0.5,0.5,-48.10403729248048,-0.2,-0.03,-0.37525,0.006740561306142839,10,1,100,0.2821495234554483,-10,-1,-100,6383.624495389988,-0.01530253199462124,0.008226219719750773,0.9998490695218333,267.6957521704829,29.293321096055806,1020.0270846973317,-44.46889033202764,124.97257995605469,4381.2578125,True
1599574182.8575542,0.0,10,0.5,0.5,-48.415658905029304,-0.2,-0.03,-0.37525,0.04587909614187706,10,1,100,0.23355544858859173,-10,-1,-100,6382.717285594437,-0.015935085850951245,0.007784709904670891,0.9998427232973308,266.58067440201694,29.15986165411746,1020.5046841203609,-44.65629195704112,121.91648864746094,4381.2578125,True
1599574182.9283657,0.0,10,0.5,0.5,-43.89979471969605,-0.2,-0.03,-0.37525,-0.06949420447973635,10,1,100,0.40364350943030713,-10,-1,-100,6379.994206984993,-0.01804931412598317,0.006341432635525686,0.9998169874990676,260.17679078210034,28.412677195751893,1009.9241043707652,-45.21877621359469,112.31027221679688,4381.2578125,True
1599574182.9981785,0.0,10,0.5,0.5,-45.41870356369019,-0.2,-0.03,-0.37525,0.02098091622617064,10,1,100,0.2775788402564518,-10,-1,-100,6379.083103575977,-0.0188164822915833,0.005859795075077024,0.9998057825377131,256.9333796472896,28.041717274736044,1001.9582360618282,-45.4064073093914,108.96296691894531,4381.2578125,True
1599574183.073011,0.0,10,0.5,0.5,-40.48842394256592,-0.2,-0.03,-0.37525,-0.09346857175618961,10,1,100,0.4792348449188393,-10,-1,-100,6376.350304844091,-0.02133805964291526,0.004389200227461697,0.9997626829063178,243.5630621993625,26.546735486196255,963.0820896164985,-45.96985461445162,98.48558044433594,4381.2578125,True
1599574183.142384,0.0,10,0.5,0.5,-40.014946262359615,-0.2,-0.03,-0.37525,-0.05539732571351607,10,1,100,0.43502233239029414,-10,-1,-100,6374.538880793611,-0.023217590937426924,0.0034067512472821344,0.9997246308444149,231.94818420560387,25.280381879566345,925.6533663667194,-46.34599538553581,91.13848876953125,4381.2578125,True
1599574183.2122803,0.0,10,0.5,0.5,-40.408497634887695,-0.2,-0.03,-0.37525,-0.010730861002968113,10,1,100,0.35691009363684323,-10,-1,-100,6373.565306550707,-0.024204155941660428,0.0029282364963233317,0.9997027479536971,238.85990018600273,26.043335594570404,957.6261949357227,-46.533965754091334,87.3565673828125,4381.2578125,True
1599574183.2810571,0.0,10,0.5,0.5,-37.166025268554684,-0.2,-0.03,-0.37525,-0.07185363532661834,10,1,100,0.501648687303141,-10,-1,-100,6371.688003316987,-0.026404622178339714,0.0019458404909969934,0.9996494433712264,252.7879939955748,27.599246896178595,1022.7617974581806,-46.909401476119314,79.57537841796875,4381.2578125,True
1599574183.3518684,0.0,10,0.5,0.5,-35.25744981002808,-0.2,-0.03,-0.37525,-0.0749657737014756,10,1,100,0.5416324078637511,-10,-1,-100,6369.784363638144,-0.028755486898592596,0.0010325290321832354,0.9995859422065833,265.29210538442413,29.01695786101684,1083.0849114141981,-47.284129566470696,71.50608825683594,4381.2578125,True
1599574183.4206839,0.0,10,0.5,0.5,-33.27508497238159,-0.2,-0.03,-0.37525,-0.07813800091978669,10,1,100,0.5849152017959994,-10,-1,-100,6367.875385001535,-0.03127136582914901,0.00018192981978028974,0.999510914688139,275.975755743602,30.239199593257563,1136.7824058446167,-47.65818990303036,63.149017333984375,4381.2578125,True
1599574183.4900713,0.0,10,0.5,0.5,-31.235578475952146,-0.2,-0.03,-0.37525,-0.07676105298949815,10,1,100,0.6401517541554425,-10,-1,-100,6365.901990409708,-0.034045080613647465,-0.000570706686148858,0.9994201352683909,284.68927754423106,31.23300239722248,1183.0322288297184,-48.031669564735566,54.505218505859375,4381.2578125,True
1599574183.5598843,0.0,10,0.5,0.5,-26.501386577606205,-0.2,-0.03,-0.37525,-0.09724647094528967,10,1,100,0.8610212231877413,-10,-1,-100,6362.969321439159,-0.0385575050920133,-0.0014331555580408247,0.9992553551851628,291.02738117858803,31.93267969689898,1225.2523666053849,-48.59127161535999,41.00434875488281,4381.2578125,True
1599574183.629698,0.0,10,0.5,0.5,-25.94289869308472,-0.2,-0.03,-0.37525,-0.05012135362094343,10,1,100,0.7701179486041981,-10,-1,-100,6361.026311388123,-0.041812749922276335,-0.0017804099518460906,0.9991238782475078,290.0133570661557,31.78528754167765,1231.6187510428788,-48.96433243995455,31.64849853515625,4381.2578125,True
1599574183.699026,0.0,10,0.5,0.5,-23.667208168029788,-0.2,-0.03,-0.37525,-0.025298838826847095,10,1,100,0.8272324208913584,-10,-1,-100,6359.0833517352585,-0.045269682756220286,-0.0018630530457342095,0.998973065130637,284.31848103302696,31.107590762517052,1217.9965171156991,-49.33772158763744,22.010101318359375,4381.2578125,True
1599574183.7688396,0.0,10,0.5,0.5,-21.31649485015869,-0.2,-0.03,-0.37525,0.004439043909790805,10,1,100,0.8801710582352271,-10,-1,-100,6357.07745691156,-0.04886956094432756,-0.0016608179715532356,0.9988037883872757,273.68439461763063,29.896782876614143,1182.7730812418736,-49.711673102269295,12.08978271484375,4381.2578125,True
1599574183.8382728,0.0,10,0.5,0.5,-18.911437118530277,-0.2,-0.03,-0.37525,0.04054010748733324,10,1,100,0.9308793323386716,-10,-1,-100,6355.071613798384,-0.05257813315145511,-0.00114327640050286,0.9986161589086069,258.00560670534605,28.16983410449244,1124.8972450007575,-50.08632140760303,1.88818359375,4381.2578125,True
1599574183.9100487,0.0,10,0.5,0.5,-16.44192842102051,-0.2,-0.03,-0.37525,0.08603230783597365,10,1,100,0.9763807606786368,-10,-1,-100,6353.065817401861,-0.05633652037719436,-0.00025508221669871015,0.998411804519985,272.204343540017,29.756251403634465,1197.3027449668411,-50.460713834125514,-8.59405517578125,4381.2578125,True
1599574183.9968164,0.0,10,0.5,0.5,-13.89626106262207,-0.2,-0.03,-0.37525,0.13561424847309897,10,1,100,1.0137331735844655,-10,-1,-100,6351.06103660597,-0.06006359218661436,0.001006005882290767,0.9981940456874129,290.0333564575117,31.779808775846877,1286.878045826048,-50.83407630515245,-19.3568115234375,4381.2578125,True
1599574184.0676274,0.0,10,0.5,0.5,-11.285738594055177,-0.2,-0.03,-0.37525,0.18880931013533547,10,1,100,1.0418029852578956,-10,-1,-100,6348.992804993875,-0.0636764203285653,0.0026368954734003565,0.9979671138251012,303.61736734604773,33.35041985650217,1358.7254964559875,-51.20648903908872,-30.399749755859375,4381.2578125,True
1599574184.137441,0.0,10,0.5,0.5,-11.887259750366212,-0.2,-0.03,-0.37525,0.12994626757481834,10,1,100,0.8755248510766165,-10,-1,-100,6347.959427767433,-0.06541744384375454,0.003582945290730539,0.997851552358362,309.0533704923386,33.98023837418336,1388.9057049334344,-51.39239572945384,-36.026214599609375,4381.2578125,True
1599574184.2102456,0.0,10,0.5,0.5,-3.7497912216186524,-0.2,-0.03,-0.37525,0.39616041528017015,10,1,100,1.2354570236980675,-10,-1,-100,6344.855871338281,-0.07024126126501741,0.006860027362469404,0.9975064437087541,315.4319899573881,34.71057378795212,1435.4632977297415,-51.94953896357747,-53.32525634765625,4381.2578125,True
1599574184.2790625,0.0,10,0.5,0.5,-3.0823879852294933,-0.2,-0.03,-0.37525,0.34088788925457436,10,1,100,1.071370616397329,-10,-1,-100,6342.788604221423,-0.07310194959920296,0.009329960160136938,0.997280831465343,310.5173811483008,34.13178108367169,1424.9705497175314,-52.321123267652055,-65.20770263671875,4381.2578125,True
1599574184.3498726,0.0,10,0.5,0.5,-0.2259299468994147,-0.2,-0.03,-0.37525,0.3778653824777747,10,1,100,1.0627048066035416,-10,-1,-100,6340.657343734172,-0.07559239122805796,0.011901727991210902,0.9970677706451289,297.8041513411426,32.68510633410185,1378.2374619490608,-52.6933848316064,-77.37060546875,4381.2578125,True
1599574184.4186883,0.0,10,0.5,0.5,-0.9039760971069337,-0.2,-0.03,-0.37525,0.2630630807059873,10,1,100,0.9383202017997561,-10,-1,-100,6339.6234347369755,-0.07669495117306828,0.013183603150677296,0.9969674403271784,288.50510705437887,31.650282888889954,1340.912786261149,-52.87987160560409,-83.55752563476562,4381.2578125,True
1599574184.4894998,0.0,10,0.5,0.5,7.9911446971893305,-0.2,-0.03,-0.37525,0.5549307028698856,10,1,100,1.139574910328405,-10,-1,-100,6336.397608467261,-0.07949829822932279,0.016988607446049082,0.996690226597856,285.23756982856656,31.352789819900963,1342.850748973262,-53.43995930169334,-102.50591278076172,4381.2578125,True
1599574184.5583549,0.0,10,0.5,0.5,8.599052446365356,-0.2,-0.03,-0.37525,0.43659872915562375,10,1,100,1.0232589929482203,-10,-1,-100,6334.266684019356,-0.08096153381583886,0.019355003021332324,0.9965292840153925,307.0341016824503,33.86197383402951,1457.6744698618677,-53.811908042882585,-115.3255615234375,4381.2578125,True
1599574184.6301634,0.0,10,0.5,0.5,11.594091598510742,-0.2,-0.03,-0.37525,0.43227154399065615,10,1,100,1.0134155165763912,-10,-1,-100,6332.07369464566,-0.08217645874505103,0.021448298879706625,0.9963869730698459,322.1534240781568,35.6382176503608,1542.0913147446786,-54.18270423229436,-128.28335571289062,4381.2578125,True
1599574184.7029288,0.0,10,0.5,0.5,10.778979598999022,-0.2,-0.03,-0.37525,0.3262879787459184,10,1,100,0.9553644724167187,-10,-1,-100,6331.039683817071,-0.08272970833527611,0.02236807781137073,0.9963209645760671,327.15073391466893,36.226645054760176,1572.3868182295357,-54.36780252491868,-134.69488525390625,4381.2578125,True
1599574184.7752438,0.0,10,0.5,0.5,15.973795307159424,-0.2,-0.03,-0.37525,0.4165545135325547,10,1,100,1.0099194309338462,-10,-1,-100,6328.847607369535,-0.08370801111641038,0.02400542527282654,0.9962011385420143,330.09175908318525,36.57260092679815,1599.4174596127455,-54.737827643274386,-147.3063201904297,4381.2578125,True
1599574184.8470519,0.0,10,0.5,0.5,18.673215824127197,-0.2,-0.03,-0.37525,0.39280213356033516,10,1,100,1.018405395974049,-10,-1,-100,6326.592026516097,-0.08465631188072716,0.02525856630185762,0.996090012843783,323.95104734488467,35.86019089796324,1582.5186780375204,-55.10817109005819,-159.61599731445312,4381.2578125,True
1599574184.9200275,0.0,10,0.5,0.5,24.714552673339846,-0.2,-0.03,-0.37525,0.40278094901562866,10,1,100,1.0915531332978008,-10,-1,-100,6323.302388509968,-0.08616589303483381,0.026468796813287516,0.9959291348649091,299.6248644941692,33.130037407855355,1482.0495393291217,-55.66527787083426,-177.50347900390625,4381.2578125,True
1599574184.9908366,0.0,10,0.5,0.5,-182.07687046813965,-0.2,-0.03,-0.37525,0.32443457603632275,10,1,100,1.0766348227991578,-10,-1,-100,6321.0468186312355,-0.08738814159606145,0.026838940460729353,0.9958127253571991,287.120505175082,31.80027416413041,1432.161829245749,-56.0376989472355,170.95663452148438,4381.2578125,True
1599574185.6221492,0.0,10,0.5,0.5,-48.772975048065184,-0.2,-0.03,-0.37525,0.296988691268888,10,1,100,1.0324834760929846,-10,-1,-100,6319.950299431221,-0.08808491332530605,0.02691000938751744,0.9957494159873943,298.96124181575016,33.16874993085845,1497.448263488101,-56.22354830932349,165.3021697998047,4381.2578125,True
1599574185.6806479,0.0,10,0.5,0.5,-48.4143835144043,-0.2,-0.03,-0.37525,0.29165257802466465,10,1,100,1.0489154316863591,-10,-1,-100,6318.79129407939,-0.08885636674628886,0.026912463490198848,0.9956808049759409,309.43293280126335,34.40156607795143,1556.3085041645902,-56.40905296525262,159.7246856689453,4381.2578125,True
1599574185.7465298,0.0,10,0.5,0.5,-48.073025184631355,-0.2,-0.03,-0.37525,0.2861971116741784,10,1,100,1.0665076913856337,-10,-1,-100,6317.694804954925,-0.08970656183938189,0.02685261856186887,0.9956061820013614,318.22930354822194,35.45762631104939,1607.0950749889867,-56.594239857202965,154.2241973876953,4381.2578125,True
1599574185.8123558,0.0,10,0.5,0.5,-44.53819871520996,-0.2,-0.03,-0.37525,0.26067539295204184,10,1,100,1.1947271308475127,-10,-1,-100,6315.377858758206,-0.09163581749765622,0.02655723117398963,0.9954383910739567,332.10199215849383,37.15499599802454,1690.6635080725414,-56.96380208859177,143.15235900878906,4381.2578125,True
1599574185.878177,0.0,10,0.5,0.5,-42.96348382186889,-0.2,-0.03,-0.37525,0.2404783541958578,10,1,100,1.2571509471166722,-10,-1,-100,6313.121551146149,-0.09394747162245995,0.026098540261631685,0.9952350168537877,340.57162607197074,38.205055810998815,1747.5027440574495,-57.33257928796896,131.844482421875,4381.2578125,True
1599574185.948996,0.0,10,0.5,0.5,-37.933983665466315,-0.2,-0.03,-0.37525,0.19254120453430745,10,1,100,1.4914787342958606,-10,-1,-100,6309.644038936822,-0.09816852706220378,0.02524152876130862,0.9948496396542692,338.6306314692257,38.00494249911316,1758.1618381028427,-57.88555575933334,114.36831665039062,4381.2578125,True
1599574186.0177133,0.0,10,0.5,0.5,-38.337122680664066,-0.2,-0.03,-0.37525,0.21427080035225365,10,1,100,1.4383202423857633,-10,-1,-100,6307.327008924796,-0.10150855588212734,0.0246573569494054,0.9945290482590212,326.5898616469645,36.614113117124184,1709.2770808368994,-58.25496515314816,102.37008666992188,4381.2578125,True
1599574186.0880349,0.0,10,0.5,0.5,-40.07773877716065,-0.2,-0.03,-0.37525,0.24362661612698872,10,1,100,1.3075001790788776,-10,-1,-100,6306.167331937584,-0.10333949010220825,0.024392570053194083,0.9943469979396607,317.22675125730615,35.55187470649019,1667.035987213193,-58.44007845452866,96.26708984375,4381.2578125,True
1599574186.160839,0.0,10,0.5,0.5,-32.3648380432129,-0.2,-0.03,-0.37525,0.20589598358374228,10,1,100,1.7991050588541222,-10,-1,-100,6302.627034987672,-0.10945612632003722,0.023809636211925795,0.9937064242694962,305.47106078995074,34.32327407451342,1625.1472665040524,-58.99664257641107,77.5435791015625,4381.2578125,True
