Timestamp,Input Throttle,horizon,dT,dt,Input Roll,Roll P,Roll I,Roll D,Input Pitch,Pitch P,Pitch I,Pitch D,Input Yaw,Yaw P,Yaw I,Yaw D,Altitude,Direction X,Direction Y,Direction Z,Drag X,Drag Y,Drag Z,Vertical Velocity,Roll,Mass,Has Fuel
1599567357.5930264,0.0,10,0.5,0.5,-2.744118179321289,-0.05075,-0.0155,-0.5,-0.06857390328673627,10,1,100,0.6815939972284966,-10,-1,-100,6483.617967358325,-0.0672577182971083,-0.007002411789425054,0.997711063163378,205.0733246393945,21.49878767203225,-156.7653214569295,9.590824268055876,-35.94464111328125,4381.2578125,True
1599567357.661808,0.0,10,0.5,0.5,-2.8280028778076174,-0.05075,-0.0155,-0.5,-0.06907499604626408,10,1,100,0.689473942720674,-10,-1,-100,6483.776675137342,-0.06735018182365267,-0.006987417580089336,0.9977049308306953,204.84282209333483,21.477795488629507,-153.51330377134175,9.400810228849451,-35.9429931640625,4381.2578125,True
1599567358.2263808,0.0,10,0.5,0.5,-2.890193124389649,-0.05075,-0.0155,-0.5,-0.05059192262231225,10,1,100,0.7101505988138305,-10,-1,-100,6484.3167602616595,-0.06756098173788201,-0.006799406342675404,0.997691977425899,204.1495386738689,21.414362846428766,-143.78940239929446,8.830797974298882,-35.980712890625,4381.2578125,True
1599567358.283226,0.0,10,0.5,0.5,-2.840792152404785,-0.05075,-0.0155,-0.5,-0.03443052543848703,10,1,100,0.699909839668859,-10,-1,-100,6484.697141011944,-0.06759810113882905,-0.006475383964861895,0.9976916187504694,203.7563076906296,21.378938177208788,-137.3813176195791,8.450805703657771,-36.256683349609375,4381.2578125,True
1599567358.3390675,0.0,10,0.5,0.5,-2.7529045272827153,-0.05075,-0.0155,-0.5,-0.015505859391417715,10,1,100,0.6976203245043808,-10,-1,-100,6485.016950476449,-0.06754957945534126,-0.006002889035544564,0.9976978598947847,203.4457022433975,21.351578220096066,-131.04478640290907,8.070816431474634,-36.81805419921875,4381.2578125,True
1599567358.4028976,0.0,10,0.5,0.5,-2.6457969696044925,-0.05075,-0.0155,-0.5,0.011991398784239507,10,1,100,0.6895469862336222,-10,-1,-100,6485.335756575107,-0.06737066614111334,-0.005317915944535975,0.9977138433006278,203.19824456989576,21.32996337861391,-124.7604560427595,7.690822401845724,-37.671844482421875,4381.2578125,True
1599567358.465731,0.0,10,0.5,0.5,-2.521836640930176,-0.05075,-0.0155,-0.5,0.04170149521259571,10,1,100,0.6789521522502728,-10,-1,-100,6485.590082905022,-0.06705045494092922,-0.0044202868797753505,0.997739794513637,202.97167966763016,21.309425889902037,-118.49802117396585,7.310815838841108,-38.819305419921875,4381.2578125,True
1599567358.5265653,0.0,10,0.5,0.5,-2.3810763092041016,-0.05075,-0.0155,-0.5,0.0727298510953142,10,1,100,0.6654330825444891,-10,-1,-100,6485.909323588596,-0.0665754982571266,-0.0033181660520775463,0.9977758730325493,202.70870097842723,21.28376898956153,-112.22393059442582,6.93078824627602,-40.260650634765625,4381.2578125,True
1599567358.5844111,0.0,10,0.5,0.5,-2.721225576782227,-0.05075,-0.0155,-0.5,0.030977710253093454,10,1,100,0.6868277790597006,-10,-1,-100,6486.005457878811,-0.06627769351448329,-0.0026927864290523878,0.9977975828010648,202.54187691286452,21.266696389738076,-109.07189147049198,6.740763853805479,-41.091552734375,4381.2578125,True
1599567358.6482406,0.0,10,0.5,0.5,-1.596606271362305,-0.05075,-0.0155,-0.5,0.2032069424316404,10,1,100,0.5955244748996286,-10,-1,-100,6486.420285727945,-0.06511667944379373,-0.000556091218834497,0.9978775019113172,201.76887396181397,21.18454636361573,-99.50398997402449,6.170633125397198,-44.0255126953125,4381.2578125,True
1599567358.7130673,0.0,10,0.5,0.5,-1.8551193817138674,-0.05075,-0.0155,-0.5,0.1702373617725815,10,1,100,0.6078971173920271,-10,-1,-100,6486.675484908046,-0.0641144936936034,0.0010871410492074456,0.9979419571411716,200.89633684847308,21.090305050243646,-92.99263383550188,5.790481309760665,-46.34912109375,4381.2578125,True
1599567358.816791,0.0,10,0.5,0.5,-2.3002072738647463,-0.05075,-0.0155,-0.5,0.10405874070495152,10,1,100,0.6447122389386564,-10,-1,-100,6486.772070848034,-0.06354095613894838,0.001972010598777455,0.9979772833422345,200.3082819692879,21.02667796598769,-89.68686723123996,5.600379667169496,-47.621185302734375,4381.2578125,True
1599567358.908421,0.0,10,0.5,0.5,0.2906427871704098,-0.05075,-0.0155,-0.5,0.4259912446350093,10,1,100,0.3889933414428428,-10,-1,-100,6487.157870654599,-0.06069830404446796,0.005694951653951746,0.9981399117417279,196.5573383463344,20.621905724831894,-76.08736927720548,4.839743765179948,-53.4473876953125,4381.2578125,True
1599567358.9816077,0.0,10,0.5,0.5,-0.7475959548950195,-0.05075,-0.0155,-0.5,0.2773133345811643,10,1,100,0.4801744610774976,-10,-1,-100,6487.351962939138,-0.058949232934976635,0.007716467650896486,0.9982311576300203,193.5838746584431,20.302695810411944,-69.0584900925942,4.459246134274987,-56.80242919921875,4381.2578125,True
1599567359.0733612,0.0,10,0.5,0.5,-0.41339110870361306,-0.05075,-0.0155,-0.5,0.28656576162884373,10,1,100,0.4392053548144893,-10,-1,-100,6487.544087662944,-0.05699458447686977,0.009625420756174464,0.9983280866606807,189.66326227268658,19.883757596178146,-61.895474323678506,4.078587176448745,-60.397308349609375,4381.2578125,True
1599567359.1521506,0.0,10,0.5,0.5,-1.1582996856689451,-0.05075,-0.0155,-0.5,0.20850515241774303,10,1,100,0.5168470346557579,-10,-1,-100,6487.5786219267175,-0.05593306023621912,0.01063698321378833,0.9983778580080396,187.36896297402956,19.639349034900043,-58.29727273787543,3.8881874243202423,-62.242034912109375,4381.2578125,True
1599567359.2249584,0.0,10,0.5,0.5,-0.9994854293823243,-0.05075,-0.0155,-0.5,0.21879241970131352,10,1,100,0.4989311788693275,-10,-1,-100,6487.675166142522,-0.054815564606573615,0.01163560160587128,0.9984286988323862,184.8319728363473,19.36966925132664,-54.69560252513573,3.6977364527152727,-64.135986328125,4381.2578125,True
1599567359.303026,0.0,10,0.5,0.5,2.5510176025390625,-0.05075,-0.0155,-0.5,0.5461511241077509,10,1,100,0.05944487758314998,-10,-1,-100,6487.934860405396,-0.04981545210459823,0.015504828467381897,0.9986380831040901,172.0678880317794,18.02049034207894,-40.431760617340586,2.9353131567516604,-72.2308349609375,4381.2578125,True
1599567359.365857,0.0,10,0.5,0.5,1.0023273468017577,-0.05075,-0.0155,-0.5,0.36559856036250804,10,1,100,0.24810685608990662,-10,-1,-100,6488.003914115136,-0.04700024058572978,0.017363808676053468,0.9987439489344327,163.85285211049253,17.156890527265368,-33.49961633932076,2.553651752752085,-76.67782592773438,4381.2578125,True
1599567359.442198,0.0,10,0.5,0.5,0.11933163604736308,-0.05075,-0.0155,-0.5,0.2814817644421393,10,1,100,0.36415475843041123,-10,-1,-100,6488.100452562445,-0.04551346327433465,0.01827085927092872,0.9987966261267995,159.26352734957504,16.675210452231376,-30.12857019238128,2.362719335620293,-79.01162719726562,4381.2578125,True
1599567359.505994,0.0,10,0.5,0.5,1.533994889831543,-0.05075,-0.0155,-0.5,0.3721959985716848,10,1,100,0.18269111327875603,-10,-1,-100,6488.167074569152,-0.042529999140932626,0.019903010167002307,0.9988969262938817,149.22249732085922,15.622487441830547,-23.66757213572518,1.9807105705894772,-83.60052490234375,4381.2578125,True
1599567359.57381,0.0,10,0.5,0.5,1.6868495864868165,-0.05075,-0.0155,-0.5,0.383168529538249,10,1,100,0.1292036092307155,-10,-1,-100,6488.2346844145795,-0.039351131250632845,0.021469428654839973,0.9989947708084013,147.62256049865871,15.454668431050553,-18.898891005052246,1.5985977426804143,-87.93927001953125,4381.2578125,True
1599567359.6436229,0.0,10,0.5,0.5,1.8627933452606202,-0.05075,-0.0155,-0.5,0.3841118462336406,10,1,100,0.08278538216256243,-10,-1,-100,6488.301331135444,-0.03606125821782103,0.022884296142781355,0.9990875310230817,153.53102156915747,16.072789955022028,-14.958399177203063,1.2164573801885807,-92.0842056274414,4381.2578125,True
1599567359.7074523,0.0,10,0.5,0.5,1.988230395126343,-0.05075,-0.0155,-0.5,0.3809112637899943,10,1,100,0.0422676047323054,-10,-1,-100,6488.306960194255,-0.03272451843483218,0.02412581643279598,0.9991731836246704,158.5399386551928,16.595552543743306,-10.59562168912041,0.8343467591471923,-95.96621704101562,4381.2578125,True
1599567359.769277,0.0,10,0.5,0.5,2.0863417922973633,-0.05075,-0.0155,-0.5,0.3776970188145331,10,1,100,0.000462967771485967,-10,-1,-100,6488.311632633326,-0.02933491712747136,0.02521033324323063,0.9992516708692009,163.29860149216253,17.090964825850573,-5.916679682923771,0.45227644758837293,-99.55843353271484,4381.2578125,True
1599567359.8370974,0.0,10,0.5,0.5,1.2794877395629882,-0.05075,-0.0155,-0.5,0.32369696107405826,10,1,100,0.14917837655592472,-10,-1,-100,6488.345227679238,-0.02763056480731951,0.02569117989826958,0.99928800411286,165.31642568928083,17.30062814838257,-3.460084457438372,0.2612482239804943,-101.24441528320312,4381.2578125,True
1599567359.91389,0.0,10,0.5,0.5,3.0392699012756346,-0.05075,-0.0155,-0.5,0.4097563821971474,10,1,100,-0.24360983847202422,-10,-1,-100,6488.322020500316,-0.02253608119368093,0.026896985961529,0.9993841489590563,171.0735990458837,17.899241851741227,4.275319160178756,-0.3118808457884015,-105.86051940917969,4381.2578125,True
1599567359.9767227,0.0,10,0.5,0.5,2.2879144317626956,-0.05075,-0.0155,-0.5,0.3577666244895981,10,1,100,-0.11192503982180274,-10,-1,-100,6488.327736231033,-0.019131211972114134,0.027506665145009244,0.9994385324276217,174.92529021437667,18.30097711763399,9.729615867797001,-0.6940501679576796,-108.56959533691406,4381.2578125,True
1599567360.0445406,0.0,10,0.5,0.5,2.319322102355957,-0.05075,-0.0155,-0.5,0.34975821869235796,10,1,100,-0.13881698548585003,-10,-1,-100,6488.268531418988,-0.015819298846591605,0.027977204498491257,0.9994833794578337,178.31115574352424,18.654727905035724,15.382311450102033,-1.076300140110345,-110.98379516601562,4381.2578125,True
1599567360.117348,0.0,10,0.5,0.5,1.769266721343994,-0.05075,-0.0155,-0.5,0.32464191141515786,10,1,100,0.012753144096656649,-10,-1,-100,6488.240648350562,-0.014214725312084037,0.028166988939298143,0.9995021572354886,179.72364976518523,18.802401156855602,18.25906263628988,-1.2674594212863415,-112.08024597167969,4381.2578125,True
1599567360.1801777,0.0,10,0.5,0.5,2.3582296787261967,-0.05075,-0.0155,-0.5,0.33720673311757887,10,1,100,-0.1855514969952326,-10,-1,-100,6488.181967867771,-0.010981706032571118,0.028444749419446077,0.9995350410881446,182.13063438510684,19.05422238360396,24.089480875195164,-1.6498507292142504,-114.0519790649414,4381.2578125,True
1599567360.2519884,0.0,10,0.5,0.5,3.1039321258544925,-0.05075,-0.0155,-0.5,0.33287230464834655,10,1,100,-0.5446023238637965,-10,-1,-100,6488.003144510556,-0.004807179437034577,0.028650089834176228,0.9995779426229622,185.50656874051697,19.408518015088827,35.92466187946171,-2.4149340850601577,-117.11029815673828,4381.2578125,True
1599567360.3217988,0.0,10,0.5,0.5,1.6199876735687258,-0.05075,-0.0155,-0.5,0.31305632929326505,10,1,100,0.06939594050849782,-10,-1,-100,6488.003144510556,-0.004807179437034577,0.028650089834176228,0.9995779426229622,185.50656874051697,19.408518015088827,35.92466187946171,-2.4149340850601577,-117.11029815673828,4381.2578125,True
1599567360.385649,0.0,10,0.5,0.5,2.2569002140045167,-0.05075,-0.0155,-0.5,0.3102860296325843,10,1,100,-0.25180332934845,-10,-1,-100,6487.88299789466,-0.0019155988735903113,0.028619663661177863,0.9995885380159562,186.61911426972634,19.52606780149935,41.87369691800025,-2.7976216245192367,-118.1963119506836,4381.2578125,True
1599567360.4514735,0.0,10,0.5,0.5,2.340173429489136,-0.05075,-0.0155,-0.5,0.2950893650505383,10,1,100,-0.4139271570941773,-10,-1,-100,6487.733572396915,0.002158955600355413,0.028449766692044038,0.9995928919744697,187.75446107372147,19.647314229185078,50.787632950312506,-3.37181703862084,-119.27088928222656,4381.2578125,True
1599567360.5192919,0.0,10,0.5,0.5,2.0247258666992187,-0.05075,-0.0155,-0.5,0.28745985263135376,10,1,100,-0.2955024223268756,-10,-1,-100,6487.549986032769,0.004757876739941668,0.02822301075861269,0.99959032822084,188.24104036992773,19.700349724403793,56.7113409490082,-3.7547104628216985,-119.61820983886719,4381.2578125,True
1599567360.5920985,0.0,10,0.5,0.5,1.913983652496338,-0.05075,-0.0155,-0.5,0.2970560824271075,10,1,100,-0.1731425535122435,-10,-1,-100,6487.520209346083,0.005978725839844098,0.028101805789218004,0.9995871864668519,188.39468144661922,19.717638423996725,59.65733715586218,-3.946182666934721,-119.68074035644531,4381.2578125,True
1599567360.654933,0.0,10,0.5,0.5,1.850687505722046,-0.05075,-0.0155,-0.5,0.28020524447058776,10,1,100,-0.308320119641537,-10,-1,-100,6487.336638882291,0.008291553070900315,0.027837334726683847,0.9995780774621795,188.57214110584604,19.7389679344144,65.52101384994256,-4.329172068009477,-119.58368682861328,4381.2578125,True
1599567360.7297776,0.0,10,0.5,0.5,1.3211767688751221,-0.05075,-0.0155,-0.5,0.22565926805467246,10,1,100,-0.5526133916641311,-10,-1,-100,6486.906530834385,0.01259004142202681,0.02710073336643386,0.9995534208375224,188.41653474318278,19.729909074790417,77.08265084115202,-5.095293224520452,-118.50314331054688,4381.2578125,True
1599567360.7931254,0.0,10,0.5,0.5,1.6223557891845704,-0.05075,-0.0155,-0.5,0.27771989109284617,10,1,100,-0.23120525400725,-10,-1,-100,6486.8147527943365,0.013550039271380506,0.02690517094940096,0.9995461511165594,188.269300188862,19.716761395352627,79.92620793685012,-5.286845537176776,-118.04785919189453,4381.2578125,True
1599567360.8549612,0.0,10,0.5,0.5,1.235330155181885,-0.05075,-0.0155,-0.5,0.25345487168070324,10,1,100,-0.33395271290405915,-10,-1,-100,6486.629246619879,0.015331591702051709,0.02650794295561511,0.9995310256596057,187.78024017783113,19.67077987121351,85.51362382351489,-5.669967811399303,-116.91500854492188,4381.2578125,True
1599567360.9220288,0.0,10,0.5,0.5,1.019490297317505,-0.05075,-0.0155,-0.5,0.24337074181030127,10,1,100,-0.34022130127168076,-10,-1,-100,6486.382704770542,0.01698425080806334,0.02605691342286417,0.9995161691975585,186.99019895862676,19.59433109189356,90.92788035868202,-6.053107222131065,-115.48658752441406,4381.2578125,True
1599567360.983864,0.0,10,0.5,0.5,0.7815235183715821,-0.05075,-0.0155,-0.5,0.23503061474925663,10,1,100,-0.34231357218136405,-10,-1,-100,6486.13616086042,0.018485878430666403,0.02557342467109137,0.9995020121286592,185.84828604357227,19.482217234984873,96.11476332192066,-6.43625782169752,-113.76228332519531,4381.2578125,True
1599567361.0472066,0.0,10,0.5,0.5,0.5257629493713378,-0.05075,-0.0155,-0.5,0.22818019964574074,10,1,100,-0.34002655774980495,-10,-1,-100,6485.826136630494,0.019809027903775284,0.025074409909596033,0.9994893077873285,184.27130248607364,19.325771905893877,100.99607094404887,-6.819417145087204,-111.74190521240234,4381.2578125,True
1599567361.1080434,0.0,10,0.5,0.5,0.255746032333374,-0.05075,-0.0155,-0.5,0.2185711045291284,10,1,100,-0.3393695613856682,-10,-1,-100,6485.579583567684,0.020986168706220873,0.024536627674223415,0.9994786314000967,182.60165418656058,19.16087813248303,105.72975908960657,-7.202585339590047,-109.43559265136719,4381.2578125,True
1599567361.1738687,0.0,10,0.5,0.5,-0.004428532791137529,-0.05075,-0.0155,-0.5,0.20879068822357283,10,1,100,-0.3363829492210066,-10,-1,-100,6485.269058466889,0.022012030040487334,0.02396237925657764,0.9994704972703599,180.41564389259187,18.942935877805144,110.04888408613895,-7.5857672928917435,-106.89707946777344,4381.2578125,True
1599567361.24069,0.0,10,0.5,0.5,-1.0041524913787843,-0.05075,-0.0155,-0.5,0.16279579357193497,10,1,100,-0.3742789413566577,-10,-1,-100,6484.803744675359,0.023273454678962267,0.023026073135977532,0.999463929445802,176.14692677727388,18.513382785797138,115.63155718489037,-8.160590200810173,-102.81307983398438,4381.2578125,True
1599567361.3075104,0.0,10,0.5,0.5,0.23743716621398925,-0.05075,-0.0155,-0.5,0.21900562724686146,10,1,100,-0.28811364672297596,-10,-1,-100,6484.586948703625,0.023621161009234084,0.022690498543979712,0.9994634470696772,174.53372418372993,18.350301792000764,117.27852701979582,-8.352217712161229,-101.40724182128906,4381.2578125,True
1599567361.367499,0.0,10,0.5,0.5,0.13366508560180668,-0.05075,-0.0155,-0.5,0.21396310723460532,10,1,100,-0.2893084706484857,-10,-1,-100,6484.430698174401,0.023934183701587338,0.02234426858403637,0.9994638005010401,173.05415265429843,18.201218372277186,118.96846588260168,-8.543857265495996,-99.99368286132812,4381.2578125,True
1599567361.432686,0.0,10,0.5,0.5,-0.6659150123596191,-0.05075,-0.0155,-0.5,0.1700555602381736,10,1,100,-0.31484059178361545,-10,-1,-100,6484.059595438419,0.024440547121064603,0.021634678615740675,0.9994671582086209,169.81908508715628,17.873586899953487,122.0158983741366,-8.927179478131487,-97.3106689453125,4381.2578125,True
1599567361.492527,0.0,10,0.5,0.5,-0.7871762638092041,-0.05075,-0.0155,-0.5,0.1531048838995162,10,1,100,-0.30957314382828355,-10,-1,-100,6483.747564776451,0.024843091150223023,0.02084029112542376,0.9994741132655258,166.5831748844928,17.544790762078794,124.86667760052991,-9.310566244054762,-94.71307373046875,4381.2578125,True
1599567361.560345,0.0,10,0.5,0.5,-0.9692919567108154,-0.05075,-0.0155,-0.5,0.138951234600637,10,1,100,-0.29963732424395295,-10,-1,-100,6483.311989623588,0.02511006781737479,0.019994603551355107,0.9994847174034382,163.57049525049536,17.237861070819196,127.69561818427239,-9.694021314392621,-92.08665466308594,4381.2578125,True
1599567361.6211812,0.0,10,0.5,0.5,-1.0925478031158447,-0.05075,-0.0155,-0.5,0.12405601225485069,10,1,100,-0.2891145248183066,-10,-1,-100,6482.937928785803,0.025249724959089326,0.01909589674439601,0.9994987734444789,160.31142302181462,16.90272541984211,130.1421911596199,-10.077547292773499,-89.5443115234375,4381.2578125,True
1599567361.6860082,0.0,10,0.5,0.5,-1.74329324760437,-0.05075,-0.0155,-0.5,0.0511845913068579,10,1,100,-0.2759233673312877,-10,-1,-100,6482.284535186947,0.025250617432103804,0.01762231175483935,0.9995258177994767,155.52296673596047,16.405485967439358,133.52677394770433,-10.652958035370087,-86.12283325195312,4381.2578125,True
1599567361.7528288,0.0,10,0.5,0.5,-1.6182394958496094,-0.05075,-0.0155,-0.5,0.020483894576689837,10,1,100,-0.24918520548535905,-10,-1,-100,6481.631125892163,0.025003407673037315,0.01601036642874518,0.9995591517121701,152.3757972133753,16.075008736063033,137.9600776322957,-11.228474827577624,-83.3157958984375,4381.2578125,True
1599567361.8246398,0.0,10,0.5,0.5,-0.6894801399230958,-0.05075,-0.0155,-0.5,0.12011890958419646,10,1,100,-0.25942186924932664,-10,-1,-100,6481.411854474223,0.02486808007267947,0.015458485597132794,0.9995712149799743,154.3565633015634,16.28318239779234,142.16515770172361,-11.420313656025156,-82.52728271484375,4381.2578125,True
1599567361.8894644,0.0,10,0.5,0.5,-1.0787816146850586,-0.05075,-0.0155,-0.5,0.048795367811195894,10,1,100,-0.23531011033552843,-10,-1,-100,6480.975750638405,0.024523260764017635,0.014316110728330115,0.999596748021478,157.8743242425948,16.651056250655664,150.34199461592567,-11.803968132744302,-81.17315673828125,4381.2578125,True
1599567361.9512982,0.0,10,0.5,0.5,-1.0247015014648437,-0.05075,-0.0155,-0.5,0.029719929964516917,10,1,100,-0.22138323877222038,-10,-1,-100,6480.476654861239,0.024082044554581298,0.01311209319663755,0.9996239933805479,160.77726543095164,16.95220498592268,158.13903800627222,-12.187588351191998,-80.1029052734375,4381.2578125,True
1599567362.015714,0.0,10,0.5,0.5,-0.7702736381530761,-0.05075,-0.0155,-0.5,0.08034225805988962,10,1,100,-0.23741617609231627,-10,-1,-100,6480.195855796919,0.023826273900235184,0.012486442428099827,0.9996381332399844,162.03632448141062,17.081899675378402,161.9153243194574,-12.379384658426723,-79.6531982421875,4381.2578125,True
1599567362.0863507,0.0,10,0.5,0.5,-0.9600593086242676,-0.05075,-0.0155,-0.5,0.004621814491932608,10,1,100,-0.19947767781762943,-10,-1,-100,6479.696756163728,0.02324895778451552,0.011238262993498593,0.9996665381049937,164.21559541492223,17.30457883387099,169.24088193421363,-12.76294873432052,-78.95758056640625,4381.2578125,True
1599567362.6320312,0.0,10,0.5,0.5,-0.8633810691833497,-0.05075,-0.0155,-0.5,-0.013756718554486833,10,1,100,-0.18410791536224574,-10,-1,-100,6479.19814356789,0.022585483101845563,0.009945928130368424,0.9996954408552046,165.8897759484729,17.47300994784012,176.17202202715092,-13.146474710380055,-78.55325317382812,4381.2578125,True
1599567362.6838927,0.0,10,0.5,0.5,-0.7647395744323731,-0.05075,-0.0155,-0.5,-0.03464569331700636,10,1,100,-0.16739649746955315,-10,-1,-100,6478.636054024915,0.02183245468952874,0.008591082450586325,0.9997247307256917,167.07040829003546,17.588803626829726,182.67416465993338,-13.529965274752898,-78.4107666015625,4381.2578125,True
1599567362.744729,0.0,10,0.5,0.5,-0.714693914794922,-0.05075,-0.0155,-0.5,0.09969852255112667,10,1,100,-0.2423715773884508,-10,-1,-100,6478.636054024915,0.02183245468952874,0.008591082450586325,0.9997247307256917,167.07040829003546,17.588803626829726,182.67416465993338,-13.529965274752898,-78.4107666015625,4381.2578125,True
1599567362.8085623,0.0,10,0.5,0.5,-0.6684687698364258,-0.05075,-0.0155,-0.5,-0.049623111575504655,10,1,100,-0.15123669935016432,-10,-1,-100,6478.074454360292,0.021007062407607555,0.007243162880611322,0.9997530894778409,167.8214059140404,17.65905013911476,188.77301997385828,-13.913423577139456,-78.52603149414062,4381.2578125,True
1599567362.8873482,0.0,10,0.5,0.5,-0.22003545379638667,-0.05075,-0.0155,-0.5,-0.22632244214496214,10,1,100,-0.024201872670774144,-10,-1,-100,6476.949309203774,0.019105701504252472,0.004420859492615549,0.9998076955951964,168.05644941564572,17.66673044187262,199.6260203074874,-14.680261369605962,-79.46627807617188,4381.2578125,True
1599567362.9596891,0.0,10,0.5,0.5,-0.4933087173461914,-0.05075,-0.0155,-0.5,-0.021279095001715043,10,1,100,-0.1572687434497651,-10,-1,-100,6476.668513175566,0.018592251968437574,0.0037296954838635745,0.99982019260382,167.86669630483314,17.642884804485846,202.04880165780844,-14.871957752644304,-79.83453369140625,4381.2578125,True
1599567363.046459,0.0,10,0.5,0.5,-0.4510778457641602,-0.05075,-0.0155,-0.5,-0.030480437197123067,10,1,100,-0.1491780540799199,-10,-1,-100,6476.324242422357,0.01805763323988384,0.003028378537870133,0.9998323613512444,167.58122472129222,17.609219320013587,204.35054452508268,-15.063650049451287,-80.25311279296875,4381.2578125,True
1599567363.1412427,0.0,10,0.5,0.5,0.11916963195800778,-0.05075,-0.0155,-0.5,-0.1866351976286727,10,1,100,-0.018029537591145145,-10,-1,-100,6475.418392358697,0.016385234816322612,0.0009814905213987894,0.9998652713022741,166.29558681176462,17.465003305394056,210.66817269441864,-15.638705740246007,-81.67111206054688,4381.2578125,True
1599567363.213013,0.0,10,0.5,0.5,0.35101700134277347,-0.05075,-0.0155,-0.5,-0.20914557833057112,10,1,100,0.016951559663243937,-10,-1,-100,6474.44907929434,0.014553859737807286,-0.0010729287702512917,0.9998935113253742,164.44565071236303,17.26511263805961,216.13779722280296,-16.21373100168115,-83.375,4381.2578125,True
1599567363.2967892,0.0,10,0.5,0.5,0.20793551330566407,-0.05075,-0.0155,-0.5,-0.14884820916824582,10,1,100,-0.025703106077059584,-10,-1,-100,6473.824037903221,0.013285172458761957,-0.0023800980691862706,0.9999089155147692,163.72825967012847,17.18859020172727,220.38978463274867,-16.597059727735605,-84.651611328125,4381.2578125,True
1599567363.369594,0.0,10,0.5,0.5,-0.07492217254638678,-0.05075,-0.0155,-0.5,-0.08838968185159438,10,1,100,-0.08150553645432713,-10,-1,-100,6473.479781436501,0.012648173195173865,-0.0030064304916460702,0.9999154889742051,165.2883867298545,17.35263859349302,225.1147174638752,-16.788701044062748,-85.28097534179688,4381.2578125,True
1599567363.4364555,0.0,10,0.5,0.5,0.28152882232666016,-0.05075,-0.0155,-0.5,-0.1638366111382787,10,1,100,0.0007797406079074476,-10,-1,-100,6472.793228159309,0.01133006890035226,-0.004249929906832096,0.9999267811367492,168.4809645787138,17.69002053047502,234.8195035620827,-17.171922523172235,-86.48062133789062,4381.2578125,True
1599567363.5241804,0.0,10,0.5,0.5,0.010565921020507796,-0.05075,-0.0155,-0.5,-0.10721130797040947,10,1,100,-0.05618831712606914,-10,-1,-100,6472.448489672155,0.010659231326086203,-0.004853934789695655,0.9999314076998453,170.0112698116628,17.8526026895929,239.657754063355,-17.36350134692612,-87.05502319335938,4381.2578125,True
1599567363.58103,0.0,10,0.5,0.5,0.6753815643310547,-0.05075,-0.0155,-0.5,-0.2393503235344871,10,1,100,0.10400767520563649,-10,-1,-100,6471.354225307703,0.008603209258613775,-0.0065920711726629765,0.9999412629690342,174.44644000572768,18.327170065051767,254.24891417688744,-17.938101549379375,-88.75927734375,4381.2578125,True
1599567363.650209,0.0,10,0.5,0.5,0.13817286682128904,-0.05075,-0.0155,-0.5,-0.12674324497543094,10,1,100,-0.02477799533339707,-10,-1,-100,6471.009494011989,0.007916153341401867,-0.007135916957502509,0.9999432049898889,175.8853431717061,18.482261436154904,259.1524199395601,-18.129587375330857,-89.30227661132812,4381.2578125,True
1599567363.7210202,0.0,10,0.5,0.5,0.7186117816925048,-0.05075,-0.0155,-0.5,-0.2443423580751295,10,1,100,0.13692380434402351,-10,-1,-100,6469.915250354912,0.005831713008835265,-0.008688898902399236,0.9999452455806,179.9884507296116,18.928042961726582,273.82487763385564,-18.70389471089708,-90.82146453857422,4381.2578125,True
1599567363.7928271,0.0,10,0.5,0.5,0.21682840843200685,-0.05075,-0.0155,-0.5,-0.14231241866908614,10,1,100,0.0045979339000541825,-10,-1,-100,6469.508025530493,0.005151330200501349,-0.009161866135535627,0.9999447604773375,181.26764421828707,19.068255352731345,278.6708557364316,-18.895279678207096,-91.25865173339844,4381.2578125,True
1599567363.8596485,0.0,10,0.5,0.5,0.659951414489746,-0.05075,-0.0155,-0.5,-0.24670432557977978,10,1,100,0.1676542335494687,-10,-1,-100,6468.351788527798,0.0030622033806934597,-0.010529771642417375,0.9999398716020949,184.77477046727918,19.456501066449373,292.9422090329495,-19.469282508888295,-92.42916107177734,4381.2578125,True
1599567363.9265177,0.0,10,0.5,0.5,0.4186694641113281,-0.05075,-0.0155,-0.5,-0.20095946843283208,10,1,100,0.11032222553457764,-10,-1,-100,6467.538327268674,0.0016963091004904146,-0.011346994981734151,0.9999341819541524,186.85071255492122,19.689475600198396,302.22970214820936,-19.851825506556327,-93.0234375,4381.2578125,True
1599567364.0073004,0.0,10,0.5,0.5,0.5014876213073731,-0.05075,-0.0155,-0.5,-0.23868919093794386,10,1,100,0.1923271882706437,-10,-1,-100,6466.318144212943,-0.00027922395126084813,-0.012423582707330889,0.9999227853322972,189.60079379893108,20.00267198869606,315.8202792854999,-20.425457810636512,-93.68617248535156,4381.2578125,True
1599567364.0751178,0.0,10,0.5,0.5,0.18412369842529297,-0.05075,-0.0155,-0.5,-0.13203476684208454,10,1,100,-0.0038696772634802807,-10,-1,-100,6466.318144212943,-0.00027922395126084813,-0.012423582707330889,0.9999227853322972,189.60079379893108,20.00267198869606,315.8202792854999,-20.425457810636512,-93.68617248535156,4381.2578125,True
1599567364.1439342,0.0,10,0.5,0.5,0.37461433563232427,-0.05075,-0.0155,-0.5,-0.23403170664899922,10,1,100,0.20661010665632876,-10,-1,-100,6465.097479023272,-0.0021809243531259897,-0.013342266567197673,0.9999086095698024,191.86181973555767,20.266144535092756,328.8572864449075,-20.998882172000314,-94.00839233398438,4381.2578125,True
1599567364.2153819,0.0,10,0.5,0.5,0.25162334785461427,-0.05075,-0.0155,-0.5,-0.20101811618003745,10,1,100,0.15334376002575253,-10,-1,-100,6464.222994878073,-0.0034132206643131724,-0.013869044402212946,0.9998979945634785,193.11428407479275,20.415563408346916,337.2361768758025,-21.381056959398222,-94.0564193725586,4381.2578125,True
1599567364.2861917,0.0,10,0.5,0.5,0.1891234115600586,-0.05075,-0.0155,-0.5,-0.21962793089352803,10,1,100,0.22137089265098747,-10,-1,-100,6462.938372579636,-0.005139125378357839,-0.014508917922701729,0.9998815333283527,194.73093498519964,20.612613098751076,349.50338466637413,-21.954165371588633,-93.96683502197266,4381.2578125,True
1599567364.3510194,0.0,10,0.5,0.5,0.24198730125427245,-0.05075,-0.0155,-0.5,-0.15643226351965359,10,1,100,0.05015465471021802,-10,-1,-100,6462.938372579636,-0.005139125378357839,-0.014508917922701729,0.9998815333283527,194.73093498519964,20.612613098751076,349.50338466637413,-21.954165371588633,-93.96683502197266,4381.2578125,True
1599567364.425846,0.0,10,0.5,0.5,0.15314537582397464,-0.05075,-0.0155,-0.5,-0.19535355147330236,10,1,100,0.17348099073255172,-10,-1,-100,6462.062914465554,-0.006248405452452,-0.014856045085039264,0.9998701192423609,195.64077637368683,20.726431171947358,357.47395178082945,-22.3361396152798,-93.79239654541016,4381.2578125,True
1599567364.4876513,0.0,10,0.5,0.5,0.11112258529663085,-0.05075,-0.0155,-0.5,-0.19039610033988463,10,1,100,0.17562579531469352,-10,-1,-100,6461.123491021339,-0.007265358181046811,-0.015120940998512643,0.999859275955282,196.42608568275762,20.827078629312176,365.2818928581363,-22.71803860669439,-93.54936981201172,4381.2578125,True
1599567364.5524776,0.0,10,0.5,0.5,0.06573693618774415,-0.05075,-0.0155,-0.5,-0.18834397926301352,10,1,100,0.18923173991398146,-10,-1,-100,6460.248031633906,-0.00830226316850694,-0.015337682478368727,0.999847902394396,197.1064294322244,20.91650396532865,372.95242613401393,-23.0998643066039,-93.23988342285156,4381.2578125,True
1599567364.6163068,0.0,10,0.5,0.5,-0.09118633003234863,-0.05075,-0.0155,-0.5,-0.1864845330008087,10,1,100,0.23765341665277662,-10,-1,-100,6458.840357719571,-0.009674769794233195,-0.015513445302366985,0.9998328519529048,197.92618831092173,21.02889507531836,384.1712252683037,-23.672470018804937,-92.67170715332031,4381.2578125,True
1599567364.677144,0.0,10,0.5,0.5,0.07706939315795899,-0.05075,-0.0155,-0.5,-0.1723223405305045,10,1,100,0.14980979422921947,-10,-1,-100,6458.306679288042,-0.010113587360229522,-0.015540694801434787,0.9998280863007378,198.15740121413717,21.061721027381378,387.851701565872,-23.863304111822234,-92.4623794555664,4381.2578125,True
1599567364.7449644,0.0,10,0.5,0.5,-0.06120500183105468,-0.05075,-0.0155,-0.5,-0.17042761749851448,10,1,100,0.1980902218930995,-10,-1,-100,6457.368714807206,-0.010942485068616939,-0.015545408580210968,0.9998192848173102,198.56366646264172,21.121073625458223,395.1316946522118,-24.244920838985202,-92.02471923828125,4381.2578125,True
1599567364.8162825,0.0,10,0.5,0.5,-0.20426628303527833,-0.05075,-0.0155,-0.5,-0.15780083119664576,10,1,100,0.2392274558434374,-10,-1,-100,6455.897064348101,-0.012060309420229157,-0.015432066843742435,0.9998081817276846,199.0871305334883,21.200018564923056,405.9469368211887,-24.817218253697867,-91.37230682373047,4381.2578125,True
1599567364.8791137,0.0,10,0.5,0.5,-0.00398398284912109,-0.05075,-0.0155,-0.5,-0.1616943116107301,10,1,100,0.1671032292297493,-10,-1,-100,6455.366311331629,-0.012411857329691188,-0.015362524359556767,0.9998049502992719,199.24815423952884,21.22463270655119,409.5413230009387,-25.00794941281064,-91.15108489990234,4381.2578125,True
1599567364.9449377,0.0,10,0.5,0.5,-0.13886302947998047,-0.05075,-0.0155,-0.5,-0.1482602237091308,10,1,100,0.2022890158308403,-10,-1,-100,6454.364860959002,-0.013043136546788972,-0.015175818138503126,0.9997997655195008,199.5318080803461,21.269329124089296,416.67419965278435,-25.389359967624355,-90.7135238647461,4381.2578125,True
1599567365.0067725,0.0,10,0.5,0.5,-0.2498723403930664,-0.05075,-0.0155,-0.5,-0.12423199045840758,10,1,100,0.23125855187681937,-10,-1,-100,6452.831671688356,-0.01387320069805183,-0.014787040453251604,0.9997944177364791,199.96000437448015,21.335552077902996,427.4355638514349,-25.961344469218183,-90.1238784790039,4381.2578125,True
1599567365.0716004,0.0,10,0.5,0.5,-0.06368779258728027,-0.05075,-0.0155,-0.5,-0.14552002256605281,10,1,100,0.17699491235992684,-10,-1,-100,6452.2984718552325,-0.014126558589664774,-0.01462688091988286,0.9997932259707346,200.11146414820732,21.358278536870955,431.0565976349998,-26.151970063721226,-89.93743896484375,4381.2578125,True
1599567365.1384544,0.0,10,0.5,0.5,-0.16915865859985352,-0.05075,-0.0155,-0.5,-0.12213915924541117,10,1,100,0.20091306479912757,-10,-1,-100,6451.23451028252,-0.014567159737726355,-0.0142689363722374,0.9997920760398037,200.40298512234773,21.402100175137708,438.2973789242149,-26.533166805967102,-89.5875244140625,4381.2578125,True
1599567365.2052736,0.0,10,0.5,0.5,-0.1627368511199951,-0.05075,-0.0155,-0.5,-0.1132979616682867,10,1,100,0.19830221655060049,-10,-1,-100,6450.169568484998,-0.014937333250471474,-0.013863932264246101,0.9997923121616492,200.72190642079312,21.448333617670112,445.62986260817604,-26.9142895538277,-89.29266357421875,4381.2578125,True
1599567365.2670789,0.0,10,0.5,0.5,-0.16049034156799316,-0.05075,-0.0155,-0.5,-0.1022726668163056,10,1,100,0.1983764648473152,-10,-1,-100,6449.106576107908,-0.015268497728317202,-0.01339685653124884,0.999793677321577,201.09637759427065,21.50008177603046,453.12028565941444,-27.295335635075354,-89.0401611328125,4381.2578125,True
1599567365.3269157,0.0,10,0.5,0.5,-0.2071368160247803,-0.05075,-0.0155,-0.5,-0.06333546804501695,10,1,100,0.2054033135075672,-10,-1,-100,6447.446896062931,-0.015628351579693715,-0.012620191865849723,0.9997982223349722,201.69490893793648,21.58098663089481,464.50935428240973,-27.866757422707717,-88.7364501953125,4381.2578125,True
1599567365.394735,0.0,10,0.5,0.5,-0.14006885910034178,-0.05075,-0.0155,-0.5,-0.07764444006222918,10,1,100,0.1884062686647281,-10,-1,-100,6446.320907841786,-0.015795959433083404,-0.012046869645584804,0.9998026608272907,202.14483591519553,21.64004834448139,472.2689681987688,-28.24760409681055,-88.59298706054688,4381.2578125,True
1599567365.455572,0.0,10,0.5,0.5,-0.10340585098266601,-0.05075,-0.0155,-0.5,-0.10137893752786414,10,1,100,0.17887755604686406,-10,-1,-100,6445.734963674564,-0.01585729329930757,-0.01174461627588122,0.9998052861621367,202.38576767749748,21.67122744794636,476.2020546936009,-28.437996220025518,-88.53897094726562,4381.2578125,True
1599567365.5164418,0.0,10,0.5,0.5,-0.12401849937438965,-0.05075,-0.0155,-0.5,-0.027539788247047114,10,1,100,0.183298063296589,-10,-1,-100,6444.006911535049,-0.015949785985527876,-0.01080192771956859,0.9998144441267875,203.18657326106583,21.77303535406151,488.2549847676314,-29.009044305762025,-88.46047973632812,4381.2578125,True
1599567365.5827749,0.0,10,0.5,0.5,-0.08647262115478517,-0.05075,-0.0155,-0.5,-0.04686805719519327,10,1,100,0.17366547727230147,-10,-1,-100,6442.819392158999,-0.01594308498309296,-0.010124795655758426,0.9998216373704617,203.7851117964675,21.847912322873334,496.50750442324147,-29.389632713401024,-88.4649658203125,4381.2578125,True
1599567365.644259,0.0,10,0.5,0.5,-0.0709057544708252,-0.05075,-0.0155,-0.5,-0.03781151860461349,10,1,100,0.16771088880523205,-10,-1,-100,6441.630894728936,-0.015880224223509404,-0.009431480721910046,0.9998294182759394,204.4114406765595,21.92593905171354,504.88089796699813,-29.77013046137398,-88.50363159179688,4381.2578125,True
1599567365.7100837,0.0,10,0.5,0.5,-0.052596771240234375,-0.05075,-0.0155,-0.5,-0.028056682111108094,10,1,100,0.161543310634149,-10,-1,-100,6440.4428840959445,-0.015765184619127726,-0.008717382777317236,0.9998377199283084,205.0652700715628,22.007166077771917,513.3773936161422,-30.150535968782727,-88.5765380859375,4381.2578125,True
1599567365.7749465,0.0,10,0.5,0.5,-0.004113081359863283,-0.05075,-0.0155,-0.5,0.02306428758705839,10,1,100,0.14411319784819399,-10,-1,-100,6438.591775407433,-0.015500657929790735,-0.007608839010560954,0.9998509064718873,206.08416735656388,22.13373151089326,526.3250996647458,-30.72096751677654,-88.73458862304688,4381.2578125,True
1599567365.838776,0.0,10,0.5,0.5,-0.08446040039062501,-0.05075,-0.0155,-0.5,-0.08712407935240213,10,1,100,0.17065921660109956,-10,-1,-100,6438.591775407433,-0.015500657929790735,-0.007608839010560954,0.9998509064718873,206.08416735656388,22.13373151089326,526.3250996647458,-30.72096751677654,-88.73458862304688,4381.2578125,True
1599567365.900613,0.0,10,0.5,0.5,0.02422623443603515,-0.05075,-0.0155,-0.5,0.036786866137509616,10,1,100,0.13055894800762632,-10,-1,-100,6436.743594198953,-0.015135597920141597,-0.006488062318156016,0.9998644001678205,207.17612414847804,22.269073540346866,539.5940420941685,-31.291182386686387,-88.93350219726562,4381.2578125,True
1599567365.959454,0.0,10,0.5,0.5,-0.03687295532226563,-0.05075,-0.0155,-0.5,-0.03369976124318211,10,1,100,0.1514438874241062,-10,-1,-100,6436.149832490366,-0.014993709087708721,-0.006116242659624262,0.9998688815357349,207.57669259891497,22.318351739056354,544.143755684529,-31.48120412961911,-89.00344848632812,4381.2578125,True
1599567366.0270867,0.0,10,0.5,0.5,0.012756796264648429,-0.05075,-0.0155,-0.5,0.017391170115323304,10,1,100,0.12963550935064377,-10,-1,-100,6434.831937122275,-0.014667038205276435,-0.005319674456978279,0.9998782821193571,208.37180092674703,22.41662875758346,553.2772693490591,-31.861172280157053,-89.15631103515625,4381.2578125,True
1599567366.1108632,0.0,10,0.5,0.5,0.025724072265625002,-0.05075,-0.0155,-0.5,0.020064567018419827,10,1,100,0.12379318318046208,-10,-1,-100,6433.58142523584,-0.014317978911725256,-0.004577333569261604,0.9998870153658758,209.16241651922834,22.514949973579373,562.4651997339306,-32.24103869222641,-89.31704711914062,4381.2578125,True
1599567366.2510538,0.0,10,0.5,0.5,0.1294114517211914,-0.05075,-0.0155,-0.5,0.11713636502778463,10,1,100,0.06782592731364376,-10,-1,-100,6430.951008016826,-0.013493258422787275,-0.003026523037349147,0.9999043814962709,210.7000321388761,22.708530161876013,580.9200553503003,-33.000463919231706,-89.6490478515625,4381.2578125,True
1599567366.379709,0.0,10,0.5,0.5,0.05492167816162109,-0.05075,-0.0155,-0.5,0.0468072637949027,10,1,100,0.09976023743729498,-10,-1,-100,6429.627744178288,-0.013036057640842976,-0.0022631192965296754,0.9999124659150092,211.44143743878857,22.803200971767446,590.1686970655619,-33.380021368687586,-89.81185913085938,4381.2578125,True
1599567366.4594958,0.0,10,0.5,0.5,0.05915408477783203,-0.05075,-0.0155,-0.5,0.051922303538792215,10,1,100,0.09298942442085445,-10,-1,-100,6428.259560226579,-0.012561510472873473,-0.0015297625129850046,0.9999199309351192,212.15583222653353,22.895502798252974,599.4045097549522,-33.75947542120558,-89.96356201171875,4381.2578125,True
1599567366.5515609,0.0,10,0.5,0.5,0.021117719650268554,-0.05075,-0.0155,-0.5,0.018131444666335386,10,1,100,0.11360140029081547,-10,-1,-100,6427.601347330841,-0.012320502567855966,-0.0011774475342475705,0.9999234064836064,212.49831791292198,22.940259228506047,604.0037641839156,-33.9491637801699,-90.02811431884766,4381.2578125,True
1599567366.6244013,0.0,10,0.5,0.5,0.08031442108154296,-0.05075,-0.0155,-0.5,0.10049187039474261,10,1,100,0.05298973868192344,-10,-1,-100,6425.502689377521,-0.011553520895987643,-0.00011528453353990093,0.9999332492043568,213.45765042240254,23.067842329850254,617.6943474365377,-34.51807534603729,-90.19011688232422,4381.2578125,True
1599567366.6962037,0.0,10,0.5,0.5,0.0015692081451416026,-0.05075,-0.0155,-0.5,-0.004975074228322251,10,1,100,0.12929319216537544,-10,-1,-100,6425.502689377521,-0.011553520895987643,-0.00011528453353990093,0.9999332492043568,213.45765042240254,23.067842329850254,617.6943474365377,-34.51807534603729,-90.19011688232422,4381.2578125,True
1599567367.3207314,0.0,10,0.5,0.5,0.05427315673828125,-0.05075,-0.0155,-0.5,0.0711589771929003,10,1,100,0.06996933286507825,-10,-1,-100,6424.126697225263,-0.011017801390561126,0.000570030884401194,0.9999391397066668,214.0512213744303,23.148428971167732,626.7580491753203,-34.8972226939804,-90.2817153930664,4381.2578125,True
1599567367.3858547,0.0,10,0.5,0.5,0.07100780563354492,-0.05075,-0.0155,-0.5,0.10911607009907144,10,1,100,0.03406738133633404,-10,-1,-100,6422.02413792396,-0.01020814573221169,0.0015316929333105114,0.9999467224194837,214.88827538724874,23.26421247616088,640.2961647390524,-35.46575377240944,-90.39146423339844,4381.2578125,True
1599567367.4456608,0.0,10,0.5,0.5,0.05274870376586914,-0.05075,-0.0155,-0.5,0.08243027035815487,10,1,100,0.05274858198038028,-10,-1,-100,6420.586626202683,-0.009646274742617622,0.0021563803114079813,0.9999511485105371,215.41311552535257,23.338201786648384,649.2863020770254,-35.84464866061563,-90.45404052734375,4381.2578125,True
1599567367.504549,0.0,10,0.5,0.5,0.038187052917480466,-0.05075,-0.0155,-0.5,0.05339122892889215,10,1,100,0.07771093047107397,-10,-1,-100,6419.869824412162,-0.009366977705140828,0.002453490228713851,0.9999531189582685,215.66649349574763,23.37432632357143,653.772575280448,-36.034058364050196,-90.48075866699219,4381.2578125,True
1599567367.5683799,0.0,10,0.5,0.5,0.05596092147827149,-0.05075,-0.0155,-0.5,0.11743588000890154,10,1,100,0.013037639077013927,-10,-1,-100,6417.704283352825,-0.008529633204949183,0.003299422596266567,0.9999581787094498,216.3915464977932,23.479281230090862,667.1960659901234,-36.60213733622182,-90.53401184082031,4381.2578125,True
1599567367.62822,0.0,10,0.5,0.5,0.039374525833129885,-0.05075,-0.0155,-0.5,0.09233259561175866,10,1,100,0.03394552186386311,-10,-1,-100,6416.207694032579,-0.007962994980307987,0.003834489485309905,0.9999609429379384,216.8453263568832,23.546304280371917,676.1116997807691,-36.98073224509121,-90.54975128173828,4381.2578125,True
1599567367.6890917,0.0,10,0.5,0.5,0.03468645439147949,-0.05075,-0.0155,-0.5,0.09352814303310551,10,1,100,0.029373658991475433,-10,-1,-100,6414.700852746144,-0.007410918806940225,0.00432623926210533,0.9999631802902964,217.2771129367158,23.611102994154905,685.0032422255055,-37.35922827253525,-90.55345153808594,4381.2578125,True
1599567367.752922,0.0,10,0.5,0.5,0.028061297225952152,-0.05075,-0.0155,-0.5,0.09496613912643619,10,1,100,0.024433804817008117,-10,-1,-100,6413.1945002800785,-0.006868805967443406,0.00478103356751773,0.9999649799981035,217.69312960946374,23.67431797567504,693.8883605504287,-37.73762544426248,-90.54312133789062,4381.2578125,True
1599567367.8157537,0.0,10,0.5,0.5,0.02206188011169434,-0.05075,-0.0155,-0.5,0.0965488024164999,10,1,100,0.019236608466959966,-10,-1,-100,6411.694008223247,-0.006333684961628053,0.005203453983164342,0.9999664036863698,218.0971087495587,23.736317982167304,702.7775938356758,-38.11592416642621,-90.52140045166016,4381.2578125,True
1599567367.88357,0.0,10,0.5,0.5,0.02543541603088379,-0.05075,-0.0155,-0.5,0.07639802650176242,10,1,100,0.04346691809428212,-10,-1,-100,6410.908362556249,-0.00607223216743917,0.005399448454057553,0.9999669864315005,218.29562375644596,23.766965127571016,707.2267543436508,-38.30503650757833,-90.50687408447266,4381.2578125,True
1599567367.9434102,0.0,10,0.5,0.5,0.002847732543945311,-0.05075,-0.0155,-0.5,0.11570947266015362,10,1,100,-0.01441475391189749,-10,-1,-100,6408.62466782378,-0.005313333780600869,0.0059299886354116675,0.9999683013570578,218.88218009921292,23.857988819248327,720.607298247758,-38.87222563763768,-90.4517822265625,4381.2578125,True
1599567368.0060918,0.0,10,0.5,0.5,0.01880793800354004,-0.05075,-0.0155,-0.5,0.0805537779784593,10,1,100,0.033975102242443225,-10,-1,-100,6407.842440962791,-0.005068519819069111,0.006087827977944541,0.9999686237364424,219.07695353474716,23.888259659608288,725.0857283118763,-39.06123915513349,-90.43026733398438,4381.2578125,True
1599567368.0659332,0.0,10,0.5,0.5,0.0032628772735595717,-0.05075,-0.0155,-0.5,0.09776727738454556,10,1,100,0.004388350009788197,-10,-1,-100,6406.214021658874,-0.004581663584573506,0.006383662706625543,0.9999691281280867,219.4661334513784,23.948763967507393,734.0724527119534,-39.439192083869415,-90.38240051269531,4381.2578125,True
1599567368.128979,0.0,10,0.5,0.5,-0.015273997497558593,-0.05075,-0.0155,-0.5,0.10792359306352878,10,1,100,-0.021296476382165537,-10,-1,-100,6403.8653872613795,-0.0039101727779761435,0.006741090527603376,0.9999696336626154,220.0545572458983,24.040002801452097,747.6461986502072,-40.00593490058884,-90.30548858642578,4381.2578125,True
1599567368.2092795,0.0,10,0.5,0.5,-0.0072676700592041,-0.05075,-0.0155,-0.5,0.09423035220257091,10,1,100,-0.0017884228968759186,-10,-1,-100,6402.23696887109,-0.003482033262687688,0.006937643084030071,0.9999698718225446,220.4577518666438,24.101991248712647,756.7851904417402,-40.38363847838639,-90.25069427490234,4381.2578125,True
1599567368.2751036,0.0,10,0.5,0.5,0.004445890045166018,-0.05075,-0.0155,-0.5,0.08395877361924262,10,1,100,0.018246682050532502,-10,-1,-100,6401.4513245786075,-0.003279541566440315,0.007019641765944298,0.9999699841678209,220.66236129064433,24.133302043017064,761.381115502236,-40.572452512561824,-90.22301483154297,4381.2578125,True
1599567368.3409252,0.0,10,0.5,0.5,-0.011146633911132811,-0.05075,-0.0155,-0.5,0.09062693601647308,10,1,100,-0.003565952048333196,-10,-1,-100,6399.763824103284,-0.002901419217511077,0.007151910087404204,0.9999702155307556,221.0837804675063,24.19723249178793,770.647981661312,-40.95000484056008,-90.17049407958984,4381.2578125,True
1599567368.4067497,0.0,10,0.5,0.5,-0.012241673278808592,-0.05075,-0.0155,-0.5,0.08854037126964265,10,1,100,-0.005722763084632116,-10,-1,-100,6398.135405511595,-0.0025421637995994423,0.007250616453919024,0.999970482546487,221.52962947779602,24.263811229525903,780.0451856556518,-41.32745546454743,-90.12190246582031,4381.2578125,True
1599567368.46659,0.0,10,0.5,0.5,-0.026970406341552733,-0.05075,-0.0155,-0.5,0.08751059010079199,10,1,100,-0.023859101784433012,-10,-1,-100,6395.658841482829,-0.00205462546983417,0.007328742792046218,0.9999710336021073,222.23440248056906,24.367591904127348,794.3563572363497,-41.893438387482476,-90.05223083496094,4381.2578125,True
1599567368.536404,0.0,10,0.5,0.5,-0.016211701202392577,-0.05075,-0.0155,-0.5,0.08048218824872885,10,1,100,-0.0068963850180897915,-10,-1,-100,6393.971828146954,-0.0017695053765523095,0.0073339400927713815,0.9999715406817526,222.72813982912294,24.439383407616003,804.0435451247553,-42.2706308657587,-90.00983428955078,4381.2578125,True
1599567368.5982375,0.0,10,0.5,0.5,-0.006511262893676758,-0.05075,-0.0155,-0.5,0.07897112145355684,10,1,100,0.006627609349785291,-10,-1,-100,6393.119288947666,-0.0016371622649048343,0.007323169311984772,0.9999718450491226,222.98416519156459,24.47628295238946,808.9391122658694,-42.45918777662935,-89.9903564453125,4381.2578125,True
1599567368.662067,0.0,10,0.5,0.5,-0.030127824783325194,-0.05075,-0.0155,-0.5,0.06601156154627295,10,1,100,-0.028944979247803565,-10,-1,-100,6389.6832498334115,-0.0011968051502615,0.007194296984224753,0.9999734045205076,224.0795485138102,24.631751883410026,828.9139927064202,-43.21315105390037,-89.93109130859375,4381.2578125,True
1599567368.7248993,0.0,10,0.5,0.5,-0.01303426856994629,-0.05075,-0.0155,-0.5,0.06636857964523503,10,1,100,-0.0048430422917253545,-10,-1,-100,6387.923481794307,-0.0010191087589762778,0.007079380060791409,0.9999744215705182,224.67096767941882,24.714353581214393,839.1463410372929,-43.58997186819424,-89.90972900390625,4381.2578125,True
1599567368.7957323,0.0,10,0.5,0.5,-0.007707835006713868,-0.05075,-0.0155,-0.5,0.07055077919270189,10,1,100,0.005092045881682923,-10,-1,-100,6387.074358746642,-0.0009511242546803302,0.007012297655961553,0.9999749612086477,224.97559391973985,24.756656961779104,844.3176548702315,-43.77834166519085,-89.90133666992188,4381.2578125,True
1599567368.881504,0.0,10,0.5,0.5,-0.01170150375366211,-0.05075,-0.0155,-0.5,0.04992415807909617,10,1,100,-0.006971724262083064,-10,-1,-100,6384.414198235259,-0.0007823395663073197,0.006763552362239488,0.9999768208834874,225.9373738616776,24.88895810557752,860.102967372554,-44.343286602659646,-89.88760375976562,4381.2578125,True
1599567368.9553323,0.0,10,0.5,0.5,-0.005397838973999023,-0.05075,-0.0155,-0.5,0.0747812783791236,10,1,100,0.009636775205579954,-10,-1,-100,6384.414198235259,-0.0007823395663073197,0.006763552362239488,0.9999768208834874,225.9373738616776,24.88895810557752,860.102967372554,-44.343286602659646,-89.88760375976562,4381.2578125,True
1599567369.0361202,0.0,10,0.5,0.5,-0.007598481750488282,-0.05075,-0.0155,-0.5,0.052305646091048597,10,1,100,0.0011862402139312337,-10,-1,-100,6382.5987647222355,-0.0007077867045651795,0.00655946124089672,0.9999782360162696,226.61427021121935,24.981217052561338,870.8411727258746,-44.71977838619572,-89.88455200195312,4381.2578125,True
1599567369.1009462,0.0,10,0.5,0.5,-0.004902287673950195,-0.05075,-0.0155,-0.5,0.03408265347050496,10,1,100,0.0032895027881474203,-10,-1,-100,6379.935184400645,-0.0006611261559406046,0.006208798878440632,0.9999805066743517,227.67565016265505,25.124902721191955,887.24958624794,-45.28430556596319,-89.88748168945312,4381.2578125,True
1599567369.1757443,0.0,10,0.5,0.5,-0.0010159145355224612,-0.05075,-0.0155,-0.5,0.02394635018444595,10,1,100,0.010179529361663777,-10,-1,-100,6377.150022272137,-0.0006830541148081023,0.005798813807766813,0.9999829534524574,228.79302906726588,25.27507235788632,904.0312954637869,-45.84857736542043,-89.89785766601562,4381.2578125,True
1599567369.2435627,0.0,10,0.5,0.5,-0.0037539722442626955,-0.05075,-0.0155,-0.5,0.04882473511224569,10,1,100,0.010331401488105772,-10,-1,-100,6376.249141004402,-0.0007056161616144147,0.005653658087392685,0.9999837689963089,229.17698255112876,25.326471962213773,909.7061538728107,-46.03661055667063,-89.90274047851562,4381.2578125,True
1599567369.3093889,0.0,10,0.5,0.5,-0.0032855911254882813,-0.05075,-0.0155,-0.5,0.046553631616435574,10,1,100,0.011319941338778849,-10,-1,-100,6375.338006137288,-0.0007360810111853067,0.005502579475277366,0.9999845897831943,229.56680889307955,25.37855943344994,915.4225853466219,-46.22461466189969,-89.9083251953125,4381.2578125,True
1599567369.3732152,0.0,10,0.5,0.5,0.000618769836425781,-0.05075,-0.0155,-0.5,0.027069207908462137,10,1,100,0.017141116808201275,-10,-1,-100,6373.44688867894,-0.0008175152707478846,0.005189759239497051,0.9999861989386745,230.36060935318167,25.48441975005841,926.9676944178798,-46.60053593742352,-89.92071533203125,4381.2578125,True
1599567369.441034,0.0,10,0.5,0.5,0.006643519592285156,-0.05075,-0.0155,-0.5,0.0014267280429814955,10,1,100,0.028744352954126636,-10,-1,-100,6370.661726214108,-0.0009973751897491075,0.0046740860606876026,0.9999885790158949,231.5874596492656,25.647526561300015,944.5737242890661,-47.16419807548142,-89.94293212890625,4381.2578125,True
1599567369.5194325,0.0,10,0.5,0.5,0.00022547149658203123,-0.05075,-0.0155,-0.5,0.03295392089988694,10,1,100,0.0189586960148467,-10,-1,-100,6369.688091498334,-0.0010719434471833354,0.004494089736832793,0.999989326990385,232.00760402845358,25.703223885876927,950.5269246147459,-47.35202634932939,-89.95135498046875,4381.2578125,True
1599567369.5852568,0.0,10,0.5,0.5,0.010646917724609375,-0.05075,-0.0155,-0.5,-0.009954523076203488,10,1,100,0.04027265503168734,-10,-1,-100,6366.7906252251705,-0.0013333862002834547,0.00394266923165408,0.9999913386827762,233.29701068643362,25.873804531987354,968.6259921378679,-47.91533196418327,-89.977783203125,4381.2578125,True
1599567369.6510818,0.0,10,0.5,0.5,0.007194910430908204,-0.05075,-0.0155,-0.5,0.0022297267479826147,10,1,100,0.03714148909168474,-10,-1,-100,6364.820407575113,-0.001542095333979925,0.003554708210012019,0.9999924929675835,234.17451427651378,25.989745676291424,980.8686390289947,-48.29071866945326,-89.99525451660156,4381.2578125,True
1599567369.7161124,0.0,10,0.5,0.5,0.008273649597167969,-0.05075,-0.0155,-0.5,-0.002556707253363197,10,1,100,0.041828498254679394,-10,-1,-100,6362.856537876418,-0.0017737493972151469,0.0031614204668272083,0.9999934295952688,235.06769004511293,26.107617985194945,993.2606436110615,-48.66598409832025,-90.01277160644531,4381.2578125,True
1599567369.7899501,0.0,10,0.5,0.5,0.008478985595703125,-0.05075,-0.0155,-0.5,-0.007380964103706221,10,1,100,0.04665082461340407,-10,-1,-100,6360.914641486132,-0.0020272142736968003,0.0027631184023597798,0.99999412777225,235.97222924831382,26.226944752408752,1005.7858444656378,-49.04112741769471,-90.0286865234375,4381.2578125,True
1599567369.8537443,0.0,10,0.5,0.5,0.008757598876953125,-0.05075,-0.0155,-0.5,-0.012477149110173724,10,1,100,0.05179384273069262,-10,-1,-100,6358.910245987005,-0.002303149700548421,0.0023578290986724865,0.9999945680569462,236.88508461250078,26.34738669408211,1018.432857933124,-49.416147884728666,-90.04324340820312,4381.2578125,True
1599567369.9186044,0.0,10,0.5,0.5,0.0053937629699707034,-0.05075,-0.0155,-0.5,0.005348846596332779,10,1,100,0.040368870607308635,-10,-1,-100,6357.939542770153,-0.0024486638914866395,0.0021545669514787284,0.9999946809290527,237.34535924174702,26.408106558190465,1024.8056302508417,-49.60361184279719,-90.04994201660156,4381.2578125,True
1599567369.9873867,0.0,10,0.5,0.5,0.011974782943725587,-0.05075,-0.0155,-0.5,-0.04191469729526222,10,1,100,0.07695355235699466,-10,-1,-100,6354.962492270512,-0.002911952946673191,0.0015432955924116428,0.9999945693696296,238.73689798267998,26.591739371176153,1044.1030139677907,-50.165817451099365,-90.06755828857422,4381.2578125,True
1599567370.0492213,0.0,10,0.5,0.5,0.006182503128051758,-0.05075,-0.0155,-0.5,-0.003641379900277488,10,1,100,0.048803440679516516,-10,-1,-100,6353.929289886495,-0.003075236643469811,0.0013391329549258496,0.9999943748054364,239.20453826041867,26.653465477188853,1050.5966805260407,-50.35315693585381,-90.07258605957031,4381.2578125,True
1599567370.1559365,0.0,10,0.5,0.5,0.009089148330688477,-0.05075,-0.0155,-0.5,-0.029503746810564196,10,1,100,0.07078666533396394,-10,-1,-100,6351.923920874018,-0.003421471390713786,0.0009219187001039504,0.9999937217800086,240.14464510755315,26.777593005203553,1063.673002743191,-50.72774182154427,-90.08200073242188,4381.2578125,True
1599567370.2377188,0.0,10,0.5,0.5,0.008614374160766602,-0.05075,-0.0155,-0.5,-0.03183354714779421,10,1,100,0.0746779500327077,-10,-1,-100,6349.8565409083385,-0.0037694018434687388,0.0005248640720733907,0.9999927580375011,241.09360191279686,26.902890205230847,1076.8798147195846,-51.10220064976787,-90.08929443359375,4381.2578125,True
1599567370.353409,0.0,10,0.5,0.5,0.01077824592590332,-0.05075,-0.0155,-0.5,-0.08197794893920277,10,1,100,0.12376477920937516,-10,-1,-100,6345.720807064325,-0.004529493921764504,-0.0002883444918174146,0.9999897002180906,242.99961248991443,27.154922729799157,1103.6071189413744,-51.850737064878246,-90.09945678710938,4381.2578125,True
1599567370.4541397,0.0,10,0.5,0.5,0.007289094161987305,-0.05075,-0.0155,-0.5,-0.04466165833296687,10,1,100,0.0916219019589632,-10,-1,-100,6343.652941560838,-0.004925373192737381,-0.0006845396228219372,0.999987635975774,243.95796654657576,27.2817995300792,1117.1352552809965,-52.2248133892067,-90.10200500488281,4381.2578125,True
1599567370.5533998,0.0,10,0.5,0.5,0.006495590209960937,-0.05075,-0.0155,-0.5,-0.04709479323063123,10,1,100,0.09597240421855166,-10,-1,-100,6341.523065245361,-0.005321737752473748,-0.0010629825611386029,0.9999852744792639,244.91739374940735,27.408968455151214,1130.762797731734,-52.59876107492416,-90.10257720947266,4381.2578125,True
1599567370.6551259,0.0,10,0.5,0.5,0.005495703125,-0.05075,-0.0155,-0.5,-0.05008739789075138,10,1,100,0.10094403352842835,-10,-1,-100,6339.454225096735,-0.005724040356546362,-0.0014303867264930587,0.9999825945264293,245.86843125906282,27.535364542639613,1144.4463441534667,-52.97257944729429,-90.10102844238281,4381.2578125,True
1599567370.740383,0.0,10,0.5,0.5,0.004714066696166992,-0.05075,-0.0155,-0.5,-0.05301025308526121,10,1,100,0.10600810253888968,-10,-1,-100,6337.3248390901135,-0.006132446236632161,-0.0017871496466482417,0.9999795993915551,246.81162816335865,27.661045505781573,1158.1879716417493,-53.346268323690005,-90.0979995727539,4381.2578125,True
1599567370.8441057,0.0,10,0.5,0.5,0.0039771232604980476,-0.05075,-0.0155,-0.5,-0.0551095606224204,10,1,100,0.11040533845268534,-10,-1,-100,6335.130999602377,-0.0065402180027118615,-0.0021267960255404728,0.9999763508639304,247.75130781616934,27.786493169715506,1172.0077633025514,-53.71982729385363,-90.09375762939453,4381.2578125,True
1599567370.9306955,0.0,10,0.5,0.5,0.006166009140014649,-0.05075,-0.0155,-0.5,-0.021573059030899216,10,1,100,0.07003731725583777,-10,-1,-100,6335.130999602377,-0.0065402180027118615,-0.0021267960255404728,0.9999763508639304,247.75130781616934,27.786493169715506,1172.0077633025514,-53.71982729385363,-90.09375762939453,4381.2578125,True
1599567371.0154696,0.0,10,0.5,0.5,0.00039120368957519525,-0.05075,-0.0155,-0.5,-0.09174865297102525,10,1,100,0.16019212292654578,-10,-1,-100,6330.808265391504,-0.007356508722394626,-0.0027614195235252984,0.9999691276942665,249.6152445838752,28.036138368426936,1199.8588471832873,-54.466553007278,-90.08319854736328,4381.2578125,True
1599567371.1062326,0.0,10,0.5,0.5,0.004094678115844727,-0.05075,-0.0155,-0.5,-0.045964858130041975,10,1,100,0.10251304359676439,-10,-1,-100,6329.712079413817,-0.007570343862672832,-0.0029184058845221545,0.9999670858587767,250.07740049282967,28.098219979123222,1206.8626463979842,-54.65315233313774,-90.08030700683594,4381.2578125,True
1599567371.1939986,0.0,10,0.5,0.5,0.000247644805908203,-0.05075,-0.0155,-0.5,-0.07688587507793612,10,1,100,0.14791666976218432,-10,-1,-100,6326.422545333742,-0.008173727980364146,-0.003338729708059583,0.9999610207677295,251.46522528692552,28.28485976836216,1228.023673475924,-55.21275217018665,-90.0707015991211,4381.2578125,True
1599567371.269803,0.0,10,0.5,0.5,0.0016810279846191404,-0.05075,-0.0155,-0.5,-0.06563588233313886,10,1,100,0.13424119607112156,-10,-1,-100,6324.228221454541,-0.008593932575494866,-0.003615057255613513,0.9999565368974427,252.37549357126554,28.40780758896938,1242.1773456294914,-55.58565320656156,-90.06463623046875,4381.2578125,True
1599567371.3525748,0.0,10,0.5,0.5,0.004659740447998047,-0.05075,-0.0155,-0.5,-0.03833579885412546,10,1,100,0.09262718042342263,-10,-1,-100,6324.228221454541,-0.008593932575494866,-0.003615057255613513,0.9999565368974427,252.37549357126554,28.40780758896938,1242.1773456294914,-55.58565320656156,-90.06463623046875,4381.2578125,True
1599567371.4617963,0.0,10,0.5,0.5,-0.0005791103363037104,-0.05075,-0.0155,-0.5,-0.0788437648310612,10,1,100,0.15890837929487042,-10,-1,-100,6320.876676819869,-0.009193153874887339,-0.003980647384828573,0.999949818925045,253.73228711869723,28.59157035594651,1263.5438452112774,-56.144755251336264,-90.05522918701172,4381.2578125,True
1599567371.550072,0.0,10,0.5,0.5,0.0008365768432617186,-0.05075,-0.0155,-0.5,-0.06786383113125291,10,1,100,0.143950200270264,-10,-1,-100,6318.620830132859,-0.009598397595818244,-0.0042105320460951974,0.9999450695830653,254.6235299908343,28.71279180070872,1277.8409206312338,-56.51732317356279,-90.04939270019531,4381.2578125,True
1599567372.302062,0.0,10,0.5,0.5,0.0020276443481445318,-0.05075,-0.0155,-0.5,-0.05737136550124729,10,1,100,0.1262945828460524,-10,-1,-100,6317.461657456588,-0.009802773222590532,-0.004321604645774258,0.9999426130385843,255.067308151479,28.77325882487068,1285.0157749913947,-56.70355681429261,-90.04640197753906,4381.2578125,True
1599567372.4037945,0.0,10,0.5,0.5,-0.0024017982482910155,-0.05075,-0.0155,-0.5,-0.0879816208962908,10,1,100,0.18986179517494856,-10,-1,-100,6312.887464429019,-0.01056311633447716,-0.0046985507354382295,0.9999331698640118,256.8207885897832,29.01312209065177,1313.842762930427,-57.44815490464429,-90.0357894897461,4381.2578125,True
1599567372.4666214,0.0,10,0.5,0.5,0.0028145950317382813,-0.05075,-0.0155,-0.5,-0.05054418740088337,10,1,100,0.11422977381946225,-10,-1,-100,6312.887464429019,-0.01056311633447716,-0.0046985507354382295,0.9999331698640118,256.8207885897832,29.01312209065177,1313.842762930427,-57.44815490464429,-90.0357894897461,4381.2578125,True
1599567372.5488324,0.0,10,0.5,0.5,0.00033386955261230453,-0.05075,-0.0155,-0.5,-0.06912579005266223,10,1,100,0.1563875011881155,-10,-1,-100,6310.569606085541,-0.010942711221163312,-0.0048651364370817666,0.9999282911882125,257.6796188454394,29.13129910552511,1328.3063456921602,-57.82025156313879,-90.03144836425781,4381.2578125,True
1599567372.609638,0.0,10,0.5,0.5,-0.0002145668029785155,-0.05075,-0.0155,-0.5,-0.07529025831311095,10,1,100,0.17681082902328651,-10,-1,-100,6307.09159768431,-0.01147020391438067,-0.0050707061346585555,0.9999213580884541,258.94291931790866,29.306089518431996,1350.0482993560292,-58.37814255245932,-90.02665710449219,4381.2578125,True
