Timestamp,Input Throttle,horizon,dT,dt,Input Roll,Roll P,Roll I,Roll D,Input Pitch,Pitch P,Pitch I,Pitch D,Input Yaw,Yaw P,Yaw I,Yaw D,Altitude,Direction X,Direction Y,Direction Z,Drag X,Drag Y,Drag Z,Vertical Velocity,Roll,Mass,Has Fuel
1599572114.1831365,0.0,10,0.5,0.5,-10.811499137878418,-0.2,-0.001,-0.12575,-0.06719070794499035,10,1,100,0.690372699373833,-10,-1,-100,6483.617967226892,-0.0672580211748564,-0.007002410914324171,0.997711042751873,205.0732682003101,21.498782743443293,-156.76527191404818,9.590823783804927,-35.94451904296875,4381.2578125,True
1599572114.2579691,0.0,10,0.5,0.5,-10.817038558959963,-0.2,-0.001,-0.12575,-0.069065210232831,10,1,100,0.6894766825825813,-10,-1,-100,6483.776675215806,-0.06735048179955214,-0.006987327823398324,0.9977049112093498,204.8426884428836,21.477782515717273,-153.51319840324055,9.400809817551215,-35.94287109375,4381.2578125,True
1599572114.3347323,0.0,10,0.5,0.5,-10.809959782409669,-0.2,-0.001,-0.12575,-0.050432005760775576,10,1,100,0.710003154092945,-10,-1,-100,6484.316759827547,-0.06755991348864289,-0.0067978710384257795,0.9976920602263766,204.1494635595427,21.41435606941472,-143.7893455943579,8.830797652803307,-35.980560302734375,4381.2578125,True
1599572114.4075706,0.0,10,0.5,0.5,-10.73022364959717,-0.2,-0.001,-0.12575,-0.0342052691670361,10,1,100,0.6996957161740143,-10,-1,-100,6484.697140456061,-0.06759518384901816,-0.006471941927563629,0.9976918387398505,203.75668577176617,21.37897879675842,-137.38156693750676,8.450805276869913,-36.2564697265625,4381.2578125,True
1599572114.4833333,0.0,10,0.5,0.5,-10.587427058410645,-0.2,-0.001,-0.12575,-0.015307039156257446,10,1,100,0.6974203673748283,-10,-1,-100,6485.016949531273,-0.0675451126567767,-0.0059979570612931745,0.9976981919735418,203.44637838446124,21.3516503954354,-131.04521725936291,8.070816068495759,-36.817840576171875,4381.2578125,True
1599572114.5681503,0.0,10,0.5,0.5,-10.385215473937988,-0.2,-0.001,-0.12575,0.012287703445059368,10,1,100,0.6892566063543131,-10,-1,-100,6485.335755225155,-0.06736397273395545,-0.005310747743706887,0.997714333432121,203.19933469196997,21.33007808626509,-124.76112040655745,7.690822026102097,-37.671630859375,4381.2578125,True
1599572114.643033,0.0,10,0.5,0.5,-10.322898765563966,-0.2,-0.001,-0.12575,-0.010322406461842293,10,1,100,0.6985107292846846,-10,-1,-100,6485.49392787437,-0.06722218849190863,-0.004886730501651453,0.997726063225454,203.08672032425085,21.320031324597224,-121.62922803234345,7.500820845485658,-38.208587646484375,4381.2578125,True
1599572114.7188294,0.0,10,0.5,0.5,-9.72725005645752,-0.2,-0.001,-0.12575,0.12057679671234628,10,1,100,0.6470445702997524,-10,-1,-100,6485.909321824554,-0.06656430847337404,-0.0033068250431978422,0.9977766572462974,202.71037832020676,21.283944496470674,-112.22485594098669,6.930787949989353,-40.26031494140625,4381.2578125,True
1599572114.7906053,0.0,10,0.5,0.5,-9.719562373352051,-0.2,-0.001,-0.12575,0.031124411922341,10,1,100,0.6866062859461699,-10,-1,-100,6486.00545549416,-0.06626537468197059,-0.0026807446472007918,0.9977984334154842,202.54358214875833,21.266874418464017,-109.07280671143296,6.740763570136318,-41.091217041015625,4381.2578125,True
1599572114.8713899,0.0,10,0.5,0.5,-8.873271321105957,-0.2,-0.001,-0.12575,0.20504512649725182,10,1,100,0.5957910042697093,-10,-1,-100,6486.420284197084,-0.06510778197028876,-0.0005280462050250104,0.9978780977123983,201.77039368237368,21.184702708016943,-99.50473621121924,6.170632863007629,-44.02496337890625,4381.2578125,True
1599572114.9507596,0.0,10,0.5,0.5,-8.880268971252441,-0.2,-0.001,-0.12575,0.07670548081544752,10,1,100,0.6649673462689971,-10,-1,-100,6486.517857698142,-0.0646251119033258,0.0002627083691229562,0.9979095780158619,201.3800042752472,21.142592178335406,-96.26500644812195,5.980564727609664,-45.150115966796875,4381.2578125,True
1599572115.0255914,0.0,10,0.5,0.5,-7.77758236694336,-0.2,-0.001,-0.12575,0.28712052335022875,10,1,100,0.5228666103965032,-10,-1,-100,6486.868649131036,-0.06289688961567456,0.002887835532952349,0.9980158524204954,199.5986095373911,20.94991747578035,-86.34499018535435,5.410257246992373,-48.966705322265625,4381.2578125,True
1599572115.099392,0.0,10,0.5,0.5,-7.793736190795899,-0.2,-0.001,-0.12575,0.12633058324260976,10,1,100,0.6199204301172717,-10,-1,-100,6486.965223998064,-0.06221213461725668,0.0038036106233131236,0.9980557012775342,198.75016983387127,20.85824693982263,-82.96538068903524,5.220112341570347,-50.386444091796875,4381.2578125,True
1599572115.1871254,0.0,10,0.5,0.5,-6.974162782287598,-0.2,-0.001,-0.12575,0.25416676849831105,10,1,100,0.5207411668670696,-10,-1,-100,6487.157869740506,-0.060692862024485296,0.005788642860818622,0.9981397037054015,196.55776232256704,20.621940650887858,-76.08752748805537,4.8397433516905295,-53.446044921875,4381.2578125,True
1599572115.2649448,0.0,10,0.5,0.5,-6.264005508422851,-0.2,-0.001,-0.12575,0.2714466940661461,10,1,100,0.4795910330044162,-10,-1,-100,6487.351963353693,-0.05894388783396404,0.007739161868450865,0.9982312975761635,193.58518258910553,20.302821017271416,-69.05894729674336,4.459245502917888,-56.80194091796875,4381.2578125,True
1599572115.344704,0.0,10,0.5,0.5,-4.864352114868164,-0.2,-0.001,-0.12575,0.42156934962187087,10,1,100,0.31901001838994936,-10,-1,-100,6487.578624569927,-0.05590190318683393,0.01086462409050518,0.9983771517635316,187.29438003263593,19.631500149369035,-58.27403836976104,3.888185749271857,-62.38800048828125,4381.2578125,True
1599572115.4220643,0.0,10,0.5,0.5,-4.230708877563477,-0.2,-0.001,-0.12575,0.33668547121614356,10,1,100,0.3688204170110033,-10,-1,-100,6487.770735486527,-0.05359970446740444,0.012919576877925934,0.998478921266895,181.6634973138766,19.03398607049344,-50.99233434953656,3.5072245225067453,-66.48199462890625,4381.2578125,True
1599572115.5028403,0.0,10,0.5,0.5,-4.039756101989746,-0.2,-0.001,-0.12575,0.24559878305329452,10,1,100,0.4620465879780961,-10,-1,-100,6487.80526573211,-0.05236669126219166,0.013943467421937467,0.9985305750764489,178.38239036109073,18.686958359496252,-47.35418587308931,3.3166519619780863,-68.63992309570312,4381.2578125,True
1599572115.5776525,0.0,10,0.5,0.5,-2.8296780364990237,-0.2,-0.001,-0.12575,0.3566146121483812,10,1,100,0.2999050160599064,-10,-1,-100,6487.934871014557,-0.04978466280111575,0.015867829733298616,0.9986339165727018,170.75970234998235,17.883478136748156,-40.123718495011815,2.9352719020715545,-73.17898559570312,4381.2578125,True
1599572115.6564398,0.0,10,0.5,0.5,-1.8222081970214843,-0.2,-0.001,-0.12575,0.3733550523423882,10,1,100,0.24974588548322224,-10,-1,-100,6488.003930104547,-0.04699635456933221,0.017752573495953817,0.9987372971865346,161.68499344649172,16.929957166006204,-33.05527301457023,2.5535754804364554,-78.01412963867188,4381.2578125,True
1599572115.7312024,0.0,10,0.5,0.5,0.11715876770019518,-0.2,-0.001,-0.12575,0.4738433868376213,10,1,100,0.02945525260174736,-10,-1,-100,6488.167096364428,-0.042475351720971,0.020362888484959773,0.9988899825650115,145.36082324555346,15.218621034257696,-23.053695756235513,1.9806067822191453,-85.82376098632812,4381.2578125,True
1599572115.8060029,0.0,10,0.5,0.5,0.9563560169219971,-0.2,-0.001,-0.12575,0.38462763925201,10,1,100,0.13100187840422028,-10,-1,-100,6488.234707000549,-0.039308636420830885,0.021906576969536143,0.9989869533623613,152.05086986872882,15.918985379712913,-19.464593517703992,1.5985054053194325,-91.4022445678711,4381.2578125,True
1599572115.8908095,0.0,10,0.5,0.5,2.157172114944458,-0.2,-0.001,-0.12575,0.3830972884576513,10,1,100,0.08938529877055801,-10,-1,-100,6488.301355213276,-0.03607291565421098,0.02327872809244178,0.9990779977432205,160.30790815094383,16.782516783363597,-15.618403031417163,1.2164370231686523,-97.22900390625,4381.2578125,True
1599572115.9745831,0.0,10,0.5,0.5,2.383859878540039,-0.2,-0.001,-0.12575,0.31557597811591925,10,1,100,0.23146461844492935,-10,-1,-100,6488.273407639819,-0.03444674442610812,0.023894603457913766,0.9991208484082552,164.64893685943935,17.235991580268564,-13.5234213263291,1.0254388478131111,-100.15983581542969,4381.2578125,True
1599572116.0543694,0.0,10,0.5,0.5,3.8840698013305666,-0.2,-0.001,-0.12575,0.37922531248912333,10,1,100,0.02436195037435296,-10,-1,-100,6488.341060901526,-0.0311095155250079,0.025016660502101887,0.9992028646581843,172.04377018562224,18.00800867136159,-8.868815395054638,0.6435099797743464,-105.88229370117188,4381.2578125,True
1599572116.1332364,0.0,10,0.5,0.5,5.801001945495605,-0.2,-0.001,-0.12575,0.4147782219540007,10,1,100,-0.1952887342508089,-10,-1,-100,6488.318309324211,-0.026104150638605276,0.026344213811377564,0.9993120412154041,181.3893671017166,18.984866415671274,-1.0264732603937994,0.07062849445981989,-113.96095275878906,4381.2578125,True
1599572116.206008,0.0,10,0.5,0.5,5.620106246948243,-0.2,-0.001,-0.12575,0.3222612185630961,10,1,100,0.11678583438464418,-10,-1,-100,6488.350448341924,-0.02441794932269631,0.02669594443469189,0.9993453308549622,183.71565968015992,19.227986365149878,1.7720237569167923,-0.12037559760436212,-116.5084228515625,4381.2578125,True
1599572116.28384,0.0,10,0.5,0.5,6.892480145645143,-0.2,-0.001,-0.12575,0.3538705771893119,10,1,100,-0.07685597680344733,-10,-1,-100,6488.354683393962,-0.021151187802109787,0.02729053338198254,0.9994037492636731,187.1940407172273,19.59137220114321,7.5380778608091,-0.5024865814750004,-121.38245391845703,4381.2578125,True
1599572116.3576734,0.0,10,0.5,0.5,8.486194958114625,-0.2,-0.001,-0.12575,0.3663634017886377,10,1,100,-0.27960917515853195,-10,-1,-100,6488.268551694811,-0.01636657143785771,0.027932506225004237,0.9994758178342082,190.9574200890574,19.984390825536735,16.46789596375594,-1.0758840601669255,-128.14024353027344,4381.2578125,True
1599572116.4328787,0.0,10,0.5,0.5,8.989330791473389,-0.2,-0.001,-0.12575,0.3315320411663071,10,1,100,-0.14623863450403365,-10,-1,-100,6488.211319296039,-0.013259759741181492,0.028188501279828495,0.9995146758138188,191.98230029738212,20.090997559532585,22.444316908032988,-1.4582962226691278,-132.27664184570312,4381.2578125,True
1599572116.5077164,0.0,10,0.5,0.5,10.31490655593872,-0.2,-0.001,-0.12575,0.3364478304022929,10,1,100,-0.31949408216030384,-10,-1,-100,6488.12429225957,-0.008891005578989886,0.028456425842919623,0.9995554921303974,191.78289103283288,20.068691185580885,31.25024671885871,-2.0321052539074484,-137.9260711669922,4381.2578125,True
1599572117.2418182,0.0,10,0.5,0.5,9.609701049804688,-0.2,-0.001,-0.12575,0.31046472782897605,10,1,100,0.11402289944465868,-10,-1,-100,6488.12429225957,-0.008891005578989886,0.028456425842919623,0.9995554921303974,191.78289103283288,20.068691185580885,31.25024671885871,-2.0321052539074484,-137.9260711669922,4381.2578125,True
1599572117.3116326,0.0,10,0.5,0.5,11.237779972839355,-0.2,-0.001,-0.12575,0.3234456226063063,10,1,100,-0.3403979617573245,-10,-1,-100,6487.974811810534,-0.0047875592324644395,0.028568479569192277,0.9995803725822653,190.11933721067007,19.8922701785726,39.738660228074004,-2.606083450484533,-142.90972900390625,4381.2578125,True
1599572117.380474,0.0,10,0.5,0.5,11.10841854095459,-0.2,-0.001,-0.12575,0.31716737804909617,10,1,100,-0.07343465349357105,-10,-1,-100,6487.883003560826,-0.003512533862040653,0.028608462777577552,0.9995845226709806,189.3365668654997,19.809299857932324,42.48419913958866,-2.7974344494360333,-144.4224395751953,4381.2578125,True
1599572117.4537973,0.0,10,0.5,0.5,12.256801710510256,-0.2,-0.001,-0.12575,0.3070410649668377,10,1,100,-0.35768871263952007,-10,-1,-100,6487.732594644302,0.00020258591188590145,0.028548468430525758,0.9995923888811976,186.59264715541875,19.517904918766025,50.4731420409178,-3.371535306278085,-148.51815795898438,4381.2578125,True
1599572117.5315921,0.0,10,0.5,0.5,12.514600086975099,-0.2,-0.001,-0.12575,0.30990123481551224,10,1,100,-0.23972628872781404,-10,-1,-100,6487.549495243933,0.0024791163058609923,0.0285167189246226,0.9995902414110074,184.6566416001656,19.311458289356402,55.62929866147527,-3.7542995818937985,-150.87754821777344,4381.2578125,True
1599572117.605394,0.0,10,0.5,0.5,12.56981033935547,-0.2,-0.001,-0.12575,0.30778076779035,10,1,100,-0.13609925122807,-10,-1,-100,6487.518740131636,0.0035806406258911596,0.028466603759833488,0.9995883310058641,183.70439558606859,19.20956719067778,58.168599599537,-3.9456903916327906,-151.94650268554688,4381.2578125,True
1599572117.6821923,0.0,10,0.5,0.5,13.062220278167725,-0.2,-0.001,-0.12575,0.3157499124452623,10,1,100,-0.2526186610960007,-10,-1,-100,6487.336634251289,0.005615840470219238,0.02849188159841064,0.9995782485722641,181.84883549459022,19.010289098119543,63.178175912538315,-4.3284925628409825,-153.85989379882812,4381.2578125,True
1599572117.7580283,0.0,10,0.5,0.5,13.579005928802491,-0.2,-0.001,-0.12575,0.30876332874689133,10,1,100,-0.36301694421739983,-10,-1,-100,6487.058854553965,0.008445309240464457,0.028450254919662472,0.9995595328677723,179.3987860607945,18.744812861009915,70.61457421903197,-4.9027608966773855,-156.1750030517578,4381.2578125,True
1599572117.8417673,0.0,10,0.5,0.5,13.672437609100344,-0.2,-0.001,-0.12575,0.3147479076976947,10,1,100,-0.2690310043818859,-10,-1,-100,6486.813291854924,0.0101405796870206,0.02846634706699448,0.9995433135828946,178.06517780629,18.598306365483882,75.57733914046597,-5.285662305762525,-157.346923828125,4381.2578125,True
1599572117.917529,0.0,10,0.5,0.5,13.812388145446779,-0.2,-0.001,-0.12575,0.3216400257448029,10,1,100,-0.2710219113929199,-10,-1,-100,6486.628770626849,0.01167856075723722,0.02854337932337259,0.9995243302268542,177.04285813902234,18.483680988922284,80.60289779559255,-5.668618010051723,-158.22125244140625,4381.2578125,True
1599572117.9943511,0.0,10,0.5,0.5,13.81053741836548,-0.2,-0.001,-0.12575,0.3204688838470433,10,1,100,-0.1975838738581554,-10,-1,-100,6486.4730360799,0.012390407237721536,0.02860268285420901,0.9995140641041651,176.66579196722375,18.44014163426776,83.15646493368546,-5.860118204063939,-158.54685974121094,4381.2578125,True
1599572118.0704024,0.0,10,0.5,0.5,13.911351702117921,-0.2,-0.001,-0.12575,0.3273833202790096,10,1,100,-0.27379506005987153,-10,-1,-100,6486.226998531842,0.01371102262834405,0.028719320707067914,0.9994934759550007,176.21025937925995,18.383780757481126,88.38124945595897,-6.243165474109086,-158.9757080078125,4381.2578125,True
1599572118.1536856,0.0,10,0.5,0.5,13.88693033065796,-0.2,-0.001,-0.12575,0.34632512934798976,10,1,100,-0.3293020568313758,-10,-1,-100,6485.825230608345,0.015399374243322913,0.028997416254714123,0.999460859225345,176.30930221514208,18.379703391780772,96.60172544323622,-6.817854298051762,-159.0613555908203,4381.2578125,True
1599572118.2304788,0.0,10,0.5,0.5,13.775195903778078,-0.2,-0.001,-0.12575,0.34514324755403114,10,1,100,-0.26512562558795816,-10,-1,-100,6485.57773018023,0.016333624601904115,0.029239132414922746,0.9994389855528885,176.91851904406948,18.432786152809378,102.40677808808174,-7.201054092251214,-158.74691772460938,4381.2578125,True
1599572118.3087783,0.0,10,0.5,0.5,13.616460147094726,-0.2,-0.001,-0.12575,0.35403472674122405,10,1,100,-0.257848048885652,-10,-1,-100,6485.267729029991,0.017102118740875135,0.029539078131373797,0.9994173104352964,177.95253733005745,18.529392282902172,108.51291590334492,-7.584305040296755,-158.13510131835938,4381.2578125,True
1599572118.385083,0.0,10,0.5,0.5,13.558157376098634,-0.2,-0.001,-0.12575,0.34272686177211514,10,1,100,-0.21790376580112714,-10,-1,-100,6485.111507284339,0.017424326291503096,0.02970802786551308,0.9994067369863129,178.6236904373151,18.593452639197693,111.68804096683549,-7.775946378646648,-157.71771240234375,4381.2578125,True
1599572118.472849,0.0,10,0.5,0.5,13.058366699218752,-0.2,-0.001,-0.12575,0.38520224102814365,10,1,100,-0.2679527105703535,-10,-1,-100,6484.584730785922,0.018159647484825472,0.030246629776962068,0.999377490536165,181.21307076196348,18.84433831214136,121.73183810458436,-8.350914752704673,-156.02053833007812,4381.2578125,True
1599572118.5426614,0.0,10,0.5,0.5,12.782552291870116,-0.2,-0.001,-0.12575,0.3759108546205207,10,1,100,-0.2269745250330261,-10,-1,-100,6484.274719383218,0.018444188876584104,0.030650205503502257,0.999359983589136,183.3556472512325,19.053886780952414,128.85979806419914,-8.734245055245344,-154.51800537109375,4381.2578125,True
1599572118.6184585,0.0,10,0.5,0.5,12.38526740951538,-0.2,-0.001,-0.12575,0.3824660689958043,10,1,100,-0.21318075119240557,-10,-1,-100,6483.902690426796,0.01856837503450802,0.031074685430510608,0.9993445748959529,185.7608073097357,19.290020570981678,136.31799570622871,-9.117570286582755,-152.71888732910156,4381.2578125,True
1599572118.6982653,0.0,10,0.5,0.5,11.92841811218262,-0.2,-0.001,-0.12575,0.3888532093074111,10,1,100,-0.19497655360659583,-10,-1,-100,6483.528701655916,0.018508117204251957,0.031516269968475064,0.9993318639595297,188.34475469017707,19.544206180331468,144.0668733223788,-9.500873166569205,-150.6233367919922,4381.2578125,True
1599572118.7740643,0.0,10,0.5,0.5,11.813695281219484,-0.2,-0.001,-0.12575,0.3691167524477994,10,1,100,-0.19204507935760484,-10,-1,-100,6483.309478491894,0.018420478904985604,0.0317355854945871,0.9993265425126197,189.67487916975608,19.675155580502302,148.0330006339682,-9.692511100961319,-149.46453857421875,4381.2578125,True
1599572118.8528547,0.0,10,0.5,0.5,11.131277081298828,-0.2,-0.001,-0.12575,0.3950638332485765,10,1,100,-0.16792035454761828,-10,-1,-100,6482.936454000184,0.01811601016040971,0.03216799770502294,0.9993182826805069,192.34316160396594,19.93796927661985,156.09923560918838,-10.075751320622683,-146.92507934570312,4381.2578125,True
1599572118.9296484,0.0,10,0.5,0.5,10.525885697174074,-0.2,-0.001,-0.12575,0.39751459032431,10,1,100,-0.14671172643466418,-10,-1,-100,6482.500432997593,0.01764241014837562,0.03258024416338223,0.999313400817987,194.92557353883015,20.1925473777192,164.26357968962432,-10.458930324304069,-144.0900115966797,4381.2578125,True
1599572119.0174131,0.0,10,0.5,0.5,9.861120301818849,-0.2,-0.001,-0.12575,0.3995348996531315,10,1,100,-0.124501734717059,-10,-1,-100,6482.063914334285,0.017007916543725445,0.032970123003144815,0.9993116139443188,197.29040026938878,20.426069842935302,172.40296572788438,-10.842034729622233,-140.95945739746094,4381.2578125,True
1599572119.097198,0.0,10,0.5,0.5,8.54330338973999,-0.2,-0.001,-0.12575,0.41362974200079744,10,1,100,-0.049763435305448106,-10,-1,-100,6481.409606350819,0.015751052097627165,0.03344930143282756,0.999316290566442,200.097028530672,20.704528244328326,184.2148473650464,-11.416536671202834,-135.7109375,4381.2578125,True
1599572119.1800249,0.0,10,0.5,0.5,7.941326022338868,-0.2,-0.001,-0.12575,0.3922839648766636,10,1,100,-0.06257582133987215,-10,-1,-100,6480.974039944471,0.014726152534799173,0.033687310919318425,0.999323924218042,201.23479355821496,20.818969228347807,191.54307914482294,-11.799434815854065,-131.84375,4381.2578125,True
1599572119.2673733,0.0,10,0.5,0.5,7.069568322753907,-0.2,-0.001,-0.12575,0.38432646796687897,10,1,100,-0.037583338238414615,-10,-1,-100,6480.474986200221,0.013569674152902934,0.03382772476871771,0.9993355537457655,201.5803612649964,20.856286728119976,198.16852561932362,-12.1822594805408,-127.68267822265625,4381.2578125,True
1599572119.3526902,0.0,10,0.5,0.5,6.876382283782959,-0.2,-0.001,-0.12575,0.37386686805521596,10,1,100,-0.08421345867634099,-10,-1,-100,6480.193229474942,0.012946413058189249,0.033857030909891256,0.9993428299872339,201.39448663124438,20.839854070661033,201.13319476492217,-12.37365023346174,-125.49201965332031,4381.2578125,True
1599572119.4335065,0.0,10,0.5,0.5,5.6499537662506105,-0.2,-0.001,-0.12575,0.3698173325660393,10,1,100,0.0009256270732601324,-10,-1,-100,6479.694160914514,0.011610818352378975,0.033843943601596156,0.9993596831865291,200.53592754243928,20.760772636690948,206.54831395896738,-12.756405907746164,-120.89032745361328,4381.2578125,True
1599572119.5074298,0.0,10,0.5,0.5,3.797791969299317,-0.2,-0.001,-0.12575,0.34310801264008967,10,1,100,0.10794190865078111,-10,-1,-100,6478.91380267567,0.009430091111557744,0.033586716541845536,0.9993913176796992,197.40581536562945,20.461004697372577,212.59975440463123,-13.330540048373383,-113.43785858154297,4381.2578125,True
1599572119.628153,0.0,10,0.5,0.5,3.874231367111206,-0.2,-0.001,-0.12575,0.3526580025873577,10,1,100,-0.024027791740835233,-10,-1,-100,6478.63252079091,0.008655589101728313,0.03343780962652616,0.9994033188181247,195.64202507994824,20.28837247470948,213.76860985470182,-13.521942737033797,-110.80703735351562,4381.2578125,True
1599572119.7492423,0.0,10,0.5,0.5,1.4870247509002685,-0.2,-0.001,-0.12575,0.2940911913049947,10,1,100,0.15721052300465727,-10,-1,-100,6477.789152377518,0.006312752494927315,0.03276846666991258,0.9994430332680501,188.340485889909,19.563977543908592,214.66678310689556,-14.096313638809441,-102.47498321533203,4381.2578125,True
1599572119.8579512,0.0,10,0.5,0.5,1.5778488319396975,-0.2,-0.001,-0.12575,0.3290273543383876,10,1,100,0.010931419468766593,-10,-1,-100,6477.506888076081,0.005523441300584943,0.03247702867423572,0.9994572197971716,185.42800147473417,19.272367429167126,214.26537919334902,-14.287840152028547,-99.5510025024414,4381.2578125,True
1599572119.9463093,0.0,10,0.5,0.5,-0.03551107673645004,-0.2,-0.001,-0.12575,0.28216558006531833,10,1,100,0.11421540675707857,-10,-1,-100,6476.9452844349435,0.0038779575747870327,0.0317861627443099,0.9994871691537818,178.07928884275637,18.527508313236464,211.38677971666226,-14.67102298961677,-93.48316955566406,4381.2578125,True
1599572120.031086,0.0,10,0.5,0.5,-1.349396555328369,-0.2,-0.001,-0.12575,0.26143310357853955,10,1,100,0.1210448084928964,-10,-1,-100,6476.319713408011,0.0023319141346168962,0.03097070207655101,0.9995175725265435,169.12248699626673,17.607712916576272,206.09487911636114,-15.054385283321897,-87.1219482421875,4381.2578125,True
1599572120.11885,0.0,10,0.5,0.5,-3.8264452926635744,-0.2,-0.001,-0.12575,0.17833773384579152,10,1,100,0.22525241902134316,-10,-1,-100,6475.412847162923,-8.722599466370602e-06,0.029476215016796384,0.9995654819331247,172.54804742649443,17.963152735927647,218.45462267465444,-15.629510981323623,-77.07708740234375,4381.2578125,True
1599572120.2061353,0.0,10,0.5,0.5,-3.67624919128418,-0.2,-0.001,-0.12575,0.26664542829679266,10,1,100,0.07397819508419697,-10,-1,-100,6475.13155467133,-0.0007479586172641339,0.02892421590830357,0.9995813275026684,178.81816210386322,18.610370213548705,229.22215781761,-15.821105439708539,-73.67733764648438,4381.2578125,True
1599572120.2914257,0.0,10,0.5,0.5,-6.473467306518556,-0.2,-0.001,-0.12575,0.12497328441901295,10,1,100,0.23346653196511535,-10,-1,-100,6474.162679113448,-0.0028568693025702975,0.02713892769156703,0.999627589105833,194.69937374009382,20.23718397142186,258.8219751128094,-16.395402678415234,-63.79449462890625,4381.2578125,True
1599572120.3732092,0.0,10,0.5,0.5,-6.264610401916504,-0.2,-0.001,-0.12575,0.23437173391385585,10,1,100,0.09603836192292546,-10,-1,-100,6473.819378281711,-0.0035103472139553023,0.026516577129230858,0.9996422102931563,199.14015598750484,20.68931665826982,267.8760978061948,-16.586667900599423,-60.639495849609375,4381.2578125,True
1599572120.4679565,0.0,10,0.5,0.5,-8.811778047943116,-0.2,-0.001,-0.12575,0.07501322293371998,10,1,100,0.23580183113314224,-10,-1,-100,6472.787037225324,-0.005361248521156064,0.02450875139680798,0.9996852395225528,209.01364071260775,21.690824735572107,291.07914269825926,-17.16001318239863,-51.62066650390625,4381.2578125,True
1599572120.5467422,0.0,10,0.5,0.5,-9.520997219848635,-0.2,-0.001,-0.12575,0.12391231105436046,10,1,100,0.17379983910277141,-10,-1,-100,6472.099467671011,-0.00646678492776001,0.02313624513674304,0.9997114057835245,212.97524110610686,22.093461560358328,303.338725542995,-17.54194189177892,-45.98089599609375,4381.2578125,True
1599572120.6285236,0.0,10,0.5,0.5,-10.558269613647463,-0.2,-0.001,-0.12575,0.108895039858173,10,1,100,0.17621094170827356,-10,-1,-100,6471.349403460161,-0.007479989526514082,0.021761356584436647,0.9997352115016697,215.5247852807025,22.35776862397963,313.79884819349803,-17.923714166700652,-40.639404296875,4381.2578125,True
1599572121.329281,0.0,10,0.5,0.5,-10.726421326446534,-0.2,-0.001,-0.12575,0.1718109492268711,10,1,100,0.1286017064479964,-10,-1,-100,6471.005624155281,-0.007955734530268498,0.021093427176678524,0.9997458545140491,216.35689536553184,22.447314136017503,318.4410530156531,-18.11456273882691,-38.0802001953125,4381.2578125,True
1599572121.398095,0.0,10,0.5,0.5,-12.00504263458252,-0.2,-0.001,-0.12575,0.08659812544020049,10,1,100,0.17992095759896154,-10,-1,-100,6470.254593914724,-0.008842514838844148,0.019721905318381003,0.9997664009067007,216.96586307733793,22.523355089116926,326.2260287172588,-18.496227351220526,-33.18597412109375,4381.2578125,True
1599572121.4669108,0.0,10,0.5,0.5,-11.39562342529297,-0.2,-0.001,-0.12575,0.22254388552735963,10,1,100,0.09251497398275968,-10,-1,-100,6470.254593914724,-0.008842514838844148,0.019721905318381003,0.9997664009067007,216.96586307733793,22.523355089116926,326.2260287172588,-18.496227351220526,-33.18597412109375,4381.2578125,True
1599572121.539268,0.0,10,0.5,0.5,-13.6106951461792,-0.2,-0.001,-0.12575,0.002342060334449003,10,1,100,0.2242722970820068,-10,-1,-100,6469.1593090593815,-0.010030150113406884,0.01773029672277106,0.9997924948042093,215.69201355415152,22.423822863883036,334.6077511124074,-19.06874963198624,-26.402618408203125,4381.2578125,True
1599572121.6100755,0.0,10,0.5,0.5,-14.114655888366698,-0.2,-0.001,-0.12575,0.056921561390914616,10,1,100,0.18287705355277536,-10,-1,-100,6468.347257909249,-0.010724387760458231,0.01642659884390628,0.9998075586619581,213.7241824444877,22.247390015096162,338.37611076887185,-19.45050720024318,-22.25250244140625,4381.2578125,True
1599572121.6853428,0.0,10,0.5,0.5,-14.237491967773437,-0.2,-0.001,-0.12575,0.1143421551457632,10,1,100,0.1487818910519596,-10,-1,-100,6467.9409902673215,-0.011036487390367318,0.015774785821859098,0.9998146588635098,212.4841943871188,22.13362850012877,339.8097556613002,-19.641417559447003,-20.28912353515625,4381.2578125,True
1599572121.771116,0.0,10,0.5,0.5,-15.768976858520508,-0.2,-0.001,-0.12575,-0.018176950650002827,10,1,100,0.22213627575056605,-10,-1,-100,6466.783718175604,-0.011979636352919458,0.01398784042355443,0.9998303999344773,208.0524121824279,21.719519816213428,342.7248198759223,-20.214290307470584,-14.8431396484375,4381.2578125,True
1599572121.8518984,0.0,10,0.5,0.5,-16.150383909606933,-0.2,-0.001,-0.12575,0.0317908232488017,10,1,100,0.18893147127364737,-10,-1,-100,6465.970218861476,-0.012527483288050357,0.01282898685754448,0.9998392267053121,205.00256089718047,21.432408456619395,344.2915064989048,-20.59632231563591,-11.584014892578125,4381.2578125,True
1599572121.9276946,0.0,10,0.5,0.5,-16.709694375610354,-0.2,-0.001,-0.12575,0.027816235062060296,10,1,100,0.19404110259215096,-10,-1,-100,6465.09373667289,-0.013065462391276757,0.011749968963600753,0.9998456040418723,202.1056646849249,21.158826568095108,345.93934024464517,-20.978431748164436,-8.621185302734375,4381.2578125,True
1599572122.0095093,0.0,10,0.5,0.5,-17.209438349914553,-0.2,-0.001,-0.12575,0.023010590590329755,10,1,100,0.19841486221018856,-10,-1,-100,6464.28122431098,-0.013588296956679721,0.010735707088611761,0.9998500401455834,199.1811136705347,20.878958679451223,347.36677733187935,-21.36060451319441,-5.95477294921875,4381.2578125,True
1599572122.0863457,0.0,10,0.5,0.5,-17.649631369018557,-0.2,-0.001,-0.12575,0.018698750731277303,10,1,100,0.20216315410295504,-10,-1,-100,6463.405240789056,-0.014092123481134687,0.009784475612172041,0.9998528272164797,196.87627614557712,20.660165993253045,349.7196569264542,-21.742817315729237,-3.58477783203125,4381.2578125,True
1599572122.1660993,0.0,10,0.5,0.5,-17.70488137207031,-0.2,-0.001,-0.12575,0.06345302372154196,10,1,100,0.1801379886399055,-10,-1,-100,6462.936000771122,-0.014344340281928873,0.009336857616742435,0.9998535207677777,195.80268834064864,20.557540742502486,350.9862560131461,-21.933931695066804,-2.5108642578125,4381.2578125,True
1599572122.2518725,0.0,10,0.5,0.5,-18.20021755218506,-0.2,-0.001,-0.12575,0.0146108188610269,10,1,100,0.2110153280482276,-10,-1,-100,6462.059047426796,-0.014849329708687348,0.008495353074621419,0.9998536524828722,193.81377763850605,20.365928601530918,353.7129150663885,-22.316165334277915,-0.585113525390625,4381.2578125,True
1599572122.339634,0.0,10,0.5,0.5,-18.49216928100586,-0.2,-0.001,-0.12575,0.012986663043164495,10,1,100,0.21705794797117292,-10,-1,-100,6461.183562652324,-0.015357883173340152,0.007725789849116073,0.9998522128773039,192.10188733579722,20.199638169250097,356.83638596198125,-22.698390704188157,1.044525146484375,4381.2578125,True
1599572122.4324195,0.0,10,0.5,0.5,-18.724363343811035,-0.2,-0.001,-0.12575,0.011073022769566981,10,1,100,0.22097223284110168,-10,-1,-100,6460.24411696766,-0.015850945519060296,0.007017885193327285,0.9998497371173156,190.73372273010997,20.066084758244266,360.5089492139269,-23.080591578030983,2.37799072265625,4381.2578125,True
1599572122.5181568,0.0,10,0.5,0.5,-18.89719023895264,-0.2,-0.001,-0.12575,0.01229743611786685,10,1,100,0.22948190641928512,-10,-1,-100,6459.306627700571,-0.01637188417700882,0.00639401991273164,0.9998455270279757,189.76449831558156,19.971611804434303,364.8697759077774,-23.462753252837626,3.415740966796875,4381.2578125,True
1599572122.6124513,0.0,10,0.5,0.5,-19.09545980377197,-0.2,-0.001,-0.12575,-0.014190899121932679,10,1,100,0.2649720474989625,-10,-1,-100,6457.899423415307,-0.0171632520606076,0.0055945945790184465,0.9998370483684832,189.13723788059616,19.91283513236469,372.94123492685924,-24.035894654417294,4.417724609375,4381.2578125,True
1599572122.7091944,0.0,10,0.5,0.5,-19.068610415649413,-0.2,-0.001,-0.12575,0.017175637557343387,10,1,100,0.24651708816823373,-10,-1,-100,6456.897489908151,-0.017710192673865602,0.005160624832585813,0.99982984403687,189.31440012332197,19.934621661834097,379.4941546632988,-24.417904946433605,4.7161865234375,4381.2578125,True
1599572122.8039744,0.0,10,0.5,0.5,-19.033742724609375,-0.2,-0.001,-0.12575,0.021847912760660768,10,1,100,0.25521496614682526,-10,-1,-100,6455.8945826439885,-0.01828177147719115,0.004815553348608993,0.9998212776679654,189.9856432380822,20.007926875202404,387.07577358259203,-24.799836163878542,4.7193603515625,4381.2578125,True
1599572122.8957298,0.0,10,0.5,0.5,-18.939521450805664,-0.2,-0.001,-0.12575,0.02722029986035877,10,1,100,0.2633675520940888,-10,-1,-100,6454.894608472008,-0.01887076088965685,0.004556995896459132,0.9998115463285293,191.15450017059905,20.133898815120844,395.7424295210864,-25.181678145103508,4.42724609375,4381.2578125,True
1599572123.0026858,0.0,10,0.5,0.5,-18.893648596191404,-0.2,-0.001,-0.12575,0.041758282941994615,10,1,100,0.23805844708061402,-10,-1,-100,6454.423431777628,-0.01917132079729137,0.004459724159966995,0.9998062668933939,191.92391731970991,20.216713653676454,400.49475156315185,-25.372562267142825,4.17047119140625,4381.2578125,True
1599572123.1069171,0.0,10,0.5,0.5,-18.53171385498047,-0.2,-0.001,-0.12575,0.03509347355417797,10,1,100,0.3107349466176182,-10,-1,-100,6452.82826372399,-0.020100635075189922,0.004315546815495997,0.9997886479277794,194.95557969755842,20.5439582783049,416.46623595678204,-25.94505091716377,2.9578857421875,4381.2578125,True
1599572123.2046597,0.0,10,0.5,0.5,-18.073604220581057,-0.2,-0.001,-0.12575,0.05551672414698644,10,1,100,0.3231170119923713,-10,-1,-100,6451.294625894865,-0.02105279747232885,0.004374707244821754,0.9997687940994714,198.99863947452093,20.9838060900254,434.9748458381829,-26.517259137913825,1.081787109375,4381.2578125,True
1599572123.3053882,0.0,10,0.5,0.5,-18.057981634521482,-0.2,-0.001,-0.12575,0.056466375144856334,10,1,100,0.2638427983620314,-10,-1,-100,6450.762418230879,-0.02137390364784875,0.004440868685852896,0.9997616890680336,200.55069212565405,21.153770544612765,441.68945302023815,-26.707924181918806,0.30908203125,4381.2578125,True
1599572123.4051213,0.0,10,0.5,0.5,-17.579843881225585,-0.2,-0.001,-0.12575,0.0755738984217226,10,1,100,0.30289568745592194,-10,-1,-100,6449.636481457856,-0.022015375507834473,0.0046777064994556845,0.999746689068363,203.92350165112478,21.525299896267413,455.882118454912,-27.08913442993633,-1.456787109375,4381.2578125,True
1599572123.501898,0.0,10,0.5,0.5,-17.130315185546877,-0.2,-0.001,-0.12575,0.08727738680225194,10,1,100,0.3092413571932218,-10,-1,-100,6448.571582554956,-0.022650615623625334,0.005001536386821097,0.9997309309237372,207.5968906976678,21.933418929513206,470.99123434775487,-27.470169215695883,-3.51727294921875,4381.2578125,True
1599572123.6015968,0.0,10,0.5,0.5,-16.621692501831056,-0.2,-0.001,-0.12575,0.10253863037699767,10,1,100,0.31474853958155774,-10,-1,-100,6447.445650653914,-0.023272463994741338,0.005435931665583624,0.9997143807440906,211.50393308538003,22.371559084621815,486.89191332357694,-27.851008165376285,-5.8719482421875,4381.2578125,True
1599572123.6883645,0.0,10,0.5,0.5,-16.053955908203125,-0.2,-0.001,-0.12575,0.11966822462832835,10,1,100,0.318871270245589,-10,-1,-100,6446.32313842827,-0.023869706236397868,0.005986704287573869,0.999697152389643,215.65180274887172,22.840738765344994,503.6229395388021,-28.231628892680547,-8.5206298828125,4381.2578125,True
1599572123.7801545,0.0,10,0.5,0.5,-15.427113389587404,-0.2,-0.001,-0.12575,0.13724046304413906,10,1,100,0.32171953847656865,-10,-1,-100,6445.190373851568,-0.024432947518583135,0.006646403311840563,0.9996793767996669,220.37942862274792,23.37680603283639,522.00938053237,-28.61200075850889,-11.463348388671875,4381.2578125,True
1599572123.8649132,0.0,10,0.5,0.5,-14.741228555297852,-0.2,-0.001,-0.12575,0.15626485978715973,10,1,100,0.3227808655425449,-10,-1,-100,6444.0678643963765,-0.024949041497495533,0.007417414349780263,0.9996612062557593,225.08029909206803,23.914923120910583,540.6501382383022,-28.992102661930126,-14.699920654296875,4381.2578125,True
1599572123.9497004,0.0,10,0.5,0.5,-13.996298405456542,-0.2,-0.001,-0.12575,0.1761117154995497,10,1,100,0.321901165346968,-10,-1,-100,6442.875043302076,-0.025404694857812615,0.008296159055789606,0.9996428238246412,230.10504603791057,24.491196462347315,560.3940254217475,-29.371913485845834,-18.23028564453125,4381.2578125,True
1599572124.035438,0.0,10,0.5,0.5,-13.827121066284178,-0.2,-0.001,-0.12575,0.14130540213233012,10,1,100,0.2991926209603046,-10,-1,-100,6442.280830522184,-0.025606817169076184,0.008775109180736266,0.9996335770537802,232.59026267231792,24.777317343214445,570.3246339577174,-29.561705110263546,-20.1055908203125,4381.2578125,True
1599572124.1282332,0.0,10,0.5,0.5,-12.767128096008301,-0.2,-0.001,-0.12575,0.207148960074714,10,1,100,0.31685568324928143,-10,-1,-100,6441.0865442880895,-0.02594613239822114,0.009805042037104682,0.9996152556680118,237.2773823374529,25.319659433618465,589.7283137576323,-29.941061789420022,-24.076446533203125,4381.2578125,True
1599572124.208025,0.0,10,0.5,0.5,-11.144365454101564,-0.2,-0.001,-0.12575,0.29271905779958396,10,1,100,0.3206849409869937,-10,-1,-100,6439.243843979202,-0.026284963736035855,0.011514317945127257,0.9995881757822338,243.24639420311996,26.015306601096004,616.7217057118784,-30.50955955060428,-30.583221435546875,4381.2578125,True
1599572124.288841,0.0,10,0.5,0.5,-10.426933320617678,-0.2,-0.001,-0.12575,0.2579805618465938,10,1,100,0.2974556379517553,-10,-1,-100,6438.051020283136,-0.026377352142739622,0.01274597021715762,0.999570795660398,246.43562442930403,26.387262061255733,633.0165092811386,-30.888243395105448,-35.2879638671875,4381.2578125,True
1599572124.3699236,0.0,10,0.5,0.5,-9.386938500976562,-0.2,-0.001,-0.12575,0.2758725143741052,10,1,100,0.2836685890355859,-10,-1,-100,6436.797158491798,-0.026332039361746138,0.014020973429510144,0.9995549189550019,248.7526496506047,26.656805654298143,647.2558398684258,-31.266727089774996,-40.286376953125,4381.2578125,True
1599572124.4528933,0.0,10,0.5,0.5,-9.161818070983887,-0.2,-0.001,-0.12575,0.22053695305676665,10,1,100,0.2803441782374985,-10,-1,-100,6436.145812000614,-0.02625727725928025,0.014668817213270551,0.9995475882580545,249.47030358431934,26.740241475126822,653.2809715374701,-31.455912751246252,-42.895721435546875,4381.2578125,True
1599572124.5336742,0.0,10,0.5,0.5,-6.792858483886719,-0.2,-0.001,-0.12575,0.37332987138451706,10,1,100,0.2430168977656767,-10,-1,-100,6434.233756598667,-0.025847259331599662,0.016638399105534392,0.9995274297688133,249.5168158462328,26.746569243046824,665.8964839635827,-32.023356943286124,-51.163970947265625,4381.2578125,True
1599572124.6130054,0.0,10,0.5,0.5,-5.913242991638184,-0.2,-0.001,-0.12575,0.321191021593634,10,1,100,0.23479106594128332,-10,-1,-100,6432.923238956253,-0.025397937696127186,0.01794525519602262,0.9995163393245422,247.52082353444612,26.51904388391587,668.857453964676,-32.401666298836226,-57.04296875,4381.2578125,True
1599572124.6887696,0.0,10,0.5,0.5,-4.637142724609375,-0.2,-0.001,-0.12575,0.3291174408257363,10,1,100,0.2146223550335677,-10,-1,-100,6431.669355713762,-0.024805234300920662,0.019195092860499953,0.999508003350325,243.6630600763308,26.0835507636429,666.6222301168659,-32.7800943328212,-63.21588134765625,4381.2578125,True
1599572124.7845476,0.0,10,0.5,0.5,-4.367204550170898,-0.2,-0.001,-0.12575,0.27035470353427227,10,1,100,0.23569458360655685,-10,-1,-100,6431.011650218745,-0.024458109480666065,0.019786395236001748,0.9995050272230732,240.97797917501026,25.78317296687432,663.3400320092185,-32.96938106347001,-66.41259765625,4381.2578125,True
1599572124.8673258,0.0,10,0.5,0.5,-2.6100970275878908,-0.2,-0.001,-0.12575,0.33895237598717926,10,1,100,0.18531287282773945,-10,-1,-100,6429.632267987472,-0.023685386441879133,0.020937112384956887,0.9995001949945176,233.98644050597264,25.00976966621214,652.0176858776905,-33.348147306961415,-73.02587890625,4381.2578125,True
1599572125.6318595,0.0,10,0.5,0.5,-1.186396063232422,-0.2,-0.001,-0.12575,0.3392328997247153,10,1,100,0.16528460973191073,-10,-1,-100,6428.312936074566,-0.022802582588226386,0.021974712733253503,0.999498451338269,224.7365531946269,24.00244398428205,633.8943262583255,-33.7272125008546,-79.93310546875,4381.2578125,True
1599572125.7021627,0.0,10,0.5,0.5,1.5049645374298097,-0.2,-0.001,-0.12575,0.3861835584140684,10,1,100,0.08850719194594972,-10,-1,-100,6426.282655256451,-0.021304914877587875,0.02333374661006623,0.9995006937822485,206.46640737012146,22.051738636288466,592.9666756820873,-34.29638714432299,-90.84441375732422,4381.2578125,True
1599572125.7730162,0.0,10,0.5,0.5,2.628167715835571,-0.2,-0.001,-0.12575,0.3320770022035295,10,1,100,0.12036305138180775,-10,-1,-100,6424.845142390346,-0.020237524816295618,0.024066609233741137,0.9995054981886295,217.91806457539423,23.301363710694833,633.3368180564088,-34.6756442729412,-98.486083984375,4381.2578125,True
1599572125.846785,0.0,10,0.5,0.5,2.95408060836792,-0.2,-0.001,-0.12575,0.2947244196011815,10,1,100,0.16608716302188709,-10,-1,-100,6424.18693115667,-0.019688425618509236,0.024382987559772813,0.9995087972670997,224.28414697626664,24.0019825780059,655.6862843370616,-34.865060411841576,-102.4171142578125,4381.2578125,True
1599572125.9196255,0.0,10,0.5,0.5,6.238124883651734,-0.2,-0.001,-0.12575,0.3438121072216116,10,1,100,0.042033519526322394,-10,-1,-100,6422.083868790069,-0.01806752378305579,0.02510743591259619,0.9995214761305751,239.61550692361865,25.717172197837492,712.80670367804,-35.43244473501526,-113.99703216552734,4381.2578125,True
1599572125.9959786,0.0,10,0.5,0.5,7.19444146232605,-0.2,-0.001,-0.12575,0.3063247477331901,10,1,100,0.08431122293621837,-10,-1,-100,6420.649757375126,-0.016985764648621005,0.025415741493723314,0.9995326527350801,247.31723317611312,26.591115425729164,744.1501614530949,-35.810068860631745,-121.38116455078125,4381.2578125,True
1599572126.0813966,0.0,10,0.5,0.5,8.581962874603272,-0.2,-0.001,-0.12575,0.2952542875545199,10,1,100,0.07974078614450529,-10,-1,-100,6419.20538739569,-0.015968853732558335,0.02558739934549807,0.9995450368568702,252.5593108522573,27.190508970963382,768.5175265227372,-36.187315013987636,-128.46958923339844,4381.2578125,True
1599572126.1572385,0.0,10,0.5,0.5,9.90958638687134,-0.2,-0.001,-0.12575,0.2845274947049936,10,1,100,0.07563140445986255,-10,-1,-100,6417.705350657459,-0.015015603142607855,0.02563898823561627,0.9995584895065008,255.21784665303156,27.496288637960593,785.2901620135674,-36.56433235648702,-135.25961303710938,4381.2578125,True
1599572126.2380152,0.0,10,0.5,0.5,10.132384067535401,-0.2,-0.001,-0.12575,0.2777372090824373,10,1,100,0.12009428922242141,-10,-1,-100,6416.988534588134,-0.014562119405183692,0.025618299270632198,0.9995657294149843,255.66878865551018,27.548235805542802,791.0312871764461,-36.75280042238801,-138.54261779785156,4381.2578125,True
1599572126.3143227,0.0,10,0.5,0.5,12.788981201934815,-0.2,-0.001,-0.12575,0.2566205089912554,10,1,100,0.03077352238694414,-10,-1,-100,6414.757516507525,-0.01334685084545328,0.025402219388877177,0.999588209625658,253.96381574282103,27.3523954106544,798.7708544868328,-37.318226283139296,-147.94314575195312,4381.2578125,True
1599572126.3970985,0.0,10,0.5,0.5,13.534117360687256,-0.2,-0.001,-0.12575,0.24871747664607485,10,1,100,0.0754615805343439,-10,-1,-100,6413.257962358417,-0.012657714988489655,0.025129878195958317,0.9996040573512727,250.6736944383159,26.97708040249879,797.0354061944641,-37.69531187365109,-153.8365020751953,4381.2578125,True
1599572126.470899,0.0,10,0.5,0.5,13.723792345428468,-0.2,-0.001,-0.12575,0.2572597881161963,10,1,100,0.10984515193228411,-10,-1,-100,6412.470831522369,-0.012353028374503758,0.02495708433806709,0.9996121981205118,248.49843653179568,26.73066587728415,794.4054507537326,-37.88392005563031,-156.67111206054688,4381.2578125,True
1599572126.5496569,0.0,10,0.5,0.5,15.147420211791992,-0.2,-0.001,-0.12575,0.23445984065006734,10,1,100,0.08237366786084548,-10,-1,-100,6410.974206493003,-0.01183443785796085,0.024591251001448437,0.9996275388637359,243.27110535706325,26.14387842824411,786.1232495939183,-38.26128948096761,-162.11546325683594,4381.2578125,True
1599572126.6246085,0.0,10,0.5,0.5,16.145344921112063,-0.2,-0.001,-0.12575,0.22078957493902562,10,1,100,0.0881148166583914,-10,-1,-100,6409.408734645345,-0.011422823365588928,0.02413392315099682,0.9996434728740545,237.11846875524694,25.462536583988324,774.5028513860934,-38.63887343497938,-167.26109313964844,4381.2578125,True
1599572126.7113802,0.0,10,0.5,0.5,17.08358718109131,-0.2,-0.001,-0.12575,0.20907148326905878,10,1,100,0.09704468562542977,-10,-1,-100,6407.901856621727,-0.011137323183362911,0.02361186887577636,0.9996591617548967,230.29881888214396,24.718645358061877,760.2924754393515,-39.0166655479816,-172.10781860351562,4381.2578125,True
1599572126.7881715,0.0,10,0.5,0.5,18.66549348602295,-0.2,-0.001,-0.12575,0.16713143428022817,10,1,100,0.10182869985564685,-10,-1,-100,6405.487245424651,-0.010927568783977317,0.02275736051389277,0.9996812946048916,219.3286826525212,23.545720013701715,735.6545769978259,-39.58369234404806,-178.81716918945312,4381.2578125,True
1599572126.8669605,0.0,10,0.5,0.5,-98.10704084854126,-0.2,-0.001,-0.12575,0.1835731094713909,10,1,100,0.12345763609716548,-10,-1,-100,6403.925196744036,-0.010939017110244805,0.022132421214809014,0.9996952004665381,222.24877395096743,23.87889974438678,753.2962238379235,-39.96168021960139,177.0832977294922,4381.2578125,True
1599572126.9427586,0.0,10,0.5,0.5,-52.75187735671997,-0.2,-0.001,-0.12575,0.21004381250855048,10,1,100,0.12739822865010184,-10,-1,-100,6403.1453943449305,-0.0109898208269895,0.021808078223371313,0.9997017713110216,225.6140985157022,24.25495487070273,768.6903441831049,-40.1505477218265,175.1455078125,4381.2578125,True
1599572127.0225444,0.0,10,0.5,0.5,-51.24971260375977,-0.2,-0.001,-0.12575,0.12975641650595898,10,1,100,0.15594567533789438,-10,-1,-100,6400.668783258763,-0.011299188068751536,0.020786818185688248,0.9997200790914936,234.28162722177106,25.245851783655574,810.652932416499,-40.716653452905746,169.69076538085938,4381.2578125,True
1599572127.1003375,0.0,10,0.5,0.5,-50.73842570495606,-0.2,-0.001,-0.12575,0.15317131003911166,10,1,100,0.16444084804037212,-10,-1,-100,6399.036919416743,-0.011660626159772668,0.02007565489362771,0.9997304626138758,240.08549641081623,25.920304764870913,839.2297401640933,-41.093632391758725,165.92086791992188,4381.2578125,True
1599572127.1801238,0.0,10,0.5,0.5,-50.59668120880127,-0.2,-0.001,-0.12575,0.18397579014628035,10,1,100,0.1529824038610485,-10,-1,-100,6398.195110706962,-0.0118865714996941,0.019714025869542615,0.9997349981880187,242.91588775631632,26.25246144190006,853.41927323527,-41.281987930097415,163.93408203125,4381.2578125,True
1599572127.2569206,0.0,10,0.5,0.5,-48.7948356590271,-0.2,-0.001,-0.12575,0.0938000652458736,10,1,100,0.2203643231506186,-10,-1,-100,6395.714611518779,-0.012705240296335855,0.018570416396121937,0.9997468262034578,251.35575367459813,27.25013222083949,896.391378345623,-41.846503787933365,157.53819274902344,4381.2578125,True
1599572127.3451946,0.0,10,0.5,0.5,-48.12231060562134,-0.2,-0.001,-0.12575,0.12217150995991055,10,1,100,0.21594894083210062,-10,-1,-100,6394.024168211268,-0.013409024625003802,0.017794499706723425,0.9997517461043983,256.85712387028684,27.902983312136662,925.0688329761423,-42.2223775417166,152.90817260742188,4381.2578125,True
1599572127.4229739,0.0,10,0.5,0.5,-47.13220537185669,-0.2,-0.001,-0.12575,0.11016217712780171,10,1,100,0.23500002583445093,-10,-1,-100,6392.333731427672,-0.014220588799480537,0.016986124009973538,0.9997545931103863,261.6597150914359,28.475927554322094,951.5785382130985,-42.59790054253645,147.9846649169922,4381.2578125,True
1599572127.5018063,0.0,10,0.5,0.5,-46.08356898651123,-0.2,-0.001,-0.12575,0.0987309139160643,10,1,100,0.2566006052358488,-10,-1,-100,6390.643301162869,-0.015152199893168556,0.01615381443749514,0.9997547024733199,265.53181838194064,28.938829706915875,974.9988326152122,-42.97311984256839,142.7681121826172,4381.2578125,True
1599572127.5795984,0.0,10,0.5,0.5,-44.97645560836792,-0.2,-0.001,-0.12575,0.08802207566645565,10,1,100,0.2800169120783198,-10,-1,-100,6388.886961584678,-0.016208344698080305,0.015306596346098591,0.9997514679511331,268.22767123812724,29.260384758461317,994.3285930334957,-43.348103983167995,137.259033203125,4381.2578125,True
1599572127.6633744,0.0,10,0.5,0.5,-44.76782278060914,-0.2,-0.001,-0.12575,0.12442950532036859,10,1,100,0.23806985485949858,-10,-1,-100,6388.045172487502,-0.016782338749725245,0.01487414813638075,0.9997485247917629,269.0546815085718,29.358382347841204,1002.1275040725433,-43.53553518748169,134.3948516845703,4381.2578125,True
1599572127.7372718,0.0,10,0.5,0.5,-43.18640298461914,-0.2,-0.001,-0.12575,0.06981710874081701,10,1,100,0.3184405999361315,-10,-1,-100,6386.2854300800245,-0.01802948255042687,0.013991135497803543,0.9997395590284731,269.5018753617281,29.40984950404768,1013.2921593249037,-43.91034054612433,128.4475860595703,4381.2578125,True
1599572127.813617,0.0,10,0.5,0.5,-40.84568341064453,-0.2,-0.001,-0.12575,0.009800328019737709,10,1,100,0.4282409019745477,-10,-1,-100,6383.6214254266815,-0.020155034513483553,0.012649895949564968,0.9997168372675462,266.67016226978933,29.075584947805424,1016.823248694176,-44.47262364186617,118.98045349121094,4381.2578125,True
1599572127.8849096,0.0,10,0.5,0.5,-39.85676679077149,-0.2,-0.001,-0.12575,0.04392172037323029,10,1,100,0.3922324896846115,-10,-1,-100,6381.809960340615,-0.021751954507767724,0.011748178947321762,0.99969436967831,262.0859783714498,28.54641683463623,1008.7132939229252,-44.84770335392498,112.30558776855469,4381.2578125,True
1599572127.9722178,0.0,10,0.5,0.5,-39.568135994720464,-0.2,-0.001,-0.12575,0.08338372348768912,10,1,100,0.32802976009544604,-10,-1,-100,6380.902281423332,-0.022610864844171834,0.011294752133546934,0.999680537654525,258.90185031664845,28.18408100788919,1001.1157564571124,-45.03535239185102,108.85928344726562,4381.2578125,True
1599572128.0479512,0.0,10,0.5,0.5,-37.679799291229244,-0.2,-0.001,-0.12575,0.02578616017831173,10,1,100,0.44914396509145776,-10,-1,-100,6379.083521714667,-0.024482981292371607,0.010366585612517291,0.9996464962824487,250.62964122807406,27.257712923098136,978.2075287602603,-45.41092544619205,101.74891662597656,4381.2578125,True
1599572128.1227522,0.0,10,0.5,0.5,-36.15797494888306,-0.2,-0.001,-0.12575,0.020050719281258123,10,1,100,0.48645935936390783,-10,-1,-100,6377.261856086669,-0.026513429155942733,0.009478115522320406,0.9996035231033044,239.6983877344418,26.05872239517301,944.2986081494332,-45.78691516859868,94.34945678710938,4381.2578125,True
1599572128.2015429,0.0,10,0.5,0.5,-34.578134587860106,-0.2,-0.001,-0.12575,0.014733945225970227,10,1,100,0.5256724653746847,-10,-1,-100,6375.449984007631,-0.028703860536986328,0.00862964147998826,0.9995507079074076,238.61584574112504,25.9561807290151,948.8010829161199,-46.16311345905358,86.66114807128906,4381.2578125,True
1599572128.280331,0.0,10,0.5,0.5,-31.605878826904302,-0.2,-0.001,-0.12575,-0.031676737443405475,10,1,100,0.7164982272777621,-10,-1,-100,6372.658264687168,-0.032416774835474386,0.007443982946810152,0.9994467168524562,259.97681701614545,28.350525163958988,1048.080338233767,-46.7261752066136,74.58769226074219,4381.2578125,True
1599572128.357124,0.0,10,0.5,0.5,-31.7594776512146,-0.2,-0.001,-0.12575,0.04777035403586867,10,1,100,0.4933819620134775,-10,-1,-100,6371.68522990332,-0.03374812671811339,0.007096275867814987,0.999405176498414,266.2290907515959,29.062505997697496,1078.1673985629147,-46.91349809386902,70.41940307617188,4381.2578125,True
1599572128.4379423,0.0,10,0.5,0.5,-28.0634601272583,-0.2,-0.001,-0.12575,-0.011597309116996399,10,1,100,0.8409548004908419,-10,-1,-100,6368.795001234161,-0.03810225443210668,0.0062479364223190495,0.9992543127240702,282.29406518411884,30.902644867026527,1158.684051157485,-47.47447032124893,57.484649658203125,4381.2578125,True
1599572128.5107136,0.0,10,0.5,0.5,-26.756991271209717,-0.2,-0.001,-0.12575,0.031761652769366724,10,1,100,0.7537153083443046,-10,-1,-100,6366.883219691459,-0.04124808432014807,0.005878733136029736,0.9991316409946356,289.6038358260373,31.73447772621998,1199.2205152025329,-47.84779612597694,48.50437927246094,4381.2578125,True
1599572128.5920103,0.0,10,0.5,0.5,-26.38077327957153,-0.2,-0.001,-0.12575,0.05387724097791273,10,1,100,0.6207208207718049,-10,-1,-100,6365.896586516523,-0.042877781057008686,0.0057515194979914815,0.9990637696939527,291.80819996641094,31.979704682967864,1213.6599738279986,-48.03435263796068,43.907318115234375,4381.2578125,True
1599572128.6717992,0.0,10,0.5,0.5,-23.887444379425048,-0.2,-0.001,-0.12575,0.06714987985528546,10,1,100,0.847735652617515,-10,-1,-100,6363.939967242652,-0.04640243770134886,0.005762802340888796,0.9989062037471548,292.9632887241115,32.088353838734264,1229.1780125973444,-48.40743784524471,34.50163269042969,4381.2578125,True
1599572128.751584,0.0,10,0.5,0.5,-21.906248628234863,-0.2,-0.001,-0.12575,0.09172443808932183,10,1,100,0.8962986863035033,-10,-1,-100,6361.997080516419,-0.05002574360862747,0.006001905797110716,0.9987298944675714,289.4318855232098,31.65824907814444,1225.065810894865,-48.7807390259696,24.812667846679688,4381.2578125,True
1599572128.8284867,0.0,10,0.5,0.5,-19.868001372528077,-0.2,-0.001,-0.12575,0.12104571553040203,10,1,100,0.9488314418490095,-10,-1,-100,6360.054252368747,-0.0537723059576904,0.006490641321628132,0.9985321280195377,280.84721207452264,30.67153106954318,1199.2814271887207,-49.15452538916451,14.84112548828125,4381.2578125,True
1599572129.5149722,0.0,10,0.5,0.5,-17.773698078918457,-0.2,-0.001,-0.12575,0.17119067954144793,10,1,100,1.0005188381757095,-10,-1,-100,6358.049471170758,-0.05762153049193095,0.007394333238827009,0.9983111153642038,267.0018417452091,29.135267176427575,1150.3531898146698,-49.528978864533165,4.58929443359375,4381.2578125,True
1599572129.5847852,0.0,10,0.5,0.5,-15.622778428649902,-0.2,-0.001,-0.12575,0.21723699503691962,10,1,100,1.0417998573309073,-10,-1,-100,6356.043767682859,-0.06146782742325508,0.008636368561042542,0.9980717004954817,264.86413576563507,28.9261386829816,1151.3637918751667,-49.903817473454325,-5.94366455078125,4381.2578125,True
1599572129.6565962,0.0,10,0.5,0.5,-15.188194987487794,-0.2,-0.001,-0.12575,0.1773871644894327,10,1,100,0.8697561452681682,-10,-1,-100,6355.071939787595,-0.06337064182671914,0.009403214278914915,0.9979457607083135,275.451539611001,30.114273716914965,1202.709495480197,-50.09089116348927,-11.315399169921875,4381.2578125,True
1599572129.7395453,0.0,10,0.5,0.5,-14.082432986450197,-0.2,-0.001,-0.12575,0.19635105571962336,10,1,100,0.8880123272390668,-10,-1,-100,6354.038599023013,-0.06523829851415715,0.01027096464149871,0.9978168527802638,284.9923090001092,31.19896171930575,1249.8612261138226,-50.277695765726506,-16.7572021484375,4381.2578125,True
1599572129.83779,0.0,10,0.5,0.5,-9.302793130493164,-0.2,-0.001,-0.12575,0.4514806080130851,10,1,100,1.2947504172530722,-10,-1,-100,6350.999649112229,-0.0706051598012317,0.013376302093084828,0.997414650961052,306.93982737642176,33.74577908715499,1363.707960807082,-50.836631020838645,-33.503875732421875,4381.2578125,True
1599572129.9210794,0.0,10,0.5,0.5,-9.535502795410157,-0.2,-0.001,-0.12575,0.2730566072710558,10,1,100,0.9475027487371447,-10,-1,-100,6350.027364443638,-0.07229777952536458,0.014570819437171244,0.9972766528384344,312.15500278436014,34.35622877330048,1392.7919743959847,-51.02253444812565,-39.226318359375,4381.2578125,True
1599572130.003858,0.0,10,0.5,0.5,-6.449720974731446,-0.2,-0.001,-0.12575,0.44024539835465826,10,1,100,1.128882610643587,-10,-1,-100,6347.959748164867,-0.07545720556899374,0.017168740499554244,0.9970012259156842,317.47012899189565,34.97928758069866,1428.5182922203655,-51.39403523356346,-50.88128662109375,4381.2578125,True
1599572130.0886307,0.0,10,0.5,0.5,-4.017661097717285,-0.2,-0.001,-0.12575,0.4815386169829915,10,1,100,1.1188283228619142,-10,-1,-100,6345.8911334261065,-0.07820839078835778,0.019895500524704034,0.99673848960957,315.3106528612529,34.72822875224043,1430.8181996520502,-51.76557009741482,-62.817413330078125,4381.2578125,True
1599572130.181387,0.0,10,0.5,0.5,0.49467298736572296,-0.2,-0.001,-0.12575,0.6843267506929054,10,1,100,1.2344642064853364,-10,-1,-100,6342.728081150097,-0.08173178906336802,0.02420505385567232,0.996360391637657,296.98703722225497,32.656535689569324,1365.039997933738,-52.32401741518773,-81.24740600585938,4381.2578125,True
1599572130.263686,0.0,10,0.5,0.5,2.3048268520355224,-0.2,-0.001,-0.12575,0.5622632365244822,10,1,100,1.0897112588760869,-10,-1,-100,6340.659837683663,-0.08359011883924347,0.02699661298405913,0.9961344662844622,274.6820436845943,30.213806711820563,1273.4873481079203,-52.69752988157356,-93.88629913330078,4381.2578125,True
1599572130.3414876,0.0,10,0.5,0.5,4.913985479354858,-0.2,-0.001,-0.12575,0.5722626852951948,10,1,100,1.0750541208498363,-10,-1,-100,6338.530006684829,-0.08511915573263565,0.02960665629717868,0.995930808455218,290.39428077123563,32.03070001207926,1357.9773173089472,-53.070748101024755,-106.74163818359375,4381.2578125,True
1599572130.4262507,0.0,10,0.5,0.5,7.465344116592407,-0.2,-0.001,-0.12575,0.5737107210288384,10,1,100,1.0625392230639341,-10,-1,-100,6336.400596851134,-0.08637041963290151,0.031972393885721984,0.995749926759552,311.29055635720084,34.47019612115539,1468.04501334372,-53.44255893057125,-119.5022964477539,4381.2578125,True
1599572130.5027335,0.0,10,0.5,0.5,9.942582639694212,-0.2,-0.001,-0.12575,0.5649196712903036,10,1,100,1.0532403936565864,-10,-1,-100,6334.270634774468,-0.08740075873652219,0.03402193121829769,0.995592092962001,325.42077682638245,36.1547066749729,1547.4250678502888,-53.8132763509666,-131.99818420410156,4381.2578125,True
1599572130.5805612,0.0,10,0.5,0.5,10.382025962066653,-0.2,-0.001,-0.12575,0.45955190311835814,10,1,100,1.003999422003391,-10,-1,-100,6333.173650779179,-0.08786793989123029,0.03490487752185848,0.9955204039418053,329.7111527517775,36.67043226069407,1574.2526143263644,-53.9983777889907,-138.13397216796875,4381.2578125,True
1599572130.658349,0.0,10,0.5,0.5,15.469198371887208,-0.2,-0.001,-0.12575,0.6007149722264653,10,1,100,1.1071132022642394,-10,-1,-100,6329.884588576038,-0.08920947563299349,0.036968462141641664,0.9953265807081454,329.4761607452141,36.66584418605893,1592.5578756884752,-54.55363411229266,-156.08212280273438,4381.2578125,True
1599572130.7460833,0.0,10,0.5,0.5,15.123296147155761,-0.2,-0.001,-0.12575,0.45057726651202046,10,1,100,1.026199825006638,-10,-1,-100,6328.788059455808,-0.08967656440877114,0.037458112507632736,0.9952662978335018,325.2609696800229,36.18326451767543,1578.6968727524932,-54.7389424148689,-161.91119384765625,4381.2578125,True
1599572130.8278632,0.0,10,0.5,0.5,18.125044012451173,-0.2,-0.001,-0.12575,0.4806608698908197,10,1,100,1.0901320611073588,-10,-1,-100,6326.595481434488,-0.09066659381959065,0.03815592987736783,0.9951500860575487,311.2580646400397,34.60430983000071,1523.4243331207028,-55.11019202078833,-173.338623046875,4381.2578125,True
1599572130.9066875,0.0,10,0.5,0.5,-95.1737494003296,-0.2,-0.001,-0.12575,0.4544932740183292,10,1,100,1.2058988653873624,-10,-1,-100,6323.305431997869,-0.09260521933356242,0.03853334280612453,0.994957011555961,286.5689505211797,31.92870344003399,1420.4915783823785,-55.66870143671039,170.09664916992188,4381.2578125,True
1599572130.9834478,0.0,10,0.5,0.5,-48.53785736541748,-0.2,-0.001,-0.12575,0.40461784607931284,10,1,100,1.192700788262641,-10,-1,-100,6321.049951245543,-0.09423453561918001,0.03840608899438373,0.9948089387539665,308.49849250680325,34.5159220593064,1542.0478989880926,-56.040259928980774,159.43756103515625,4381.2578125,True
1599572131.0702152,0.0,10,0.5,0.5,-46.50128651885987,-0.2,-0.001,-0.12575,0.37927482720208494,10,1,100,1.2496986336799538,-10,-1,-100,6318.7955213629175,-0.09622252834030265,0.03804710259833665,0.9946324160330142,325.0422898003258,36.545645547155175,1638.1198386554845,-56.41055294712899,148.99697875976562,4381.2578125,True
1599572131.1450157,0.0,10,0.5,0.5,-46.12060609664917,-0.2,-0.001,-0.12575,0.3890425392696324,10,1,100,1.1772316516961794,-10,-1,-100,6317.636114858091,-0.09735951969646978,0.037799502811985845,0.9945312069068719,332.014251688724,37.41494201844981,1680.017814186016,-56.59529381973972,143.723388671875,4381.2578125,True
1599572131.2268374,0.0,10,0.5,0.5,-41.52922694778442,-0.2,-0.001,-0.12575,0.3119511413606437,10,1,100,1.5064730351871827,-10,-1,-100,6314.222029850236,-0.10137512408475462,0.036866133164753574,0.9941649623891798,344.5949991902366,39.011945314802695,1764.5796362012272,-57.14845005203677,127.51593017578125,4381.2578125,True
1599572131.3028982,0.0,10,0.5,0.5,-39.95980675354004,-0.2,-0.001,-0.12575,0.33086692831619413,10,1,100,1.4605345050377445,-10,-1,-100,6311.9664876398165,-0.10459440988688062,0.03618512814933921,0.9938564513657046,343.9514542778344,38.96701783773934,1775.2946909722261,-57.5170280248219,116.36563110351562,4381.2578125,True
1599572131.3919187,0.0,10,0.5,0.5,-39.53662509918214,-0.2,-0.001,-0.12575,0.36293057032792597,10,1,100,1.3355590860489939,-10,-1,-100,6310.806305406033,-0.10636926257877893,0.035855553792768224,0.9936800084738853,340.6329647004139,38.58337939687461,1765.2093998208456,-57.701479413834065,110.6859130859375,4381.2578125,True
1599572131.4687011,0.0,10,0.5,0.5,-34.58932737350464,-0.2,-0.001,-0.12575,0.299338999845016,10,1,100,1.8168919680297413,-10,-1,-100,6307.329927470419,-0.11234169911425006,0.03497697130397641,0.9930538525772529,318.0318795501952,35.996711304804,1668.3733891507045,-58.256214316693885,93.22956848144531,4381.2578125,True
1599572131.5477865,0.0,10,0.5,0.5,-32.90576207122803,-0.2,-0.001,-0.12575,0.34871458746885187,10,1,100,1.71789576184574,-10,-1,-100,6304.9499246389605,-0.11685019206893174,0.03462893937514387,0.9925456509255411,295.9090679664077,33.55207410405667,1565.2625557219937,-58.627443425359004,81.24604797363281,4381.2578125,True
1599572131.6247704,0.0,10,0.5,0.5,-32.451459440612794,-0.2,-0.001,-0.12575,0.37512494128480034,10,1,100,1.5335360229174881,-10,-1,-100,6303.7910089629,-0.11924812110323993,0.03455521281374336,0.9922629807065988,310.8584619650551,35.31820819396142,1651.1619972943756,-58.81274233027073,75.15074157714844,4381.2578125,True
