Timestamp,Input Throttle,horizon,dT,dt,Input Roll,Roll P,Roll I,Roll D,Input Pitch,Pitch P,Pitch I,Pitch D,Input Yaw,Yaw P,Yaw I,Yaw D,Altitude,Direction X,Direction Y,Direction Z,Drag X,Drag Y,Drag Z,Vertical Velocity,Roll,Mass,Has Fuel
1599569465.9492507,0.0,10,0.5,0.5,-5.432579040527345,-0.1005,-0.03,-0.001,-0.0671964877281074,10,1,100,0.6904110054742059,-10,-1,-100,6483.617967248429,-0.06725885273680977,-0.007002396471856689,0.9977109867953641,205.07304564973074,21.498758758811306,-156.7651185880396,9.590825023110556,-35.94451904296875,4381.2578125,True
1599569466.007097,0.0,10,0.5,0.5,-5.59507991027832,-0.1005,-0.03,-0.001,-0.0673322477009554,10,1,100,0.6999174017889915,-10,-1,-100,6483.997882990283,-0.06744615263814807,-0.006971560502176715,0.9976985586029862,204.612086446001,21.456735258175403,-150.26668899267423,9.210802741051493,-35.941192626953125,4381.2578125,True
1599569466.0679333,0.0,10,0.5,0.5,-5.753260284423829,-0.1005,-0.03,-0.001,-0.05197940825397131,10,1,100,0.7005499517430678,-10,-1,-100,6484.316760300775,-0.06756086104563981,-0.006797618752493086,0.9976919977799097,204.1493120936667,21.414339584222606,-143.7892572088342,8.8307989978077,-35.98052978515625,4381.2578125,True
1599569466.1297684,0.0,10,0.5,0.5,-5.904866683959962,-0.1005,-0.03,-0.001,-0.05282461961214552,10,1,100,0.6980568401951668,-10,-1,-100,6484.538936058059,-0.06758105780106444,-0.006640993975352741,0.9976916847531148,203.9423114372813,21.395594883902476,-140.57577239500088,8.640801993445049,-36.083892822265625,4381.2578125,True
1599569466.1975875,0.0,10,0.5,0.5,-6.024406051635742,-0.1005,-0.03,-0.001,-0.027076257251047425,10,1,100,0.7033015302815715,-10,-1,-100,6484.856803696253,-0.0675856601633259,-0.006258494525601214,0.9976938457194974,203.5920995113262,21.36441811935072,-134.20552137408012,8.26081213496796,-36.500762939453125,4381.2578125,True
1599569466.2624142,0.0,10,0.5,0.5,-6.113535278320313,-0.1005,-0.03,-0.001,-0.0021536927250892235,10,1,100,0.6970599955738894,-10,-1,-100,6485.175622921088,-0.06747166139516346,-0.0056785094442042055,0.9977050312788186,203.31800584393943,21.340480332157025,-127.89893069151202,7.880821381579297,-37.2080078125,4381.2578125,True
1599569466.3322282,0.0,10,0.5,0.5,-6.109115158081055,-0.1005,-0.03,-0.001,0.07987930185347744,10,1,100,0.6686338125776314,-10,-1,-100,6485.590081364964,-0.06704826843196329,-0.004400333501816133,0.997740029649682,202.97265737081162,21.309526588536574,-118.49860253275332,7.310816565900819,-38.818878173828125,4381.2578125,True
1599569466.4030385,0.0,10,0.5,0.5,-6.117988342285156,-0.1005,-0.03,-0.001,0.0741317530997302,10,1,100,0.6658978398615085,-10,-1,-100,6485.909323150059,-0.0665775402876057,-0.0032866055124048457,0.9977758412356245,202.7096868581053,21.283869237747023,-112.22448637409555,6.9307889201562265,-40.26007080078125,4381.2578125,True
1599569466.4738674,0.0,10,0.5,0.5,-6.184322052001954,-0.1005,-0.03,-0.001,0.0320398913525672,10,1,100,0.6871970013512557,-10,-1,-100,6486.0054582909215,-0.06628270931510775,-0.0026537909874484256,0.9977973540951308,202.54271019719852,21.266779358855754,-109.07235176066568,6.740764630376567,-41.09088134765625,4381.2578125,True
1599569466.5476696,0.0,10,0.5,0.5,-6.034086380004883,-0.1005,-0.03,-0.001,0.20385087110442696,10,1,100,0.5955051619917026,-10,-1,-100,6486.420286290115,-0.06512086197382723,-0.0005141745206643655,0.9978772514494696,201.76908209009008,21.18455781333458,-99.50410686970196,6.170634118384946,-44.024810791015625,4381.2578125,True
1599569466.6234665,0.0,10,0.5,0.5,-6.0607552795410164,-0.1005,-0.03,-0.001,0.0779468105795291,10,1,100,0.6656484204314541,-10,-1,-100,6486.5178601908265,-0.06464310232032101,0.0002868164212044945,0.9979084061469494,201.3778351340598,21.142357007205707,-96.26398793957782,5.980566044010524,-45.14984130859375,4381.2578125,True
1599569466.6992648,0.0,10,0.5,0.5,-5.783506561279297,-0.1005,-0.03,-0.001,0.18961275209481887,10,1,100,0.5924605465544834,-10,-1,-100,6486.772071706015,-0.06354580900953971,0.0020235083704124002,0.9979768712606509,200.30838668061202,21.02667267518497,-89.68692796941443,5.600380653711456,-47.620361328125,4381.2578125,True
1599569466.7740772,0.0,10,0.5,0.5,-5.470200759887695,-0.1005,-0.03,-0.001,0.21430964625869833,10,1,100,0.556534313740984,-10,-1,-100,6486.965226032538,-0.0622252132865509,0.0038186591176615926,0.9980548284908932,198.74918521769806,20.858130973834005,-82.96498700798524,5.220113606238801,-50.386260986328125,4381.2578125,True
1599569466.8481798,0.0,10,0.5,0.5,-5.119199981689453,-0.1005,-0.03,-0.001,0.25421468026374167,10,1,100,0.5208611398979524,-10,-1,-100,6487.157871946343,-0.06070522072867814,0.00580373621714293,0.9981388644984246,196.55692235398232,20.62183894153727,-76.08721955888448,4.8397446164895594,-53.44586181640625,4381.2578125,True
1599569466.925973,0.0,10,0.5,0.5,-4.729618377685548,-0.1005,-0.03,-0.001,0.277712643473659,10,1,100,0.4796476656771306,-10,-1,-100,6487.35196556116,-0.05895499212594306,0.007810656218404761,0.9982300849768394,193.5843230469143,20.302712999952114,-69.05865982115442,4.459246905325079,-56.80108642578125,4381.2578125,True
1599569467.0037727,0.0,10,0.5,0.5,-4.105062805175781,-0.1005,-0.03,-0.001,0.4200052022902736,10,1,100,0.3196129358069223,-10,-1,-100,6487.5786278623855,-0.05591686009557962,0.010915907526299281,0.9983757547736867,187.29332180417376,19.6313706124096,-58.273728264703074,3.8881871961592354,-62.38739013671875,4381.2578125,True
1599569467.0845253,0.0,10,0.5,0.5,-3.619589141845703,-0.1005,-0.03,-0.001,0.3389390288082632,10,1,100,0.36894154039828175,-10,-1,-100,6487.770739054889,-0.053613868110897564,0.012986812213666474,0.9984772886023568,181.66100208676357,19.033702485691787,-50.99165111292237,3.507225928879326,-66.481201171875,4381.2578125,True
1599569467.1658154,0.0,10,0.5,0.5,-3.3216693420410155,-0.1005,-0.03,-0.001,0.24636305491703184,10,1,100,0.4622523841856057,-10,-1,-100,6487.8052696324885,-0.05238073252318143,0.014012046579793198,0.9985288786064129,178.3800042513058,18.68668482124274,-47.35356936148369,3.316653374460327,-68.63909912109375,4381.2578125,True
1599569467.2585683,0.0,10,0.5,0.5,-2.5363707427978515,-0.1005,-0.03,-0.001,0.4634631221571437,10,1,100,0.14941376931738592,-10,-1,-100,6487.969405323383,-0.048428618951696055,0.016901988749280148,0.9986836294056044,166.39434426946565,17.424487052002835,-36.558750629861684,2.7444618615967684,-75.55850219726562,4381.2578125,True
1599569467.3373578,0.0,10,0.5,0.5,-2.1907340240478512,-0.1005,-0.03,-0.001,0.27841658323830504,10,1,100,0.38700732832026563,-10,-1,-100,6488.003935695975,-0.04701196086888409,0.017829189658881816,0.9987351979035134,161.6824996133491,16.929672041542553,-33.05477833271456,2.553576827215721,-78.01321411132812,4381.2578125,True
1599569467.4111602,0.0,10,0.5,0.5,-1.570345275878906,-0.1005,-0.03,-0.001,0.3851845689381572,10,1,100,0.19749698952901268,-10,-1,-100,6488.133545373334,-0.04401773126013904,0.019626041842900583,0.9988379537323814,151.16027408719702,15.826128760188293,-26.28429016412213,2.1716345523787863,-83.14501953125,4381.2578125,True
1599569467.4791496,0.0,10,0.5,0.5,-0.6234389610290527,-0.1005,-0.03,-0.001,0.46389610945863824,10,1,100,-0.017082085270650416,-10,-1,-100,6488.23471559328,-0.039363735818610406,0.021957522173629566,0.9989836652930802,152.04687130503913,15.918543654430954,-19.46410058008075,1.5985070555551606,-91.40169525146484,4381.2578125,True
1599569467.5489628,0.0,10,0.5,0.5,-0.20592713928222656,-0.1005,-0.03,-0.001,0.31255485655598986,10,1,100,0.2641138270873872,-10,-1,-100,6488.269258028129,-0.0377111410506492,0.022683098344447095,0.9990312041623897,155.9676938087607,16.328752011782598,-17.580791030062574,1.407462782135414,-94.30242919921875,4381.2578125,True
1599569467.6177797,0.0,10,0.5,0.5,0.5345233345031739,-0.1005,-0.03,-0.001,0.38174148413952147,10,1,100,0.06595541659333382,-10,-1,-100,6488.273413201794,-0.03442962759549843,0.023954532896652603,0.9991200033516187,164.7766919171928,17.24934166318295,-13.533949180480555,1.0254414916241474,-100.32807159423828,4381.2578125,True
1599569467.6885898,0.0,10,0.5,0.5,1.305229934692383,-0.1005,-0.03,-0.001,0.3770472423344633,10,1,100,0.03156439949577022,-10,-1,-100,6488.34106452635,-0.03115767483823187,0.025051206839812074,0.9992004985660006,172.75726510756098,18.082730450196053,-8.905732132321619,0.6435195479159073,-106.59492492675781,4381.2578125,True
1599569467.757407,0.0,10,0.5,0.5,2.0978239479064946,-0.1005,-0.03,-0.001,0.3717230610765612,10,1,100,-0.022328026244295363,-10,-1,-100,6488.345257224399,-0.02771851147697777,0.025984108276138475,0.999277994473307,180.15171690147622,18.855847533950854,-3.7761615121966017,0.2616280372885571,-112.99373626708984,4381.2578125,True
1599569467.8264668,0.0,10,0.5,0.5,3.204503505706787,-0.1005,-0.03,-0.001,0.39622702994820425,10,1,100,-0.22866898895623383,-10,-1,-100,6488.322043284541,-0.02274180725901879,0.027041265480041196,0.999375595141202,187.90311663672927,19.66606132035614,4.688521364635224,-0.3113765768806753,-122.46427154541016,4381.2578125,True
1599569467.8922935,0.0,10,0.5,0.5,3.9734961013793946,-0.1005,-0.03,-0.001,0.3479867084813498,10,1,100,-0.09444853004642167,-10,-1,-100,6488.327753921389,-0.01946578219719244,0.027550992330921016,0.9994308511072856,190.81314928069835,19.969905394226284,10.606314776671367,-0.6935528128591018,-128.47918701171875,4381.2578125,True
1599569467.9611068,0.0,10,0.5,0.5,4.728081825256348,-0.1005,-0.03,-0.001,0.3419921335492088,10,1,100,-0.11744866992922953,-10,-1,-100,6488.268547169166,-0.01630840809689386,0.027947576108927636,0.9994763473014161,192.04251566018308,20.097748387868275,16.561096649737184,-1.0758529604601432,-134.20411682128906,4381.2578125,True
1599569468.0279274,0.0,10,0.5,0.5,5.177612335205079,-0.1005,-0.03,-0.001,0.32166199211441593,10,1,100,0.02714826607293286,-10,-1,-100,6488.241639657877,-0.014781785797419176,0.02811324590556313,0.9994954448186808,191.97469915871528,20.09015559509735,19.498742482003177,-1.2670458568813663,-136.95602416992188,4381.2578125,True
1599569468.1007342,0.0,10,0.5,0.5,6.1447009735107425,-0.1005,-0.03,-0.001,0.34133875742195496,10,1,100,-0.314123147983847,-10,-1,-100,6488.1541138523025,-0.010320780101990978,0.02843338535416695,0.9995424073521781,189.4987798553013,19.829235430664077,27.968403076183407,-1.8407517210231035,-144.76895141601562,4381.2578125,True
1599569468.167556,0.0,10,0.5,0.5,6.8129079589843755,-0.1005,-0.03,-0.001,0.32251915938319653,10,1,100,-0.1806152914603775,-10,-1,-100,6488.033451723866,-0.007509661757413382,0.028545327285716925,0.9995642897134933,186.28439086284843,19.491258219944058,33.21244879314945,-2.223279094203532,-149.60784912109375,4381.2578125,True
1599569468.2293894,0.0,10,0.5,0.5,7.443712120056153,-0.1005,-0.03,-0.001,0.32271587017841374,10,1,100,-0.19470374290480935,-10,-1,-100,6487.974818958202,-0.00485498104381273,0.02864289204425334,0.9995779178705406,182.1568161605642,19.05746487904416,38.06989283292979,-2.6058021067458297,-154.14996337890625,4381.2578125,True
1599569468.2927277,0.0,10,0.5,0.5,8.04962142944336,-0.1005,-0.03,-0.001,0.3227387819315919,10,1,100,-0.20974624455995458,-10,-1,-100,6487.853706590249,-0.002334754161862486,0.02872637757367915,0.9995845857927673,177.36602775604422,18.55451152593801,42.515647815538976,-2.9882694173133575,-158.39537048339844,4381.2578125,True
1599569468.3575547,0.0,10,0.5,0.5,8.423759628295898,-0.1005,-0.03,-0.001,0.31758348383631246,10,1,100,-0.09446594993976296,-10,-1,-100,6487.761418701499,-0.001120818650667312,0.028751069122584596,0.9995859741862432,174.8420062186563,18.289563119460322,44.59555017211587,-3.1794761208202424,-160.40701293945312,4381.2578125,True
1599569468.4203868,0.0,10,0.5,0.5,8.968906242370606,-0.1005,-0.03,-0.001,0.32399049220630183,10,1,100,-0.23021832077021476,-10,-1,-100,6487.640819807304,0.001189565315980077,0.02882839800469602,0.9995836675350603,169.48454691886585,17.72699362198541,48.43484520076888,-3.5618472186295733,-164.2072296142578,4381.2578125,True
1599569468.482929,0.0,10,0.5,0.5,9.474296966552734,-0.1005,-0.03,-0.001,0.3281681616352606,10,1,100,-0.24066367688324575,-10,-1,-100,6487.518770378432,0.003358592089602569,0.02893409008348916,0.9995756791210039,163.82613846276791,17.13260376489996,51.850884887337486,-3.944199831286898,-167.71018981933594,4381.2578125,True
1599569468.5457609,0.0,10,0.5,0.5,9.931997421264649,-0.1005,-0.03,-0.001,0.32726975284949855,10,1,100,-0.2511096917586274,-10,-1,-100,6487.336674037157,0.005401670746900466,0.029020285689245588,0.9995642275370086,158.01712674191006,16.522649369629477,54.868817763085055,-4.3265914262026435,-170.916748046875,4381.2578125,True
1599569468.610613,0.0,10,0.5,0.5,10.48757921600342,-0.1005,-0.03,-0.001,0.3500572971184026,10,1,100,-0.35702084556068925,-10,-1,-100,6487.058911274653,0.00819923687633176,0.029304469102961174,0.9995369030732378,149.38397182394266,15.618219468412162,58.76290250189639,-4.9003739246699745,-175.16773986816406,4381.2578125,True
1599569468.6744168,0.0,10,0.5,0.5,10.734951065063477,-0.1005,-0.03,-0.001,0.3345495815383498,10,1,100,-0.17521236624964148,-10,-1,-100,6486.905131762847,0.009067394777556841,0.029420604889253014,0.9995259928385547,150.11330767396836,15.694778402092503,61.35999930238239,-5.0917014683724915,-176.43603515625,4381.2578125,True
1599569468.7372491,0.0,10,0.5,0.5,11.086909698486329,-0.1005,-0.03,-0.001,0.35488376312229897,10,1,100,-0.2710047174949146,-10,-1,-100,6486.721114841872,0.010705787716741239,0.02970985056484178,0.9995012310591612,153.87368540070796,16.09002020528152,67.636236444132,-5.4744555028372845,-178.74920654296875,4381.2578125,True
1599569468.7982388,0.0,10,0.5,0.5,-25.058063262939456,-0.1005,-0.03,-0.001,0.3945034189682696,10,1,100,-0.35179896909058805,-10,-1,-100,6486.380901121884,0.01291061397794342,0.030331819445603415,0.9994565006921672,158.72844010602196,16.604306950893037,77.11123369132909,-6.048822961843609,178.3404541015625,4381.2578125,True
1599569468.8620384,0.0,10,0.5,0.5,-25.601454574584967,-0.1005,-0.03,-0.001,0.3581358715528213,10,1,100,-0.20731415184597868,-10,-1,-100,6486.227136209025,0.013582939262507721,0.030565007549646382,0.9994404855090079,160.1563429786275,16.756700469255303,80.27603116593619,-6.240328756264447,177.51913452148438,4381.2578125,True
1599569469.4078968,0.0,10,0.5,0.5,-26.453346969604496,-0.1005,-0.03,-0.001,0.4001833996487512,10,1,100,-0.2784336412219144,-10,-1,-100,6485.980160194333,0.014823923133432573,0.031157499612825358,0.9994045534821275,162.63618485401932,17.023326752920198,86.54090565114585,-6.623403101852528,176.10104370117188,4381.2578125,True
1599569469.45876,0.0,10,0.5,0.5,-27.388640319824216,-0.1005,-0.03,-0.001,0.37935052493300314,10,1,100,-0.2183681804169394,-10,-1,-100,6485.823960414156,0.015390441847596035,0.03150452888008204,0.9993851104353014,163.6953999198991,17.138277477056043,89.63342701267109,-6.8149696675767775,175.41519165039062,4381.2578125,True
1599569469.516606,0.0,10,0.5,0.5,-28.32210504150391,-0.1005,-0.03,-0.001,0.3859054987515974,10,1,100,-0.22225765024113073,-10,-1,-100,6485.73270481755,0.015925807440238863,0.03187709755797761,0.999364907983393,164.76346587927787,17.254519030648652,92.76475117531467,-7.006554448326323,174.67935180664062,4381.2578125,True
1599569469.5754497,0.0,10,0.5,0.5,-29.16994160461426,-0.1005,-0.03,-0.001,0.43546489628969354,10,1,100,-0.27749864424031206,-10,-1,-100,6485.423734018928,0.01690129770433921,0.03266356478863511,0.9993234900027157,167.05605205520354,17.504554422009342,99.22273660467651,-7.389772799556582,173.00881958007812,4381.2578125,True
1599569469.6386278,0.0,10,0.5,0.5,-29.884604278564453,-0.1005,-0.03,-0.001,0.5114087843025755,10,1,100,-0.3148213612675818,-10,-1,-100,6484.957606086507,0.01811509291230131,0.0340655435487089,0.9992554138715034,171.34535826345777,17.97196363131316,109.72896909955249,-7.9646957981453665,169.96286010742188,4381.2578125,True
1599569469.6994605,0.0,10,0.5,0.5,-30.79234115600586,-0.1005,-0.03,-0.001,0.42945545816818376,10,1,100,-0.23207730470817672,-10,-1,-100,6484.802885248559,0.01845476674884917,0.034590452858591095,0.9992311655244162,172.9762513005939,18.149778937552696,113.45387429054708,-8.156353611905097,168.80081176757812,4381.2578125,True
1599569469.7592702,0.0,10,0.5,0.5,-31.42686927032471,-0.1005,-0.03,-0.001,0.575734507190546,10,1,100,-0.2865526136452169,-10,-1,-100,6484.274283239967,0.019249468017981667,0.036392647237091263,0.9991521571853316,178.25725383633872,18.72674741038973,125.21181517099623,-8.731344196868593,164.8743133544922,4381.2578125,True
1599569469.823098,0.0,10,0.5,0.5,-32.30697443389893,-0.1005,-0.03,-0.001,0.4703987910673038,10,1,100,-0.2294102765644296,-10,-1,-100,6484.120061148191,0.019443191495330938,0.03706707012338209,0.999123613281632,180.21013757358446,18.94016968382586,129.38094586160628,-8.92300425377743,163.4186248779297,4381.2578125,True
1599569469.8889215,0.0,10,0.5,0.5,-33.017007354736336,-0.1005,-0.03,-0.001,0.5595947420561458,10,1,100,-0.24545950517824314,-10,-1,-100,6483.746685128543,0.019757262731429862,0.03848436573849182,0.9990638639061405,184.10962907156522,19.367483812222407,137.89989211418555,-9.30630399021829,160.28634643554688,4381.2578125,True
1599569469.953749,0.0,10,0.5,0.5,-32.61835963439942,-0.1005,-0.03,-0.001,0.59799946239293,10,1,100,-0.2290389109401832,-10,-1,-100,6483.311800948461,0.019887279681397897,0.040114538713205174,0.9989971570984078,187.89545672785877,19.783942257766064,146.5770523681697,-9.689562417589979,156.86154174804688,4381.2578125,True
1599569470.0195732,0.0,10,0.5,0.5,-31.982490142822265,-0.1005,-0.03,-0.001,0.7336564755878181,10,1,100,-0.21668701989376762,-10,-1,-100,6482.720300035668,0.01988745577147516,0.04282107832729488,0.9988848003417737,193.03042309498164,20.351687792535564,159.5929656627494,-10.26433971264447,151.17364501953125,4381.2578125,True
1599569470.087392,0.0,10,0.5,0.5,-31.491375396728518,-0.1005,-0.03,-0.001,0.6895057038838319,10,1,100,-0.1978595889526058,-10,-1,-100,6482.283515052637,0.01971185417877298,0.044869594980327034,0.9987983591552082,195.94116992994338,20.674757942810302,168.10200805529576,-10.64743020129838,147.01580810546875,4381.2578125,True
1599569470.156207,0.0,10,0.5,0.5,-31.188186126708985,-0.1005,-0.03,-0.001,0.6065395086020519,10,1,100,-0.20139164149833144,-10,-1,-100,6482.066842251457,0.019580397379158343,0.0459654946477035,0.9987511108080261,197.329144876606,20.828307672443042,172.36713891275292,-10.838944325797673,144.8271484375,4381.2578125,True
1599569470.2190394,0.0,10,0.5,0.5,-30.389921691894536,-0.1005,-0.03,-0.001,0.8990398637350642,10,1,100,-0.14610979636796914,-10,-1,-100,6481.412481677486,0.018955006614742725,0.0496080535764461,0.9985888787406916,200.19573002344413,21.146543044189826,184.23420284867424,-11.413368870883911,137.8232421875,4381.2578125,True
1599569470.2818708,0.0,10,0.5,0.5,-30.03957960510254,-0.1005,-0.03,-0.001,0.682050970497141,10,1,100,-0.1801845093558539,-10,-1,-100,6481.194382424117,0.018694372666154386,0.05093144040151479,0.9985271697902095,200.63124913415518,21.19536132112365,187.76490462605386,-11.604809946593102,135.34255981445312,4381.2578125,True
1599569470.345701,0.0,10,0.5,0.5,-29.13845323181153,-0.1005,-0.03,-0.001,1.0294466795171227,10,1,100,-0.10213363386081199,-10,-1,-100,6480.477657165262,0.01774735268134292,0.055277329509165425,0.9983133016819615,200.01398527951088,21.13020592372626,196.55525703671378,-12.179079327413042,127.46328735351562,4381.2578125,True
1599569470.409799,0.0,10,0.5,0.5,-28.740998779296874,-0.1005,-0.03,-0.001,0.7732992097285724,10,1,100,-0.15478235786579286,-10,-1,-100,6480.196624401957,0.017365693289802784,0.056880718175633206,0.9982299417450814,199.07963934435276,21.028742516182067,198.74797682779342,-12.37050184015821,124.691650390625,4381.2578125,True
1599569470.4726784,0.0,10,0.5,0.5,-28.038302658081058,-0.1005,-0.03,-0.001,0.9814140524721655,10,1,100,-0.11132656457113582,-10,-1,-100,6479.6985730283195,0.016625390062749577,0.06021167183287427,0.9980471687151624,195.9876398743403,20.693226632911706,201.79157167903548,-12.753385375789497,118.92889404296875,4381.2578125,True
1599569470.536548,0.0,10,0.5,0.5,-27.296390815734867,-0.1005,-0.03,-0.001,1.0623972740691427,10,1,100,-0.08646622552954912,-10,-1,-100,6479.200115731917,0.015728945684534583,0.06395498207969368,0.9978288232632084,191.123237208474,20.167812840442178,202.76966207748276,-13.136367646150518,112.87760925292969,4381.2578125,True
1599569470.600342,0.0,10,0.5,0.5,-26.183543228149414,-0.1005,-0.03,-0.001,1.3621756849308477,10,1,100,-0.032467717216494774,-10,-1,-100,6478.358370589791,0.014426762826081272,0.07006009456978027,0.9974384450497352,180.22594743634943,19.000835261859674,199.69379847271898,-13.71112530588266,103.25521850585938,4381.2578125,True
1599569470.6661646,0.0,10,0.5,0.5,-25.692136726379395,-0.1005,-0.03,-0.001,0.9999644534989633,10,1,100,-0.11345737698414528,-10,-1,-100,6478.077032484231,0.013984193967970827,0.07229014422424497,0.997285604712664,175.90389411225735,18.541260521089676,197.6705911857064,-13.902798224505169,99.90339660644531,4381.2578125,True
1599569470.7350216,0.0,10,0.5,0.5,-24.47698251342774,-0.1005,-0.03,-0.001,1.5726213238209066,10,1,100,-0.01872699800896155,-10,-1,-100,6477.236147320946,0.012726039980644666,0.07949664358041514,0.9967538971912071,160.7302188245065,16.942840255713445,188.2135523859351,-14.478024617460601,89.41378784179688,4381.2578125,True
1599569470.7985344,0.0,10,0.5,0.5,-23.568188201904295,-0.1005,-0.03,-0.001,1.4342023253250793,10,1,100,-0.0651529776213004,-10,-1,-100,6476.6742815217,0.012010668728822262,0.08475817296460769,0.9963291604446736,169.64802652217696,17.89770833217978,204.00778297688316,-14.861413831979927,82.059326171875,4381.2578125,True
1599569470.8613985,0.0,10,0.5,0.5,-22.611404457092288,-0.1005,-0.03,-0.001,1.5303797164115227,10,1,100,-0.07265988004294988,-10,-1,-100,6476.049596332712,0.011435457366135377,0.09038045534346231,0.9958416558905014,181.8901464158821,19.214381543845324,224.46967062928826,-15.244482228428314,74.41563415527344,4381.2578125,True
1599569470.9262238,0.0,10,0.5,0.5,-21.623621315002445,-0.1005,-0.03,-0.001,1.6289589954507093,10,1,100,-0.0878553308562125,-10,-1,-100,6475.4265584022505,0.011057514361312058,0.09635073058662547,0.9952860232574215,192.03147164478477,20.31674347411838,243.0455957328754,-15.627200760636057,66.48258972167969,4381.2578125,True
1599569470.9950407,0.0,10,0.5,0.5,-21.011349868774413,-0.1005,-0.03,-0.001,1.3779402312835352,10,1,100,-0.11469679898770091,-10,-1,-100,6475.084105610615,0.010964885756581519,0.09945497450599483,0.9949816477334428,196.27859967771488,20.782029163187502,251.51798228751915,-15.818433237334254,62.407470703125,4381.2578125,True
1599569471.0578716,0.0,10,0.5,0.5,-19.535265617370605,-0.1005,-0.03,-0.001,2.1438264935212956,10,1,100,-0.14143930621318623,-10,-1,-100,6474.117593353731,0.011129957515171587,0.10919945532122223,0.9939575458757074,206.7419660152009,21.932887762418098,274.7114712090275,-16.391689163090057,49.74745178222656,4381.2578125,True
1599569471.1197073,0.0,10,0.5,0.5,-18.429621696472168,-0.1005,-0.03,-0.001,1.9220255085188804,10,1,100,-0.18480580760925933,-10,-1,-100,6473.495640786365,0.01167993252274016,0.11599413916491101,0.9931812215581081,209.79058871786347,22.273890831832333,285.3851984835016,-16.773638937631862,40.94477844238281,4381.2578125,True
1599569471.184534,0.0,10,0.5,0.5,-17.2814951171875,-0.1005,-0.03,-0.001,2.014274490456853,10,1,100,-0.2343746015693581,-10,-1,-100,6472.810411276878,0.012635031072476134,0.12295904025194417,0.9923313108080982,210.0198842321644,22.304709806516772,292.3361992413167,-17.155596304204604,31.851409912109375,4381.2578125,True
1599569471.2463696,0.0,10,0.5,0.5,-16.57494232940674,-0.1005,-0.03,-0.001,1.7116667039594478,10,1,100,-0.20896542354923436,-10,-1,-100,6472.467869337532,0.013275122603518675,0.1264861485827504,0.9918795417471639,208.788494154932,22.173649003068178,293.9278272013615,-17.34663095011836,27.195571899414062,4381.2578125,True
1599569471.3072062,0.0,10,0.5,0.5,-15.384054656982423,-0.1005,-0.03,-0.001,2.1438366528596537,10,1,100,-0.3238010327001783,-10,-1,-100,6471.72139649163,0.014902031024222804,0.1335701320062007,0.9909273178731117,203.29909144511586,21.58639123875982,292.65191751380075,-17.72889848143332,17.664886474609375,4381.2578125,True
1599569471.36904,0.0,10,0.5,0.5,-13.640120773315429,-0.1005,-0.03,-0.001,2.604262447086609,10,1,100,-0.5265623255260098,-10,-1,-100,6470.631767706014,0.018223488762319343,0.14414009689523513,0.9893894768615451,188.87144623770973,20.05320357076316,280.91148929736585,-18.302881866458176,2.820068359375,4381.2578125,True
1599569471.4308772,0.0,10,0.5,0.5,-12.878044906616212,-0.1005,-0.03,-0.001,1.9361819673268643,10,1,100,-0.342667980355523,-10,-1,-100,6470.289459406398,0.019566231341964793,0.14761693020261893,0.9888510527418312,182.3031842771226,19.360972049155002,274.05535493594164,-18.49433448949047,-2.27490234375,4381.2578125,True
1599569471.4937077,0.0,10,0.5,0.5,-11.5733328704834,-0.1005,-0.03,-0.001,2.339365752752336,10,1,100,-0.541113034580246,-10,-1,-100,6469.5438807802275,0.022584083668582555,0.15438585057025575,0.9877524833218843,174.92573839708064,18.601224797807586,268.5592445772169,-18.87722071392882,-12.686767578125,4381.2578125,True
1599569471.5565414,0.0,10,0.5,0.5,-9.680728927612305,-0.1005,-0.03,-0.001,2.7231169786269636,10,1,100,-0.819317681669181,-10,-1,-100,6468.392149806838,0.02784658382422316,0.1639698753258524,0.9860722325240403,197.35089637863794,21.055546052351207,312.4434539008879,-19.45051214406323,-28.861236572265625,4381.2578125,True
1599569471.6213655,0.0,10,0.5,0.5,-8.27860856628418,-0.1005,-0.03,-0.001,2.4235045689741135,10,1,100,-0.7273263828343424,-10,-1,-100,6467.5831548952265,0.03177912754952253,0.1698974039752423,0.9849492165460432,206.49772104452236,22.082595589194327,333.50466219284647,-19.83198120341769,-40.01654052734375,4381.2578125,True
1599569471.6849263,0.0,10,0.5,0.5,-6.819785919189454,-0.1005,-0.03,-0.001,2.435583043210924,10,1,100,-0.7874271696378238,-10,-1,-100,6466.774097635178,0.03588161605092366,0.17533183212277756,0.9838553035248854,212.19394809939868,22.73419450270464,349.45783496697135,-20.213066843114348,-51.471771240234375,4381.2578125,True
1599569471.7457638,0.0,10,0.5,0.5,-5.934823852539063,-0.1005,-0.03,-0.001,2.1775331840447865,10,1,100,-0.6092224526364648,-10,-1,-100,6466.3702582740225,0.0379686066626071,0.1778661931946615,0.9833219219698806,212.94104069617885,22.82995053218394,354.07738707087594,-20.40355346634687,-57.311767578125,4381.2578125,True
1599569471.8076348,0.0,10,0.5,0.5,-3.822007232666016,-0.1005,-0.03,-0.001,2.6865702456769953,10,1,100,-1.100620606555721,-10,-1,-100,6465.095534383203,0.0443092280050945,0.18474152013482173,0.9817877892150971,206.50231202327862,22.16591854249706,353.2557746090412,-20.975264811180825,-75.28109741210938,4381.2578125,True
1599569471.8700116,0.0,10,0.5,0.5,-2.895389236450195,-0.1005,-0.03,-0.001,2.2296903916797612,10,1,100,-0.696717500264861,-10,-1,-100,6464.691051990958,0.04637278808022739,0.18678219824418993,0.9813062595055301,202.3399443599771,21.724393408588835,349.37641328142263,-21.166006306362,-81.4208984375,4381.2578125,True
1599569471.9388282,0.0,10,0.5,0.5,-1.306528495788574,-0.1005,-0.03,-0.001,2.4431385389512528,10,1,100,-0.9423533966727371,-10,-1,-100,6463.817995287594,0.050451716601804614,0.19052298327366418,0.9803854431479663,189.6288834619995,20.373351920625062,333.52213649615663,-21.54778571790275,-93.92485046386719,4381.2578125,True
1599569471.9996648,0.0,10,0.5,0.5,0.9761855049133303,-0.1005,-0.03,-0.001,2.617072802934875,10,1,100,-1.1393493079428105,-10,-1,-100,6462.540076956502,0.0559183874642595,0.19545314219915783,0.9791175634967808,178.03136292551446,19.177074497818328,321.7212974328803,-22.120659957281802,-113.23961639404297,4381.2578125,True
1599569472.0598366,0.0,10,0.5,0.5,2.6496622772216796,-0.1005,-0.03,-0.001,2.452915629055205,10,1,100,-0.9533952903738968,-10,-1,-100,6461.604617952369,0.05916332908977205,0.1983961186913333,0.9783346465188842,195.82313882769708,21.14898293077098,360.1579400146627,-22.501774260284968,-126.48703002929688,4381.2578125,True
1599569472.1216707,0.0,10,0.5,0.5,4.374527946472168,-0.1005,-0.03,-0.001,2.4771963240468984,10,1,100,-0.9423888321296372,-10,-1,-100,6460.732544026454,0.06197721994915582,0.20124612255824575,0.9775780390140962,206.8233424921045,22.391312559925392,387.0100112145707,-22.882282002578826,-139.94000244140625,4381.2578125,True
1599569472.184504,0.0,10,0.5,0.5,6.090054512023927,-0.1005,-0.03,-0.001,2.5088168877557346,10,1,100,-0.9300597394414145,-10,-1,-100,6459.795984241879,0.06438740794572034,0.20408189458734832,0.9768340913377613,211.97060049408373,22.989287702293254,403.42648047642575,-23.262554450512596,-153.21310424804688,4381.2578125,True
1599569472.2483325,0.0,10,0.5,0.5,7.112848716735841,-0.1005,-0.03,-0.001,2.3889142268563335,10,1,100,-0.8083037962942055,-10,-1,-100,6459.328200359829,0.06543839680114846,0.2055333794972093,0.9764598538273612,212.01520191753562,23.008727343948106,406.91140668633193,-23.452724505311792,-159.7452392578125,4381.2578125,True
1599569472.3161523,0.0,10,0.5,0.5,8.768720489501954,-0.1005,-0.03,-0.001,2.58235495783551,10,1,100,-0.9063532761353232,-10,-1,-100,6458.391223890008,0.06725460078713726,0.20857906699187362,0.9756903153592138,208.0925202795654,22.604769972504368,406.08127314663193,-23.83330833173338,-172.58482360839844,4381.2578125,True
1599569472.3819754,0.0,10,0.5,0.5,-26.148526626586914,-0.1005,-0.03,-0.001,2.6454086106959958,10,1,100,-0.8918431270241851,-10,-1,-100,6457.392366490094,0.06874526397817471,0.21189086407223734,0.9748724790470247,198.47147026189063,21.581542321364932,393.7293009856694,-24.214304023919063,174.8806610107422,4381.2578125,True
1599569472.4473157,0.0,10,0.5,0.5,-24.647755393981935,-0.1005,-0.03,-0.001,2.931738888254686,10,1,100,-0.9419478527241718,-10,-1,-100,6455.9271628964925,0.07052793106064903,0.21747365969503102,0.9735147755833776,177.26836798834745,19.331428409233464,360.300544852669,-24.786246083178785,156.65521240234375,4381.2578125,True
1599569472.9896305,0.0,10,0.5,0.5,-24.760865043640134,-0.1005,-0.03,-0.001,2.6048375306602862,10,1,100,-0.824424970794851,-10,-1,-100,6455.39576308406,0.07105631247894499,0.21954734142893054,0.9730107734903983,185.27245779298212,20.233298187111302,379.57217058794424,-24.976712410605536,150.73477172851562,4381.2578125,True
1599569473.0444956,0.0,10,0.5,0.5,-24.86114141082764,-0.1005,-0.03,-0.001,2.639875703615517,10,1,100,-0.8304857264296552,-10,-1,-100,6454.928405507584,0.07156931743371343,0.2217212489928097,0.9724800874810451,193.64703414067074,21.18103797929687,399.8625050456924,-25.166981485177182,144.80264282226562,4381.2578125,True
1599569473.1012638,0.0,10,0.5,0.5,-24.97638557434082,-0.1005,-0.03,-0.001,2.6768387132463936,10,1,100,-0.8376752249474939,-10,-1,-100,6454.398144781007,0.07208184683290882,0.22400519389687223,0.9719186593868756,200.84548227998272,22.003863809566464,417.9700957266281,-25.35707000977267,138.82362365722656,4381.2578125,True
1599569473.1611083,0.0,10,0.5,0.5,-24.50564897918701,-0.1005,-0.03,-0.001,2.9904298662753295,10,1,100,-0.9066119887994755,-10,-1,-100,6453.399912283756,0.0731597864495875,0.22890637969928512,0.9706953770259842,211.40054745178452,23.231470182707355,446.74873055690574,-25.736825580204787,126.67677307128906,4381.2578125,True
1599569473.2214606,0.0,10,0.5,0.5,-24.01652732849121,-0.1005,-0.03,-0.001,3.089335060407685,10,1,100,-0.9352816519699516,-10,-1,-100,6452.339569373289,0.07438764080506352,0.23423340468358375,0.9693302796393979,217.83436908507892,23.999778402054393,467.36040579489685,-26.116272148749417,114.2554931640625,4381.2578125,True
1599569473.2803025,0.0,10,0.5,0.5,-23.50230884552002,-0.1005,-0.03,-0.001,3.1892164760037236,10,1,100,-0.9789355997310865,-10,-1,-100,6451.279150300659,0.07588944390709212,0.23995417910006892,0.9678134036248333,219.59650359075582,24.241347521661147,478.2312844230684,-26.495730606810632,101.55375671386719,4381.2578125,True
1599569473.3392358,0.0,10,0.5,0.5,-22.961466796875,-0.1005,-0.03,-0.001,3.2861008213455474,10,1,100,-1.0386647192593466,-10,-1,-100,6450.220129770809,0.07778725505377379,0.24600303872315135,0.9661426643566544,215.290152923048,23.804197032816017,475.84085651021167,-26.875477193332305,88.570068359375,4381.2578125,True
1599569473.4000728,0.0,10,0.5,0.5,-22.37280537414551,-0.1005,-0.03,-0.001,3.3770190338526356,10,1,100,-1.1109931981074117,-10,-1,-100,6449.1610322357155,0.08015884330550987,0.25229174062217624,0.9643253794512281,204.8953593250543,22.6954188854106,459.55534565257614,-27.255631335763916,75.30316162109375,4381.2578125,True
1599569473.4629042,0.0,10,0.5,0.5,-21.754245208740233,-0.1005,-0.03,-0.001,3.4588166570392156,10,1,100,-1.1983093375197702,-10,-1,-100,6448.039812333183,0.08309688458127469,0.2587126183105948,0.9623734664358545,189.00509245986458,20.98916805244686,430.10216614191717,-27.63605637312672,61.75152587890625,4381.2578125,True
1599569473.5257368,0.0,10,0.5,0.5,-20.023803138732912,-0.1005,-0.03,-0.001,3.5288818498165364,10,1,100,-1.2964444126050216,-10,-1,-100,6446.923307662248,0.0866469213140149,0.2651441709123706,0.9603077005095787,196.33757743619216,21.880915804703406,453.19152972632935,-28.016086323850452,47.91304016113281,4381.2578125,True
1599569473.5889297,0.0,10,0.5,0.5,-17.549401298522948,-0.1005,-0.03,-0.001,3.9214340368169083,10,1,100,-1.6579499461921166,-10,-1,-100,6445.210392530775,0.09314598774888562,0.27451635633106347,0.9570603925944282,219.67524753370358,24.618687515091988,517.7383784716005,-28.58455905863597,26.612411499023438,4381.2578125,True
1599569473.6507635,0.0,10,0.5,0.5,-16.462854782104493,-0.1005,-0.03,-0.001,3.3177882285180393,10,1,100,-1.2817355308082163,-10,-1,-100,6444.619137397734,0.09561401739048724,0.277498863895429,0.9559562438810668,224.18243969313514,25.164219067155624,531.9879130392671,-28.773831872675377,19.366302490234375,4381.2578125,True
1599569473.7136302,0.0,10,0.5,0.5,-13.842550491333009,-0.1005,-0.03,-0.001,3.938875297479731,10,1,100,-1.9388360367382775,-10,-1,-100,6442.909810591838,0.1038094628458922,0.28580577356731973,0.9526482326752269,229.13746900158515,25.82218954767376,554.9178612240503,-29.341750250812613,-2.81341552734375,4381.2578125,True
1599569473.775431,0.0,10,0.5,0.5,-11.90141015625,-0.1005,-0.03,-0.001,3.651365584740823,10,1,100,-1.7822468273342478,-10,-1,-100,6441.726162912673,0.10980748625075736,0.2906876026262572,0.9504962039075638,222.28322961882103,25.112278742402466,545.6105703449629,-29.720826137683304,-17.97015380859375,4381.2578125,True
1599569473.8362677,0.0,10,0.5,0.5,-10.702078475952149,-0.1005,-0.03,-0.001,3.4132130151066846,10,1,100,-1.5286586969261176,-10,-1,-100,6441.079077537754,0.11292157206983253,0.2929044409350473,0.9494502130400547,215.82877008709514,24.418939254826856,533.3235245391168,-29.91051956007856,-25.6602783203125,4381.2578125,True
1599569473.898102,0.0,10,0.5,0.5,-8.706140548706054,-0.1005,-0.03,-0.001,3.6332662478756266,10,1,100,-1.9220958125248633,-10,-1,-100,6439.892588897375,0.11929422938237604,0.2968668951170728,0.9474380894916639,198.02771508838282,22.48847223645429,495.85802486838605,-30.290019331193655,-41.2650146484375,4381.2578125,True
1599569473.9619334,0.0,10,0.5,0.5,-6.678943984985351,-0.1005,-0.03,-0.001,3.6090122727924907,10,1,100,-1.9980917611821758,-10,-1,-100,6438.6442135508405,0.12573896757659545,0.30019689667632476,0.9455535602273814,209.9594344182324,23.952405721736987,532.5917652948974,-30.66883509239453,-57.169891357421875,4381.2578125,True
1599569474.0247633,0.0,10,0.5,0.5,-4.6128073577880855,-0.1005,-0.03,-0.001,3.5809844931730823,10,1,100,-2.0591132569787645,-10,-1,-100,6437.465247181128,0.1321089688853795,0.3029201056809654,0.9438149341445464,225.63295957504408,25.853413416399185,579.661648820574,-31.046711753578933,-73.37503051757812,4381.2578125,True
1599569474.0886211,0.0,10,0.5,0.5,-2.507788070678711,-0.1005,-0.03,-0.001,3.55373439058467,10,1,100,-2.1049101182649896,-10,-1,-100,6436.149125131546,0.13826898688180356,0.3051019962388724,0.9422284538039248,232.6484350344422,26.753910905526666,605.2214673632213,-31.424284672642916,-89.87936401367188,4381.2578125,True
1599569474.1514661,0.0,10,0.5,0.5,0.4998097229003909,-0.1005,-0.03,-0.001,3.6135659866639283,10,1,100,-2.4409755566048337,-10,-1,-100,6434.255713112187,0.14687398713409625,0.3075872845486645,0.9401160004421327,226.45090704753414,26.161059608497617,600.20688259451,-31.99121552930416,-115.1917724609375,4381.2578125,True
1599569474.2147992,0.0,10,0.5,0.5,2.7137791748046878,-0.1005,-0.03,-0.001,3.515288356277218,10,1,100,-2.1598063626874744,-10,-1,-100,6433.002134752693,0.15208587917709535,0.3089146199052906,0.938851235800273,209.59911203335722,24.302170650146095,562.4503514537441,-32.3697590809409,-132.43283081054688,4381.2578125,True
1599569474.2776668,0.0,10,0.5,0.5,4.946188217163087,-0.1005,-0.03,-0.001,3.522386389810169,10,1,100,-2.1689737103689284,-10,-1,-100,6431.691707171965,0.15685372065744574,0.3101545448401828,0.9376572234195688,202.03451269313663,23.53161175698661,548.7699260999117,-32.74817367676518,-149.89602661132812,4381.2578125,True
1599569474.3385587,0.0,10,0.5,0.5,7.19951075744629,-0.1005,-0.03,-0.001,3.5445361080289493,10,1,100,-2.177074466816374,-10,-1,-100,6430.319196539815,0.16120609278613474,0.31145342341848753,0.9364877792526353,223.96184628975257,26.205446411687145,615.5898630827525,-33.12551141397513,-167.26547241210938,4381.2578125,True
1599569474.4003935,0.0,10,0.5,0.5,8.54721794128418,-0.1005,-0.03,-0.001,3.4955577556360495,10,1,100,-1.9720105159356867,-10,-1,-100,6429.666894739727,0.16324639823153644,0.3121656483316917,0.9358970143483123,230.89049916864306,27.071228710861845,638.3688968022793,-33.31395810630513,-175.85385131835938,4381.2578125,True
1599569474.4647324,0.0,10,0.5,0.5,-25.80720637512207,-0.1005,-0.03,-0.001,3.604513119825384,10,1,100,-2.1988484922509226,-10,-1,-100,6428.349720914266,0.16711480395569397,0.31378410334022994,0.9346722306722383,237.623206612967,27.96006058225914,664.7059814157437,-33.69086781606292,167.19528198242188,4381.2578125,True
1599569474.5280762,0.0,10,0.5,0.5,-22.6972027053833,-0.1005,-0.03,-0.001,3.912765735232768,10,1,100,-2.6243266832241585,-10,-1,-100,6425.599137944402,0.17445025341206127,0.31803874106769076,0.9318897296700647,222.57389281828657,26.386613482328254,637.2806850492433,-34.445831252758836,134.23448181152344,4381.2578125,True
1599569474.5919058,0.0,10,0.5,0.5,-22.431376670837402,-0.1005,-0.03,-0.001,3.631843055171187,10,1,100,-2.1004406197577152,-10,-1,-100,6424.891260089818,0.176306101409946,0.31933350386850384,0.931097348247051,213.4244571669868,25.362775959653277,614.607229720938,-34.63473826448227,126.10359191894531,4381.2578125,True
1599569474.655738,0.0,10,0.5,0.5,-22.159492408752442,-0.1005,-0.03,-0.001,3.6562905650079838,10,1,100,-2.1292553393591693,-10,-1,-100,6424.228434339166,0.17820921782818772,0.3207154141339483,0.930259693751135,205.2109199063965,24.450228915132964,594.3213454832895,-34.82358128663079,117.92787170410156,4381.2578125,True
1599569474.7211542,0.0,10,0.5,0.5,-20.214030761718753,-0.1005,-0.03,-0.001,4.024148160377124,10,1,100,-2.621116708119845,-10,-1,-100,6422.08110290172,0.1843688813344656,0.3252996785982054,0.9274633333449803,237.0849331886357,28.46612264614524,698.1616039502358,-35.38830222822141,93.02593994140625,4381.2578125,True
1599569474.7839842,0.0,10,0.5,0.5,-19.931415817260742,-0.1005,-0.03,-0.001,3.747284251970731,10,1,100,-2.2576797309043264,-10,-1,-100,6421.36705898901,0.18662269391598382,0.3269318855962362,0.9264380779609777,243.3025971076263,29.2778735571816,720.4004369711034,-35.57622750826431,84.59014892578125,4381.2578125,True
1599569474.8468165,0.0,10,0.5,0.5,-17.92818669128418,-0.1005,-0.03,-0.001,4.133827337710966,10,1,100,-2.863484539644639,-10,-1,-100,6419.21050078189,0.19414279569974696,0.3319121521911322,0.9231158638576942,248.79267388829436,30.11752004718736,748.819310611205,-36.14022024052986,58.86590576171875,4381.2578125,True
1599569474.9086916,0.0,10,0.5,0.5,-16.751408462524413,-0.1005,-0.03,-0.001,3.989922121643059,10,1,100,-2.7428504567149408,-10,-1,-100,6417.779932997655,0.19984434482515015,0.3351105311928877,0.9207405550561064,238.81953972644916,29.03677916988271,726.6924925197875,-36.51677477122288,41.36444091796875,4381.2578125,True
1599569474.970486,0.0,10,0.5,0.5,-16.44362274169922,-0.1005,-0.03,-0.001,3.8379652912089948,10,1,100,-2.5134831900929075,-10,-1,-100,6417.062541490188,0.2029033319478912,0.3366140354756715,0.919522283038985,229.63355943277807,27.991209758242086,702.5380797931164,-36.70518004460207,32.506622314453125,4381.2578125,True
1599569475.032406,0.0,10,0.5,0.5,-15.231617614746096,-0.1005,-0.03,-0.001,3.989291952439238,10,1,100,-2.927722066521316,-10,-1,-100,6415.562895673676,0.2094121307186761,0.33933368118751606,0.9170600919893926,219.50099452566846,26.907975178288932,678.7203607174112,-37.08176352393485,14.573822021484375,4381.2578125,True
1599569475.093243,0.0,10,0.5,0.5,-13.970908584594728,-0.1005,-0.03,-0.001,3.9647688266512686,10,1,100,-3.046636206982761,-10,-1,-100,6414.072482069139,0.21636828930314173,0.34155845066125157,0.9146160878564936,245.1882082525096,30.220899106052805,766.0447028719034,-37.45710457961387,-3.65203857421875,4381.2578125,True
1599569475.1544013,0.0,10,0.5,0.5,-11.59654411315918,-0.1005,-0.03,-0.001,3.923726236256667,10,1,100,-3.1563402167171315,-10,-1,-100,6412.5759766902775,0.22364460311810708,0.34318260449985927,0.9122547842926546,259.1361563690898,32.08936015372063,817.9695175468787,-37.831917714755605,-22.1746826171875,4381.2578125,True
1599569475.218396,0.0,10,0.5,0.5,-8.268821640014648,-0.1005,-0.03,-0.001,3.8958371394690605,10,1,100,-3.6621748682158515,-10,-1,-100,6410.235690284753,0.2348132085546948,0.34438271268831333,0.9089902663338525,258.7360522075833,32.26249991337589,829.4201062842849,-38.39465227483808,-50.519683837890625,4381.2578125,True
1599569475.281226,0.0,10,0.5,0.5,-6.793054168701172,-0.1005,-0.03,-0.001,3.786232448757206,10,1,100,-2.958868591744401,-10,-1,-100,6409.521560121095,0.2385196045226298,0.3444545418451458,0.9079975037744427,251.4748404405749,31.44364986114889,810.2981442814395,-38.5824500360464,-60.118133544921875,4381.2578125,True
1599569475.3475642,0.0,10,0.5,0.5,-4.297178802490234,-0.1005,-0.03,-0.001,3.7476665719247113,10,1,100,-3.393554954944057,-10,-1,-100,6407.956596123753,0.24578592198920898,0.34414766117314244,0.9061741928906223,228.55318345372288,28.755595058325326,743.9211434817539,-38.95809278627806,-79.5401611328125,4381.2578125,True
1599569475.4103942,0.0,10,0.5,0.5,-0.7851442565917967,-0.1005,-0.03,-0.001,3.6279650696658408,10,1,100,-3.803683077786609,-10,-1,-100,6405.558881270932,0.25606426894770895,0.34276334873935427,0.9038497535150735,261.528605519501,33.18856784779741,863.7692384102613,-39.51943959616774,-109.23236083984375,4381.2578125,True
1599569475.4737961,0.0,10,0.5,0.5,0.7861581192016601,-0.1005,-0.03,-0.001,3.697883900234155,10,1,100,-3.135516444370962,-10,-1,-100,6404.773994084098,0.25927084990162874,0.34212611638367413,0.9031768082050778,267.6348959657435,34.04382107485413,888.2062703024097,-39.70628103193948,-119.27696228027344,4381.2578125,True
1599569475.5366282,0.0,10,0.5,0.5,3.371574768066407,-0.1005,-0.03,-0.001,3.606945406866781,10,1,100,-3.48640382530196,-10,-1,-100,6403.153071010369,0.26531660145529046,0.3407108152440865,0.9019552324632994,269.8601243918899,34.48482596463289,904.3170944803388,-40.08025966938307,-139.58270263671875,4381.2578125,True
1599569475.6004581,0.0,10,0.5,0.5,7.025226554870605,-0.1005,-0.03,-0.001,3.5113632276199094,10,1,100,-3.7881825726973313,-10,-1,-100,6400.749411544995,0.2734966621561862,0.3385501577748978,0.900324034145494,242.41744507642002,31.241209301159827,824.2429276177102,-40.64223205367859,-170.43113708496094,4381.2578125,True
1599569475.661294,0.0,10,0.5,0.5,-27.896679855346683,-0.1005,-0.03,-0.001,3.6554560952633777,10,1,100,-3.25512765657455,-10,-1,-100,6399.96457574435,0.2760229514375131,0.337894098761213,0.8997993711389622,229.95710779128055,29.727487942362032,785.5679503239738,-40.829586984854345,179.3212890625,4381.2578125,True
1599569475.72416,0.0,10,0.5,0.5,-24.96374639129639,-0.1005,-0.03,-0.001,3.5460552655737176,10,1,100,-3.798787072355866,-10,-1,-100,6397.436449729139,0.2832013810906233,0.33630443719016295,0.8981627376342058,271.2226747528629,35.340601566283176,939.3946035126127,-41.38948450237656,149.00184631347656,4381.2578125,True
1599569475.7859616,0.0,10,0.5,0.5,-23.43140372467041,-0.1005,-0.03,-0.001,3.629445860800132,10,1,100,-3.5982233368745136,-10,-1,-100,6395.810679244343,0.2878431621874499,0.3356221630035131,0.8969415129665772,279.6169269466318,36.60340311476119,977.4318995674754,-41.76253240746669,129.09422302246094,4381.2578125,True
1599569475.849791,0.0,10,0.5,0.5,-20.841830223083498,-0.1005,-0.03,-0.001,3.6410681734207797,10,1,100,-3.9283499550312735,-10,-1,-100,6393.277249563136,0.2950057519322906,0.3351144442590158,0.8948016068245714,261.907315246129,34.58541776962563,928.3218928985358,-42.32290231494165,98.91404724121094,4381.2578125,True
1599569475.9126227,0.0,10,0.5,0.5,-20.286348487854003,-0.1005,-0.03,-0.001,3.682696286360927,10,1,100,-3.4951415076754033,-10,-1,-100,6392.430773443659,0.2975242180485674,0.33503974485295535,0.8939953629876696,248.60642862425172,32.93921611874842,885.1687311678454,-42.50977391685045,88.72721862792969,4381.2578125,True
1599569475.9744587,0.0,10,0.5,0.5,-19.702292144775395,-0.1005,-0.03,-0.001,3.683119529040284,10,1,100,-3.536339482612682,-10,-1,-100,6391.591274639824,0.3001346191868616,0.33498424286906925,0.893143195347193,250.89650952923537,33.34948980794683,897.2770547922142,-42.696337703219896,78.47323608398438,4381.2578125,True
1599569476.5107071,0.0,10,0.5,0.5,-18.084204689025878,-0.1005,-0.03,-0.001,3.672739610030832,10,1,100,-3.8892336999248696,-10,-1,-100,6389.839902432519,0.3056664324725147,0.3348477540002724,0.8913164498092128,280.36235495282745,37.47054450468353,1011.3831879874116,-43.068367565556024,57.76011657714844,4381.2578125,True
1599569476.561707,0.0,10,0.5,0.5,-17.54414105987549,-0.1005,-0.03,-0.001,3.671898468857565,10,1,100,-3.663419922400891,-10,-1,-100,6388.997330917977,0.30859740824241333,0.3347232224677356,0.8903527413148566,288.35124606899836,38.6296698129724,1044.7193955026091,-43.25422827396143,47.29948425292969,4381.2578125,True
1599569476.618675,0.0,10,0.5,0.5,-15.90932733154297,-0.1005,-0.03,-0.001,3.631587959328376,10,1,100,-4.055866351881385,-10,-1,-100,6387.253306561266,0.3147847841572886,0.33425028270963314,0.8883621379660321,292.34015680627016,39.35727599071628,1068.5002636417917,-43.626241887228424,26.16644287109375,4381.2578125,True
1599569476.6749635,0.0,10,0.5,0.5,-13.155265167236328,-0.1005,-0.03,-0.001,3.505326822075853,10,1,100,-4.538292971768701,-10,-1,-100,6384.5946197826415,0.3247503968218763,0.332678382165912,0.885359968489374,261.4612665874432,35.537682464718124,968.2472292774594,-44.18517101759288,-6.074371337890625,4381.2578125,True
1599569476.7337706,0.0,10,0.5,0.5,-13.680576278686525,-0.1005,-0.03,-0.001,3.6619296988870684,10,1,100,-3.546857078776503,-10,-1,-100,6384.5946197826415,0.3247503968218763,0.332678382165912,0.885359968489374,261.4612665874432,35.537682464718124,968.2472292774594,-44.18517101759288,-6.074371337890625,4381.2578125,True
1599569476.7936475,0.0,10,0.5,0.5,-10.905207397460938,-0.1005,-0.03,-0.001,3.463467928243735,10,1,100,-4.312865940526866,-10,-1,-100,6382.853761098464,0.33166981606925744,0.3308789258115138,0.8834671864661436,275.8714987037523,37.724935253813335,1030.1449492286802,-44.557014596848674,-27.938232421875,4381.2578125,True
1599569476.8539221,0.0,10,0.5,0.5,-8.146546020507813,-0.1005,-0.03,-0.001,3.372270356469807,10,1,100,-4.388238225748912,-10,-1,-100,6381.036211335217,0.33860133758255107,0.3284189198471876,0.8817540174412102,301.0573679762841,41.369096407914775,1133.4702599230739,-44.92773745933493,-50.102813720703125,4381.2578125,True
1599569476.9127684,0.0,10,0.5,0.5,-5.350863510131836,-0.1005,-0.03,-0.001,3.2779851017137607,10,1,100,-4.442898829316531,-10,-1,-100,6379.228699195897,0.34535349155852807,0.32533196051197816,0.8802784112641673,306.54045355044775,42.34138438426619,1163.8090210567354,-45.29866152549419,-72.56838989257812,4381.2578125,True
1599569476.9766095,0.0,10,0.5,0.5,-1.3818044090270996,-0.1005,-0.03,-0.001,2.9719646813436666,10,1,100,-4.811033281584606,-10,-1,-100,6376.444633851992,0.354792719521284,0.3197525231891024,0.8785672712370375,271.7564600524728,37.92206249576683,1044.6294253192023,-45.855754660452504,-106.82530975341797,4381.2578125,True
1599569477.0364342,0.0,10,0.5,0.5,1.5257436447143562,-0.1005,-0.03,-0.001,3.074616957214058,10,1,100,-4.49680011533842,-10,-1,-100,6374.627830210025,0.3604651084293034,0.31562740742318607,0.8777495344848487,294.67438250099104,41.35611928267673,1141.602975732355,-46.22605178701383,-130.0287322998047,4381.2578125,True
1599569477.096288,0.0,10,0.5,0.5,3.3164708709716804,-0.1005,-0.03,-0.001,3.2526573037319784,10,1,100,-4.224664742693314,-10,-1,-100,6373.717473316006,0.3630930217859633,0.3135134479092849,0.8774239428636366,307.6730098084085,43.27788034726709,1196.5961056777755,-46.41081751577591,-141.7373504638672,4381.2578125,True
1599569477.159121,0.0,10,0.5,0.5,7.501463417053224,-0.1005,-0.03,-0.001,2.7722110752643765,10,1,100,-4.748160853093875,-10,-1,-100,6370.871947831591,0.3701888834871925,0.30724336837066113,0.8766765099708992,310.0995685485514,43.94735126011753,1220.4954481691204,-46.965754839406046,-177.18768310546875,4381.2578125,True
1599569477.2214658,0.0,10,0.5,0.5,-26.018933601379395,-0.1005,-0.03,-0.001,2.9630015674552297,10,1,100,-4.507050730928597,-10,-1,-100,6368.9802196910605,0.3743917644002212,0.30330273676828096,0.8762638053794989,279.59188685825205,39.88505994101869,1109.1140862054715,-47.33641319321342,159.34835815429688,4381.2578125,True
1599569477.2832997,0.0,10,0.5,0.5,-24.902755409240726,-0.1005,-0.03,-0.001,3.1489035383653414,10,1,100,-4.312553810404362,-10,-1,-100,6367.996302215033,0.3763902232434425,0.3014384964525194,0.8760509304276756,274.07482958579845,39.21261949446703,1091.335681944495,-47.52159682110802,147.73074340820312,4381.2578125,True
1599569477.349898,0.0,10,0.5,0.5,-21.878916984558106,-0.1005,-0.03,-0.001,2.76738392253027,10,1,100,-4.759285519621654,-10,-1,-100,6365.1070304674795,0.3822212560697813,0.2963037722812477,0.8752776621965976,320.66094843520904,46.17899817362168,1291.1997577868601,-48.07513865239718,113.27880859375,4381.2578125,True
1599569477.4107344,0.0,10,0.5,0.5,-19.93093163299561,-0.1005,-0.03,-0.001,2.9354881184097055,10,1,100,-4.618048285906465,-10,-1,-100,6363.136671441025,0.3861859739151804,0.29319712900616346,0.8745832362295349,322.48081291423136,46.68315542782257,1308.5116894752648,-48.444289294500074,90.2197265625,4381.2578125,True
1599569477.4725685,0.0,10,0.5,0.5,-19.1291342086792,-0.1005,-0.03,-0.001,3.077183079372257,10,1,100,-4.453924815396313,-10,-1,-100,6362.163658598904,0.3882486711719546,0.2916953000346604,0.8741720776088087,312.96636735787934,45.45507397928616,1274.7586141951763,-48.62901448495542,78.6007080078125,4381.2578125,True
1599569477.5344636,0.0,10,0.5,0.5,-15.948606246948243,-0.1005,-0.03,-0.001,2.720983010527689,10,1,100,-4.9841430646277285,-10,-1,-100,6359.252217758214,0.39489888245877186,0.28712520363453653,0.8727049845570031,305.01761298344326,44.69808208746581,1255.9272913633895,-49.18274319063333,43.34693908691406,4381.2578125,True
1599569477.5958254,0.0,10,0.5,0.5,-15.124919746398927,-0.1005,-0.03,-0.001,2.9955838938794628,10,1,100,-4.585555518836454,-10,-1,-100,6358.219596906914,0.39727596467513937,0.2855016756256923,0.8721585871310099,322.561732361038,47.363373082254334,1332.8414339792325,-49.36661172516579,31.458404541015625,4381.2578125,True
1599569477.6566625,0.0,10,0.5,0.5,-13.116724975585937,-0.1005,-0.03,-0.001,2.7662179164267204,10,1,100,-4.897329141922814,-10,-1,-100,6356.279962810688,0.40223263304066414,0.2819717329567757,0.8710343568026047,337.28590980374065,49.72728109494106,1403.7470289808364,-49.73440345926889,7.468902587890625,4381.2578125,True
1599569477.7204921,0.0,10,0.5,0.5,-11.088926895141602,-0.1005,-0.03,-0.001,2.672857070008817,10,1,100,-4.970384041818956,-10,-1,-100,6354.277751162532,0.4073648601678231,0.27794455526711276,0.8699429262301159,323.4704846784295,47.9695453052394,1356.1261276382168,-50.10272142400564,-16.809722900390625,4381.2578125,True
1599569477.802273,0.0,10,0.5,0.5,-7.735170867919923,-0.1005,-0.03,-0.001,2.2855397344215,10,1,100,-5.3049979756331815,-10,-1,-100,6351.242169056437,0.41503221891956793,0.27079475330993646,0.8685726560504369,314.78406801128716,47.06662631561385,1333.4062688541326,-50.65512848359529,-53.783294677734375,4381.2578125,True
1599569477.8671005,0.0,10,0.5,0.5,-6.876249801635742,-0.1005,-0.03,-0.001,2.7027271296052704,10,1,100,-4.8119204602513435,-10,-1,-100,6350.20995575923,0.4174792555218353,0.2681206811369566,0.8682294463766985,334.05067352856616,50.0342963458055,1419.7855314949,-50.838544336997224,-66.25726318359375,4381.2578125,True
1599569477.9309316,0.0,10,0.5,0.5,-3.657215591430664,-0.1005,-0.03,-0.001,2.3390255148439163,10,1,100,-5.076329174040657,-10,-1,-100,6348.143422975671,0.4220683793845979,0.26241531180517286,0.8677537019534133,349.84770267687844,52.6120112450686,1497.2447585924717,-51.20539091303976,-91.4266357421875,4381.2578125,True
1599569477.9937615,0.0,10,0.5,0.5,0.9218513793945314,-0.1005,-0.03,-0.001,1.900273483243531,10,1,100,-5.269958276526775,-10,-1,-100,6345.041213621036,0.4279590491404912,0.2532754332023181,0.8675843516309782,312.19918266491135,47.385753197048984,1349.9176579768168,-51.756338769610785,-129.71987915039062,4381.2578125,True
1599569478.0555959,0.0,10,0.5,0.5,2.9223000640869143,-0.1005,-0.03,-0.001,2.468075994614005,10,1,100,-4.868894764513432,-10,-1,-100,6344.006737331045,0.4296265917247541,0.2501674103386171,0.8676619494292933,310.7058834545973,47.27006814789204,1347.7632120471792,-51.939842391086316,-142.623779296875,4381.2578125,True
1599569478.1163452,0.0,10,0.5,0.5,-28.97099926757813,-0.1005,-0.03,-0.001,1.7683481815293665,10,1,100,-5.161533129339742,-10,-1,-100,6340.900953726843,0.43376339682904175,0.24101989099690818,0.868192794093092,356.33758970479295,54.46583833150738,1560.7550729017582,-52.48870254117788,178.35086059570312,4381.2578125,True
1599569478.1771429,0.0,10,0.5,0.5,-27.63373838043213,-0.1005,-0.03,-0.001,2.35672808587636,10,1,100,-4.877117226803279,-10,-1,-100,6339.865996736102,0.43489715260473805,0.23809894109763433,0.8684315522276217,354.76552586805207,54.34711442061767,1559.0908620443797,-52.67181865898131,165.38990783691406,4381.2578125,True
1599569478.2415879,0.0,10,0.5,0.5,-25.404907348632815,-0.1005,-0.03,-0.001,2.0306587283910487,10,1,100,-4.989389684145529,-10,-1,-100,6337.731585224392,0.43691213631289516,0.23252383454164335,0.8689306367671431,323.0679198280054,49.77358519659338,1429.1586058318373,-53.038532083276806,139.69610595703125,4381.2578125,True
1599569478.305002,0.0,10,0.5,0.5,-21.84106098175049,-0.1005,-0.03,-0.001,1.7368702782020513,10,1,100,-5.092389331135815,-10,-1,-100,6334.49963615404,0.43964426722782446,0.22483291343546435,0.8695763792386673,349.33435587237784,54.08881121037702,1559.7386882458954,-53.58775638817021,101.13203430175781,4381.2578125,True
1599569478.3678398,0.0,10,0.5,0.5,-19.523387786865236,-0.1005,-0.03,-0.001,1.974821730823249,10,1,100,-5.029177666511974,-10,-1,-100,6332.366068675299,0.44151936053191876,0.2200563063805137,0.8698481915240446,363.92099118836023,56.535431238864255,1635.2943561798138,-53.95309758594461,75.14950561523438,4381.2578125,True
1599569478.433661,0.0,10,0.5,0.5,-15.821324211120606,-0.1005,-0.03,-0.001,1.6715418837266256,10,1,100,-5.196176241254854,-10,-1,-100,6329.072920319741,0.4447111101238815,0.21300947249230437,0.869976432531902,317.27613902616775,49.68241665737163,1439.0762993072713,-54.50180842370224,35.70198059082031,4381.2578125,True
1599569478.496537,0.0,10,0.5,0.5,-14.78111099243164,-0.1005,-0.03,-0.001,2.103869780177994,10,1,100,-5.009642007939117,-10,-1,-100,6328.036444006488,0.4458899540944279,0.21058604554423344,0.8699630258003561,334.3058108377825,52.42707689874835,1520.7328026906966,-54.68436397328516,22.4200439453125,4381.2578125,True
1599569478.5573387,0.0,10,0.5,0.5,-13.705358963012696,-0.1005,-0.03,-0.001,2.065758397756425,10,1,100,-5.028996567028322,-10,-1,-100,6326.938501175493,0.4471117530606696,0.20808876723814806,0.869936862780468,357.01700066842943,56.041757260361194,1628.812558209706,-54.86655745740756,9.06964111328125,4381.2578125,True
1599569478.6192071,0.0,10,0.5,0.5,-8.528796676635741,-0.1005,-0.03,-0.001,1.0959790023268021,10,1,100,-5.4565944218089095,-10,-1,-100,6322.486421842477,0.45208696591555275,0.19705172567831664,0.8699356255818401,349.15367027601286,55.222376468120544,1612.522135039513,-55.59584368985571,-45.0328369140625,4381.2578125,True
1599569478.681047,0.0,10,0.5,0.5,-8.836960281372072,-0.1005,-0.03,-0.001,2.194060787557545,10,1,100,-4.961485927998098,-10,-1,-100,6322.486421842477,0.45208696591555275,0.19705172567831664,0.8699356255818401,349.15367027601286,55.222376468120544,1612.522135039513,-55.59584368985571,-45.0328369140625,4381.2578125,True
1599569478.7452118,0.0,10,0.5,0.5,-3.52301968383789,-0.1005,-0.03,-0.001,0.7769126263008697,10,1,100,-5.4037272745546465,-10,-1,-100,6318.030695362366,0.4560869232713479,0.18421684756203804,0.8706600206137758,377.6104861536913,60.01957958365198,1764.0171555588538,-56.324663835814654,-100.27139282226562,4381.2578125,True
1599569478.8083882,0.0,10,0.5,0.5,-1.3231888236999512,-0.1005,-0.03,-0.001,1.68273768428914,10,1,100,-5.080816234907399,-10,-1,-100,6316.869596943143,0.456767399119421,0.18083518893207348,0.8710121569447701,382.5145145169867,60.89384955639528,1792.2612551296052,-56.506499051226946,-114.2536849975586,4381.2578125,True
1599569478.8712277,0.0,10,0.5,0.5,3.798700119018555,-0.1005,-0.03,-0.001,0.9022169980864294,10,1,100,-5.147939774425031,-10,-1,-100,6313.4466095730895,0.4579763454800889,0.1707173691685952,0.8724180459188448,330.5032661774712,52.959614229540904,1561.8500752329396,-57.052727109758465,-156.58807373046875,4381.2578125,True
1599569478.9400125,0.0,10,0.5,0.5,6.090391426086426,-0.1005,-0.03,-0.001,1.5434490828672027,10,1,100,-5.038206727201016,-10,-1,-100,6312.283802020014,0.45805866518850763,0.16740492148650657,0.8730165241894448,352.90894037444133,56.59087065765568,1672.1853919726025,-57.23449732702683,-170.82623291015625,4381.2578125,True
1599569479.0088255,0.0,10,0.5,0.5,-26.748741889953614,-0.1005,-0.03,-0.001,1.1738070420045332,10,1,100,-5.013466780603126,-10,-1,-100,6310.020372972358,0.4578918523198523,0.16108543048762805,0.8742920196728952,385.06363079732625,61.805309588201325,1834.719472490928,-57.5974844822425,160.60992431640625,4381.2578125,True
1599569479.0756814,0.0,10,0.5,0.5,-23.79909008789063,-0.1005,-0.03,-0.001,1.153044417077167,10,1,100,-4.976225576587025,-10,-1,-100,6307.694293801091,0.4573867637738484,0.15520529742193778,0.8756190175964965,372.71063205544067,60.02685307543351,1786.0671590653478,-57.96081622046882,132.2887725830078,4381.2578125,True
1599569479.1415012,0.0,10,0.5,0.5,-21.268315223693847,-0.1005,-0.03,-0.001,1.139616229327396,10,1,100,-4.954872823599714,-10,-1,-100,6305.367397632683,0.45672195311064206,0.14979019672364904,0.8769081790656825,330.5057055486242,53.3899117962319,1592.3295083085707,-58.325007663466515,104.22122192382812,4381.2578125,True
1599569479.2088711,0.0,10,0.5,0.5,-18.68082010650635,-0.1005,-0.03,-0.001,1.1206803571891406,10,1,100,-4.95119937737412,-10,-1,-100,6303.041888664477,0.45607433754293436,0.14475050256833022,0.8780908214080075,381.51159090711275,61.65626529783922,1847.9078358157783,-58.687922752651666,76.03436279296875,4381.2578125,True
