Timestamp,Input Throttle,horizon,dT,dt,Input Roll,Roll P,Roll I,Roll D,Input Pitch,Pitch P,Pitch I,Pitch D,Input Yaw,Yaw P,Yaw I,Yaw D,Altitude,Direction X,Direction Y,Direction Z,Drag X,Drag Y,Drag Z,Vertical Velocity,Roll,Mass,Has Fuel
1599567211.1748412,0.0,10,0.5,0.5,-2.7443130950927737,-0.05075,-0.0155,-0.2505,-0.06663618688090943,10,1,100,0.6931941590063857,-10,-1,-100,6483.997882878291,-0.06744522898766454,-0.00697167971740554,0.9976986202098905,204.61211027901928,21.456737469658147,-150.266702476084,9.210802433099483,-35.9412841796875,4381.2578125,True
1599567211.2646022,0.0,10,0.5,0.5,-2.8283188873291016,-0.05075,-0.0155,-0.2505,-0.0667172667962328,10,1,100,0.7027950994579717,-10,-1,-100,6484.316764966818,-0.06764157704841509,-0.006938073368773148,0.9976855617840388,204.14986620525858,21.414397300200083,-143.78964497083578,8.830798789321326,-35.93780517578125,4381.2578125,True
1599567211.3613417,0.0,10,0.5,0.5,-2.8994210601806643,-0.05075,-0.0155,-0.2505,-0.05133813531488635,10,1,100,0.703446888444986,-10,-1,-100,6484.6971673696535,-0.06776450829711715,-0.006761404517123484,0.9976784325744472,203.6848571992882,21.371573134062892,-137.33317271024487,8.450807206825413,-35.97705078125,4381.2578125,True
1599567211.4620726,0.0,10,0.5,0.5,-2.9098975219726566,-0.05075,-0.0155,-0.2505,-0.03326992599370458,10,1,100,0.7024301391463486,-10,-1,-100,6485.017002055654,-0.06780541670386131,-0.0064303932904156615,0.9976778415439256,203.290335173594,21.335815828230896,-130.94479887042647,8.070820068217145,-36.25286865234375,4381.2578125,True
1599567211.656928,0.0,10,0.5,0.5,-2.988713815307617,-0.05075,-0.0155,-0.2505,-0.04348909271868878,10,1,100,0.7044975425100444,-10,-1,-100,6485.175689751282,-0.06779975945265881,-0.006216529697008029,0.9976795815173767,203.1246273467414,21.32104445872492,-127.77740034608328,7.8808255813561985,-36.49713134765625,4381.2578125,True
1599567211.736714,0.0,10,0.5,0.5,-2.618404034423828,-0.05075,-0.0155,-0.2505,0.0867587654272427,10,1,100,0.6728307603128536,-10,-1,-100,6485.750314657111,-0.06744510051390694,-0.004832385420131705,0.997711284123729,202.61064133317564,21.27546961090738,-115.22944967780255,7.1208186589697355,-38.20477294921875,4381.2578125,True
1599567211.8300872,0.0,10,0.5,0.5,-2.508459944152832,-0.05075,-0.0155,-0.2505,0.12490103575046994,10,1,100,0.6451711525287904,-10,-1,-100,6486.16375731118,-0.06680991858926474,-0.0032229314514692258,0.9977605161014114,202.2212227313851,21.23794790367782,-105.84374305488433,6.550753896722181,-40.256195068359375,4381.2578125,True
1599567211.906882,0.0,10,0.5,0.5,-2.8491899856567384,-0.05075,-0.0155,-0.2505,0.0342886283121678,10,1,100,0.6836670021998155,-10,-1,-100,6486.260381368338,-0.06652170645606365,-0.0025806107008047464,0.9977816409508566,202.04866101966803,21.220286110609283,-102.69877054438929,6.360715132437292,-41.0869140625,4381.2578125,True
1599567211.977695,0.0,10,0.5,0.5,-1.9103019149780271,-0.05075,-0.0155,-0.2505,0.2932914673300006,10,1,100,0.5388767866579298,-10,-1,-100,6486.772297209827,-0.06488294646053999,0.0003602345278712646,0.9978928166339728,200.85355968610307,21.093006200132425,-89.93253702135155,5.600438012217875,-45.14599609375,4381.2578125,True
1599567212.0574796,0.0,10,0.5,0.5,-2.635590856933594,-0.05075,-0.0155,-0.2505,0.09346790800520628,10,1,100,0.6521498942922608,-10,-1,-100,6486.869376146584,-0.06436393567359373,0.0012168248923259887,0.9979257503049948,200.36189162523232,21.040028852388538,-86.67700323867548,5.410328902999584,-46.344451904296875,4381.2578125,True
1599567212.1352708,0.0,10,0.5,0.5,-2.620260794067383,-0.05075,-0.0155,-0.2505,0.10582841134240908,10,1,100,0.6476336533546037,-10,-1,-100,6486.965473718126,-0.06379253828086971,0.002106805413175467,0.9979609578689111,199.76266313053765,20.975416587583833,-83.39018977344844,5.220199358245914,-47.61651611328125,4381.2578125,True
1599567212.2050843,0.0,10,0.5,0.5,-1.637580261230469,-0.05075,-0.0155,-0.2505,0.3168673774475175,10,1,100,0.47808860928634767,-10,-1,-100,6487.254706336535,-0.061735088151142634,0.0048261615011481775,0.9980809020596153,197.15954138231663,20.695072600469597,-73.33143422320246,4.649663758112634,-51.876220703125,4381.2578125,True
1599567212.2778904,0.0,10,0.5,0.5,-1.7136204910278323,-0.05075,-0.0155,-0.2505,0.2644231862693289,10,1,100,0.5030302351348602,-10,-1,-100,6487.447829553857,-0.06009679053082929,0.006810843265985363,0.9981693183933774,194.56645708386495,20.416804233852524,-66.45769731447812,4.269154760684333,-55.083892822265625,4381.2578125,True
1599567212.3417199,0.0,10,0.5,0.5,-1.9710311996459964,-0.05075,-0.0155,-0.2505,0.1791350729733156,10,1,100,0.5664660066198193,-10,-1,-100,6487.544385759393,-0.05919108854201341,0.007827414524252584,0.9982159819493361,192.95768719980703,20.24465535086738,-62.97594972473272,4.078843650109542,-56.79840087890625,4381.2578125,True
1599567212.4165187,0.0,10,0.5,0.5,-0.6853086486816407,-0.05075,-0.0155,-0.2505,0.4080285398464798,10,1,100,0.32246013267688267,-10,-1,-100,6487.7710435634945,-0.05615731908739214,0.010819458268965488,0.9983633080375516,186.62389275191407,19.569943629741562,-52.392487312269225,3.5076347156863577,-62.386322021484375,4381.2578125,True
1599567212.4823434,0.0,10,0.5,0.5,-1.4393656600952147,-0.05075,-0.0155,-0.2505,0.22253072833926243,10,1,100,0.5009785843209058,-10,-1,-100,6487.8041107635945,-0.05503282590755962,0.011837667034124357,0.9984143717474312,183.9501796821443,19.286272839632165,-48.84095999325037,3.3171275068808916,-64.39657592773438,4381.2578125,True
1599567212.560647,0.0,10,0.5,0.5,0.7288383392333984,-0.05075,-0.0155,-0.2505,0.5557866238016869,10,1,100,0.0614648170742087,-10,-1,-100,6488.002769732731,-0.050026263564202214,0.015777755822605138,0.9986232699947498,170.13196214367065,17.828302584421277,-34.795440888640876,2.554414030520117,-73.13076782226562,4381.2578125,True
1599567212.6284254,0.0,10,0.5,0.5,0.022439427185058536,-0.05075,-0.0155,-0.2505,0.37613181151402636,10,1,100,0.24782036120130885,-10,-1,-100,6488.132371031446,-0.04718424243051009,0.01770915580290523,0.998729209078721,161.23438979277861,16.893672835490168,-28.05022653090883,2.1726017806724625,-77.8795166015625,4381.2578125,True
1599567212.6962435,0.0,10,0.5,0.5,-1.1100936080932617,-0.05075,-0.0155,-0.2505,0.1850207901343882,10,1,100,0.5300887281679662,-10,-1,-100,6488.132371031446,-0.04718424243051009,0.01770915580290523,0.998729209078721,161.23438979277861,16.893672835490168,-28.05022653090883,2.1726017806724625,-77.8795166015625,4381.2578125,True
1599567212.762575,0.0,10,0.5,0.5,0.38082023620605476,-0.05075,-0.0155,-0.2505,0.36598937459608427,10,1,100,0.21485101440608984,-10,-1,-100,6488.200944498181,-0.04433453476361124,0.019338553005943344,0.9988295497205368,151.110988732376,15.831628649162806,-21.668785671592165,1.7905698729462451,-82.66018676757812,4381.2578125,True
1599567212.8323882,0.0,10,0.5,0.5,0.6584734481811523,-0.05075,-0.0155,-0.2505,0.3809917589179811,10,1,100,0.15954747808644965,-10,-1,-100,6488.268551408546,-0.041259340555260995,0.020939734204255586,0.99892902367906,145.97678999709476,15.293272497499334,-16.466920159216762,1.4084310538457743,-87.37030029296875,4381.2578125,True
1599567212.8972158,0.0,10,0.5,0.5,1.0008636070251464,-0.05075,-0.0155,-0.2505,0.385873739158375,10,1,100,0.10299612333064562,-10,-1,-100,6488.272688521654,-0.03797009095691311,0.022422614269642042,0.9990272761852094,152.813398558363,16.00902991428398,-12.562138422132614,1.0262705704771942,-92.21894836425781,4381.2578125,True
1599567212.9610474,0.0,10,0.5,0.5,2.0565877193450928,-0.05075,-0.0155,-0.2505,0.43999645268563187,10,1,100,-0.11324112424036936,-10,-1,-100,6488.311878971639,-0.03303567543249147,0.024246714949542524,0.999160017696302,162.82178978111446,17.05429228403156,-5.910747454841866,0.4531219555728563,-99.54767608642578,4381.2578125,True
1599567213.620919,0.0,10,0.5,0.5,1.0043659851074218,-0.05075,-0.0155,-0.2505,0.31853161068371055,10,1,100,0.1906861829230183,-10,-1,-100,6488.345459537115,-0.03133741967095562,0.024784911666085898,0.9992015183545664,165.8890644357262,17.374058717075066,-3.483563842370777,0.2620990324745076,-101.9201431274414,4381.2578125,True
1599567213.6797621,0.0,10,0.5,0.5,1.1762332096099855,-0.05075,-0.0155,-0.2505,0.32099500596879343,10,1,100,0.1707346200054296,-10,-1,-100,6488.3175210511545,-0.029637494469282284,0.025281160004497143,0.999240952858924,168.80534408328708,17.678098388492202,-0.9613813134450352,0.07107919945833974,-104.23128509521484,4381.2578125,True
1599567213.7405992,0.0,10,0.5,0.5,1.991605469894409,-0.05075,-0.0155,-0.2505,0.36803010298276523,10,1,100,-0.03267871198453054,-10,-1,-100,6488.32123227953,-0.026267004744777892,0.026146739647056626,0.999312960221955,174.3022210044681,18.251904469060758,4.343793406718763,-0.31098887248993856,-108.6444091796875,4381.2578125,True
1599567213.8144042,0.0,10,0.5,0.5,1.586653150558472,-0.05075,-0.0155,-0.2505,0.32409171703397943,10,1,100,0.11018291895218368,-10,-1,-100,6488.353857563459,-0.024527816022982922,0.026521182111109983,0.999347293557436,176.77132825586048,18.510046124144587,7.112335992951543,-0.5020545828729914,-110.74217224121094,4381.2578125,True
1599567213.892195,0.0,10,0.5,0.5,2.3170443885803222,-0.05075,-0.0155,-0.2505,0.3555884818657507,10,1,100,-0.0969628644883418,-10,-1,-100,6488.298518051393,-0.02108677228783837,0.027138151825730497,0.9994092598880423,181.6858073856161,19.024094762947698,12.876712216419344,-0.8842529067346976,-114.7175521850586,4381.2578125,True
1599567213.9570212,0.0,10,0.5,0.5,3.0082006805419925,-0.05075,-0.0155,-0.2505,0.36713759616471686,10,1,100,-0.307782877273575,-10,-1,-100,6488.21042450855,-0.01606573011251636,0.027795453518082634,0.9994845196798577,186.88978463220295,19.56854580542633,21.840792950676303,-1.4577533770888367,-120.12797546386719,4381.2578125,True
1599567214.022848,0.0,10,0.5,0.5,2.2172832992553713,-0.05075,-0.0155,-0.2505,0.31790744174216395,10,1,100,0.006645827664431114,-10,-1,-100,6488.182047644397,-0.014387878645585493,0.027936284291183933,0.9995061545423731,188.14487052170952,19.699952505570213,24.87355473086996,-1.648978800329332,-121.78410339355469,4381.2578125,True
1599567214.0856798,0.0,10,0.5,0.5,3.2261117122650145,-0.05075,-0.0155,-0.2505,0.33874525000280964,10,1,100,-0.35330034497975493,-10,-1,-100,6488.094021600205,-0.009617545429899399,0.028245930767931676,0.9995547359774536,190.7319181584063,19.970952224031038,33.998356230047236,-2.222826844677066,-126.3087387084961,4381.2578125,True
1599567214.16457,0.0,10,0.5,0.5,2.5628510536193847,-0.05075,-0.0155,-0.2505,0.3153862508382558,10,1,100,-0.047492967724135554,-10,-1,-100,6488.002192662563,-0.008089711204440728,0.028308431030239428,0.9995665006917923,191.27972631130228,20.028301182157982,37.03381587210376,-2.4141627490130997,-127.6690902709961,4381.2578125,True
1599567214.2283251,0.0,10,0.5,0.5,3.6937344940185546,-0.05075,-0.0155,-0.2505,0.3112560096942366,10,1,100,-0.5452463557519582,-10,-1,-100,6487.761390682543,-0.002202904180818523,0.028322351061245758,0.9995964143810908,192.4238841529351,20.14750853106433,49.085774614545855,-3.1797357647814284,-132.37184143066406,4381.2578125,True
1599567214.293152,0.0,10,0.5,0.5,2.566572784805298,-0.05075,-0.0155,-0.2505,0.31027157020477397,10,1,100,0.04035106948509498,-10,-1,-100,6487.761390682543,-0.002202904180818523,0.028322351061245758,0.9995964143810908,192.4238841529351,20.14750853106433,49.085774614545855,-3.1797357647814284,-132.37184143066406,4381.2578125,True
1599567214.3639627,0.0,10,0.5,0.5,3.44199896850586,-0.05075,-0.0155,-0.2505,0.3017853223569931,10,1,100,-0.40141398986752863,-10,-1,-100,6487.549467995414,0.0017866558901233856,0.02824198749954306,0.9995995188088108,192.5639364633027,20.160691385896836,58.009916850137635,-3.7541159978715513,-135.1211395263672,4381.2578125,True
1599567214.4312983,0.0,10,0.5,0.5,3.241801323318481,-0.05075,-0.0155,-0.2505,0.2990801338781057,10,1,100,-0.2778947404551175,-10,-1,-100,6487.426924588392,0.004262059005085559,0.028141645432282498,0.9995948592531881,192.46583180315707,20.148728763759298,63.90724764640007,-4.137113476844905,-136.5837860107422,4381.2578125,True
1599567214.496125,0.0,10,0.5,0.5,3.2699996036529546,-0.05075,-0.0155,-0.2505,0.2971626060811795,10,1,100,-0.2875872657159078,-10,-1,-100,6487.2433558852645,0.006572785644922117,0.028031179749541543,0.9995854397952757,192.4402337969725,20.143739492117682,69.82830084941105,-4.520163940543462,-137.7498779296875,4381.2578125,True
1599567214.5729167,0.0,10,0.5,0.5,3.2815703449249267,-0.05075,-0.0155,-0.2505,0.2985862070992905,10,1,100,-0.29392907326438567,-10,-1,-100,6487.060286435299,0.008702825748243418,0.027942325503906747,0.9995716518936647,192.41633250067125,20.138271174491585,75.75192607455801,-4.903259778374272,-138.6189727783203,4381.2578125,True
1599567214.6399379,0.0,10,0.5,0.5,3.2734881752014164,-0.05075,-0.0155,-0.2505,0.29480121678088367,10,1,100,-0.3031522666408177,-10,-1,-100,6486.81325968192,0.010695991601924817,0.027826408847091255,0.9995555445968602,192.46488594165714,20.13974674225825,81.70837310911924,-5.286394503704411,-139.1918487548828,4381.2578125,True
1599567214.704765,0.0,10,0.5,0.5,3.2427000244140625,-0.05075,-0.0155,-0.2505,0.2951951675129833,10,1,100,-0.3071980637467224,-10,-1,-100,6486.628738927888,0.012520411695584823,0.027724583297251706,0.9995371862877174,192.60364784634524,20.150080936720997,87.71251374232688,-5.6695625259586695,-139.46792602539062,4381.2578125,True
1599567214.7660673,0.0,10,0.5,0.5,3.1947378410339353,-0.05075,-0.0155,-0.2505,0.29515395723076343,10,1,100,-0.31029002848530673,-10,-1,-100,6486.382209421368,0.014182622105316348,0.027631832432099147,0.999517551154887,192.8581045741357,20.172038789080556,93.78520014507956,-6.052758645053854,-139.44729614257812,4381.2578125,True
1599567214.8368785,0.0,10,0.5,0.5,3.1246818019866947,-0.05075,-0.0155,-0.2505,0.29545295751517464,10,1,100,-0.3113836911800091,-10,-1,-100,6486.135193349561,0.015682028349992105,0.02755078991939677,0.9994973876712471,193.23391755275367,20.206348043461098,99.94019582289148,-6.43597732547209,-139.12998962402344,4381.2578125,True
1599567214.9007077,0.0,10,0.5,0.5,3.0369736503601072,-0.05075,-0.0155,-0.2505,0.2958800386989655,10,1,100,-0.3107244567283115,-10,-1,-100,6485.825676697423,0.017017521223268786,0.027481686228711655,0.9994774439142898,193.72213672688451,20.25224293208107,106.18396921827927,-6.819212633793627,-138.51602172851562,4381.2578125,True
1599567214.96354,0.0,10,0.5,0.5,3.0743094543457032,-0.05075,-0.0155,-0.2505,0.29944063295752793,10,1,100,-0.24576120359685275,-10,-1,-100,6485.733906397712,0.01762355751104879,0.02745199797119624,0.999467757372915,194.00169031227105,20.27889533667937,109.33866595388866,-7.010834605676168,-138.09780883789062,4381.2578125,True
1599567215.0303621,0.0,10,0.5,0.5,2.8689583282470705,-0.05075,-0.0155,-0.2505,0.2967189762575223,10,1,100,-0.30683636878337334,-10,-1,-100,6485.4234087506775,0.018711704309188195,0.027401057542627675,0.9994493754900201,194.6126448343978,20.337780726116367,115.70791034137795,-7.394082425556872,-137.03892517089844,4381.2578125,True
1599567215.0941927,0.0,10,0.5,0.5,2.2314270889282226,-0.05075,-0.0155,-0.2505,0.29065978174505064,10,1,100,-0.3867046218383502,-10,-1,-100,6484.802885911777,0.02041161729125193,0.027300428957412796,0.9994188573657676,195.87020880317056,20.46109517214814,128.59581610329798,-8.160562363936148,-134.0322723388672,4381.2578125,True
1599567215.1739767,0.0,10,0.5,0.5,2.6983869804382326,-0.05075,-0.0155,-0.2505,0.29859514872400295,10,1,100,-0.25329306502292376,-10,-1,-100,6484.585616520024,0.020729478978182204,0.02728185286745781,0.9994128222138294,196.1451887627115,20.48846627449456,131.81830086100857,-8.352172613072772,-133.0953369140625,4381.2578125,True
1599567215.2398007,0.0,10,0.5,0.5,2.2944522651672363,-0.05075,-0.0155,-0.2505,0.29644299371315996,10,1,100,-0.27867850606435574,-10,-1,-100,6484.274607216124,0.021236351163647055,0.027246081673656598,0.9994031561000228,196.57483361328445,20.531801024247066,138.20746813941045,-8.735374494463658,-130.99932861328125,4381.2578125,True
1599567215.309615,0.0,10,0.5,0.5,2.4585303855896,-0.05075,-0.0155,-0.2505,0.298105478676115,10,1,100,-0.2498328331042325,-10,-1,-100,6484.120320352609,0.021423516554963613,0.027229308855164405,0.999399618609938,196.70578196713913,20.5453940795341,141.35340067190668,-8.926964930057942,-129.8402862548828,4381.2578125,True
1599567215.3923936,0.0,10,0.5,0.5,1.5534301589965818,-0.05075,-0.0155,-0.2505,0.286923243029791,10,1,100,-0.27263813028405737,-10,-1,-100,6483.52902503463,0.02179123549874704,0.027112946968833946,0.9993948319668775,196.61661574930878,20.53928430877296,150.45332806759117,-9.50168649732855,-125.92013549804688,4381.2578125,True
1599567215.4751713,0.0,10,0.5,0.5,2.076219867706299,-0.05075,-0.0155,-0.2505,0.29376298213889274,10,1,100,-0.2408399727340573,-10,-1,-100,6483.311739489785,0.02182802326645637,0.02706989891527847,0.9993951960926146,196.37724240020125,20.516683992229545,153.32332834560694,-9.693242890959903,-124.46549987792969,4381.2578125,True
1599567215.5589483,0.0,10,0.5,0.5,0.969370027923584,-0.05075,-0.0155,-0.2505,0.27677825737809014,10,1,100,-0.22678424948454223,-10,-1,-100,6482.720411556889,0.021726737024686405,0.026876868581054213,0.9994026129811433,194.79995464791216,20.363668309680886,161.18477360460184,-10.267866690526844,-119.6588134765625,4381.2578125,True
1599567215.6307588,0.0,10,0.5,0.5,0.4952521057128909,-0.05075,-0.0155,-0.2505,0.26302165134804534,10,1,100,-0.1913199799470602,-10,-1,-100,6482.066558139166,0.021306760983032334,0.026576939059975702,0.999419675735181,192.29990506234932,20.12115967652745,168.1037922144709,-10.842454428449411,-114.188232421875,4381.2578125,True
1599567215.7095478,0.0,10,0.5,0.5,1.8279245864868165,-0.05075,-0.0155,-0.2505,0.2929241287390228,10,1,100,-0.23374650808844372,-10,-1,-100,6482.066558139166,0.021306760983032334,0.026576939059975702,0.999419675735181,192.29990506234932,20.12115967652745,168.1037922144709,-10.842454428449411,-114.188232421875,4381.2578125,True
1599567215.7873733,0.0,10,0.5,0.5,0.5815806091308595,-0.05075,-0.0155,-0.2505,0.26272851591241114,10,1,100,-0.18541499578553794,-10,-1,-100,6481.629990380141,0.02086403523166775,0.026303228996925797,0.9994362571861135,189.62722134072877,19.857588953901814,171.6831226378501,-11.225526507756598,-110.17401123046875,4381.2578125,True
1599567215.8652039,0.0,10,0.5,0.5,-0.3905468982696534,-0.05075,-0.0155,-0.2505,0.2298744258965537,10,1,100,-0.13378253844644727,-10,-1,-100,6480.975118900882,0.01999021463559687,0.025756726147232362,0.9994683498625655,183.6879390763767,19.262549098765845,174.91394001133384,-11.800233277522935,-103.7472915649414,4381.2578125,True
1599567215.9350169,0.0,10,0.5,0.5,0.4899632705688476,-0.05075,-0.0155,-0.2505,0.2595687531136711,10,1,100,-0.18244704735909953,-10,-1,-100,6480.693835509825,0.01963861999533441,0.02553125717022138,0.9994811051300504,181.5138817921021,19.043808043176245,175.68275633672027,-11.991842206420635,-101.48192596435547,4381.2578125,True
1599567216.0053399,0.0,10,0.5,0.5,-0.4024753654479981,-0.05075,-0.0155,-0.2505,0.22594277069412988,10,1,100,-0.1347903087227676,-10,-1,-100,6480.195715087,0.01888673711565902,0.025022186074303964,0.9995084698816648,176.44689168929062,18.52960184016931,176.3038499545027,-12.375138358042127,-96.79840087890625,4381.2578125,True
1599567216.0701668,0.0,10,0.5,0.5,-0.7026610130310058,-0.05075,-0.0155,-0.2505,0.21139616817181342,10,1,100,-0.11935296020858012,-10,-1,-100,6479.695633912226,0.01806500370586877,0.024429174051084666,0.9995383289780781,170.1389051926491,17.88155489401564,175.33637527599848,-12.758555294470595,-92.08338928222656,4381.2578125,True
1599567216.1425872,0.0,10,0.5,0.5,-1.730042498779297,-0.05075,-0.0155,-0.2505,0.15080890729506147,10,1,100,-0.04926762749673122,-10,-1,-100,6478.91473846708,0.01668388713854182,0.023341824508191267,0.9995883188285951,160.26000722030304,16.854831911529317,172.70680545547827,-13.333889146144363,-84.94656372070312,4381.2578125,True
1599567216.226363,0.0,10,0.5,0.5,-1.4167553161621094,-0.05075,-0.0155,-0.2505,0.16684287624753355,10,1,100,-0.08001965659439486,-10,-1,-100,6478.354097420583,0.01571253356764172,0.022502516571002145,0.9996233055690816,161.65059121445364,17.000136473276964,179.29017575502868,-13.71749761093226,-80.2628173828125,4381.2578125,True
1599567216.3011613,0.0,10,0.5,0.5,-2.307689525604248,-0.05075,-0.0155,-0.2505,0.09501271774072262,10,1,100,-0.011529366840768301,-10,-1,-100,6477.510692526586,0.014212405405153037,0.021090660080172186,0.999676543482932,174.73473319220088,18.36219380799564,202.05444333906675,-14.292616525818026,-73.63809204101562,4381.2578125,True
1599567216.3979037,0.0,10,0.5,0.5,-1.3422075035095216,-0.05075,-0.0155,-0.2505,0.17865712433699282,10,1,100,-0.10430303492596163,-10,-1,-100,6477.22988269222,0.013698880723319205,0.020572818065293662,0.9996945032477575,178.48679076029595,18.74945821717868,209.20462263657896,-14.484228151410774,-71.57110595703125,4381.2578125,True
1599567216.468714,0.0,10,0.5,0.5,-2.068988597869873,-0.05075,-0.0155,-0.2505,0.11201249860437335,10,1,100,-0.04284454807013427,-10,-1,-100,6476.66680089233,0.012680242841380666,0.01950165065510272,0.9997294119226511,185.183608930162,19.436365067653078,222.89006607068595,-14.867299362033059,-67.6590576171875,4381.2578125,True
1599567217.0122614,0.0,10,0.5,0.5,-1.7167910392761232,-0.05075,-0.0155,-0.2505,0.15761790459199632,10,1,100,-0.08817845775888386,-10,-1,-100,6476.323494297219,0.01217417714419031,0.01894888878063923,0.9997463323387794,188.2743094152199,19.7517554518984,229.57788741491382,-15.058758108840046,-65.8145751953125,4381.2578125,True
1599567217.0671139,0.0,10,0.5,0.5,-2.3672711112976073,-0.05075,-0.0155,-0.2505,0.08236736508850541,10,1,100,-0.02574827321315877,-10,-1,-100,6475.760417374666,0.011154470158226557,0.01776896793583731,0.999779896564231,193.67056419694202,20.299096932783936,242.2659228838243,-15.441526097267657,-62.34979248046875,4381.2578125,True
1599567217.1289506,0.0,10,0.5,0.5,-2.051753335952759,-0.05075,-0.0155,-0.2505,0.133511149217218,10,1,100,-0.07144296353589019,-10,-1,-100,6475.416624774807,0.010650902577991039,0.01716851771283422,0.9997958793042799,196.00948416760937,20.534908675823054,248.28375119818568,-15.632838138586884,-60.72906494140625,4381.2578125,True
1599567217.1913002,0.0,10,0.5,0.5,-2.1746391197204593,-0.05075,-0.0155,-0.2505,0.1236853813537443,10,1,100,-0.06532534008650268,-10,-1,-100,6475.073320992757,0.010145669762252812,0.016540931201761092,0.9998117137641737,198.12808221620105,20.74769518470325,254.0936538322564,-15.824104385540148,-59.183135986328125,4381.2578125,True
1599567217.2541337,0.0,10,0.5,0.5,-3.1082567756652835,-0.05075,-0.0155,-0.2505,-0.02606779223219452,10,1,100,0.04970828309206571,-10,-1,-100,6474.104941733065,0.008648553416643263,0.014616715754433844,0.9998557666705501,203.3576531352924,21.269579090750447,270.4324734535242,-16.397646876954866,-54.992034912109375,4381.2578125,True
1599567217.312974,0.0,10,0.5,0.5,-2.8452283706665042,-0.05075,-0.0155,-0.2505,0.015367758826715261,10,1,100,0.009683051247436084,-10,-1,-100,6473.478405473405,0.007659964710394147,0.013253036228577935,0.9998828341217582,206.05864036340003,21.53728281942859,280.5362865642734,-16.779814189652072,-52.570953369140625,4381.2578125,True
1599567217.3747957,0.0,10,0.5,0.5,-2.9286997665405274,-0.05075,-0.0155,-0.2505,0.000285890693203783,10,1,100,0.019474243939372138,-10,-1,-100,6472.791327991639,0.006680440427902939,0.011885391302294835,0.9999070502748146,208.26369386788198,21.755080403053455,290.12482635142,-17.161844421943947,-50.447235107421875,4381.2578125,True
1599567217.4396236,0.0,10,0.5,0.5,-2.993029191589356,-0.05075,-0.0155,-0.2505,-0.01675258122753373,10,1,100,0.02956173886043245,-10,-1,-100,6472.102793787373,0.005706470301937419,0.010496834465729592,0.9999286237841641,210.08310994141954,21.934619097419294,299.30887416356114,-17.54375212549038,-48.62115478515625,4381.2578125,True
1599567217.5094354,0.0,10,0.5,0.5,-3.0348707519531253,-0.05075,-0.0155,-0.2505,-0.03349929032015364,10,1,100,0.03941029303008393,-10,-1,-100,6471.352744098054,0.004739243272338492,0.009091898009477774,0.9999474371004662,211.60854957445062,22.0854127562674,308.18594297266435,-17.9255496163317,-47.092529296875,4381.2578125,True
1599567217.5750108,0.0,10,0.5,0.5,-2.8865850906372073,-0.05075,-0.0155,-0.2505,0.02898541113019519,10,1,100,-0.0033945440365665963,-10,-1,-100,6471.008972455282,0.0042572259800826365,0.008393162989757307,0.9999557144403856,212.28484157413482,22.152449618851552,312.53586377129244,-18.116410166151198,-46.439605712890625,4381.2578125,True
1599567217.6428306,0.0,10,0.5,0.5,-3.21182879486084,-0.05075,-0.0155,-0.2505,-0.13058619633554933,10,1,100,0.10822691853541849,-10,-1,-100,6469.914679829613,0.00281194516088772,0.006317396983654973,0.999976091444072,214.38313959036097,22.36297159299441,325.8299010334951,-18.6888450914461,-44.92620849609375,4381.2578125,True
1599567217.707656,0.0,10,0.5,0.5,-2.9723593963623043,-0.05075,-0.0155,-0.2505,0.0003730765457988505,10,1,100,0.017641535904978106,-10,-1,-100,6469.507928049192,0.002330068105517529,0.005632358996844184,0.9999814234848337,215.0145883185971,22.426616725998496,330.20472194911304,-18.879609744328928,-44.570159912109375,4381.2578125,True
1599567217.7810135,0.0,10,0.5,0.5,-3.0580430252075197,-0.05075,-0.0155,-0.2505,-0.08557303400356546,10,1,100,0.07574754492962621,-10,-1,-100,6468.757417262183,0.0013717837931866536,0.004239302193784694,0.9999900732137967,216.1926873346255,22.545593650380017,338.88703370510666,-19.261071547707513,-44.081146240234375,4381.2578125,True
1599567217.8583221,0.0,10,0.5,0.5,-3.0197000137329106,-0.05075,-0.0155,-0.2505,-0.0896608590342019,10,1,100,0.08836071424939225,-10,-1,-100,6467.943925385596,0.0003943866234196249,0.002947478704833054,0.9999955784044627,217.2768395064339,22.65508334118755,347.5013701758246,-19.642445008966554,-43.887451171875,4381.2578125,True
1599567217.9411013,0.0,10,0.5,0.5,-2.843242240905762,-0.05075,-0.0155,-0.2505,-0.24866072699373212,10,1,100,0.20617208107588814,-10,-1,-100,6466.379952429212,-0.0015563038810286972,0.00033999805387849487,0.9999987311589716,219.20578778059797,22.84805976645661,364.5618530520895,-20.40493601188172,-44.390838623046875,4381.2578125,True
1599567218.025437,0.0,10,0.5,0.5,-2.9857726516723635,-0.05075,-0.0155,-0.2505,0.010659666331668233,10,1,100,0.012123516360823126,-10,-1,-100,6466.379952429212,-0.0015563038810286972,0.00033999805387849487,0.9999987311589716,219.20578778059797,22.84805976645661,364.5618530520895,-20.40493601188172,-44.390838623046875,4381.2578125,True
1599567218.1072173,0.0,10,0.5,0.5,-2.788915391540528,-0.05075,-0.0155,-0.2505,-0.12594778147176916,10,1,100,0.12164704507511888,-10,-1,-100,6465.504959264887,-0.002543593897893729,-0.0008901487096303003,0.9999963688760861,220.0312465017834,22.928501902361127,372.9604781032761,-20.7860587242395,-45.086395263671875,4381.2578125,True
1599567218.2034826,0.0,10,0.5,0.5,-2.490379135131836,-0.05075,-0.0155,-0.2505,-0.19087225894537915,10,1,100,0.18957516678829905,-10,-1,-100,6464.284277093946,-0.004050273170321944,-0.0025870723443875455,0.9999884511052769,221.01689686558223,23.019482739831407,385.23262581207007,-21.357601804267798,-46.683349609375,4381.2578125,True
1599567218.2792797,0.0,10,0.5,0.5,-2.211975895690918,-0.05075,-0.0155,-0.2505,-0.1970506775870977,10,1,100,0.20726657616413932,-10,-1,-100,6462.9381201909855,-0.005571942827334997,-0.004174003175627831,0.9999757652816487,221.5519179194017,23.058122778759202,396.8123306951782,-21.9289994221808,-48.945404052734375,4381.2578125,True
1599567218.3441055,0.0,10,0.5,0.5,-2.504239292907715,-0.05075,-0.0155,-0.2505,-0.09187370037158939,10,1,100,0.1119815209090662,-10,-1,-100,6462.532372083864,-0.0060796772985737685,-0.004648453319173373,0.9999707142740153,221.59189892988118,23.055143490386328,400.43845957994546,-22.11943931589329,-49.8466796875,4381.2578125,True
1599567218.410927,0.0,10,0.5,0.5,-2.115047813415527,-0.05075,-0.0155,-0.2505,-0.14479155703679794,10,1,100,0.1739183899026725,-10,-1,-100,6461.594414083869,-0.007094919351206657,-0.00554898704089037,0.9999594346083344,221.40551889016774,23.01906664114066,407.2126101991758,-22.500291127059278,-51.870513916015625,4381.2578125,True
1599567218.479744,0.0,10,0.5,0.5,-2.273138998413086,-0.05075,-0.0155,-0.2505,-0.10170975753189845,10,1,100,0.12907649598785684,-10,-1,-100,6461.186227778788,-0.007601206850272692,-0.005965213716020786,0.9999533178502593,221.15672960340973,22.983609684919713,410.310743422115,-22.69070769493564,-52.992889404296875,4381.2578125,True
1599567218.5415788,0.0,10,0.5,0.5,-1.7982265899658203,-0.05075,-0.0155,-0.2505,-0.15161768996498878,10,1,100,0.19112558558727394,-10,-1,-100,6460.247786733904,-0.008616522414003978,-0.006786766831246653,0.9999398458594734,220.60042080844556,22.90411886033956,416.3814244037932,-23.071531317373424,-55.459320068359375,4381.2578125,True
1599567218.6074016,0.0,10,0.5,0.5,-1.117833805847168,-0.05075,-0.0155,-0.2505,-0.18386027265994276,10,1,100,0.2551625404924606,-10,-1,-100,6458.840129200369,-0.010112610419982127,-0.007816723988656085,0.9999183136319582,218.8061993717464,22.67961666694791,423.588339765749,-23.64278651577034,-59.71026611328125,4381.2578125,True
1599567218.672368,0.0,10,0.5,0.5,-1.1935967575073245,-0.05075,-0.0155,-0.2505,-0.14782111788799607,10,1,100,0.21417694411940924,-10,-1,-100,6457.900716884993,-0.011090542279258701,-0.008415634358652882,0.9999030837887707,216.91273333431073,22.454940679982094,426.943801935917,-24.023672693580984,-62.91217041015625,4381.2578125,True
1599567218.736199,0.0,10,0.5,0.5,-1.451472250366211,-0.05075,-0.0155,-0.2505,-0.11805534855813334,10,1,100,0.1699444572480267,-10,-1,-100,6457.3685114783,-0.011568790235771901,-0.008681540762548916,0.9998953914997654,215.66111670620106,22.310668612442548,427.9772076654409,-24.214141268889843,-64.62335205078125,4381.2578125,True
1599567218.8139904,0.0,10,0.5,0.5,-0.16955703735351557,-0.05075,-0.0155,-0.2505,-0.16547576512098966,10,1,100,0.27367457570303805,-10,-1,-100,6455.897381237708,-0.0129374599218706,-0.009346167154101798,0.999872627533276,210.50074693055282,21.73382868606746,428.00517432840843,-24.785692365381678,-70.19747924804688,4381.2578125,True
1599567218.8763337,0.0,10,0.5,0.5,-0.9229643859863282,-0.05075,-0.0155,-0.2505,-0.12023504845369629,10,1,100,0.18617688857504985,-10,-1,-100,6455.427675004466,-0.013376822602593184,-0.009531406432679504,0.999865097354875,208.25670822632517,21.488846409789122,426.8390157997857,-24.976268366640305,-72.20242309570312,4381.2578125,True
1599567218.9381673,0.0,10,0.5,0.5,0.5478751510620119,-0.05075,-0.0155,-0.2505,-0.15083142829150048,10,1,100,0.27983334626585366,-10,-1,-100,6453.892575830803,-0.014619186882773501,-0.0099716416534681,0.999843410608692,199.72247619555537,20.57710545123678,419.1502590709409,-25.548205339268875,-78.62075805664062,4381.2578125,True
1599567219.0029953,0.0,10,0.5,0.5,0.33238191375732407,-0.05075,-0.0155,-0.2505,-0.12980812835411706,10,1,100,0.23967801713534914,-10,-1,-100,6452.892123204889,-0.015375335741700623,-0.010175464001592575,0.9998300150441486,192.63457226755386,19.836212320968507,410.6021221500674,-25.929672048450186,-83.08981323242188,4381.2578125,True
1599567219.0817842,0.0,10,0.5,0.5,-0.036797665405273405,-0.05075,-0.0155,-0.2505,-0.11902248805799934,10,1,100,0.20497598576551498,-10,-1,-100,6452.359913816908,-0.015738820184233036,-0.01025768121475701,0.9998235191849133,188.6749049850954,19.427123223378405,405.266595456339,-26.120451593205644,-85.40945434570312,4381.2578125,True
1599567219.1486049,0.0,10,0.5,0.5,0.8236617179870606,-0.05075,-0.0155,-0.2505,-0.12227540067207629,10,1,100,0.23884092832603843,-10,-1,-100,6451.295491774683,-0.016369265609055418,-0.01035771543760368,0.9998123648336893,196.88407736938677,20.2782859298148,429.3885712750184,-26.50183505531567,-90.02204895019531,4381.2578125,True
1599567219.2128086,0.0,10,0.5,0.5,1.0849158267974854,-0.05075,-0.0155,-0.2505,-0.1191051289893563,10,1,100,0.24036534264689954,-10,-1,-100,6450.231554307044,-0.016948285162939246,-0.010415841805147215,0.9998021133552008,204.8882982386801,21.11881181872038,453.6066651238965,-26.882928991430365,-94.53429412841797,4381.2578125,True
1599567219.2886581,0.0,10,0.5,0.5,2.0220768032073977,-0.05075,-0.0155,-0.2505,-0.11380940191291886,10,1,100,0.262832950448192,-10,-1,-100,6448.571919718059,-0.017671343225800898,-0.010417241824970178,0.9997895802124345,216.22951171524969,22.32656546695578,489.4254500913792,-27.453953576446498,-101.19624328613281,4381.2578125,True
1599567219.3564758,0.0,10,0.5,0.5,2.2931160984039307,-0.05075,-0.0155,-0.2505,-0.10610803271966379,10,1,100,0.24947212392988397,-10,-1,-100,6446.913253129809,-0.018200335102957946,-0.010346138015928449,0.9997808285970957,225.5853340100412,23.339921596398415,521.7736681126005,-28.024219750404765,-107.42214965820312,4381.2578125,True
1599567219.4312756,0.0,10,0.5,0.5,0.8025170200347901,-0.05075,-0.0155,-0.2505,-0.11341146398956424,10,1,100,0.19728391549654908,-10,-1,-100,6446.913253129809,-0.018200335102957946,-0.010346138015928449,0.9997808285970957,225.5853340100412,23.339921596398415,521.7736681126005,-28.024219750404765,-107.42214965820312,4381.2578125,True
1599567219.498096,0.0,10,0.5,0.5,2.0112617534637454,-0.05075,-0.0155,-0.2505,-0.10605725958441642,10,1,100,0.22416185190945465,-10,-1,-100,6445.784356679185,-0.018438651302286918,-0.010277768342014942,0.9997771669807529,230.93623982196578,23.924799733632874,541.7718561778923,-28.403998177462853,-111.21437072753906,4381.2578125,True
1599567219.5599308,0.0,10,0.5,0.5,2.1778779476165773,-0.05075,-0.0155,-0.2505,-0.10450236615493064,10,1,100,0.21802478538792316,-10,-1,-100,6444.595885595307,-0.018594509795680773,-0.010200631788018326,0.9997750703616208,235.2168379146434,24.39665558369936,559.5757336169848,-28.783499461727587,-114.70977783203125,4381.2578125,True
1599567219.6257548,0.0,10,0.5,0.5,2.7963673252105714,-0.05075,-0.0155,-0.2505,-0.09780242383952316,10,1,100,0.21255996241761232,-10,-1,-100,6442.88006577699,-0.01868177577431501,-0.010068990694831026,0.9997747779776732,239.97061410810085,24.92377691026766,582.7645520318284,-29.352319016803634,-119.45069885253906,4381.2578125,True
1599567219.6949832,0.0,10,0.5,0.5,2.1061387493133545,-0.05075,-0.0155,-0.2505,-0.10669349264405087,10,1,100,0.2025777070994178,-10,-1,-100,6442.280454807449,-0.01866666744391569,-0.01003005637284613,0.9997754515368419,241.18336960766712,25.058300181205496,589.6912731203637,-29.54182877558259,-120.89164733886719,4381.2578125,True
1599567219.759808,0.0,10,0.5,0.5,2.605332233428955,-0.05075,-0.0155,-0.2505,-0.10246803933840146,10,1,100,0.1951155878758455,-10,-1,-100,6441.091972175753,-0.01858210303088182,-0.009956380511561908,0.9997777632724477,243.3228853194405,25.2934805055401,602.9605104168231,-29.920725982358885,-123.55242156982422,4381.2578125,True
1599567220.3996086,0.0,10,0.5,0.5,2.710164852142334,-0.05075,-0.0155,-0.2505,-0.10335877409207406,10,1,100,0.18643919037391518,-10,-1,-100,6439.902997749741,-0.01842376514824562,-0.009897773954248908,0.9997812755540647,245.0293349757992,25.478140965261318,615.2912484629604,-30.29947896310692,-125.91668701171875,4381.2578125,True
1599567220.4534686,0.0,10,0.5,0.5,2.496122589874268,-0.05075,-0.0155,-0.2505,-0.10633944273358391,10,1,100,0.19073354911595966,-10,-1,-100,6439.246741720359,-0.018316993516650212,-0.009872010382053865,0.9997834921419373,245.72218137467007,25.55179812870184,621.0969498685644,-30.48880805975746,-126.98745727539062,4381.2578125,True
1599567220.522823,0.0,10,0.5,0.5,2.8562793170928957,-0.05075,-0.0155,-0.2505,-0.10498942448714374,10,1,100,0.17228072074190987,-10,-1,-100,6438.059716515476,-0.018050931131477835,-0.009836810451839,0.999788678194258,246.85305791257107,25.668882648070205,632.1323046558583,-30.867380873470122,-128.90640258789062,4381.2578125,True
1599567220.5876179,0.0,10,0.5,0.5,2.674051593399048,-0.05075,-0.0155,-0.2505,-0.10723986854353651,10,1,100,0.18166616814657832,-10,-1,-100,6437.400040849228,-0.01789403340508568,-0.00982579676249554,0.999791606929404,247.31484273135217,25.714918847385622,637.4150750588947,-31.056627843619076,-129.7545928955078,4381.2578125,True
1599567220.6484535,0.0,10,0.5,0.5,3.294905783462524,-0.05075,-0.0155,-0.2505,-0.10896829976108519,10,1,100,0.11027104765208302,-10,-1,-100,6434.892679540557,-0.017102631014504557,-0.009831970366209595,0.9998053972504347,248.70971085903102,25.842415978163853,657.5338815889513,-31.81337530127009,-132.40591430664062,4381.2578125,True
1599567220.7192664,0.0,10,0.5,0.5,2.9349162326812746,-0.05075,-0.0155,-0.2505,-0.11223124332435602,10,1,100,0.1353696712932591,-10,-1,-100,6433.643147265771,-0.016612341514431004,-0.009867713281660941,0.9998133117457473,249.25271124361248,25.88555470104867,667.2684018332862,-32.1916107605915,-133.28704833984375,4381.2578125,True
1599567220.783674,0.0,10,0.5,0.5,2.7484048076629644,-0.05075,-0.0155,-0.2505,-0.10861594627318594,10,1,100,0.18421599032182884,-10,-1,-100,6433.643147265771,-0.016612341514431004,-0.009867713281660941,0.9998133117457473,249.25271124361248,25.88555470104867,667.2684018332862,-32.1916107605915,-133.28704833984375,4381.2578125,True
1599567220.853492,0.0,10,0.5,0.5,3.007963622665405,-0.05075,-0.0155,-0.2505,-0.11540990148912782,10,1,100,0.09447656322670152,-10,-1,-100,6431.668503724388,-0.01579833051200371,-0.009929779164084374,0.9998258909624145,250.01471309486124,25.94107349275144,681.8190401346941,-32.758790280634784,-134.05307006835938,4381.2578125,True
1599567220.9153075,0.0,10,0.5,0.5,2.8689414180755617,-0.05075,-0.0155,-0.2505,-0.12170779969086044,10,1,100,0.0712386676070809,-10,-1,-100,6429.690441441955,-0.014849688227129901,-0.010043582869513016,0.9998392936880907,250.80613511860756,25.997218449687217,696.5562606398771,-33.32575163367347,-134.15342712402344,4381.2578125,True
1599567220.989109,0.0,10,0.5,0.5,2.8298226505279547,-0.05075,-0.0155,-0.2505,-0.11366216999260031,10,1,100,0.1296065304239028,-10,-1,-100,6428.973143803654,-0.014521373065776444,-0.010073886398557901,0.9998438110710659,251.08230058277684,26.017069861303497,701.5270045902952,-33.514687672166346,-134.03878784179688,4381.2578125,True
1599567221.0579238,0.0,10,0.5,0.5,2.6376172019958495,-0.05075,-0.0155,-0.2505,-0.12224230529975741,10,1,100,0.045513881070360404,-10,-1,-100,6426.939904710627,-0.013462117679482102,-0.01017932946785741,0.9998575661758872,251.95172194714027,26.08162152845906,716.6289839186474,-34.081334377881944,-133.25148010253906,4381.2578125,True
1599567221.1177626,0.0,10,0.5,0.5,2.722674729919434,-0.05075,-0.0155,-0.2505,-0.11668098990223914,10,1,100,0.10894449234621043,-10,-1,-100,6426.281688983436,-0.013080310746693849,-0.010224373431321699,0.999862174331396,252.2493364506829,26.104499833139513,721.7105722426616,-34.27016115504001,-132.84141540527344,4381.2578125,True
1599567221.1903465,0.0,10,0.5,0.5,2.3302610260009766,-0.05075,-0.0155,-0.2505,-0.12269756806037033,10,1,100,0.017837476376080103,-10,-1,-100,6424.185949875158,-0.011909728556039667,-0.010319698324045638,0.9998758233861954,253.11199074602723,26.172986897203646,736.9446042498118,-34.83647125855322,-131.16769409179688,4381.2578125,True
1599567221.254175,0.0,10,0.5,0.5,2.75303321685791,-0.05075,-0.0155,-0.2505,-0.1132133675751971,10,1,100,0.13428157518395445,-10,-1,-100,6424.185949875158,-0.011909728556039667,-0.010319698324045638,0.9998758233861954,253.11199074602723,26.172986897203646,736.9446042498118,-34.83647125855322,-131.16769409179688,4381.2578125,True
1599567221.3329675,0.0,10,0.5,0.5,2.3080003944396976,-0.05075,-0.0155,-0.2505,-0.12080036312398962,10,1,100,0.0414137271000925,-10,-1,-100,6422.800672441605,-0.011070915668776419,-0.010388222009433252,0.9998847531939556,253.61196703544496,26.214342701594454,746.9421863340124,-35.21386996888649,-129.68313598632812,4381.2578125,True
1599567221.399334,0.0,10,0.5,0.5,1.5145420890808108,-0.05075,-0.0155,-0.2505,-0.12144853140309844,10,1,100,-0.06717176924952989,-10,-1,-100,6419.928556989413,-0.009326701000218469,-0.010455903024465505,0.9999018385523629,254.1657918150381,26.2629160527047,765.7318696554132,-35.96834874690636,-125.82879638671875,4381.2578125,True
1599567221.4641623,0.0,10,0.5,0.5,2.1226925529479983,-0.05075,-0.0155,-0.2505,-0.11447574037960605,10,1,100,0.05758450756912627,-10,-1,-100,6419.208331332775,-0.008881822582166491,-0.010453507492696891,0.9999059142782981,254.15627739479822,26.262827630308916,770.0014039355119,-36.15690936829461,-124.680908203125,4381.2578125,True
1599567221.525996,0.0,10,0.5,0.5,1.6387199428558352,-0.05075,-0.0155,-0.2505,-0.11172049709107859,10,1,100,0.002876954952003491,-10,-1,-100,6417.770321699441,-0.007987074013720181,-0.010425749530092414,0.9999137514783137,253.88715869590598,26.24103157149326,777.785516816564,-36.53397350484011,-122.16413116455078,4381.2578125,True
1599567221.5918212,0.0,10,0.5,0.5,1.8383807582855227,-0.05075,-0.0155,-0.2505,-0.11145163682053374,10,1,100,0.04247246448824532,-10,-1,-100,6417.04277305305,-0.007540726544096901,-0.010397619952205202,0.9999175100689641,253.6055253585926,26.217154980983207,781.2244215617735,-36.722482475537866,-120.7952880859375,4381.2578125,True
1599567221.6626308,0.0,10,0.5,0.5,1.2694594886779786,-0.05075,-0.0155,-0.2505,-0.10819708297489534,10,1,100,-0.017369957764975047,-10,-1,-100,6415.5393363692565,-0.006597578607303764,-0.01034213890363585,0.9999247532286709,252.68375479476828,26.136910118880895,786.9725146104023,-37.09947041939552,-117.83724212646484,4381.2578125,True
1599567221.7234676,0.0,10,0.5,0.5,0.48241102714538586,-0.05075,-0.0155,-0.2505,-0.0940781373894246,10,1,100,-0.07572981461231293,-10,-1,-100,6413.319094340666,-0.005216830688387361,-0.010163103670063905,0.9999347458716294,250.18285123987906,25.91175293927449,791.9827321620825,-37.664937161492986,-112.84827423095703,4381.2578125,True
1599567221.7843063,0.0,10,0.5,0.5,1.1552791381835938,-0.05075,-0.0155,-0.2505,-0.10350899211843059,10,1,100,0.01014676995952795,-10,-1,-100,6412.53246535582,-0.004749797246381089,-0.010086094160532914,0.9999378531342351,248.99246395641157,25.802262200298284,792.4745576291749,-37.85344006582959,-111.03833770751953,4381.2578125,True
1599567221.8491316,0.0,10,0.5,0.5,0.4179734424591066,-0.05075,-0.0155,-0.2505,-0.0900583673341773,10,1,100,-0.04359280606436622,-10,-1,-100,6411.032449520426,-0.0038442529838857245,-0.009893932816803154,0.9999436643193519,245.98353516638738,25.520772451605417,791.3390903177745,-38.23049737908042,-107.19800567626953,4381.2578125,True
1599567221.9089713,0.0,10,0.5,0.5,-0.5142703071594239,-0.05075,-0.0155,-0.2505,-0.06925039847369911,10,1,100,-0.09897519393295831,-10,-1,-100,6408.683795819292,-0.002524886924241059,-0.0095304643924147,0.9999513964160882,239.77421065916064,24.92453388533066,783.769209415041,-38.79628733775321,-101.03337860107422,4381.2578125,True
1599567221.9787855,0.0,10,0.5,0.5,-0.3421502376556397,-0.05075,-0.0155,-0.2505,-0.07303358679281502,10,1,100,-0.061579876741586596,-10,-1,-100,6407.1183534999145,-0.0016739523368781962,-0.009235148658536824,0.9999559539863887,235.19914598717648,24.478880197929225,776.970503228658,-39.17365075901242,-96.63367462158203,4381.2578125,True
1599567222.0456069,0.0,10,0.5,0.5,0.028281843948364305,-0.05075,-0.0155,-0.2505,-0.08459391527240318,10,1,100,-0.022200373872613977,-10,-1,-100,6406.3351451156195,-0.0012669136138407065,-0.009072821953326735,0.9999580385354669,232.57052295317115,24.218518203194787,772.332032979321,-39.362389873665066,-94.37486267089844,4381.2578125,True
1599567222.1353693,0.0,10,0.5,0.5,-0.8020960056304932,-0.05075,-0.0155,-0.2505,-0.06285582558742907,10,1,100,-0.06645677917648343,-10,-1,-100,6404.762381000561,-0.0005018745332136097,-0.008728890570609743,0.999961776565164,226.61632647801648,23.619152387841265,760.4640166871337,-39.739992510127,-89.9019775390625,4381.2578125,True
1599567222.203185,0.0,10,0.5,0.5,-2.3517080753326414,-0.05075,-0.0155,-0.2505,-0.010311663517958355,10,1,100,-0.14729092681326006,-10,-1,-100,6401.509434618987,0.0009208532931008543,-0.007940119310164641,0.9999680527569633,214.60812510663297,22.37865775547108,735.198767015661,-40.49560703761762,-81.21762084960938,4381.2578125,True
1599567222.2869644,0.0,10,0.5,0.5,-0.239743815612793,-0.05075,-0.0155,-0.2505,-0.08894022654047577,10,1,100,-0.0059089369124957864,-10,-1,-100,6401.509434618987,0.0009208532931008543,-0.007940119310164641,0.9999680527569633,214.60812510663297,22.37865775547108,735.198767015661,-40.49560703761762,-81.21762084960938,4381.2578125,True
1599567222.3677459,0.0,10,0.5,0.5,-2.210167301940918,-0.05075,-0.0155,-0.2505,-0.01923051022908752,10,1,100,-0.10589360064435417,-10,-1,-100,6399.094874345581,0.0018221124362657506,-0.007308628707917512,0.9999716315239545,224.33343953394066,23.370600207982438,780.3192487739103,-41.062007637321685,-74.88043212890625,4381.2578125,True
1599567222.4495304,0.0,10,0.5,0.5,-1.2892104251861574,-0.05075,-0.0155,-0.2505,-0.05923001006309764,10,1,100,-0.04578372143056736,-10,-1,-100,6398.249657260138,0.002087331218068895,-0.007100935895452685,0.9999726095037778,227.97798645091257,23.737992769358886,796.99366061829,-41.25061583577519,-72.88897705078125,4381.2578125,True
1599567222.519389,0.0,10,0.5,0.5,-2.5843834045410157,-0.05075,-0.0155,-0.2505,-0.0044199427143174624,10,1,100,-0.10272232863287825,-10,-1,-100,6395.77992411633,0.0028394227561778012,-0.006416634697109033,0.9999753819357633,237.47264519089333,24.679069858190722,842.66690162267,-41.815885243555606,-67.1392822265625,4381.2578125,True
1599567222.59822,0.0,10,0.5,0.5,-1.7552572780609133,-0.05075,-0.0155,-0.2505,-0.04898112122060187,10,1,100,-0.051264312514372794,-10,-1,-100,6394.931289351196,0.003048442898833522,-0.0062029801936386835,0.9999761147310519,240.21198587308032,24.945862480045985,856.5912257242632,-42.004129906764724,-65.33636474609375,4381.2578125,True
1599567222.6740153,0.0,10,0.5,0.5,-2.8661201774597167,-0.05075,-0.0155,-0.2505,0.0038233194557164285,10,1,100,-0.09288914555268937,-10,-1,-100,6392.3956399277085,0.0036106026962482198,-0.005532063868538349,0.9999781796706988,247.096543736917,25.604512345718536,894.1017389361386,-42.56837682644295,-60.36505126953125,4381.2578125,True
1599567222.7538025,0.0,10,0.5,0.5,-2.9790019329071047,-0.05075,-0.0155,-0.2505,0.009311036251804565,10,1,100,-0.08438026931994094,-10,-1,-100,6389.797491569305,0.004038725919399787,-0.004875886511686222,0.9999799570109759,252.25282737174365,26.08473481220346,925.9770534006364,-43.13197870070927,-56.065765380859375,4381.2578125,True
1599567222.8239753,0.0,10,0.5,0.5,-2.351420858001709,-0.05075,-0.0155,-0.2505,-0.03377573468677125,10,1,100,-0.05460178456379782,-10,-1,-100,6388.9488568924135,0.004152022007885113,-0.004675022525032115,0.9999804522477609,253.65404559202946,26.213033414467667,935.5499156382512,-43.31972122254892,-54.782745361328125,4381.2578125,True
1599567222.890797,0.0,10,0.5,0.5,-2.4553412521362303,-0.05075,-0.0155,-0.2505,-0.03142808729067758,10,1,100,-0.05480708326972439,-10,-1,-100,6388.03772348864,0.004251958498724081,-0.004475074651225979,0.9999809470963889,254.92020608755683,26.328132459577983,944.6713412547467,-43.50740753613363,-53.574615478515625,4381.2578125,True
1599567222.965599,0.0,10,0.5,0.5,-2.869237614440918,-0.05075,-0.0155,-0.2505,-0.007898313596011085,10,1,100,-0.06326371781937748,-10,-1,-100,6386.2916273424635,0.004415366683545501,-0.004083263928650146,0.9999819155828463,257.09529589298637,26.524016425743767,961.7125499675757,-43.88262442272782,-51.38299560546875,4381.2578125,True
1599567223.0394,0.0,10,0.5,0.5,-3.187802297973633,-0.05075,-0.0155,-0.2505,0.01712293402763941,10,1,100,-0.06288246073506856,-10,-1,-100,6383.686642613728,0.004557276774989034,-0.0035031127073493966,0.9999834795784156,259.6443710191396,26.751139877085325,984.8632826540393,-44.44510306667179,-48.6566162109375,4381.2578125,True
1599567223.1052244,0.0,10,0.5,0.5,-3.17392068939209,-0.05075,-0.0155,-0.2505,0.019218604225626282,10,1,100,-0.052176616719762356,-10,-1,-100,6380.957146915724,0.004585654254815018,-0.002960684601278667,0.9999851029499124,261.58536638293356,26.923631672390908,1005.96318442863,-45.00721914923705,-46.6031494140625,4381.2578125,True
1599567223.1760352,0.0,10,0.5,0.5,-2.7033570449829103,-0.05075,-0.0155,-0.2505,-0.034589411970782795,10,1,100,-0.049615222919018875,-10,-1,-100,6380.957146915724,0.004585654254815018,-0.002960684601278667,0.9999851029499124,261.58536638293356,26.923631672390908,1005.96318442863,-45.00721914923705,-46.6031494140625,4381.2578125,True
1599567223.7315502,0.0,10,0.5,0.5,-3.043971064758301,-0.05075,-0.0155,-0.2505,0.0027779277483201935,10,1,100,-0.046105431138638284,-10,-1,-100,6379.134878534009,0.00455147585405088,-0.0026247453777360707,0.9999861972943688,262.6513554500389,27.019012357137495,1019.2726814523639,-45.38178354238174,-45.60772705078125,4381.2578125,True
1599567223.7834105,0.0,10,0.5,0.5,-3.0379877822875976,-0.05075,-0.0155,-0.2505,0.005210891079485996,10,1,100,-0.04113980698744169,-10,-1,-100,6377.3267701186705,0.004473706130983628,-0.002300675407249815,0.9999873463430045,263.5914114447644,27.103883315562324,1032.1769737048003,-45.756214541877625,-44.91064453125,4381.2578125,True
1599567223.844248,0.0,10,0.5,0.5,-2.9663694198608406,-0.05075,-0.0155,-0.2505,-0.008867635811572166,10,1,100,-0.04211740349096382,-10,-1,-100,6376.4156350645935,0.004410597929834372,-0.0021376005010777374,0.9999879885728624,264.0261686752459,27.143407828004367,1038.5203836417763,-45.94338200991569,-44.673828125,4381.2578125,True
1599567223.9163013,0.0,10,0.5,0.5,-2.980240528869629,-0.05075,-0.0155,-0.2505,-0.008048103354404158,10,1,100,-0.04121982743404684,-10,-1,-100,6375.504501150106,0.004344339787150726,-0.0019849861670992856,0.9999885932058076,264.44373337294473,27.181527413918953,1044.8147672439286,-46.130518192545125,-44.5115966796875,4381.2578125,True
1599567223.9801297,0.0,10,0.5,0.5,-2.987959121704102,-0.05075,-0.0155,-0.2505,0.009408762056035407,10,1,100,-0.03005104398905233,-10,-1,-100,6373.630474582547,0.004182292886240414,-0.0016901751782463215,0.9999898258152832,265.2355503895832,27.254053317317283,1057.286177221844,-46.504699040722215,-44.4105224609375,4381.2578125,True
1599567224.0439672,0.0,10,0.5,0.5,-2.919557315063477,-0.05075,-0.0155,-0.2505,0.011771962916239446,10,1,100,-0.023132032192484046,-10,-1,-100,6371.748635403812,0.003972049895554642,-0.0014033950417843045,0.9999911266116233,265.97799386540305,27.321882516042542,1069.6302374728525,-46.878760259397446,-44.606903076171875,4381.2578125,True
1599567224.1177695,0.0,10,0.5,0.5,-2.833956231689453,-0.05075,-0.0155,-0.2505,0.013554516244074616,10,1,100,-0.01659046746408355,-10,-1,-100,6369.834569527651,0.003721705596130453,-0.0011292732325743709,0.9999924367961099,266.67413434099274,27.384594779831428,1081.8548532416478,-47.25270515249645,-45.100494384765625,4381.2578125,True
1599567224.2075558,0.0,10,0.5,0.5,-2.5766367507934573,-0.05075,-0.0155,-0.2505,0.029421677103550294,10,1,100,0.006883497771082291,-10,-1,-100,6366.935150457895,0.003281350786413696,-0.0007385101170210848,0.9999943436539147,267.60242086215345,27.464470908183543,1099.839266795255,-47.813412400039134,-46.397430419921875,4381.2578125,True
1599567224.2823558,0.0,10,0.5,0.5,-2.730116142272949,-0.05075,-0.0155,-0.2505,0.0044097155083973865,10,1,100,-0.01876326022688278,-10,-1,-100,6365.949309209245,0.003115340510278668,-0.0006131656651925133,0.9999949593279819,267.867607309656,27.485584385030297,1105.682321095634,-48.00026154355899,-46.97802734375,4381.2578125,True
1599567224.37666,0.0,10,0.5,0.5,-2.216505067443848,-0.05075,-0.0155,-0.2505,0.03208121100295403,10,1,100,0.024152337218676465,-10,-1,-100,6363.031823846162,0.0025756169313276827,-0.0002497912217033753,0.9999966518952794,268.4604803020494,27.52405099124548,1122.450015744849,-48.56066285161693,-49.163818359375,4381.2578125,True
1599567224.450013,0.0,10,0.5,0.5,-1.9012089584350589,-0.05075,-0.0155,-0.2505,0.0339395274644575,10,1,100,0.03799493015979937,-10,-1,-100,6360.1162931394065,0.00196094468492884,9.497851895534957e-05,0.9999980728356548,268.6055643287513,27.50906507157654,1137.4349937392901,-49.12087617930044,-52.01483154296875,4381.2578125,True
1599567224.549254,0.0,10,0.5,0.5,-2.2746866760253908,-0.05075,-0.0155,-0.2505,0.011938157007397109,10,1,100,0.0010459003363969543,-10,-1,-100,6359.146565458388,0.0017404070331145701,0.00020592062094755827,0.9999984642888493,268.51781598727007,27.488231714217832,1141.8675096175348,-49.3075811389173,-53.112823486328125,4381.2578125,True
1599567224.6130826,0.0,10,0.5,0.5,-2.184057290649414,-0.05075,-0.0155,-0.2505,0.013232598533079936,10,1,100,0.0031215261447453437,-10,-1,-100,6358.111896879505,0.0015235337505692206,0.0003162660038755943,0.9999987894096299,268.34756883135935,27.457976585039482,1145.9518182877596,-49.494273950677055,-54.28448486328125,4381.2578125,True
1599567224.6799045,0.0,10,0.5,0.5,-1.6901572174072266,-0.05075,-0.0155,-0.2505,0.02620558812773586,10,1,100,0.03153073434162901,-10,-1,-100,6356.168536117999,0.0010707352957192923,0.0005322854696661779,0.9999992850987971,267.70995760813383,27.364220980890753,1152.8465725630238,-49.86763480423666,-56.84881591796875,4381.2578125,True
1599567224.74872,0.0,10,0.5,0.5,-0.5024886978149412,-0.05075,-0.0155,-0.2505,0.05016868583221228,10,1,100,0.09752099805132071,-10,-1,-100,6352.095781804179,6.216485257800712e-05,0.0009442247162103437,0.9999995522875079,264.9199999957167,27.0127141873266,1159.979168922792,-50.61435780591786,-62.860137939453125,4381.2578125,True
1599567224.8414738,0.0,10,0.5,0.5,-1.471699548339844,-0.05075,-0.0155,-0.2505,0.020135702501944033,10,1,100,0.025644400829115763,-10,-1,-100,6351.12361361715,-0.0001975481864088778,0.001043292910162186,0.9999994362571499,263.8358406471473,26.884306164410003,1160.0265505034995,-50.801062588891085,-64.54653930664062,4381.2578125,True
1599567224.9072971,0.0,10,0.5,0.5,-1.333116453552246,-0.05075,-0.0155,-0.2505,0.02116388354760748,10,1,100,0.029465380553970816,-10,-1,-100,6350.088458190556,-0.0004645965847302159,0.0011404777433044863,0.9999992417299778,262.56985032818113,26.737381977050124,1159.2439963647491,-50.98778616723247,-66.3062744140625,4381.2578125,True
1599567224.9741175,0.0,10,0.5,0.5,-0.6372347305297851,-0.05075,-0.0155,-0.2505,0.03250131954717699,10,1,100,0.0604359829135991,-10,-1,-100,6348.021565158386,-0.0009851130572181798,0.0013298317816336832,0.9999986305489108,259.4566500249559,26.385605246079948,1154.9917165803479,-51.3613079109648,-69.97042846679688,4381.2578125,True
1599567225.037947,0.0,10,0.5,0.5,0.9141589614868164,-0.05075,-0.0155,-0.2505,0.0530662717861784,10,1,100,0.1346385123032147,-10,-1,-100,6343.884852174204,-0.0021289996958913505,0.001687045616925098,0.9999963106118849,250.75482274188388,25.445374504825953,1134.7583889064633,-52.10876515362522,-78.04586791992188,4381.2578125,True
1599567225.1067657,0.0,10,0.5,0.5,-0.4031527816772461,-0.05075,-0.0155,-0.2505,0.02670704534858203,10,1,100,0.05236891192877155,-10,-1,-100,6342.851162205916,-0.0024162236001845955,0.0017700650347735828,0.9999955143565828,247.95198584868476,25.152102427493208,1126.680462644417,-52.29574086632275,-80.22821044921875,4381.2578125,True
1599567225.1825607,0.0,10,0.5,0.5,0.4371212631225587,-0.05075,-0.0155,-0.2505,0.0358070945440481,10,1,100,0.08734554202166588,-10,-1,-100,6340.720307773328,-0.00299076756808521,0.0019264287198160089,0.9999936720708492,241.5841958891016,24.49769790021119,1106.7538286397453,-52.66985119405708,-84.67236328125,4381.2578125,True
1599567225.2463906,0.0,10,0.5,0.5,0.676121388244629,-0.05075,-0.0155,-0.2505,0.036386362305081736,10,1,100,0.09566141286853233,-10,-1,-100,6338.588477878366,-0.0035841775354636327,0.0020721786402268286,0.9999914298368147,241.48639515088982,24.493261927074418,1115.3449720726417,-53.04403169347554,-88.9931640625,4381.2578125,True
1599567225.3231866,0.0,10,0.5,0.5,0.30469152069091804,-0.05075,-0.0155,-0.2505,0.029853043182973285,10,1,100,0.07050292866009811,-10,-1,-100,6337.55381380592,-0.003890087117941362,0.0021435881594726977,0.9999901360773601,245.0700136134468,24.864682066398917,1136.491940130223,-53.23097407744624,-91.16848754882812,4381.2578125,True
1599567225.3870146,0.0,10,0.5,0.5,1.7430314197540282,-0.05075,-0.0155,-0.2505,0.04305265151518412,10,1,100,0.13936879180790623,-10,-1,-100,6334.326775029418,-0.004789318566202544,0.0023268411416657708,0.9999858240185072,255.10063564312645,25.925008819521082,1197.3746953611508,-53.791182010530264,-97.56214141845703,4381.2578125,True
1599567225.46133,0.0,10,0.5,0.5,1.4288306644439697,-0.05075,-0.0155,-0.2505,0.036653752218923,10,1,100,0.1179958064807223,-10,-1,-100,6332.196413262864,-0.005407174512682017,0.0024336315358098274,0.9999824197961368,261.364515161655,26.601832791892956,1236.5883668243541,-54.164126753978444,-101.626220703125,4381.2578125,True
1599567225.5346415,0.0,10,0.5,0.5,1.069852046966553,-0.05075,-0.0155,-0.2505,0.03153911354452828,10,1,100,0.09134816153935704,-10,-1,-100,6331.0982741994085,-0.0057216382924098,0.002482862990883018,0.9999805489341378,264.2064107987554,26.913518099344035,1254.9908600081774,-54.350445892956714,-103.61455535888672,4381.2578125,True
1599567225.5954795,0.0,10,0.5,0.5,2.3166217185974123,-0.05075,-0.0155,-0.2505,0.03797226392158408,10,1,100,0.16185362395528255,-10,-1,-100,6327.808251658804,-0.006643451304938015,0.0025847933443039527,0.9999745913762641,272.03191726083145,27.78375365405902,1307.4544600368479,-54.90881866667623,-109.20556640625,4381.2578125,True
1599567225.6633005,0.0,10,0.5,0.5,1.5005982070922852,-0.05075,-0.0155,-0.2505,0.030698839295719517,10,1,100,0.10482314377959195,-10,-1,-100,6326.711578382994,-0.006957387083166289,0.0026100222457233068,0.9999723908932946,274.42657811660666,28.05293363377185,1324.0997372544975,-55.09475380757276,-110.9251708984375,4381.2578125,True
1599567225.731451,0.0,10,0.5,0.5,2.552801929092407,-0.05075,-0.0155,-0.2505,0.0320558274131276,10,1,100,0.17735836747919528,-10,-1,-100,6323.35808216827,-0.007896765029710252,0.0026441300567499842,0.99996532423795,280.48116689292283,28.743204494987026,1369.046031560759,-55.65205688951908,-115.63715362548828,4381.2578125,True
1599567225.810241,0.0,10,0.5,0.5,2.2646036487579346,-0.05075,-0.0155,-0.2505,0.027256623328270564,10,1,100,0.15331891855693036,-10,-1,-100,6321.102236762643,-0.008526961113335247,0.0026306379528756954,0.9999601845464311,283.7089088848074,29.116719381592354,1395.403761476048,-56.023220821122095,-118.40524291992188,4381.2578125,True
1599567225.9029906,0.0,10,0.5,0.5,2.712765927886963,-0.05075,-0.0155,-0.2505,0.01893792585771059,10,1,100,0.19380562336095458,-10,-1,-100,6317.748254989856,-0.009462372380746235,0.0025419655424229765,0.9999519998080454,287.59686376166195,29.57048953269476,1430.6521312993002,-56.579492064385455,-121.99825286865234,4381.2578125,True
1599567225.9807835,0.0,10,0.5,0.5,2.480017693710327,-0.05075,-0.0155,-0.2505,0.01674767177806081,10,1,100,0.1700314431957753,-10,-1,-100,6315.491923365626,-0.010090734072515812,0.0024408832805395005,0.9999461081351777,289.68452307746657,29.814749776983774,1451.8757555654238,-56.95006277889061,-124.02130889892578,4381.2578125,True
1599567226.052683,0.0,10,0.5,0.5,2.2986934192657476,-0.05075,-0.0155,-0.2505,0.019119593971973346,10,1,100,0.14125256640522507,-10,-1,-100,6314.33226362092,-0.010394430770085832,0.0023702180581898066,0.9999431673226846,290.60906785177525,29.92266618991583,1461.9508756982455,-57.13527328661806,-124.92141723632812,4381.2578125,True
1599567226.2631233,0.0,10,0.5,0.5,2.3743210681915285,-0.05075,-0.0155,-0.2505,0.017258693771168752,10,1,100,0.14487329966682577,-10,-1,-100,6313.173580489587,-0.010697521394207543,0.002288853645229391,0.9999401603021107,291.46629555299785,30.02240290777378,1471.7246257449613,-57.32043683546466,-125.74726867675781,4381.2578125,True
