Timestamp,Input Throttle,horizon,dT,dt,Input Roll,Roll P,Roll I,Roll D,Input Pitch,Pitch P,Pitch I,Pitch D,Input Yaw,Yaw P,Yaw I,Yaw D,Altitude,Direction X,Direction Y,Direction Z,Drag X,Drag Y,Drag Z,Vertical Velocity,Roll,Mass,Has Fuel
1599573625.8020964,0.0,10,0.5,0.5,-10.811874465942383,-0.2,-0.02275,-0.2505,-0.06717854403995199,10,1,100,0.6903765683009967,-10,-1,-100,6483.617967035971,-0.06725843696974494,-0.007002381342598285,0.9977110149296339,205.07315888495074,21.498770117272798,-156.76518359320374,9.59082356151508,-35.94464111328125,4381.2578125,True
1599573625.8669229,0.0,10,0.5,0.5,-10.934790119934082,-0.2,-0.02275,-0.2505,-0.06905841062439644,10,1,100,0.6894772953825448,-10,-1,-100,6483.7766750874,-0.06735086498781877,-0.00698723915227241,0.9977048859629895,204.84273230581465,21.47778585354265,-153.5132264761963,9.400809598715686,-35.9429931640625,4381.2578125,True
1599573625.9327834,0.0,10,0.5,0.5,-11.058883045959474,-0.2,-0.02275,-0.2505,-0.06774343276990813,10,1,100,0.7080471848438248,-10,-1,-100,6484.156591796782,-0.06754247957663587,-0.006955167144978746,0.9976921564804572,204.38108801160746,21.435600999073692,-147.0254241019901,9.020797289506534,-35.939605712890625,4381.2578125,True
1599573625.9976096,0.0,10,0.5,0.5,-11.038192159271242,-0.2,-0.02275,-0.2505,-0.018512660822242316,10,1,100,0.7014965565454593,-10,-1,-100,6484.697140384698,-0.06759572123686933,-0.0064721354232375634,0.997691801075628,203.75653035982828,21.378961145797323,-137.38145885940583,8.450805152235608,-36.25665283203125,4381.2578125,True
1599573626.064608,0.0,10,0.5,0.5,-10.98699475784302,-0.2,-0.02275,-0.2505,-0.01509851621134363,10,1,100,0.6978142885131315,-10,-1,-100,6485.0169495855225,-0.06754919692657234,-0.005996094238443557,0.997697926653383,203.44646492602172,21.35165762738215,-131.04526836958993,8.070815849312591,-36.8179931640625,4381.2578125,True
1599573626.131967,0.0,10,0.5,0.5,-11.072829236602784,-0.2,-0.02275,-0.2505,-0.02804840043078865,10,1,100,0.7015017266246402,-10,-1,-100,6485.1756243628915,-0.06747901590283736,-0.005675604750409012,0.9977045504173577,203.3172344686898,21.34039835967594,-127.89842331149873,7.880819905711627,-37.208160400390625,4381.2578125,True
1599573626.2057393,0.0,10,0.5,0.5,-10.564901725769044,-0.2,-0.02275,-0.2505,0.0786822309377197,10,1,100,0.6676453446608235,-10,-1,-100,6485.590081873932,-0.06704608512167738,-0.004408812562708977,0.9977401389348048,202.97243865733918,21.309502768363455,-118.49845506389399,7.310815264491987,-38.819183349609375,4381.2578125,True
1599573626.2775457,0.0,10,0.5,0.5,-10.435642053985598,-0.2,-0.02275,-0.2505,0.07407554104126376,10,1,100,0.6660044547987303,-10,-1,-100,6485.909322841093,-0.06657664351722048,-0.0032950542888015373,0.9977758732076132,202.70953268823516,21.28385241601688,-112.22438227585727,6.930787708650516,-40.2603759765625,4381.2578125,True
1599573626.3523448,0.0,10,0.5,0.5,-10.12805632095337,-0.2,-0.02275,-0.2505,0.10502401398610717,10,1,100,0.6490274402455561,-10,-1,-100,6486.165061384207,-0.06593501770494242,-0.0019982015091245596,0.9978219182955333,202.3381901832382,21.245367457922193,-105.90431764785683,6.550730346831241,-41.995697021484375,4381.2578125,True
1599573626.4341283,0.0,10,0.5,0.5,-10.231376461791992,-0.2,-0.02275,-0.2505,0.05343852871229476,10,1,100,0.6770211096781742,-10,-1,-100,6486.261182811693,-0.06554626849070895,-0.0012863868468991249,0.9978487019061678,202.08536528053304,21.218494019623357,-102.71666294115913,6.360687369430167,-42.97369384765625,4381.2578125,True
1599573626.5149114,0.0,10,0.5,0.5,-9.062802027893067,-0.2,-0.02275,-0.2505,0.24512450781978182,10,1,100,0.5642837108657603,-10,-1,-100,6486.674996096059,-0.06410838715357411,0.001104486644143788,0.9979423304008205,200.89642770884794,21.090304448917305,-92.99266893008384,5.790480886143079,-46.34893798828125,4381.2578125,True
1599573626.5937438,0.0,10,0.5,0.5,-8.705230488586427,-0.2,-0.02275,-0.2505,0.20309565395541543,10,1,100,0.5751080657353773,-10,-1,-100,6486.8686489940155,-0.06290248920937185,0.00288855762997334,0.998015497417792,199.59829483304318,20.949881106072233,-86.34484886093857,5.410256979120971,-48.9669189453125,4381.2578125,True
1599573626.6774766,0.0,10,0.5,0.5,-8.01911506500244,-0.2,-0.02275,-0.2505,0.23185125243073906,10,1,100,0.538946053105009,-10,-1,-100,6487.061792935827,-0.06148151675961957,0.004762876878882924,0.998096858075795,197.74220798077653,20.74949862877056,-79.54599198916092,5.02994178631632,-51.8798828125,4381.2578125,True
1599573626.7612536,0.0,10,0.5,0.5,-7.26736836013794,-0.2,-0.02275,-0.2505,0.26041976581513804,10,1,100,0.5003690960244273,-10,-1,-100,6487.254429338151,-0.05984453397985495,0.006715864459546299,0.9981851175595111,195.17955521867546,20.473805788089766,-72.59156661687383,4.649512319035667,-55.08782958984375,4381.2578125,True
1599573626.8450282,0.0,10,0.5,0.5,-6.449993283843995,-0.2,-0.02275,-0.2505,0.2880570361365049,10,1,100,0.45899303190346996,-10,-1,-100,6487.448514173855,-0.05798726831283934,0.008730566535904717,0.9982791462920464,191.75159692306983,20.106646813887895,-65.49163135326401,4.268938187367107,-58.59088134765625,4381.2578125,True
1599573626.928804,0.0,10,0.5,0.5,-5.566657350921631,-0.2,-0.02275,-0.2505,0.31080412685287506,10,1,100,0.41513949104187975,-10,-1,-100,6487.578621554072,-0.05590886908827772,0.01075551773840269,0.9983779430633716,187.2948259264421,19.631553155081313,-58.27417734637847,3.8881858182180693,-62.38958740234375,4381.2578125,True
1599573627.0115826,0.0,10,0.5,0.5,-5.555326086425781,-0.2,-0.02275,-0.2505,0.22119259222568702,10,1,100,0.4983612960596677,-10,-1,-100,6487.675165928784,-0.05478649542685119,0.011766794769072947,0.9984287568272993,184.63382199690477,19.348859069307498,-54.63690195410504,3.697732941643472,-64.39984130859375,4381.2578125,True
1599573627.095361,0.0,10,0.5,0.5,-3.0836534507751465,-0.2,-0.02275,-0.2505,0.4475580837281677,10,1,100,0.20547078209753733,-10,-1,-100,6487.839789241902,-0.05111465978016664,0.014729300531221384,0.9985841673396482,174.76042533040285,18.30478235184373,-43.729076017850424,3.1260034476507608,-70.87496948242188,4381.2578125,True
1599573627.1831255,0.0,10,0.5,0.5,-2.5245673233032226,-0.2,-0.02275,-0.2505,0.3641803335558106,10,1,100,0.2726958792263299,-10,-1,-100,6487.969391653198,-0.04840182096956703,0.016648122263589422,0.9986891927681637,166.40274275694364,17.425405767054425,-36.56059459712238,2.744461555841628,-75.5618896484375,4381.2578125,True
1599573627.2719452,0.0,10,0.5,0.5,-2.5164987602233886,-0.2,-0.02275,-0.2505,0.2773182072467744,10,1,100,0.3840631053489463,-10,-1,-100,6488.003920180374,-0.04696397246716878,0.017585898759503026,0.9987417691550321,161.69306195346763,16.930817734359902,-33.056939365143236,2.553576735906736,-78.01644897460938,4381.2578125,True
1599573627.353737,0.0,10,0.5,0.5,0.46724148254394504,-0.2,-0.02275,-0.2505,0.4607987420214713,10,1,100,0.03813306658427207,-10,-1,-100,6488.167085239198,-0.042528911927149284,0.020089271085006816,0.9988932439643217,145.35620574469962,15.218152913352029,-23.052981226209155,1.980608243815185,-85.8275146484375,4381.2578125,True
1599573627.4338624,0.0,10,0.5,0.5,-0.15976558685302744,-0.2,-0.02275,-0.2505,0.2984921821883916,10,1,100,0.3074420950600759,-10,-1,-100,6488.201621825574,-0.040964920308935615,0.020872291032945117,0.9989425522877272,148.0076488767162,15.495725639327862,-21.21040225442929,1.78956055463921,-88.57968139648438,4381.2578125,True
1599573627.511206,0.0,10,0.5,0.5,1.8210992248535158,-0.2,-0.02275,-0.2505,0.3833768778664774,10,1,100,0.1031162092931297,-10,-1,-100,6488.269237481756,-0.03770554493895135,0.02233945755232347,0.999039158650513,155.96265053990047,16.32826533677774,-17.580223922083455,1.407462751424097,-94.30701446533203,4381.2578125,True
1599573627.5896103,0.0,10,0.5,0.5,4.4014889951705936,-0.2,-0.02275,-0.2505,0.4386376171927679,10,1,100,-0.11328860181787315,-10,-1,-100,6488.306969975005,-0.03279677447597532,0.024159636945021483,0.9991699973110966,168.4022810169748,17.627809184455327,-11.256448233796494,0.8344668555660109,-103.0052719116211,4381.2578125,True
1599573627.666916,0.0,10,0.5,0.5,3.6387979598999025,-0.2,-0.02275,-0.2505,0.3169023668590933,10,1,100,0.18632118725911306,-10,-1,-100,6488.341040357132,-0.031082570100791428,0.024691803414908568,0.9992117836975547,171.98478288528227,18.001849353264458,-8.86578420707591,0.6435107043605828,-105.9069595336914,4381.2578125,True
1599573627.7408576,0.0,10,0.5,0.5,6.800202326011658,-0.2,-0.02275,-0.2505,0.4098798551768623,10,1,100,-0.1926581186020237,-10,-1,-100,6488.318281097338,-0.02610339488662487,0.02600633079325927,0.9993209111862238,181.67256501127198,19.014523407361665,-1.028120232250744,0.07063153139814826,-114.29904174804688,4381.2578125,True
1599573627.8146544,0.0,10,0.5,0.5,6.014297967338562,-0.2,-0.02275,-0.2505,0.3197184856734992,10,1,100,0.12201815921604353,-10,-1,-100,6488.350421070703,-0.02446466128500284,0.026367842493497645,0.9993528992455308,184.06154641210796,19.264200001460203,1.7753035449961845,-0.12037173645390942,-116.95879364013672,4381.2578125,True
1599573627.8867161,0.0,10,0.5,0.5,8.864557747650146,-0.2,-0.02275,-0.2505,0.3770171473035837,10,1,100,-0.2622960099097058,-10,-1,-100,6488.327729987563,-0.019508703595241317,0.027204112737874733,0.9994395162960978,189.20250268479015,19.801302744114796,10.517219281697043,-0.6935844765008667,-124.49920654296875,4381.2578125,True
1599573627.9590106,0.0,10,0.5,0.5,9.196364940643312,-0.2,-0.02275,-0.2505,0.3369758915214982,10,1,100,-0.12063103698568797,-10,-1,-100,6488.268524324871,-0.016319883591299118,0.027589006260010714,0.9994861220312925,191.24478454139037,20.014426534686333,16.492640824420643,-1.0758806412299275,-129.15777587890625,4381.2578125,True
1599573628.0298212,0.0,10,0.5,0.5,9.150918956756593,-0.2,-0.02275,-0.2505,0.31367457513043234,10,1,100,0.019926337146090878,-10,-1,-100,6488.241614721133,-0.014727916022893533,0.02771713305476426,0.9995073031373242,191.8081198435227,20.073046321278657,19.482141269885478,-1.267073158116054,-131.3766326904297,4381.2578125,True
1599573628.1026268,0.0,10,0.5,0.5,11.514757680130005,-0.2,-0.02275,-0.2505,0.34055027277237365,10,1,100,-0.31145381096476066,-10,-1,-100,6488.154085012386,-0.010297431483739147,0.028068726270107622,0.999552954830514,191.8518057545698,20.076258513124873,28.316472291801883,-1.8408081517620116,-137.58810424804688,4381.2578125,True
1599573628.171879,0.0,10,0.5,0.5,11.775819952011108,-0.2,-0.02275,-0.2505,0.31556387326288887,10,1,100,-0.18696073628142695,-10,-1,-100,6488.033421109081,-0.007430774836577657,0.02815395332925618,0.9995759793518761,190.8224897049464,19.9672082663586,34.02347467969299,-2.223403002132632,-141.36009216308594,4381.2578125,True
1599573628.2441976,0.0,10,0.5,0.5,11.750709030914306,-0.2,-0.02275,-0.2505,0.30887407105674514,10,1,100,-0.05647162217134474,-10,-1,-100,6488.0031245526625,-0.006041473599679194,0.028163996397247825,0.9995850588637669,190.0675737578049,19.88737846404003,36.8077897107135,-2.414722512757755,-143.13522338867188,4381.2578125,True
1599573628.3140125,0.0,10,0.5,0.5,12.915728241920473,-0.2,-0.02275,-0.2505,0.31819324625077894,10,1,100,-0.20574690075819968,-10,-1,-100,6487.882976246998,-0.0034502100074721566,0.02825255119823606,0.9995948626327046,188.16955690598982,19.686656924431894,42.221626669070396,-2.7973911154867888,-146.46176147460938,4381.2578125,True
1599573628.3888116,0.0,10,0.5,0.5,13.546823971557618,-0.2,-0.02275,-0.2505,0.30919410116650514,10,1,100,-0.2260569178825413,-10,-1,-100,6487.761380860233,-0.0009365580083976566,0.0282475243217745,0.9996005203223874,185.91219464562045,19.447632627973626,47.42942769802863,-3.1800848004129705,-149.49290466308594,4381.2578125,True
1599573628.4586258,0.0,10,0.5,0.5,14.684631792259216,-0.2,-0.02275,-0.2505,0.30348972444536804,10,1,100,-0.3634991697205699,-10,-1,-100,6487.5494711142965,0.0025706497237499722,0.02818786399033832,0.9995993377767215,182.28156483963807,19.062044756535343,54.91124451686006,-3.7541544058148957,-153.48391723632812,4381.2578125,True
1599573628.5274403,0.0,10,0.5,0.5,14.306433450889589,-0.2,-0.02275,-0.2505,0.30857665448779525,10,1,100,-0.13574149418716586,-10,-1,-100,6487.518717203871,0.003662428753025621,0.028177888931966513,0.9995962150743501,181.05390963477157,18.93131592616675,57.3263049831321,-3.9455184824716083,-154.6657257080078,4381.2578125,True
1599573628.5972562,0.0,10,0.5,0.5,15.060752106475832,-0.2,-0.02275,-0.2505,0.30721556051326226,10,1,100,-0.2588303101785496,-10,-1,-100,6487.336612352752,0.005748374297708765,0.028154801618734144,0.9995870464040353,178.6337531447304,18.67305638271926,62.057044490002525,-4.3282622834219255,-156.80685424804688,4381.2578125,True
1599573628.6686432,0.0,10,0.5,0.5,15.793653173828126,-0.2,-0.02275,-0.2505,0.31363576613390465,10,1,100,-0.3659722251048339,-10,-1,-100,6487.058837269316,0.00859574485775698,0.028191314395182503,0.9995655871242329,175.35246960213306,18.320997991597594,69.01593434790412,-4.9024417725655685,-159.4611358642578,4381.2578125,True
1599573628.7404516,0.0,10,0.5,0.5,15.827629999923706,-0.2,-0.02275,-0.2505,0.3155119429667857,10,1,100,-0.27324929209316484,-10,-1,-100,6486.813279037946,0.010318677222741043,0.02824101642849341,0.9995478827407211,173.47988082210958,18.118531767866962,73.6240730170262,-5.2852920641666525,-160.85943603515625,4381.2578125,True
1599573628.8112621,0.0,10,0.5,0.5,16.04013316421509,-0.2,-0.02275,-0.2505,0.32519485262952996,10,1,100,-0.2755525410266457,-10,-1,-100,6486.628763344372,0.011883148369171257,0.028373750289006704,0.999526748556222,171.9428545508726,17.95072000987206,78.27279454587402,-5.6682054380151845,-161.95977783203125,4381.2578125,True
1599573628.882073,0.0,10,0.5,0.5,16.01751803741455,-0.2,-0.02275,-0.2505,0.3218971862483141,10,1,100,-0.20117076818249538,-10,-1,-100,6486.473031864036,0.012609032767476531,0.028464161355081462,0.999515284430919,171.320570054791,17.881962411765063,80.63172990405216,-5.8596878263197425,-162.39834594726562,4381.2578125,True
1599573628.9508889,0.0,10,0.5,0.5,16.347527167129513,-0.2,-0.02275,-0.2505,0.34735551327224645,10,1,100,-0.3469770381251168,-10,-1,-100,6486.1347492580535,0.014576221213046926,0.02877751056261624,0.9994795589010146,170.11574103592832,17.744330879104208,87.94114168740629,-6.434245242915155,-163.2685089111328,4381.2578125,True
1599573629.01771,0.0,10,0.5,0.5,16.269172074127198,-0.2,-0.02275,-0.2505,0.34711499068035045,10,1,100,-0.27591551517876345,-10,-1,-100,6485.825246797176,0.01569981714149614,0.029059629169389378,0.9994543779954447,169.90182692874868,17.7136227638585,93.0798632004244,-6.817376623822461,-163.4767608642578,4381.2578125,True
1599573629.6338089,0.0,10,0.5,0.5,16.252421397018434,-0.2,-0.02275,-0.2505,0.33616799798466873,10,1,100,-0.22139225002461915,-10,-1,-100,6485.732507946435,0.01620819282309505,0.029215848807430438,0.9994417084872288,169.98191769693744,17.71760924172352,95.75118770025557,-7.008969412519656,-163.46945190429688,4381.2578125,True
1599573629.6899254,0.0,10,0.5,0.5,16.24902511749268,-0.2,-0.02275,-0.2505,0.34272040669798143,10,1,100,-0.22237487073821943,-10,-1,-100,6485.578245393466,0.01666369931209816,0.029416553717147284,0.9994283303432228,170.18621859217146,17.734412728439274,98.49794584616834,-7.20057944805918,-163.38726806640625,4381.2578125,True
1599573629.7510061,0.0,10,0.5,0.5,16.221655429840087,-0.2,-0.02275,-0.2505,0.34598162476577526,10,1,100,-0.22433897978222025,-10,-1,-100,6485.423495316296,0.017082839793784315,0.02962754317229999,0.9994150215351745,170.51297184538927,17.76382783125072,101.3248744090305,-7.392205694873157,-163.23080444335938,4381.2578125,True
1599573629.8186095,0.0,10,0.5,0.5,15.868439979934692,-0.2,-0.02275,-0.2505,0.3965893252741412,10,1,100,-0.2990276746110422,-10,-1,-100,6484.957289364305,0.018130664356451238,0.030278103905023654,0.9993770636921332,172.24427964689926,17.929211735871448,110.35419550892568,-7.967169397833566,-162.31649780273438,4381.2578125,True
1599573629.885431,0.0,10,0.5,0.5,15.90572419013977,-0.2,-0.02275,-0.2505,0.3587542055497802,10,1,100,-0.22504968982710788,-10,-1,-100,6484.802537754062,0.018399448378968362,0.030523636844290714,0.9993646821321772,173.0586722461999,18.00861593766135,113.55769245884001,-8.158847332181725,-161.863037109375,4381.2578125,True
1599573629.9532545,0.0,10,0.5,0.5,15.515864449310303,-0.2,-0.02275,-0.2505,0.3917721946139166,10,1,100,-0.24529545679514891,-10,-1,-100,6484.429554737522,0.018818937459583202,0.03104489185107191,0.9993408138782522,175.02136507816203,18.2014184677391,120.27333218201476,-8.542227294953957,-160.73336791992188,4381.2578125,True
1599573630.0210738,0.0,10,0.5,0.5,14.784247367858887,-0.2,-0.02275,-0.2505,0.4354208042051249,10,1,100,-0.23686135320332175,-10,-1,-100,6483.901322187739,0.019115889990910226,0.03191301660313618,0.9993078315119637,178.70413633728882,18.565385584383755,131.12588451385153,-9.117327196724334,-158.48184204101562,4381.2578125,True
1599573630.0898936,0.0,10,0.5,0.5,14.935431224822997,-0.2,-0.02275,-0.2505,0.38184908542446033,10,1,100,-0.21042971786228376,-10,-1,-100,6483.74607590877,0.019138984023905594,0.03221198778308482,0.9992977970222865,180.1008449839357,18.70372084258489,134.94867313190474,-9.309026000800204,-157.58303833007812,4381.2578125,True
1599573630.1563246,0.0,10,0.5,0.5,14.239546063995363,-0.2,-0.02275,-0.2505,0.42115690238295267,10,1,100,-0.1973148752352314,-10,-1,-100,6483.309602463967,0.01903481643796779,0.0328377164404535,0.9992794204536333,183.08694940665515,18.99961541486767,142.87827628545804,-9.692407634698403,-155.56288146972656,4381.2578125,True
1599573630.2231462,0.0,10,0.5,0.5,13.684565283966066,-0.2,-0.02275,-0.2505,0.4283446375819973,10,1,100,-0.17602790124311074,-10,-1,-100,6482.937574351672,0.01874254741880058,0.0334682126254365,0.9992640270018294,186.25558185667492,19.31357395508706,151.14625147344822,-10.075752048181823,-153.24656677246094,4381.2578125,True
1599573630.2894819,0.0,10,0.5,0.5,12.426220196533203,-0.2,-0.02275,-0.2505,0.47007400233365937,10,1,100,-0.12329076201041046,-10,-1,-100,6482.282350596739,0.017994653653553745,0.034416741033657924,0.9992455555950753,191.116586356731,19.794803326839972,164.01915834973005,-10.650661698655288,-149.21702575683594,4381.2578125,True
1599573630.36129,0.0,10,0.5,0.5,12.73152228355408,-0.2,-0.02275,-0.2505,0.4094776729882604,10,1,100,-0.16038296977204633,-10,-1,-100,6482.064101525699,0.017650328064043805,0.03472343578142266,0.9992410864885235,192.70545904116753,19.951979656556873,168.38574500128874,-10.842260744902138,-147.72607421875,4381.2578125,True
1599573630.4311035,0.0,10,0.5,0.5,10.855013848495483,-0.2,-0.02275,-0.2505,0.47267748907740587,10,1,100,-0.052536850516868294,-10,-1,-100,6481.409827546449,0.016355988599667744,0.035571968532869855,0.999233264404075,197.12706751820542,20.389407162286496,181.4713852594915,-11.41691883793245,-142.81072998046875,4381.2578125,True
1599573630.5012186,0.0,10,0.5,0.5,11.235370930862429,-0.2,-0.02275,-0.2505,0.4160094062715217,10,1,100,-0.12475454689121843,-10,-1,-100,6481.191080197925,0.015836501645632797,0.03582279353107693,0.9992326719434558,198.42147582982395,20.517634243313807,185.75928804803058,-11.608421136437194,-141.0249786376953,4381.2578125,True
1599573630.5720294,0.0,10,0.5,0.5,9.925592881011964,-0.2,-0.02275,-0.2505,0.4443360346648534,10,1,100,-0.04912466267992378,-10,-1,-100,6480.693031635135,0.014678781978871819,0.036303290433362695,0.9992330080933715,200.61195408714363,20.73524248664914,194.07417119250437,-11.991348850960085,-137.23214721679688,4381.2578125,True
1599573630.6418426,0.0,10,0.5,0.5,8.978940159606934,-0.2,-0.02275,-0.2505,0.4342013273397971,10,1,100,-0.020303231868556093,-10,-1,-100,6480.193506674841,0.013367678971167675,0.03664271786558645,0.9992390186468635,202.1264861827927,20.8871230169393,201.8553329378352,-12.374176989320574,-133.1461944580078,4381.2578125,True
1599573630.7099924,0.0,10,0.5,0.5,6.930167583084106,-0.2,-0.02275,-0.2505,0.44107069705753366,10,1,100,0.09591512498542784,-10,-1,-100,6479.475206573494,0.011124192318662613,0.03700864814139245,0.9992530271697975,202.70018331453812,20.94954664924038,211.9385656013718,-12.948262393091003,-126.46574401855469,4381.2578125,True
1599573630.7788403,0.0,10,0.5,0.5,6.359418614196778,-0.2,-0.02275,-0.2505,0.4127748964359703,10,1,100,0.0529544486675749,-10,-1,-100,6478.914134579361,0.009482475780795082,0.03707944508507619,0.9992673303001803,202.06889863462695,20.89396126570497,217.6064852608447,-13.33092131334394,-121.64584350585938,4381.2578125,True
1599573630.8474863,0.0,10,0.5,0.5,5.181760838317873,-0.2,-0.02275,-0.2505,0.3973772883519619,10,1,100,0.07931861942279456,-10,-1,-100,6478.352075839415,0.007759110565179975,0.036999402726477705,0.9992851647058116,200.4035712763239,20.737342111738023,222.0963364308897,-13.713572131588368,-116.53311157226562,4381.2578125,True
1599573630.917297,0.0,10,0.5,0.5,3.9385217922210702,-0.2,-0.02275,-0.2505,0.3800222347355512,10,1,100,0.10502452804222095,-10,-1,-100,6477.78951961163,0.0059689754779649,0.03676508038006987,0.9993061093560823,197.21760977424265,20.428011535024254,224.75771804931227,-14.096269409588256,-111.12759399414062,4381.2578125,True
1599573630.9871433,0.0,10,0.5,0.5,2.6297251770019527,-0.2,-0.02275,-0.2505,0.36014367654058105,10,1,100,0.12904653107775857,-10,-1,-100,6477.2259789267555,0.004134810436483431,0.036368348747240625,0.9993298987581894,192.32470062470034,19.94422364842568,225.23033930472803,-14.479070365327361,-105.42935180664062,4381.2578125,True
1599573631.055929,0.0,10,0.5,0.5,1.2585942188262937,-0.2,-0.02275,-0.2505,0.3379601345293592,10,1,100,0.14953195067788833,-10,-1,-100,6476.663408543449,0.0022937564416964343,0.035804240873917856,0.9993561902629255,186.67147972933458,19.381089285416103,224.49200451945185,-14.862017072890524,-99.43840026855469,4381.2578125,True
1599573631.125665,0.0,10,0.5,0.5,-0.1813711021423341,-0.2,-0.02275,-0.2505,0.3147438966564999,10,1,100,0.16800817437064788,-10,-1,-100,6476.038332290598,0.0004660658416125756,0.03507937627651435,0.9993844206023437,178.9369666521106,18.597660792081818,220.8401168814246,-15.245146303487942,-93.15461730957031,4381.2578125,True
1599573631.1974728,0.0,10,0.5,0.5,-0.18513915061950692,-0.2,-0.02275,-0.2505,0.34080277899573347,10,1,100,0.08602584643832523,-10,-1,-100,6475.757042863523,-0.0004357317929352217,0.03465775520219179,0.9993991445574434,174.24189084379418,18.116977450233353,217.80024792575315,-15.436784809007355,-89.90292358398438,4381.2578125,True
1599573631.267287,0.0,10,0.5,0.5,-2.5156279144287113,-0.2,-0.02275,-0.2505,0.27829172133622737,10,1,100,0.191110767364597,-10,-1,-100,6475.131473267567,-0.00219607234781881,0.033707240099838394,0.9994293367872964,164.34595741263476,17.094704136622585,210.63312849711323,-15.820184529691751,-83.17987060546875,4381.2578125,True
1599573631.3361025,0.0,10,0.5,0.5,-4.0347080802917485,-0.2,-0.02275,-0.2505,0.2539302837133912,10,1,100,0.20240705661146904,-10,-1,-100,6474.443890459719,-0.0038837347051148266,0.03262402789234,0.9994601489848507,176.0160409653277,18.3037455326651,231.16761327490354,-16.203480387447467,-76.34249877929688,4381.2578125,True
1599573631.405916,0.0,10,0.5,0.5,-5.517525202560425,-0.2,-0.02275,-0.2505,0.22611722713280114,10,1,100,0.21493658548818778,-10,-1,-100,6473.818806302501,-0.005516194916375664,0.03139009690749359,0.9994919876666258,187.9535973840365,19.531124136822633,252.80328948970737,-16.586476872367932,-69.53594970703125,4381.2578125,True
1599573631.475729,0.0,10,0.5,0.5,-8.375798175048828,-0.2,-0.02275,-0.2505,0.13002905447412938,10,1,100,0.2968969986750273,-10,-1,-100,6472.7864550217055,-0.007730216694461295,0.02939992039822157,0.9995378374180914,202.26154588014106,20.98963432721938,281.66380150372976,-17.160324201438527,-59.694000244140625,4381.2578125,True
1599573631.5435476,0.0,10,0.5,0.5,-8.84574185333252,-0.2,-0.02275,-0.2505,0.17203296641648522,10,1,100,0.22506703453915178,-10,-1,-100,6472.099364147638,-0.009074316189235494,0.02797950415716556,0.999567308455422,209.17965576492557,21.69122824371977,297.92706050708165,-17.542478807787685,-53.4910888671875,4381.2578125,True
1599573631.612364,0.0,10,0.5,0.5,-10.095810068511962,-0.2,-0.02275,-0.2505,0.1554861696768556,10,1,100,0.22667999715661663,-10,-1,-100,6471.34880119178,-0.010295585002139524,0.02654599114818102,0.9995945734563711,213.85459502407934,22.165804703781216,311.3643972487485,-17.924370856948606,-47.585479736328125,4381.2578125,True
1599573631.6801827,0.0,10,0.5,0.5,-11.287101853179934,-0.2,-0.02275,-0.2505,0.1389275030610171,10,1,100,0.22807326366785327,-10,-1,-100,6470.6602573677665,-0.011403709472627062,0.02510155425189826,0.9996198614395388,216.85560448619748,22.475089213582176,322.6125664852094,-18.306078830160796,-41.978179931640625,4381.2578125,True
1599573631.7495751,0.0,10,0.5,0.5,-11.239454413604737,-0.2,-0.02275,-0.2505,0.2024871814030682,10,1,100,0.17493936677715033,-10,-1,-100,6470.2544640478445,-0.011913934001419242,0.024376487598837437,0.999631854749014,217.89162139167246,22.58508952411304,327.61253949227455,-18.49688705308536,-39.28643798828125,4381.2578125,True
1599573631.8183885,0.0,10,0.5,0.5,-13.026710406112672,-0.2,-0.02275,-0.2505,0.11784706430265979,10,1,100,0.22891620791537154,-10,-1,-100,6469.502940623206,-0.012855556955720403,0.022958269352664866,0.9996537663229649,218.77396487342838,22.688762203384517,335.8925550200502,-18.878460583559892,-34.126190185546875,4381.2578125,True
1599573631.892191,0.0,10,0.5,0.5,-14.058936250305177,-0.2,-0.02275,-0.2505,0.10646668903106851,10,1,100,0.229045509966547,-10,-1,-100,6468.752888055053,-0.013700642730280023,0.021576541269060653,0.9996733192676704,218.2858330717982,22.658617040205424,342.0941116741574,-19.26003366893495,-29.263641357421875,4381.2578125,True
1599573631.9829485,0.0,10,0.5,0.5,-16.013208000183106,-0.2,-0.02275,-0.2505,0.02083036055487336,10,1,100,0.26523424912857413,-10,-1,-100,6467.595103169675,-0.014785832053227792,0.019553804765030623,0.9996994687853469,215.52138316942967,22.41352336279549,348.0857263708422,-19.83250491490645,-22.528045654296875,4381.2578125,True
1599573632.0647311,0.0,10,0.5,0.5,-15.408492125701905,-0.2,-0.02275,-0.2505,0.15127444999122716,10,1,100,0.1939397495636836,-10,-1,-100,6467.189321313519,-0.015112790751040025,0.018913675515638183,0.9997068952619085,214.17707128566892,22.289700837810692,349.34296103893996,-20.02337396700898,-20.43133544921875,4381.2578125,True
1599573632.1475098,0.0,10,0.5,0.5,-17.643513432312012,-0.2,-0.02275,-0.2505,0.012861732547324173,10,1,100,0.260273013462283,-10,-1,-100,6465.969542013598,-0.016002847369905752,0.01708590635977021,0.9997259527890233,209.24580044166296,21.826050730466203,351.37422687126997,-20.59614467006152,-14.58660888671875,4381.2578125,True
1599573632.229291,0.0,10,0.5,0.5,-17.115313679504396,-0.2,-0.02275,-0.2505,0.13184831787056225,10,1,100,0.20290788089687545,-10,-1,-100,6465.562302135862,-0.01628095522514041,0.01651899807605397,0.9997309904166822,207.5503070472481,21.66565548576242,351.86677818255646,-20.787123131298653,-12.78662109375,4381.2578125,True
1599573632.310074,0.0,10,0.5,0.5,-19.003269986724852,-0.2,-0.02275,-0.2505,0.008802148055353842,10,1,100,0.25592712838439935,-10,-1,-100,6464.2795520772925,-0.017008000308394243,0.01489673529464837,0.999744374929447,202.55930737522306,21.190160876471953,353.20825650881204,-21.360201521015362,-7.831817626953125,4381.2578125,True
1599573632.3915355,0.0,10,0.5,0.5,-18.543325096130374,-0.2,-0.02275,-0.2505,0.11603078913544368,10,1,100,0.21080742617563816,-10,-1,-100,6463.81225830398,-0.017251558832982482,0.014408650202155475,0.999747355343931,200.82521437709852,21.022346494990455,353.4319504642428,-21.551269549673812,-6.3282470703125,4381.2578125,True
1599573632.4713507,0.0,10,0.5,0.5,-20.092236920928954,-0.2,-0.02275,-0.2505,0.012044234614211308,10,1,100,0.2571690413699971,-10,-1,-100,6462.528058477794,-0.017888121289983377,0.013030638114192573,0.999755078800329,196.42342528893855,20.59556445561585,355.23534428565785,-22.124556080009928,-2.2623291015625,4381.2578125,True
1599573632.5461214,0.0,10,0.5,0.5,-20.218452603149416,-0.2,-0.02275,-0.2505,0.059505826341045884,10,1,100,0.23902030292674722,-10,-1,-100,6461.590062872623,-0.018295930981575233,0.0122203424282318,0.9997579317717135,193.738962959656,20.33099372572023,356.67621465306456,-22.506785793035156,0.078125,4381.2578125,True
1599573632.6209223,0.0,10,0.5,0.5,-20.19885343475342,-0.2,-0.02275,-0.2505,0.09770707074198046,10,1,100,0.21952198145810153,-10,-1,-100,6461.18185796903,-0.01848360778150727,0.011842045067521961,0.9997590320732281,192.46761642175406,20.20426794788528,357.4672803291342,-22.697904805382755,1.137237548828125,4381.2578125,True
1599573632.6957233,0.0,10,0.5,0.5,-20.86814999847412,-0.2,-0.02275,-0.2505,0.060496736545305074,10,1,100,0.24738154238873447,-10,-1,-100,6460.243380144821,-0.018902375380064163,0.01116996826898428,0.9997589369512339,190.1327541354499,19.96904000534361,359.32618439173547,-23.080138532745956,3.03375244140625,4381.2578125,True
1599573632.7705243,0.0,10,0.5,0.5,-21.498033460235597,-0.2,-0.02275,-0.2505,0.03134222584834864,10,1,100,0.2690180881617318,-10,-1,-100,6458.836158692022,-0.019475040219734237,0.010303408875795944,0.9997572518236503,187.26274127020125,19.67447076498575,363.0738195881328,-23.653446536692,5.323394775390625,4381.2578125,True
1599573632.8423662,0.0,10,0.5,0.5,-21.50895067825318,-0.2,-0.02275,-0.2505,0.06583940551604119,10,1,100,0.2546206615336793,-10,-1,-100,6457.896224945551,-0.01986049600630064,0.00983764778432124,0.9997543605228514,189.90263872352415,19.951972298342053,374.404810453839,-24.035549417727005,6.480133056640625,4381.2578125,True
1599573632.915172,0.0,10,0.5,0.5,-21.49101952972412,-0.2,-0.02275,-0.2505,0.08961668161491178,10,1,100,0.23802313186136537,-10,-1,-100,6457.365468746284,-0.020055707628653368,0.009638636599998801,0.9997524019856152,191.35895977650372,20.10399480886516,380.40976477480694,-24.22655266465905,6.9476318359375,4381.2578125,True
1599573632.987621,0.0,10,0.5,0.5,-21.744264932250978,-0.2,-0.02275,-0.2505,0.07293684166926906,10,1,100,0.2631484198165652,-10,-1,-100,6456.4265168559505,-0.020457900030149714,0.009312852678163262,0.9997473406322976,193.83308707641055,20.360303796445052,391.6840044839576,-24.60846708300664,7.660980224609375,4381.2578125,True
1599573633.6638312,0.0,10,0.5,0.5,-21.844529746246337,-0.2,-0.02275,-0.2505,0.06898847143392553,10,1,100,0.28795135348890766,-10,-1,-100,6454.893338764086,-0.021045213478708587,0.00898734224289864,0.9997381290463241,196.50692363042458,20.632978173467343,406.771515114284,-25.181125981873606,8.17694091796875,4381.2578125,True
1599573633.7245991,0.0,10,0.5,0.5,-21.740373027038576,-0.2,-0.02275,-0.2505,0.09017754490493049,10,1,100,0.27371614836952673,-10,-1,-100,6453.890917527489,-0.02144605364615836,0.008889423781532436,0.9997304861450602,197.62264496957758,20.743902641063958,415.5874657015818,-25.562772825796284,8.15179443359375,4381.2578125,True
1599573633.7894256,0.0,10,0.5,0.5,-21.63536852722168,-0.2,-0.02275,-0.2505,0.09986105878158331,10,1,100,0.2788017670905106,-10,-1,-100,6452.827464319649,-0.021852873518746027,0.008893456421369662,0.9997216404339035,198.21106382984067,20.799663866696918,423.3620624916589,-25.9443335276964,7.83160400390625,4381.2578125,True
1599573633.8562486,0.0,10,0.5,0.5,-21.61659366912842,-0.2,-0.02275,-0.2505,0.1034471657105919,10,1,100,0.26097159067076736,-10,-1,-100,6452.358239123365,-0.022057012933438275,0.008933484503933421,0.9997168004165341,198.30718480416064,20.807064513575185,426.8420147689555,-26.135085512222062,7.5609130859375,4381.2578125,True
1599573633.9220715,0.0,10,0.5,0.5,-21.357872093200683,-0.2,-0.02275,-0.2505,0.11559952203762294,10,1,100,0.284929550907254,-10,-1,-100,6451.293813764001,-0.022456974692624868,0.009083337689168301,0.9997065455742896,198.09657712563063,20.780713625850144,432.9403023588651,-26.516540835709975,6.798309326171875,4381.2578125,True
1599573633.988895,0.0,10,0.5,0.5,-20.797536309814454,-0.2,-0.02275,-0.2505,0.14654265237645597,10,1,100,0.3103572150910861,-10,-1,-100,6449.634680354851,-0.02304812472363741,0.009503376958260631,0.9996891865840667,196.72970202479894,20.635321792941003,439.73640385256874,-27.088624541669343,5.10186767578125,4381.2578125,True
1599573634.0567164,0.0,10,0.5,0.5,-20.551821105957032,-0.2,-0.02275,-0.2505,0.14944518341610377,10,1,100,0.29341340452405834,-10,-1,-100,6448.5712379970355,-0.023427730338181674,0.009913132568078388,0.9996763832630483,195.99135133204558,20.56077697671412,444.59994640909923,-27.46995343116756,3.602691650390625,4381.2578125,True
1599573634.1255326,0.0,10,0.5,0.5,-20.115497708129883,-0.2,-0.02275,-0.2505,0.16583955257189006,10,1,100,0.2948342711142031,-10,-1,-100,6447.444321764284,-0.023782149965751915,0.010435032184154149,0.9996627028384735,199.52755710493898,20.939187005531032,459.26613075638875,-27.85115169504136,1.809234619140625,4381.2578125,True
1599573634.1917102,0.0,10,0.5,0.5,-19.613633911132816,-0.2,-0.02275,-0.2505,0.18276897759360017,10,1,100,0.29548539837420174,-10,-1,-100,6446.317896244931,-0.02410670382594353,0.011062847167693266,0.9996481782323181,203.40841345751014,21.359197286530495,474.9851394298186,-28.23218344281328,-0.2784423828125,4381.2578125,True
1599573634.2605262,0.0,10,0.5,0.5,-19.047140591430665,-0.2,-0.02275,-0.2505,0.20097483144443506,10,1,100,0.29478029435956793,-10,-1,-100,6445.190495883813,-0.024391660029441698,0.011797801087220332,0.9996328620101055,207.56366701083147,21.814169101286105,491.6245578555822,-28.613026986038182,-2.6602783203125,4381.2578125,True
1599573634.3333344,0.0,10,0.5,0.5,-19.034142699432373,-0.2,-0.02275,-0.2505,0.17264311835346446,10,1,100,0.2803418349960451,-10,-1,-100,6444.596767826122,-0.02451587625659047,0.012206120941955152,0.999624920869284,209.71850279438485,22.052244340343936,500.23642387987593,-28.80337119420076,-3.96142578125,4381.2578125,True
1599573634.4041429,0.0,10,0.5,0.5,-17.375303519439697,-0.2,-0.02275,-0.2505,0.2841418060145914,10,1,100,0.2987310750388963,-10,-1,-100,6442.87515434518,-0.024792819860953563,0.013588019080725182,0.9996002610147738,216.34559195275003,22.79385046826136,526.9129160919978,-29.374057638297764,-8.30584716796875,4381.2578125,True
1599573634.4729598,0.0,10,0.5,0.5,-16.955842014312744,-0.2,-0.02275,-0.2505,0.2613671625787366,10,1,100,0.2828842299296288,-10,-1,-100,6441.6862361165695,-0.02489748203100413,0.014632976452645444,0.9995829087117548,221.36870050367443,23.360417450442025,546.5680791978441,-29.75418903411449,-11.569549560546875,4381.2578125,True
1599573634.5407774,0.0,10,0.5,0.5,-16.12656904449463,-0.2,-0.02275,-0.2505,0.28245105924204306,10,1,100,0.2734142128752449,-10,-1,-100,6440.4934135634685,-0.024903770568271828,0.015769391742210946,0.9995654698395515,226.3642411251777,23.930011979626737,566.4930837254416,-30.134028733741815,-15.12713623046875,4381.2578125,True
1599573634.6095943,0.0,10,0.5,0.5,-15.23101403503418,-0.2,-0.02275,-0.2505,0.3033046050964362,10,1,100,0.2624348910422236,-10,-1,-100,6439.243949585245,-0.02480708744218333,0.016985859779366543,0.9995479423120192,231.4182543617759,24.510282149899034,586.9003385379733,-30.513560167950942,-18.978668212890625,4381.2578125,True
1599573634.6794655,0.0,10,0.5,0.5,-14.26969764404297,-0.2,-0.02275,-0.2505,0.32390420750670423,10,1,100,0.24978269806085435,-10,-1,-100,6438.0511259948835,-0.02460203728886356,0.018271824814973886,0.9995303297945333,236.43987832795375,25.08946897214517,607.5594694150334,-30.892768256280355,-23.1240234375,4381.2578125,True
1599573634.7482808,0.0,10,0.5,0.5,-13.244004081726075,-0.2,-0.02275,-0.2505,0.34342876091713737,10,1,100,0.23352869857836978,-10,-1,-100,6436.802149932948,-0.024266451779127337,0.01961040856211476,0.9995131670938998,240.8960852233119,25.60814761741717,627.0779105303387,-31.271663143336628,-27.56329345703125,4381.2578125,True
1599573634.8170984,0.0,10,0.5,0.5,-12.152825098419191,-0.2,-0.02275,-0.2505,0.3615069806452983,10,1,100,0.21535252329906224,-10,-1,-100,6435.4877419898985,-0.02379537361188166,0.02098283462432244,0.9994966237290646,244.83156133168563,26.067699857603454,645.5165357064367,-31.650267350209106,-32.2965087890625,4381.2578125,True
1599573634.8879073,0.0,10,0.5,0.5,-12.145117329406741,-0.2,-0.02275,-0.2505,0.30161709605470105,10,1,100,0.23074961961998586,-10,-1,-100,6434.893525799387,-0.023507082313988417,0.021676452273287475,0.9994886435062317,246.48839276297628,26.261947473901845,654.0083273823759,-31.839472366483527,-34.773284912109375,4381.2578125,True
1599573634.9547615,0.0,10,0.5,0.5,-9.14091252822876,-0.2,-0.02275,-0.2505,0.46019425152118726,10,1,100,0.1402978120092948,-10,-1,-100,6432.923370996374,-0.022423255266271872,0.023738975544673205,0.9994666871203626,249.79283706505868,26.652819066114194,675.3124616159843,-32.40678342037593,-42.6448974609375,4381.2578125,True
1599573635.0235448,0.0,10,0.5,0.5,-8.492205866241456,-0.2,-0.02275,-0.2505,0.4039610873782591,10,1,100,0.14980657428366634,-10,-1,-100,6431.669500666554,-0.02152619070244491,0.025091930504217746,0.9994533596608766,250.32407328417995,26.720346419973296,685.1318177144502,-32.784826375880336,-48.25994873046875,4381.2578125,True
1599573635.0923607,0.0,10,0.5,0.5,-7.135760390472412,-0.2,-0.02275,-0.2505,0.4098447079955145,10,1,100,0.12464147174017091,-10,-1,-100,6430.297461298527,-0.020484621699074206,0.026363662646176685,0.9994425133872004,249.25738265683464,26.604718864412483,690.5754714638691,-33.16283717006515,-54.169464111328125,4381.2578125,True
1599573635.1612234,0.0,10,0.5,0.5,-7.130874427795411,-0.2,-0.02275,-0.2505,0.34917724232511416,10,1,100,0.1656316659041904,-10,-1,-100,6429.63243539317,-0.019914295459466363,0.02695664613862167,0.9994382222355268,248.05766443177407,26.471480821520657,691.4219918613762,-33.35186005714984,-57.23468017578125,4381.2578125,True
1599573635.2310364,0.0,10,0.5,0.5,-3.4536048164367674,-0.2,-0.02275,-0.2505,0.47366879722937305,10,1,100,0.01606952063488029,-10,-1,-100,6427.59925937932,-0.01804069136334872,0.02861626011298676,0.9994276577683241,241.48653593717825,25.743017235630706,685.3350088235151,-33.919142974985796,-66.87112426757812,4381.2578125,True
1599573635.2998514,0.0,10,0.5,0.5,-2.6900240081787112,-0.2,-0.02275,-0.2505,0.41335616397084773,10,1,100,0.05093129281890782,-10,-1,-100,6426.282862074906,-0.016660579276919225,0.029565024452449542,0.9994240013264056,234.42163130729685,24.968836467509952,673.2488239284347,-34.29761762536269,-73.66311645507812,4381.2578125,True
1599573635.3686686,0.0,10,0.5,0.5,-1.074507376098633,-0.2,-0.02275,-0.2505,0.4054999212242316,10,1,100,0.029882336118861624,-10,-1,-100,6424.848781558103,-0.01522198369031496,0.03034468149547094,0.9994235796285129,225.0594106081367,23.956708153205387,654.0487151030259,-34.67639215601481,-80.74969482421875,4381.2578125,True
1599573635.436527,0.0,10,0.5,0.5,-1.0725835800170898,-0.2,-0.02275,-0.2505,0.36397069953208017,10,1,100,0.09287763133508677,-10,-1,-100,6424.183740385459,-0.014495381344093627,0.030664946922215837,0.9994246069363846,219.4953957917049,23.361569298809766,641.6420074086028,-34.865898803047436,-84.4034423828125,4381.2578125,True
1599573635.509949,0.0,10,0.5,0.5,1.5326767105102541,-0.2,-0.02275,-0.2505,0.3935892568068719,10,1,100,0.0004938365718146209,-10,-1,-100,6422.742811752367,-0.013003863868258154,0.031215307341427394,0.9994280885146645,206.57447271727787,21.994064165888467,610.9729225780375,-35.24513776666739,-91.93110656738281,4381.2578125,True
1599573635.5787654,0.0,10,0.5,0.5,5.11806869468689,-0.2,-0.02275,-0.2505,0.3943963646190733,10,1,100,-0.09595700403797369,-10,-1,-100,6420.646591095487,-0.010780923529903851,0.03171367009107873,0.9994388499639167,223.3185063000896,23.827808094056028,672.0240248712144,-35.81340263707364,-103.77439880371094,4381.2578125,True
1599573635.6489053,0.0,10,0.5,0.5,4.153017084503174,-0.2,-0.02275,-0.2505,0.35484730029764533,10,1,100,0.044161053046309615,-10,-1,-100,6419.933687633602,-0.010045438431060774,0.031798065444368966,0.9994438314386274,229.0624219222171,24.464696449094838,693.2432128216026,-36.00253007569203,-107.86921691894531,4381.2578125,True
1599573635.7207081,0.0,10,0.5,0.5,10.466808966445923,-0.2,-0.02275,-0.2505,0.3457846713366901,10,1,100,-0.17803580544276026,-10,-1,-100,6416.985379935359,-0.007368096733880261,0.03178507451144259,0.9994675683526816,245.98915342967595,26.37335480389578,761.3002867098795,-36.75769605241597,-123.83183288574219,4381.2578125,True
1599573635.7917411,0.0,10,0.5,0.5,6.640099703216554,-0.2,-0.02275,-0.2505,0.3477530790300498,10,1,100,0.08828255487843463,-10,-1,-100,6416.985379935359,-0.007368096733880261,0.03178507451144259,0.9994675683526816,245.98915342967595,26.37335480389578,761.3002867098795,-36.75769605241597,-123.83183288574219,4381.2578125,True
1599573635.8598013,0.0,10,0.5,0.5,10.205934657669069,-0.2,-0.02275,-0.2505,0.3241606730776284,10,1,100,-0.04987204123836919,-10,-1,-100,6415.481433679699,-0.006124069973695857,0.03156566953745216,0.9994829184501403,250.77917692919095,26.92096032485133,784.6724290773964,-37.134671971825355,-131.39532470703125,4381.2578125,True
1599573635.928616,0.0,10,0.5,0.5,13.338488342666627,-0.2,-0.02275,-0.2505,0.29505740738397346,10,1,100,-0.09832907245293049,-10,-1,-100,6413.261643720907,-0.004565154658382906,0.03109744530624687,0.9995059320776291,252.7581443872015,27.151950178524984,803.7958435385347,-37.69982782208207,-142.17999267578125,4381.2578125,True
1599573635.9969447,0.0,10,0.5,0.5,12.360479958724977,-0.2,-0.02275,-0.2505,0.3168808402782032,10,1,100,0.004249745299129297,-10,-1,-100,6412.4813472687965,-0.004092744111939826,0.030867926135832096,0.99951509272332,252.1935016181445,27.08932197326148,806.3128510322368,-37.8882073898154,-145.62554931640625,4381.2578125,True
1599573636.071253,0.0,10,0.5,0.5,16.11438943977356,-0.2,-0.02275,-0.2505,0.2640663394971593,10,1,100,-0.07718661355345448,-10,-1,-100,6410.192213129718,-0.0029343747484817007,0.03017795606318792,0.9995402345141909,247.40542519109408,26.55286979158,803.7573269442079,-38.45353402463776,-155.51080322265625,4381.2578125,True
1599573636.1390705,0.0,10,0.5,0.5,16.608270056533815,-0.2,-0.02275,-0.2505,0.2730181738286025,10,1,100,-0.029035245562236814,-10,-1,-100,6408.622341126087,-0.0023302219533870502,0.029632242423281135,0.9995581525227112,242.0856596321853,25.961673342739733,794.8537554698986,-38.83066791175191,-161.7262420654297,4381.2578125,True
1599573636.2073975,0.0,10,0.5,0.5,16.576574155426027,-0.2,-0.02275,-0.2505,0.2951948781745116,10,1,100,0.0032505823983760285,-10,-1,-100,6407.843508797465,-0.0020855589023890363,0.029338684339691355,0.9995673524306807,238.91560286550072,25.61237823756575,788.5986985694764,-39.01932524879947,-164.72149658203125,4381.2578125,True
1599573636.2772107,0.0,10,0.5,0.5,18.58883515739441,-0.2,-0.02275,-0.2505,0.26308879609592517,10,1,100,-0.01648615965748292,-10,-1,-100,6406.280472748331,-0.001693638750942914,0.028781645902078712,0.9995842878151641,231.7508616950739,24.831099493722544,773.0416623863321,-39.39682604768659,-170.48614501953125,4381.2578125,True
1599573636.346027,0.0,10,0.5,0.5,20.938738611602787,-0.2,-0.02275,-0.2505,0.21973108679675507,10,1,100,-0.012248907231570672,-10,-1,-100,6403.925422925735,-0.001384129348753788,0.02788375180533749,0.9996102143191637,219.51746573130083,23.521740781702945,743.7989494226305,-39.963508948324865,-178.57089233398438,4381.2578125,True
1599573636.4148426,0.0,10,0.5,0.5,-141.9591844707489,-0.2,-0.02275,-0.2505,0.27627717237739235,10,1,100,0.014672672320811944,-10,-1,-100,6403.083116058842,-0.0013553727145874308,0.027585098235068564,0.9996185399041807,215.17914299042465,23.06429598824765,732.8897344952472,-40.15250188133836,178.88424682617188,4381.2578125,True
1599573636.4846559,0.0,10,0.5,0.5,-49.86874351119995,-0.2,-0.02275,-0.2505,0.20989757748798205,10,1,100,0.027355094973672417,-10,-1,-100,6400.668990432401,-0.0014499911840251947,0.026713962286989787,0.9996420668141651,226.04142891096157,24.27320633884791,781.8479129767476,-40.71895588928865,171.69976806640625,4381.2578125,True
1599573636.554469,0.0,10,0.5,0.5,-50.31178006706238,-0.2,-0.02275,-0.2505,0.23440925222147718,10,1,100,0.04338193491108263,-10,-1,-100,6399.037115404964,-0.001687086615263123,0.026149464024699448,0.999656620680308,232.8380664758895,25.046918293827286,813.5727715699716,-41.096114171630575,167.19586181640625,4381.2578125,True
1599573636.6242828,0.0,10,0.5,0.5,-50.01059563102722,-0.2,-0.02275,-0.2505,0.23064549070193724,10,1,100,0.058855201354961514,-10,-1,-100,6397.412080465816,-0.0020473275962041683,0.025606991595633097,0.9996699907625192,239.30018016249622,25.793620254488964,844.5899306105541,-41.472878985258035,162.51504516601562,4381.2578125,True
1599573636.693099,0.0,10,0.5,0.5,-49.64405871772767,-0.2,-0.02275,-0.2505,0.22744775416688706,10,1,100,0.0756182812210035,-10,-1,-100,6395.714783138246,-0.00252949996589839,0.0250897558313547,0.9996820023298637,245.20676914465065,26.486110983795086,874.0696198445443,-41.84925109816834,157.55996704101562,4381.2578125,True
1599573636.7619147,0.0,10,0.5,0.5,-50.41012923851014,-0.2,-0.02275,-0.2505,0.2515797954386758,10,1,100,0.05912417573291979,-10,-1,-100,6394.87980830844,-0.00281931320131605,0.024844176575667395,0.9996873603098871,248.32054181309258,26.850581617378932,889.534017718821,-42.03728704540613,154.97412109375,4381.2578125,True
1599573636.8303757,0.0,10,0.5,0.5,-48.07246854057312,-0.2,-0.02275,-0.2505,0.19952403065410174,10,1,100,0.14519972101112216,-10,-1,-100,6392.333873766707,-0.0038653893374495495,0.024152537371989646,0.9997008120951811,256.3884743082085,27.802521724518485,931.928275397627,-42.60082765314169,146.779296875,4381.2578125,True
1599573636.9001892,0.0,10,0.5,0.5,-48.20183363342286,-0.2,-0.02275,-0.2505,0.22365428466247156,10,1,100,0.1339603899287024,-10,-1,-100,6390.580927462899,-0.004712796299199767,0.02374812195513259,0.999706865163307,260.366904114952,28.275625672172907,955.506713560732,-42.97611908853702,140.95179748535156,4381.2578125,True
1599573637.5237908,0.0,10,0.5,0.5,-48.99523159599305,-0.2,-0.02275,-0.2505,0.24361741047119256,10,1,100,0.10086990364865703,-10,-1,-100,6389.73570739897,-0.0051799552642479065,0.023567036867509605,0.9997088390310179,261.83999454446297,28.451408086110757,965.4954289888851,-43.1636734366405,137.92893981933594,4381.2578125,True
1599573637.5806644,0.0,10,0.5,0.5,-47.632001371765135,-0.2,-0.02275,-0.2505,0.22111367578893426,10,1,100,0.1678672473245389,-10,-1,-100,6387.979353492381,-0.006210542614514864,0.02320257520804506,0.9997114932139913,263.5894512148642,28.661391673140727,981.1784601769757,-43.538662530690445,131.66456604003906,4381.2578125,True
1599573637.6451488,0.0,10,0.5,0.5,-48.44697775154114,-0.2,-0.02275,-0.2505,0.24033969282587198,10,1,100,0.12690719536021305,-10,-1,-100,6387.134137734538,-0.006770688448476625,0.023050284014865172,0.9997113794414704,263.8004997459749,28.68809583113758,986.5912114944547,-43.72612586284748,128.42364501953125,4381.2578125,True
1599573637.7110033,0.0,10,0.5,0.5,-47.651364399337766,-0.2,-0.02275,-0.2505,0.24066448950213493,10,1,100,0.13577598808963381,-10,-1,-100,6386.22300752555,-0.0073556143080421525,0.02291891273104967,0.999710267216146,263.5264994751189,28.658047530583225,990.1971411343576,-43.91358905886773,125.11029052734375,4381.2578125,True
1599573637.7767963,0.0,10,0.5,0.5,-43.70141051597596,-0.2,-0.02275,-0.2505,0.21597052508275627,10,1,100,0.29223117760589795,-10,-1,-100,6383.628301666584,-0.009304316245864109,0.02257844375063753,0.9997017773201147,259.4848401273684,28.198407315349876,988.7647691852837,-44.47613753789852,114.73524475097656,4381.2578125,True
1599573637.8426197,0.0,10,0.5,0.5,-41.21419683609009,-0.2,-0.02275,-0.2505,0.23119152449217115,10,1,100,0.3391330820768086,-10,-1,-100,6380.902276476729,-0.0114953196575918,0.022410545599688508,0.9996827622160414,250.04428418750982,27.141890095765454,966.1969647282834,-45.03923702472869,103.71012878417969,4381.2578125,True
1599573637.9094427,0.0,10,0.5,0.5,-42.12155511665345,-0.2,-0.02275,-0.2505,0.24476825396469665,10,1,100,0.2107984821186663,-10,-1,-100,6379.991166864871,-0.012311873675850784,0.022384241590390486,0.9996736284883246,245.59415980062647,26.65166090711428,953.4277163437089,-45.22711570936621,99.89070129394531,4381.2578125,True
1599573637.9768076,0.0,10,0.5,0.5,-39.40864789657593,-0.2,-0.02275,-0.2505,0.25085309595881833,10,1,100,0.3192142284165723,-10,-1,-100,6378.176284866873,-0.014030900137239958,0.022418105158466994,0.9996502200282072,234.6622079376927,25.463716589879922,919.4953358659719,-45.60318260827463,92.03614807128906,4381.2578125,True
1599573638.0446248,0.0,10,0.5,0.5,-37.56502498970031,-0.2,-0.02275,-0.2505,0.26331899558608474,10,1,100,0.3485170277274315,-10,-1,-100,6376.354099247605,-0.015849848198659814,0.022564422100072788,0.99961974228572,233.27741013606547,25.33604796846702,922.5674666668303,-45.979445948059066,83.89407348632812,4381.2578125,True
1599573638.11384,0.0,10,0.5,0.5,-37.57900026817322,-0.2,-0.02275,-0.2505,0.2611815885178798,10,1,100,0.2718176629924902,-10,-1,-100,6375.449851038051,-0.016795275430668208,0.02267945026934157,0.9996017013084205,240.55297394343404,26.147295883796204,955.7266014896313,-46.1673454694348,79.71527099609375,4381.2578125,True
1599573638.187681,0.0,10,0.5,0.5,-34.62452717437744,-0.2,-0.02275,-0.2505,0.28740688412895044,10,1,100,0.4009639721008875,-10,-1,-100,6373.565688971197,-0.018817828016087206,0.023023404630310006,0.9995578083272552,254.15362823042938,27.68276746473151,1019.0145258874609,-46.542601109393516,71.14268493652344,4381.2578125,True
1599573638.2554624,0.0,10,0.5,0.5,-30.585399975585936,-0.2,-0.02275,-0.2505,0.34254120725840626,10,1,100,0.5504855088454026,-10,-1,-100,6370.702143608243,-0.022003400816189306,0.023837805743492,0.9994736661712793,270.32697395541464,29.540962398491946,1098.5425624769716,-47.10421461738636,57.74729919433594,4381.2578125,True
1599573638.325308,0.0,10,0.5,0.5,-29.589077030181887,-0.2,-0.02275,-0.2505,0.34581823468072825,10,1,100,0.4775151978860852,-10,-1,-100,6368.791196189588,-0.02422165248192317,0.024607384067919062,0.9994037163230778,278.365694084993,30.467619418069408,1141.2426244716053,-47.47792966927897,48.46049499511719,4381.2578125,True
1599573638.3951247,0.0,10,0.5,0.5,-27.421990171432494,-0.2,-0.02275,-0.2505,0.38027824284459616,10,1,100,0.5082416359121478,-10,-1,-100,6366.8778410137165,-0.026501711647342302,0.02561885798247605,0.9993204357939622,282.5847648000526,30.951419615538946,1168.7293592166382,-47.85134457462462,38.889984130859375,4381.2578125,True
1599573638.4678934,0.0,10,0.5,0.5,-25.18408505287171,-0.2,-0.02275,-0.2505,0.4154426943549849,10,1,100,0.5337478769901276,-10,-1,-100,6364.914228955517,-0.028788962082669237,0.026855602059211912,0.9992246855939059,282.5018686306073,30.936766851225993,1178.6344964201494,-48.22474425709134,29.036117553710938,4381.2578125,True
1599573638.5377495,0.0,10,0.5,0.5,-25.19011697502136,-0.2,-0.02275,-0.2505,0.36928525621639763,10,1,100,0.43238466813847243,-10,-1,-100,6363.943667484564,-0.029929083629008854,0.02755641345652229,0.9991721043096334,280.7219347742147,30.731552192862225,1176.3411108846287,-48.41152861426967,24.0030517578125,4381.2578125,True
1599573638.608562,0.0,10,0.5,0.5,-19.27689017868042,-0.2,-0.02275,-0.2505,0.5753510677693255,10,1,100,0.6876313932781504,-10,-1,-100,6361.028615975985,-0.0332692245687952,0.030062162224688493,0.9989942067394423,268.02059589708966,29.31000900329661,1138.0271400939755,-48.972578750711726,8.48101806640625,4381.2578125,True
1599573638.6783688,0.0,10,0.5,0.5,-20.56279398918152,-0.2,-0.02275,-0.2505,0.43066614416635535,10,1,100,0.4730240482538485,-10,-1,-100,6360.056623920682,-0.034335688331204636,0.03101781823514504,0.9989289041061702,261.28607642952215,28.57264370618841,1114.3441046490345,-49.15989296114654,3.166015625,4381.2578125,True
1599573638.7481441,0.0,10,0.5,0.5,-16.80762807922363,-0.2,-0.02275,-0.2505,0.5596451628429235,10,1,100,0.5949782976777408,-10,-1,-100,6358.05211351451,-0.03639541693889045,0.033051315038913724,0.9987907609705062,248.87343863821732,27.24387658822085,1070.8222169266296,-49.534909161223204,-7.6761474609375,4381.2578125,True
1599573638.8179991,0.0,10,0.5,0.5,-11.750777658843994,-0.2,-0.02275,-0.2505,0.7423945049962328,10,1,100,0.6818010341839915,-10,-1,-100,6355.075664300704,-0.039038517306170535,0.03655177261378912,0.9985689571007731,276.0159266793826,30.340144151650176,1203.2470436025542,-50.09602571235599,-24.46746826171875,4381.2578125,True
1599573638.8877714,0.0,10,0.5,0.5,-10.517804392242432,-0.2,-0.02275,-0.2505,0.6681080066702412,10,1,100,0.5837947564805652,-10,-1,-100,6353.070222319104,-0.040530148531961734,0.039046063767671876,0.9984151000281537,288.2883348234412,31.78865795804513,1267.5214822986768,-50.468950436557364,-36.015045166015625,4381.2578125,True
1599573638.9761622,0.0,10,0.5,0.5,-7.837197130966188,-0.2,-0.02275,-0.2505,0.702054963500496,10,1,100,0.5625794842994156,-10,-1,-100,6351.003254710464,-0.04167357233511067,0.04160764382498819,0.9982645527835611,296.76191459446864,32.80119432856635,1315.787243295965,-50.84120504119131,-47.84521484375,4381.2578125,True
1599573639.044979,0.0,10,0.5,0.5,-5.103508448028563,-0.2,-0.02275,-0.2505,0.7272124301066408,10,1,100,0.5439036389522571,-10,-1,-100,6348.998278636369,-0.04252538613343651,0.044148902811621156,0.9981194647509547,298.5433842920488,33.03642628227789,1334.7653174309376,-51.213209068346714,-59.958251953125,4381.2578125,True
1599573639.1152976,0.0,10,0.5,0.5,-5.114962594985962,-0.2,-0.02275,-0.2505,0.6126975485391625,10,1,100,0.49550839797574264,-10,-1,-100,6347.96477478568,-0.04284316581971759,0.045400328859088866,0.9980497348739846,296.7301640000752,32.84081275223033,1332.2005786621044,-51.399270338877464,-66.12075805664062,4381.2578125,True
1599573639.184562,0.0,10,0.5,0.5,2.1003405605316163,-0.2,-0.02275,-0.2505,0.8747681429963234,10,1,100,0.521507979933092,-10,-1,-100,6344.86273844575,-0.04335356041215595,0.04890246569650951,0.9978622237806135,280.0569552655651,30.99371637201946,1273.2877737562017,-51.95833045130811,-85.0333251953125,4381.2578125,True
1599573639.2553725,0.0,10,0.5,0.5,3.4618883453369143,-0.2,-0.02275,-0.2505,0.7566374744615606,10,1,100,0.4791565459641727,-10,-1,-100,6342.733137341915,-0.04341930191617384,0.050992268685996524,0.9977547558169629,259.69941039320787,28.771243066133145,1190.769902312131,-52.33207812386559,-97.99589538574219,4381.2578125,True
1599573639.3241963,0.0,10,0.5,0.5,3.4600399845123295,-0.2,-0.02275,-0.2505,0.6555500710152216,10,1,100,0.47059024163115165,-10,-1,-100,6341.6990834107855,-0.0433889275910834,0.05195180786762757,0.9977065754127217,258.59778869937463,28.685889174372615,1190.7305885658225,-52.51903746524419,-104.58352661132812,4381.2578125,True
1599573639.3940096,0.0,10,0.5,0.5,10.868761693954468,-0.2,-0.02275,-0.2505,0.81615301299541,10,1,100,0.45606827442733977,-10,-1,-100,6338.535326788551,-0.04322009695458263,0.05426424328198211,0.9975908054509476,288.80775896576455,32.2126134134186,1346.46771339857,-53.07799277017381,-124.12115478515625,4381.2578125,True
1599573639.4648533,0.0,10,0.5,0.5,11.975565974044802,-0.2,-0.02275,-0.2505,0.7197162199761403,10,1,100,0.4598478650406299,-10,-1,-100,6336.4051081620855,-0.04309289773731786,0.05546862606299575,0.9975300665580384,300.35241037489027,33.60844614270817,1411.6590175884885,-53.44941442405907,-136.799072265625,4381.2578125,True
1599573639.5336363,0.0,10,0.5,0.5,11.897895045089722,-0.2,-0.02275,-0.2505,0.6550276789306311,10,1,100,0.46892019192483214,-10,-1,-100,6335.308980638045,-0.04305364916529861,0.05595506248075435,0.9975045936116415,303.8624720506944,34.03979029842593,1433.8890744990454,-53.63491921120993,-143.02413940429688,4381.2578125,True
1599573639.602488,0.0,10,0.5,0.5,18.813991766738894,-0.2,-0.02275,-0.2505,0.7193746195444275,10,1,100,0.49447861403757765,-10,-1,-100,6332.082086434821,-0.04324666781734322,0.056964610238963084,0.997439100347996,302.74097584423004,33.96378604299442,1445.8711428865759,-54.19144764767654,-161.23892211914062,4381.2578125,True
1599573639.6718166,0.0,10,0.5,0.5,19.832995044326786,-0.2,-0.02275,-0.2505,0.6624347688105061,10,1,100,0.51641403418432,-10,-1,-100,6329.889306513825,-0.043619082666640184,0.05734845633387056,0.997400887398564,293.0687336185224,32.88723489295196,1411.0604675240847,-54.56304221216375,-172.99679565429688,4381.2578125,True
1599573639.7406342,0.0,10,0.5,0.5,-139.84969751625061,-0.2,-0.02275,-0.2505,0.6464261432915595,10,1,100,0.5526206161816537,-10,-1,-100,6327.696529859793,-0.04428502372022088,0.057537564540424316,0.9973606495851217,277.276623278402,31.144811822035916,1345.9805466629018,-54.93539809188475,175.55384826660156,4381.2578125,True
1599573639.8108954,0.0,10,0.5,0.5,-48.05473404998779,-0.2,-0.02275,-0.2505,0.6351120067367557,10,1,100,0.5941286475725327,-10,-1,-100,6325.5032855867175,-0.04526617074740516,0.05759445379431242,0.9973133172067852,268.0268757612592,30.184409199237063,1311.7473675022372,-55.30829067871983,164.41329956054688,4381.2578125,True
1599573639.8782218,0.0,10,0.5,0.5,-46.45018609161377,-0.2,-0.02275,-0.2505,0.627405088816972,10,1,100,0.6409263156988696,-10,-1,-100,6323.247573953471,-0.046581353205150576,0.057565022839544275,0.9972544538276377,287.1078806091356,32.464127357379844,1416.497858224104,-55.68021207487019,153.4927215576172,4381.2578125,True
1599573639.9470382,0.0,10,0.5,0.5,-44.7336384967804,-0.2,-0.02275,-0.2505,0.6249556655090385,10,1,100,0.6940901738095636,-10,-1,-100,6321.054409499746,-0.04825734706520454,0.0575081248895529,0.9971780402846404,301.16782748321805,34.20199728295984,1497.6522766672822,-56.05106958735119,142.40548706054688,4381.2578125,True
1599573640.0183568,0.0,10,0.5,0.5,-45.516795446777344,-0.2,-0.02275,-0.2505,0.6291615802933854,10,1,100,0.6341419751678433,-10,-1,-100,6319.894860728411,-0.04923159600019339,0.05748871156377884,0.9971315349531428,306.8490507990511,34.915274238855716,1531.8598052232255,-56.23617260123275,136.7648468017578,4381.2578125,True
1599573640.0921593,0.0,10,0.5,0.5,-42.303592648696906,-0.2,-0.02275,-0.2505,0.6323795920963257,10,1,100,0.7824590282060772,-10,-1,-100,6317.6392917786725,-0.05146030217924982,0.057495284189741744,0.997018620485877,314.56639816057293,35.90029528677575,1582.555433110007,-56.60594529928509,125.27705383300781,4381.2578125,True
1599573640.1599782,0.0,10,0.5,0.5,-40.448334138488775,-0.2,-0.02275,-0.2505,0.6454224192487439,10,1,100,0.8465192530881889,-10,-1,-100,6315.382829781156,-0.05406127329075244,0.057616893150268404,0.9968739500829045,315.5043081836879,36.063372090038776,1599.5459839646,-56.97556846494395,113.51161193847656,4381.2578125,True
1599573640.231919,0.0,10,0.5,0.5,-35.78076291465759,-0.2,-0.02275,-0.2505,0.6944190534675254,10,1,100,1.0854961409383943,-10,-1,-100,6311.905064776656,-0.058588338394799024,0.05817091772811132,0.9965859475904754,302.88926774898096,34.64958617906465,1553.678251913955,-57.5308332308191,95.34452819824219,4381.2578125,True
1599573640.3034089,0.0,10,0.5,0.5,-35.26270094070435,-0.2,-0.02275,-0.2505,0.717577915024638,10,1,100,1.0130971195832221,-10,-1,-100,6309.587359361118,-0.062031556759585715,0.05888309712644466,0.9963357199452303,284.79349226817163,32.62245986940769,1472.503038397725,-57.90209912710335,82.88902282714844,4381.2578125,True
1599573640.376214,0.0,10,0.5,0.5,-36.08624844856263,-0.2,-0.02275,-0.2505,0.700032301032552,10,1,100,0.8713161343729203,-10,-1,-100,6308.427582791774,-0.06385576005389611,0.059369283282376485,0.9961916131500385,272.90142667465267,31.30487994510356,1416.6439048931554,-58.08811707376361,76.55839538574219,4381.2578125,True
1599573640.4480221,0.0,10,0.5,0.5,-32.44367689208985,-0.2,-0.02275,-0.2505,0.7959516756263076,10,1,100,1.117095495818366,-10,-1,-100,6306.108151767403,-0.06773008753696665,0.060681427895940915,0.9958566159597197,298.7039945988432,34.41368708066982,1562.8641589422139,-58.45900605509948,63.69239807128906,4381.2578125,True
