Timestamp,Input Throttle,horizon,dT,dt,Input Roll,Roll P,Roll I,Roll D,Input Pitch,Pitch P,Pitch I,Pitch D,Input Yaw,Yaw P,Yaw I,Yaw D,Altitude,Direction X,Direction Y,Direction Z,Drag X,Drag Y,Drag Z,Vertical Velocity,Roll,Mass,Has Fuel
1599565896.8307576,0.0,10,0.5,0.5,-0.055642333984375,-0.001,-0.02275,-0.5,-0.06717878315774534,10,1,100,0.6903643908397618,-10,-1,-100,6483.617967250757,-0.06725808039814342,-0.007002708951213746,0.9977110366676823,205.0731693944893,21.498771994261002,-156.76521545358955,9.590825121067887,-35.944580078125,4381.2578125,True
1599565896.883616,0.0,10,0.5,0.5,-0.17871332397460937,-0.001,-0.02275,-0.5,-0.06735020857788812,10,1,100,0.6999027361449539,-10,-1,-100,6483.997882761876,-0.0674453178901771,-0.006972007570946739,0.9976986119089891,204.61205446897964,21.456732214365992,-150.26666544788404,9.210802680568246,-35.94122314453125,4381.2578125,True
1599565896.939466,0.0,10,0.5,0.5,-0.3008747756958008,-0.001,-0.02275,-0.5,-0.0693125593713717,10,1,100,0.6985821976656138,-10,-1,-100,6484.156591754872,-0.06754221497140447,-0.006955598589216632,0.9976921713860555,204.38121398647775,21.435615182114958,-147.0255401074876,9.020798946886988,-35.93951416015625,4381.2578125,True
1599565897.005293,0.0,10,0.5,0.5,-0.4163264617919922,-0.001,-0.02275,-0.5,-0.018251557583304212,10,1,100,0.7014351605864133,-10,-1,-100,6484.697140568867,-0.06759483724000807,-0.006470167136307543,0.9976918737344337,203.72129288915093,21.375375856910708,-137.35774255731272,8.450807248346734,-35.952850341796875,4381.2578125,True
1599565897.0651302,0.0,10,0.5,0.5,-0.5344848381042481,-0.001,-0.02275,-0.5,-0.04403653507688697,10,1,100,0.7021026779891552,-10,-1,-100,6484.856804369716,-0.0675872941539999,-0.00625739273166248,0.9976937419394503,203.51796715668908,21.35692024894232,-134.1567017995679,8.260813645626612,-35.975738525390625,4381.2578125,True
1599565897.1219811,0.0,10,0.5,0.5,-0.618455859375,-0.001,-0.02275,-0.5,-0.0013628553441413227,10,1,100,0.6985014895812443,-10,-1,-100,6485.175624723313,-0.06748625573196237,-0.005670330372840497,0.9977040907206621,203.1353681255061,21.322295610875763,-127.78419241636084,7.880826451582335,-36.0762939453125,4381.2578125,True
1599565897.1828158,0.0,10,0.5,0.5,-0.6155218170166016,-0.001,-0.02275,-0.5,0.0808383564992707,10,1,100,0.6702713687001685,-10,-1,-100,6485.590085234609,-0.06707641401688942,-0.0043841987295414565,0.9977382088925606,202.62525865261424,21.276285316363325,-118.29621978682637,7.310831047798652,-36.4273681640625,4381.2578125,True
1599565897.2375681,0.0,10,0.5,0.5,-0.7044669677734374,-0.001,-0.02275,-0.5,0.07634226386654328,10,1,100,0.669283693871966,-10,-1,-100,6485.909331002855,-0.06663387321927863,-0.003251876078903904,0.9977721945623482,202.32761224270988,21.249398865336932,-112.01368088604457,6.930812808971991,-36.843475341796875,4381.2578125,True
1599565897.2944174,0.0,10,0.5,0.5,-0.7374353843688963,-0.001,-0.02275,-0.5,0.10873919491335916,10,1,100,0.6539321800207774,-10,-1,-100,6486.165075949859,-0.06603142793805868,-0.0019250180450997086,0.9978156868029221,202.0567198644571,21.22465999345438,-105.75810619052072,6.550767494438663,-37.434326171875,4381.2578125,True
1599565897.3532598,0.0,10,0.5,0.5,-0.5331696311950682,-0.001,-0.02275,-0.5,0.2346780608501796,10,1,100,0.5883211222741476,-10,-1,-100,6486.5178889707895,-0.06482725767749112,0.0004278653287343818,0.9978964092496156,201.65667990146423,21.186775773396572,-96.39920028575176,5.980629645516473,-38.67041015625,4381.2578125,True
1599565897.4121013,0.0,10,0.5,0.5,-1.0100558372497557,-0.001,-0.02275,-0.5,0.09501428515566553,10,1,100,0.6613102431964619,-10,-1,-100,6486.67552137794,-0.06433716103292575,0.0012967905574254868,0.9979273761373989,201.51186959897572,21.17251819984165,-93.27988712444758,5.79056045204981,-39.18524169921875,4381.2578125,True
1599565897.4679549,0.0,10,0.5,0.5,-0.6680054145812988,-0.001,-0.02275,-0.5,0.2110575826056623,10,1,100,0.586190176940542,-10,-1,-100,6486.869189641089,-0.06321136431678089,0.0031341166516822444,0.9979952408373624,201.17702871797098,21.13856714282029,-87.0312328315761,5.410379872384032,-40.3670654296875,4381.2578125,True
1599565897.5238032,0.0,10,0.5,0.5,-0.9208011253356934,-0.001,-0.02275,-0.5,0.13448590370197397,10,1,100,0.628222568900479,-10,-1,-100,6486.965284262667,-0.06257387445953352,0.004099119543497922,0.9980319170517999,200.97491355929927,21.11760405309516,-83.89822967761066,5.220265737293795,-41.0218505859375,4381.2578125,True
1599565897.5812461,0.0,10,0.5,0.5,-0.4857582496643067,-0.001,-0.02275,-0.5,0.2701455255272538,10,1,100,0.5377708307466861,-10,-1,-100,6487.157950886292,-0.06117656637019405,0.006199614445257705,0.9981077058653957,200.4688395610233,21.06431160727756,-77.60758588455396,4.839982053027165,-42.520599365234375,4381.2578125,True
1599565897.6420841,0.0,10,0.5,0.5,0.12659814376831058,-0.001,-0.02275,-0.5,0.42512392583807646,10,1,100,0.40190598162162,-10,-1,-100,6487.447659494239,-0.058676986088630124,0.009506531830063563,0.9982317552332819,199.33307796765862,20.94322038062391,-68.09152792527377,4.269391489048436,-45.20880126953125,4381.2578125,True
1599565897.7059135,0.0,10,0.5,0.5,-0.6856818557739257,-0.001,-0.02275,-0.5,0.22522656374414202,10,1,100,0.5483970304310396,-10,-1,-100,6487.544225661317,-0.05774447746553525,0.010681240774886098,0.9982742541094313,198.8151050345389,20.88783452203253,-64.89458976387813,4.079143031637545,-46.2283935546875,4381.2578125,True
1599565897.7667532,0.0,10,0.5,0.5,-0.08249903717041018,-0.001,-0.02275,-0.5,0.3679570686363113,10,1,100,0.4165872040977676,-10,-1,-100,6487.674364341889,-0.05570732736720692,0.013031842977246553,0.9983620910001636,197.51114989444042,20.748379497059034,-58.46495617858219,3.698556740190746,-48.40380859375,4381.2578125,True
1599565897.829608,0.0,10,0.5,0.5,1.146613514709473,-0.001,-0.02275,-0.5,0.6658086709969857,10,1,100,0.10092447477074473,-10,-1,-100,6487.935121415299,-0.050996047089980664,0.01786066314475602,0.9985391328802422,193.76473037343825,20.348558671644813,-45.56121135591584,2.936964360319186,-52.97381591796875,4381.2578125,True
1599565897.8854337,0.0,10,0.5,0.5,-1.1016936225891112,-0.001,-0.02275,-0.5,0.1850379081684052,10,1,100,0.5704887198804404,-10,-1,-100,6487.935121415299,-0.050996047089980664,0.01786066314475602,0.9985391328802422,193.76473037343825,20.348558671644813,-45.56121135591584,2.936964360319186,-52.97381591796875,4381.2578125,True
1599565897.946271,0.0,10,0.5,0.5,1.3060086921691896,-0.001,-0.02275,-0.5,0.6904165384873211,10,1,100,-0.03794248372187903,-10,-1,-100,6488.132902699406,-0.04547852285800329,0.022437027346573567,0.9987133141009501,188.6742769058273,19.80767174554544,-32.86016941729261,2.174706705458263,-57.70904541015625,4381.2578125,True
1599565898.0051131,0.0,10,0.5,0.5,-0.4469317695617674,-0.001,-0.02275,-0.5,0.3701971611551449,10,1,100,0.3435257660750861,-10,-1,-100,6488.167459423072,-0.04394807467692307,0.02366626486155352,0.9987534603893466,187.2789676309418,19.659822439318408,-29.759493198849764,1.9840313431251864,-58.8494873046875,4381.2578125,True
1599565898.0609643,0.0,10,0.5,0.5,0.7733470527648925,-0.001,-0.02275,-0.5,0.5942518586757273,10,1,100,-0.02713522836213017,-10,-1,-100,6488.269685320789,-0.039205648277744545,0.026800278512355016,0.9988716945708203,182.46917539416222,19.1519648195079,-20.63581422922918,1.41173560735808,-62.33404541015625,4381.2578125,True
1599565898.1218007,0.0,10,0.5,0.5,0.20858337631225587,-0.001,-0.02275,-0.5,0.5128618123800286,10,1,100,0.06714220409455202,-10,-1,-100,6488.273888212512,-0.03577324249722394,0.028887957626885778,0.9989423211704378,179.01356728592006,18.78901093676193,-14.772412509721612,1.0299802275677998,-64.58462524414062,4381.2578125,True
1599565898.1855128,0.0,10,0.5,0.5,-0.8631012283325196,-0.001,-0.02275,-0.5,0.3065727847352912,10,1,100,0.4077027189503816,-10,-1,-100,6488.273888212512,-0.03577324249722394,0.028887957626885778,0.9989423211704378,179.01356728592006,18.78901093676193,-14.772412509721612,1.0299802275677998,-64.58462524414062,4381.2578125,True
1599565898.2463467,0.0,10,0.5,0.5,0.7968290802001953,-0.001,-0.02275,-0.5,0.5939470961356764,10,1,100,-0.17256864558426166,-10,-1,-100,6488.312206923729,-0.030521142204975336,0.03147982560036053,0.9990382777745177,173.45015580177235,18.207315932607766,-6.352935369893756,0.4570661716077864,-67.79766845703125,4381.2578125,True
1599565898.3151636,0.0,10,0.5,0.5,-0.2482362945556641,-0.001,-0.02275,-0.5,0.42522171918550655,10,1,100,0.14942211504083402,-10,-1,-100,6488.345822332776,-0.028699290530326254,0.03228222642781758,0.9990666687363358,171.60329659787328,18.014661485427975,-3.6586483482041,0.26603998006457763,-68.81576538085938,4381.2578125,True
1599565898.3829834,0.0,10,0.5,0.5,0.36973481521606444,-0.001,-0.02275,-0.5,0.5223452843543569,10,1,100,-0.09208372288204558,-10,-1,-100,6488.351057880907,-0.024873958833105645,0.03387498596735632,0.9991164954587028,167.8069236863161,17.61877141262029,1.5610378378889067,-0.11606497856660036,-70.96273803710938,4381.2578125,True
1599565898.45878,0.0,10,0.5,0.5,0.41479423370361335,-0.001,-0.02275,-0.5,0.49974935612048477,10,1,100,-0.12207766578587559,-10,-1,-100,6488.3558278202545,-0.021151742689719456,0.03509858334391079,0.9991599938090188,163.79558591011917,17.199908277895744,6.5413966021979135,-0.4982103360392163,-73.09292602539062,4381.2578125,True
1599565898.5256014,0.0,10,0.5,0.5,0.44055648117065427,-0.001,-0.02275,-0.5,0.5116776505259966,10,1,100,-0.18831293495086798,-10,-1,-100,6488.299097077455,-0.017192902207323228,0.036303712798829366,0.9991928965673794,160.7090707499738,16.87741779236361,11.34232455465273,-0.88034674956825,-75.17892456054688,4381.2578125,True
1599565898.5994053,0.0,10,0.5,0.5,1.4515845779418948,-0.001,-0.02275,-0.5,0.5785595323174284,10,1,100,-0.6584031848373864,-10,-1,-100,6488.184241313953,-0.009351138719706178,0.03799053572899193,0.9992343445857279,154.08630510411294,16.183110805965313,20.3194722819411,-1.6445166450078337,-79.17794799804688,4381.2578125,True
1599565898.6757178,0.0,10,0.5,0.5,-0.4990853874206543,-0.001,-0.02275,-0.5,0.4114325901394139,10,1,100,0.12216042551048895,-10,-1,-100,6488.184241313953,-0.009351138719706178,0.03799053572899193,0.9992343445857279,154.08630510411294,16.183110805965313,20.3194722819411,-1.6445166450078337,-79.17794799804688,4381.2578125,True
1599565898.7487347,0.0,10,0.5,0.5,0.4624714920043946,-0.001,-0.02275,-0.5,0.47277760783083,10,1,100,-0.3118681507932804,-10,-1,-100,6488.126115075429,-0.005436876149633018,0.03853519564357986,0.9992424525981892,150.80848515894817,15.838639263056843,24.510048148407115,-2.0265549711753454,-81.00491333007812,4381.2578125,True
1599565898.8195448,0.0,10,0.5,0.5,1.18370873336792,-0.001,-0.02275,-0.5,0.4698665287494497,10,1,100,-0.7608780512824488,-10,-1,-100,6487.885892376653,0.002172753671127648,0.03899320855870977,0.9992371134159207,144.86171878996623,15.21325716201187,32.42761855386627,-2.7906331075224027,-84.18304443359375,4381.2578125,True
1599565898.8865116,0.0,10,0.5,0.5,0.03013128814697269,-0.001,-0.02275,-0.5,0.4223480754577056,10,1,100,-0.20232581539223932,-10,-1,-100,6487.856120605138,0.0039783550035733025,0.038968411405328536,0.9992325232917564,144.39130322651832,15.163790303076336,34.5370038362011,-2.981673069042292,-84.96328735351562,4381.2578125,True
1599565898.9613202,0.0,10,0.5,0.5,0.4162369155883789,-0.001,-0.02275,-0.5,0.4057902538537891,10,1,100,-0.41045381152335425,-10,-1,-100,6487.735553418635,0.0074757456365333085,0.03878617883878414,0.9992195682422677,146.99053874197546,15.436993215289682,39.66930697754779,-3.3637981331074225,-86.42010498046875,4381.2578125,True
1599565899.034123,0.0,10,0.5,0.5,0.048731559753417975,-0.001,-0.02275,-0.5,0.4073005349836404,10,1,100,-0.2491860392662657,-10,-1,-100,6487.643290882232,0.009154578384303865,0.038627600558343855,0.9992117404082634,148.11046265766154,15.554930727719764,42.24489916690107,-3.5548913666154145,-87.055908203125,4381.2578125,True
1599565899.110919,0.0,10,0.5,0.5,0.3761315711975098,-0.001,-0.02275,-0.5,0.37649413584815716,10,1,100,-0.46865843166765675,-10,-1,-100,6487.523226902005,0.012641580932367353,0.038197611789320546,0.9991902385857874,150.03164615541155,15.757823579372978,47.4006100468977,-3.9371565698662616,-88.2611083984375,4381.2578125,True
1599565899.180737,0.0,10,0.5,0.5,0.6421008117675782,-0.001,-0.02275,-0.5,0.3125232427766609,10,1,100,-0.6483632012908198,-10,-1,-100,6487.2479286596645,0.017411157936485212,0.037221229675174876,0.9991553591112737,152.49741218723443,16.019962771480365,55.21093007365268,-4.510793882161792,-89.91622924804688,4381.2578125,True
1599565899.806664,0.0,10,0.5,0.5,0.3717133575439453,-0.001,-0.02275,-0.5,0.3174281832805432,10,1,100,-0.5066809250441405,-10,-1,-100,6487.063916479703,0.020424059155598723,0.03637627026114023,0.9991294334416824,153.9568939462236,16.176540723931183,60.47632604486606,-4.893396582989488,-90.95195770263672,4381.2578125,True
1599565899.86052,0.0,10,0.5,0.5,0.5579595720291137,-0.001,-0.02275,-0.5,0.23644259620133765,10,1,100,-0.6617658709296381,-10,-1,-100,6486.726132728276,0.02453872617069469,0.03487182676815022,0.9990904897033961,156.36153902508806,16.435999117421815,68.64482908741707,-5.467559908147594,-92.2857437133789,4381.2578125,True
1599565899.918366,0.0,10,0.5,0.5,0.27640904922485354,-0.001,-0.02275,-0.5,0.25858120012296704,10,1,100,-0.5341087619957,-10,-1,-100,6486.479618644225,0.02708800440784577,0.033708246091047604,0.9990645595569216,157.69876624391773,16.58224073939039,74.09390383952153,-5.850478698290975,-92.99536895751953,4381.2578125,True
1599565899.9896867,0.0,10,0.5,0.5,-0.046968940162658686,-0.001,-0.02275,-0.5,0.37451103886943404,10,1,100,-0.28282485259334733,-10,-1,-100,6486.479618644225,0.02708800440784577,0.033708246091047604,0.9990645595569216,157.69876624391773,16.58224073939039,74.09390383952153,-5.850478698290975,-92.99536895751953,4381.2578125,True
1599565900.0495265,0.0,10,0.5,0.5,0.383224621963501,-0.001,-0.02275,-0.5,0.16586805692017556,10,1,100,-0.6513222909146088,-10,-1,-100,6486.1403522250475,0.030408413046623166,0.03181587984564756,0.9990310696898437,159.36674122710144,16.767630621797856,82.25484758701933,-6.425019511531859,-93.79959106445312,4381.2578125,True
1599565900.1103637,0.0,10,0.5,0.5,0.21380017204284668,-0.001,-0.02275,-0.5,0.19878578839878908,10,1,100,-0.5440069266456223,-10,-1,-100,6485.830831843428,0.032425703352725016,0.03040132384391951,0.9990116782453637,160.27637695351672,16.870884714885655,87.67547241994644,-6.808144801554585,-94.22036743164062,4381.2578125,True
1599565900.1712017,0.0,10,0.5,0.5,0.2226785945892334,-0.001,-0.02275,-0.5,0.1775513052754345,10,1,100,-0.53963055903444,-10,-1,-100,6485.584779310506,0.03419395724512581,0.028930111348101164,0.9989964073735725,161.16577861504774,16.972719988334152,93.14465918928272,-7.19134077560858,-94.6159896850586,4381.2578125,True
1599565900.2280524,0.0,10,0.5,0.5,0.2000335599899292,-0.001,-0.02275,-0.5,0.1550164967400633,10,1,100,-0.5360524242290491,-10,-1,-100,6485.273286403273,0.035744643002160625,0.02739674360839082,0.9989853547156257,161.98176763216637,17.067502699306935,98.62830913202792,-7.574599580612976,-94.92840576171875,4381.2578125,True
1599565900.2868917,0.0,10,0.5,0.5,0.18386643505096434,-0.001,-0.02275,-0.5,0.13023887982966037,10,1,100,-0.5339901805098287,-10,-1,-100,6484.965198694728,0.037111436870546764,0.025787731743059532,0.9989783451831933,162.71372516356712,17.154052352228966,104.11295814849969,-7.957913386789402,-95.17218017578125,4381.2578125,True
1599565900.3487265,0.0,10,0.5,0.5,0.16745014629364013,-0.001,-0.02275,-0.5,0.10834606155410556,10,1,100,-0.5256888146622248,-10,-1,-100,6484.592156968894,0.03825626446506669,0.024137249772113553,0.9989764018246964,163.38879827750162,17.23516369202164,109.60914311093673,-8.341274043664503,-95.351318359375,4381.2578125,True
1599565900.4065723,0.0,10,0.5,0.5,0.12382884426116943,-0.001,-0.02275,-0.5,0.179574506106622,10,1,100,-0.46751134478070655,-10,-1,-100,6484.436881172005,0.03874918063704502,0.023296237458006505,0.998977370274351,163.7066698587746,17.27383654587175,112.36109447189615,-8.532969509292606,-95.41835021972656,4381.2578125,True
1599565900.4624238,0.0,10,0.5,0.5,0.1598920249938965,-0.001,-0.02275,-0.5,-0.019690290638255975,10,1,100,-0.5484791321464372,-10,-1,-100,6483.909020309919,0.03991669784082156,0.020732073595504056,0.9989879070128503,164.59516034492793,17.38365876609592,120.63517710063626,-9.108105239101409,-95.53694915771484,4381.2578125,True
1599565900.5222635,0.0,10,0.5,0.5,0.11685684623718261,-0.001,-0.02275,-0.5,0.04144921855898717,10,1,100,-0.4917743435852579,-10,-1,-100,6483.535448710318,0.040448599064907574,0.018969683579724627,0.9990015325006121,165.14407550296224,17.452783111096714,126.16981321964504,-9.491560692143448,-95.55464935302734,4381.2578125,True
1599565900.5806875,0.0,10,0.5,0.5,0.10212514724731443,-0.001,-0.02275,-0.5,0.023069079089778982,10,1,100,-0.475682066535836,-10,-1,-100,6483.162351752515,0.0407737062093937,0.017213817354306275,0.999020114599322,165.6758257400102,17.520428184443926,131.7296566877429,-9.875033807236184,-95.53128814697266,4381.2578125,True
1599565900.6530094,0.0,10,0.5,0.5,0.08596524810791015,-0.001,-0.02275,-0.5,0.0034276583046118914,10,1,100,-0.4588180977127393,-10,-1,-100,6482.726253206492,0.04090350780435152,0.015454011895639655,0.9990435809140804,166.1847945477138,17.585950793903898,137.3086037209149,-10.258518624115663,-95.46420288085938,4381.2578125,True
1599565900.7168398,0.0,10,0.5,0.5,0.09956204681396486,-0.001,-0.02275,-0.5,0.0799539624313853,10,1,100,-0.4464582732779043,-10,-1,-100,6482.50844443473,0.0408996062187622,0.014564756850686129,0.9990571005047862,166.42880348181282,17.617697036219038,140.10299700347224,-10.450263885304885,-95.41683197021484,4381.2578125,True
1599565900.7797084,0.0,10,0.5,0.5,0.06621120395660399,-0.001,-0.02275,-0.5,-0.026371074692992463,10,1,100,-0.4313334946488008,-10,-1,-100,6482.072816509404,0.04075085778717457,0.012804148805955156,0.999087294165512,166.9168993645459,17.681356844308667,145.71845187929898,-10.833757349876418,-95.29755401611328,4381.2578125,True
1599565900.8375537,0.0,10,0.5,0.5,0.05332404918670655,-0.001,-0.02275,-0.5,-0.044056362137243815,10,1,100,-0.41069191176819053,-10,-1,-100,6481.635712498799,0.04042202036814204,0.011057480663563029,0.9991215103233101,167.4004640810725,17.744720925716383,151.36542557741825,-11.217251465854286,-95.14969635009766,4381.2578125,True
1599565900.8924084,0.0,10,0.5,0.5,0.03988867301940918,-0.001,-0.02275,-0.5,-0.06614110299514828,10,1,100,-0.3882406195111666,-10,-1,-100,6481.200064028846,0.03991472244180681,0.009283684038084534,0.9991599612389772,167.88534252648142,17.808373019258507,157.04913783980786,-11.60074255678665,-94.97431182861328,4381.2578125,True
1599565900.9592292,0.0,10,0.5,0.5,-0.027241523551940927,-0.001,-0.02275,-0.5,-0.1741743470316656,10,1,100,-0.32187945650094596,-10,-1,-100,6480.481633332209,0.038847710767253456,0.006704024930685722,0.9992226535752041,168.6244386470661,17.90529451423326,165.6533361640811,-12.175963151522481,-94.66618347167969,4381.2578125,True
1599565901.0516918,0.0,10,0.5,0.5,0.011492420005798337,-0.001,-0.02275,-0.5,-0.10512036484636407,10,1,100,-0.32862119750469726,-10,-1,-100,6479.9834659331245,0.037938451030146154,0.0050024921482272056,0.9992675562659583,169.12993009078005,17.971342159052345,171.4479279980574,-12.55942576189414,-94.43909454345703,4381.2578125,True
1599565901.1244962,0.0,10,0.5,0.5,0.0035983535766601488,-0.001,-0.02275,-0.5,-0.11802206162942591,10,1,100,-0.304461967617192,-10,-1,-100,6479.482853528927,0.036892958933441196,0.0033549866891550637,0.9993135912442355,169.65318450759986,18.039307570424153,177.29846810968868,-12.9428687674973,-94.2011489868164,4381.2578125,True
1599565901.2134714,0.0,10,0.5,0.5,0.001062994003295889,-0.001,-0.02275,-0.5,-0.1316990748337915,10,1,100,-0.27883702605493216,-10,-1,-100,6478.921692712,0.035712306412150126,0.0017487153216919284,0.999360582155134,170.20596516801086,18.110424543157443,183.21943881348588,-13.326287907541206,-93.96468353271484,4381.2578125,True
1599565901.2822886,0.0,10,0.5,0.5,-0.06425747871398925,-0.001,-0.02275,-0.5,-0.22806546876460554,10,1,100,-0.17586314171370065,-10,-1,-100,6478.140742175863,0.033707165437558646,-0.0005719340769564744,0.9994315883989142,171.0926845263441,18.223227965236806,192.24183626609133,-13.901362969444442,-93.60552978515625,4381.2578125,True
1599565901.3830192,0.0,10,0.5,0.5,0.11093829479217529,-0.001,-0.02275,-0.5,0.002220895957108452,10,1,100,-0.37567058509566514,-10,-1,-100,6478.140742175863,0.033707165437558646,-0.0005719340769564744,0.9994315883989142,171.0926845263441,18.223227965236806,192.24183626609133,-13.901362969444442,-93.60552978515625,4381.2578125,True
1599565901.4498408,0.0,10,0.5,0.5,-0.07411299381256105,-0.001,-0.02275,-0.5,-0.23845345380113325,10,1,100,-0.12977374594813323,-10,-1,-100,6477.235770841013,0.031478281756550895,-0.0027453136693290385,0.9995006658479584,172.04361603495727,18.342837145556896,201.43691029050495,-14.47636394764454,-93.2446060180664,4381.2578125,True
1599565901.5136702,0.0,10,0.5,0.5,-0.011982244682312015,-0.001,-0.02275,-0.5,-0.17181711721393264,10,1,100,-0.17682530326041762,-10,-1,-100,6476.672664220678,0.029888330135257535,-0.004099591992947714,0.999544836946906,172.72277745713382,18.427367687499423,207.67916406685137,-14.859651881351455,-93.01828002929688,4381.2578125,True
1599565901.5755045,0.0,10,0.5,0.5,0.039038911819458,-0.001,-0.02275,-0.5,-0.11524089651787167,10,1,100,-0.23832406825587454,-10,-1,-100,6476.390379763558,0.029011874277360378,-0.004801057789183317,0.9995675369853803,173.07886589568568,18.471388524734152,210.83889403340228,-15.051280792828322,-92.90459442138672,4381.2578125,True
1599565901.6403308,0.0,10,0.5,0.5,-0.02057026672363281,-0.001,-0.02275,-0.5,-0.1826602815913657,10,1,100,-0.13924349147335596,-10,-1,-100,6475.766245094244,0.027324736568604412,-0.006037240615108587,0.9996083785649317,173.80247049961693,18.5606316553693,217.21132397382823,-15.434507361826029,-92.6823501586914,4381.2578125,True
1599565901.7151318,0.0,10,0.5,0.5,-0.13007721176147463,-0.001,-0.02275,-0.5,-0.32105660868643254,10,1,100,0.10016866693243454,-10,-1,-100,6474.453052580124,0.02362594628956744,-0.008405263498947445,0.9996855336591782,175.3536613385296,18.750173020371488,230.25040206475845,-16.200826673014625,-92.25238037109375,4381.2578125,True
1599565901.7749724,0.0,10,0.5,0.5,0.07941627998352051,-0.001,-0.02275,-0.5,-0.08576524914550995,10,1,100,-0.26818818452349397,-10,-1,-100,6474.453052580124,0.02362594628956744,-0.008405263498947445,0.9996855336591782,175.3536613385296,18.750173020371488,230.25040206475845,-16.200826673014625,-92.25238037109375,4381.2578125,True
1599565901.8378038,0.0,10,0.5,0.5,-0.08795004291534424,-0.001,-0.02275,-0.5,-0.25776720822402044,10,1,100,0.047857404648648405,-10,-1,-100,6473.483191883424,0.020765815937766673,-0.009956728803618291,0.9997347870510309,176.56564750901023,18.89745464100465,240.24335150237368,-16.775441079058094,-91.9282455444336,4381.2578125,True
1599565901.908656,0.0,10,0.5,0.5,0.02072404193878173,-0.001,-0.02275,-0.5,-0.15541579382449044,10,1,100,-0.13163104917113078,-10,-1,-100,6473.138426168123,0.019812071691760035,-0.010424582844693539,0.9997493735370853,176.98722196225978,18.948415207777963,243.62781781331225,-16.96695402363436,-91.83199310302734,4381.2578125,True
1599565901.974439,0.0,10,0.5,0.5,-0.08357781810760498,-0.001,-0.02275,-0.5,-0.262805796541998,10,1,100,0.11255366781748638,-10,-1,-100,6472.10706937057,0.016739625163421472,-0.011815110817497119,0.9997900720180005,178.2984098097974,19.10625422888589,253.93897508426505,-17.541412430595827,-91.53742980957031,4381.2578125,True
1599565902.0402637,0.0,10,0.5,0.5,0.011919303703308112,-0.001,-0.02275,-0.5,-0.1688027918882222,10,1,100,-0.0839044026956435,-10,-1,-100,6471.763289130293,0.015747899451664084,-0.012214433317065556,0.9998013859170247,178.73864602657773,19.15919759903534,257.41222624139044,-17.732871351785548,-91.4434585571289,4381.2578125,True
1599565902.1011002,0.0,10,0.5,0.5,-0.1144751850128174,-0.001,-0.02275,-0.5,-0.29205246838892807,10,1,100,0.2718542833584615,-10,-1,-100,6470.261236834922,0.011628487355016317,-0.013687321285552272,0.9998387047508516,180.60016627637344,19.381751924310457,271.6164455144015,-18.49856238977293,-91.10720825195312,4381.2578125,True
1599565902.1639314,0.0,10,0.5,0.5,-0.027926708412170403,-0.001,-0.02275,-0.5,-0.2167165601868494,10,1,100,0.09579091207946042,-10,-1,-100,6469.510224755388,0.009502188637328842,-0.01433149117541564,0.9998521474557075,181.57660939413717,19.49795924472711,278.88997649747597,-18.881318130217736,-90.95408630371094,4381.2578125,True
1599565902.2257667,0.0,10,0.5,0.5,0.043938224983215333,-0.001,-0.02275,-0.5,-0.1533227611187593,10,1,100,-0.11480034553949414,-10,-1,-100,6469.510224755388,0.009502188637328842,-0.01433149117541564,0.9998521474557075,181.57660939413717,19.49795924472711,278.88997649747597,-18.881318130217736,-90.95408630371094,4381.2578125,True
1599565902.2856092,0.0,10,0.5,0.5,-0.029549512100219735,-0.001,-0.02275,-0.5,-0.20985597108050988,10,1,100,0.10201652421561369,-10,-1,-100,6468.759223452653,0.007548862262864255,-0.01483676541744407,0.9998614329348261,182.5597205938602,19.614914636824548,286.24475184729636,-19.2640116784927,-90.8162612915039,4381.2578125,True
1599565902.36512,0.0,10,0.5,0.5,-0.055127490615844724,-0.001,-0.02275,-0.5,-0.23398933975665615,10,1,100,0.24605092376039128,-10,-1,-100,6467.601486911881,0.004481685448676415,-0.015507500330160032,0.9998697074764538,184.09132017162025,19.79657982998708,297.50303558029333,-19.837930554754447,-90.6361312866211,4381.2578125,True
1599565902.4249575,0.0,10,0.5,0.5,-0.06210742816925049,-0.001,-0.02275,-0.5,-0.2206902839183966,10,1,100,0.2688567549059053,-10,-1,-100,6466.380292217946,0.001503421026129061,-0.01598990225516199,0.9998710230580186,185.6104523035095,19.977060275076717,308.9078338393488,-20.411699301230048,-90.44976806640625,4381.2578125,True
1599565902.4858084,0.0,10,0.5,0.5,0.026973238945007326,-0.001,-0.02275,-0.5,-0.1732085552938223,10,1,100,-0.026757434822486208,-10,-1,-100,6466.380292217946,0.001503421026129061,-0.01598990225516199,0.9998710230580186,185.6104523035095,19.977060275076717,308.9078338393488,-20.411699301230048,-90.44976806640625,4381.2578125,True
1599565902.5476398,0.0,10,0.5,0.5,-0.08263568916320801,-0.001,-0.02275,-0.5,-0.21415452753470712,10,1,100,0.3884538775898957,-10,-1,-100,6464.691836819751,-0.0022537160004274673,-0.016356653663304993,0.9998636810311333,187.66902726969525,20.22151120002192,324.43152936354534,-21.176484611702747,-90.23770141601562,4381.2578125,True
1599565902.6084805,0.0,10,0.5,0.5,-0.003583793449401858,-0.001,-0.02275,-0.5,-0.18394539336336177,10,1,100,0.12138289453465928,-10,-1,-100,6464.284618544625,-0.003221317280711083,-0.01641004275022403,0.999860157027928,188.18873707458727,20.283229377195397,328.36864436842995,-21.367636576317075,-90.19108581542969,4381.2578125,True
1599565902.6668854,0.0,10,0.5,0.5,-0.02987575283050537,-0.001,-0.02275,-0.5,-0.18307998098247952,10,1,100,0.22193496888002642,-10,-1,-100,6463.4081755039515,-0.0049969182637048595,-0.016446533687658107,0.9998522602552472,189.21642337024988,20.40547907250594,336.2795809547479,-21.7498861667317,-90.09819793701172,4381.2578125,True
1599565902.7287266,0.0,10,0.5,0.5,-0.006666521644592286,-0.001,-0.02275,-0.5,-0.1783943034422558,10,1,100,0.1376470591162654,-10,-1,-100,6462.938461221755,-0.005825988325196494,-0.01643326283462288,0.9998479913130011,189.72577588201727,20.466161095543477,340.25558973266345,-21.940983813260438,-90.05792999267578,4381.2578125,True
1599565902.7900777,0.0,10,0.5,0.5,-0.044882342147827145,-0.001,-0.02275,-0.5,-0.16612203988380314,10,1,100,0.3380382786510737,-10,-1,-100,6461.655788874952,-0.008385559035341498,-0.016307136079923946,0.9998318657217,191.27353048315987,20.650525077340678,352.33373449277065,-22.51416382732119,-89.94622802734375,4381.2578125,True
1599565903.305306,0.0,10,0.5,0.5,-0.025174761962890625,-0.001,-0.02275,-0.5,-0.15992408619502485,10,1,100,0.2599663574687112,-10,-1,-100,6460.717343862285,-0.00998643517229487,-0.01613433431947738,0.9998199609772837,192.28768698729237,20.77169811912582,360.44901222324313,-22.896188863375095,-89.878662109375,4381.2578125,True
1599565903.357169,0.0,10,0.5,0.5,-0.03967573432922363,-0.001,-0.02275,-0.5,-0.13567315950281456,10,1,100,0.3466068131927094,-10,-1,-100,6459.308215957484,-0.012211700690825533,-0.01575513989173853,0.9998013052268083,193.79019327941037,20.951710296467308,372.7289711079297,-23.469080925025672,-89.78717041015625,4381.2578125,True
1599565903.4100275,0.0,10,0.5,0.5,0.003728933525085449,-0.001,-0.02275,-0.5,-0.1736844397241287,10,1,100,0.12605631763501207,-10,-1,-100,6459.308215957484,-0.012211700690825533,-0.01575513989173853,0.9998013052268083,193.79019327941037,20.951710296467308,372.7289711079297,-23.469080925025672,-89.78717041015625,4381.2578125,True
1599565903.4628863,0.0,10,0.5,0.5,-0.023231047439575197,-0.001,-0.02275,-0.5,-0.13745308759899577,10,1,100,0.2826034212632474,-10,-1,-100,6458.369285381981,-0.01361968037277358,-0.01542553883645407,0.999788256111337,194.78515395839688,21.071193476536042,380.99727116193134,-23.850910399522338,-89.73721313476562,4381.2578125,True
1599565903.5207324,0.0,10,0.5,0.5,-0.03852483940124512,-0.001,-0.02275,-0.5,-0.07861419372590106,10,1,100,0.4226360022132801,-10,-1,-100,6456.427945687552,-0.016158937091000372,-0.014591515535911615,0.9997629601192747,196.72620459333007,21.30541292213739,397.66241896207544,-24.614325792455997,-89.66006469726562,4381.2578125,True
1599565903.5885475,0.0,10,0.5,0.5,-0.010355075454711914,-0.001,-0.02275,-0.5,-0.13559260617835622,10,1,100,0.23213383087780645,-10,-1,-100,6455.896223119227,-0.016719457678959396,-0.01435256936382193,0.9997572022684198,197.19572745371136,21.362382766097227,401.8431833438245,-24.805128002459526,-89.64288330078125,4381.2578125,True
1599565903.638416,0.0,10,0.5,0.5,-0.017887058639526367,-0.001,-0.02275,-0.5,-0.10317104133438995,10,1,100,0.29263037060419167,-10,-1,-100,6454.895765494322,-0.017765839718545163,-0.013842425967249326,0.9997463489217834,198.1231007905495,21.475206146380764,410.23512058268955,-25.186670064829947,-89.6134033203125,4381.2578125,True
1599565903.6892807,0.0,10,0.5,0.5,-0.010011314392089844,-0.001,-0.02275,-0.5,-0.12427525080920833,10,1,100,0.242249913150818,-10,-1,-100,6454.424587882124,-0.01824586966637625,-0.01357284988993892,0.9997413995558965,198.58209278128083,21.531185617438602,414.4483472779467,-25.377409411685782,-89.60232543945312,4381.2578125,True
1599565903.7441347,0.0,10,0.5,0.5,-0.016287709236145018,-0.001,-0.02275,-0.5,-0.05325178910398223,10,1,100,0.34260165541574183,-10,-1,-100,6452.891908401623,-0.019582504592810482,-0.012684725334879878,0.9997277745751848,199.93436023703813,21.696770403878812,427.1428648714613,-25.94949891848044,-89.58099365234375,4381.2578125,True
1599565903.8019822,0.0,10,0.5,0.5,-0.008923795318603517,-0.001,-0.02275,-0.5,-0.1073489927897393,10,1,100,0.25250361715009273,-10,-1,-100,6452.35969217401,-0.019966048254183324,-0.012372539897878307,0.9997241005265337,200.36815515312452,21.750237409490303,431.3732972705856,-26.140152296460226,-89.57656860351562,4381.2578125,True
1599565903.8548386,0.0,10,0.5,0.5,-0.0116497802734375,-0.001,-0.02275,-0.5,-0.028564459935874614,10,1,100,0.3272288840780924,-10,-1,-100,6450.762547657243,-0.020983517200941503,-0.011376088834825422,0.9997150977196952,201.63387012982318,21.907112556755735,444.08946904630716,-26.71198213878292,-89.56838989257812,4381.2578125,True
1599565903.9156852,0.0,10,0.5,0.5,-0.008587369537353515,-0.001,-0.02275,-0.5,-0.09007625210889149,10,1,100,0.2572680609946223,-10,-1,-100,6450.230815293384,-0.021262484140845896,-0.011033748020427182,0.9997130404134889,202.0416776044148,21.95799016094496,448.3307124801213,-26.902548422378132,-89.5677490234375,4381.2578125,True
1599565903.9725842,0.0,10,0.5,0.5,-0.006472722625732423,-0.001,-0.02275,-0.5,0.03722261506843713,10,1,100,0.331698339498736,-10,-1,-100,6448.039910879568,-0.022184501360387267,-0.009569558843790623,0.9997080931166488,203.6072176768099,22.154951544366938,465.3106731211828,-27.664593245225213,-89.57232666015625,4381.2578125,True
1599565904.030495,0.0,10,0.5,0.5,-0.009250310516357423,-0.001,-0.02275,-0.5,-0.10857774449042397,10,1,100,0.240493897611555,-10,-1,-100,6448.039910879568,-0.022184501360387267,-0.009569558843790623,0.9997080931166488,203.6072176768099,22.154951544366938,465.3106731211828,-27.664593245225213,-89.57232666015625,4381.2578125,True
1599565904.0849063,0.0,10,0.5,0.5,-0.006445251464843749,-0.001,-0.02275,-0.5,-0.021561305035868547,10,1,100,0.2779183897043598,-10,-1,-100,6446.913446039893,-0.02251693781487857,-0.008783823921469813,0.9997078733053758,204.3481413394773,22.249237587211034,473.7998255514482,-28.045482539082457,-89.57867431640625,4381.2578125,True
1599565904.1447463,0.0,10,0.5,0.5,-0.005110425567626954,-0.001,-0.02275,-0.5,-0.017442354694610696,10,1,100,0.2670790500271377,-10,-1,-100,6445.784535512561,-0.02271483332123785,-0.008037354163179862,0.9997096764987542,205.0540105175255,22.339945098268107,482.26816582578186,-28.426282555532392,-89.58804321289062,4381.2578125,True
1599565904.2055836,0.0,10,0.5,0.5,-0.0012353088378906241,-0.001,-0.02275,-0.5,0.04348103146376696,10,1,100,0.26703489860596913,-10,-1,-100,6444.0677240034565,-0.02288888660896995,-0.006810637431658875,0.9997148163789393,206.0622577190059,22.470939532680074,494.96083435142737,-28.997313909727943,-89.60537719726562,4381.2578125,True
1599565904.2644267,0.0,10,0.5,0.5,-0.002642850494384766,-0.001,-0.02275,-0.5,0.010601566564813578,10,1,100,0.24938096357811462,-10,-1,-100,6442.874838805641,-0.022881969236754618,-0.006000737164389909,0.9997201641646188,206.69150647780143,22.55388266735738,503.38995003055487,-29.377888554731197,-89.61990356445312,4381.2578125,True
1599565904.3202765,0.0,10,0.5,0.5,-0.0017932899475097668,-0.001,-0.02275,-0.5,0.019670620426536084,10,1,100,0.2406469408650879,-10,-1,-100,6441.685856296215,-0.022792065874103727,-0.005188901988789325,0.9997267611849456,207.29280621673445,22.634007173124395,511.8048697506936,-29.75837246332948,-89.63601684570312,4381.2578125,True
1599565904.3801172,0.0,10,0.5,0.5,0.0031947113037109377,-0.001,-0.02275,-0.5,0.07322584998792997,10,1,100,0.21820401863940056,-10,-1,-100,6439.904086100985,-0.02250339119575004,-0.003970818672545296,0.9997388809002884,208.14060926913913,22.748704478195098,524.3904113280933,-30.328926821275434,-89.66180419921875,4381.2578125,True
1599565904.4369633,0.0,10,0.5,0.5,-0.009505054473876952,-0.001,-0.02275,-0.5,-0.04774230951393965,10,1,100,0.24732522076892605,-10,-1,-100,6439.904086100985,-0.02250339119575004,-0.003970818672545296,0.9997388809002884,208.14060926913913,22.748704478195098,524.3904113280933,-30.328926821275434,-89.66180419921875,4381.2578125,True
1599565904.496321,0.0,10,0.5,0.5,-5.779571533203083e-05,-0.001,-0.02275,-0.5,0.04104895786973489,10,1,100,0.21562635785344791,-10,-1,-100,6438.652596137719,-0.022213838011068594,-0.0031703573964776,0.999748215419661,208.6687288080852,22.821389238021844,532.7496622952979,-30.70918185175603,-89.68023681640625,4381.2578125,True
1599565904.5661354,0.0,10,0.5,0.5,0.01023104248046875,-0.001,-0.02275,-0.5,0.1355771731489973,10,1,100,0.15677829780523578,-10,-1,-100,6436.150098638143,-0.021414760611946967,-0.0015904664526263542,0.9997694126369321,209.64493558860966,22.958629380531697,549.404059349799,-31.469415328580897,-89.71865844726562,4381.2578125,True
1599565904.646465,0.0,10,0.5,0.5,-0.00864686813354492,-0.001,-0.02275,-0.5,-0.021614011997010837,10,1,100,0.23660906364255443,-10,-1,-100,6436.150098638143,-0.021414760611946967,-0.0015904664526263542,0.9997694126369321,209.64493558860966,22.958629380531697,549.404059349799,-31.469415328580897,-89.71865844726562,4381.2578125,True
1599565904.715281,0.0,10,0.5,0.5,0.007953858947753908,-0.001,-0.02275,-0.5,0.1017013253640034,10,1,100,0.15303717766666503,-10,-1,-100,6434.237942722626,-0.0206557159583011,-0.00047667165151819206,0.9997865343073924,210.4324517252668,23.068160935854873,562.1635051540279,-32.03934471545064,-89.75112915039062,4381.2578125,True
1599565904.7920794,0.0,10,0.5,0.5,0.002140627288818359,-0.001,-0.02275,-0.5,0.06883779381518702,10,1,100,0.16581839460526693,-10,-1,-100,6432.919551905245,-0.020083560265207218,0.0002295577424363957,0.9997982786093987,210.9671029930624,23.142496410557953,570.7566797604906,-32.419177325673644,-89.77114868164062,4381.2578125,True
1599565904.860896,0.0,10,0.5,0.5,0.0022408470153808587,-0.001,-0.02275,-0.5,0.077300974440255,10,1,100,0.15249438105129295,-10,-1,-100,6431.665125290514,-0.019444683396500316,0.0009410070954360786,0.999810491439881,211.48467191084885,23.21515471115326,579.352483212774,-32.798913246607945,-89.79049682617188,4381.2578125,True
1599565904.9486618,0.0,10,0.5,0.5,0.0024367134094238282,-0.001,-0.02275,-0.5,0.07885868058271557,10,1,100,0.14226640561384146,-10,-1,-100,6430.289605286089,-0.018774035742074,0.001594893249888073,0.9998224801920972,211.98140067089588,23.28571576942606,587.9388150037041,-33.17855192925507,-89.80935668945312,4381.2578125,True
1599565905.0104952,0.0,10,0.5,0.5,0.0073969245910644535,-0.001,-0.02275,-0.5,0.11679453916776017,10,1,100,0.08900125770025456,-10,-1,-100,6428.318854690995,-0.017683861923830816,0.002527301531604584,0.9998404341565844,212.6961973574858,23.388566367248103,600.8208824331359,-33.74782680179736,-89.83721923828125,4381.2578125,True
1599565905.0693352,0.0,10,0.5,0.5,-0.0014286651611328128,-0.001,-0.02275,-0.5,0.056705451014710265,10,1,100,0.15561634227655943,-10,-1,-100,6427.601553532411,-0.017303030316076395,0.0028216662558460553,0.9998463098603813,212.92620152228727,23.42202887515476,605.114278754995,-33.93753609754924,-89.84649658203125,4381.2578125,True
1599565905.1341646,0.0,10,0.5,0.5,-0.0009839233398437498,-0.001,-0.02275,-0.5,0.05952286341507077,10,1,100,0.15023819437451608,-10,-1,-100,6426.943335333723,-0.01691265511071714,0.0031087084043157688,0.9998521380830082,213.1530486031175,23.455186156108454,609.4098032458069,-34.127220679047845,-89.85580444335938,4381.2578125,True
1599565905.1920094,0.0,10,0.5,0.5,0.003870055389404297,-0.001,-0.02275,-0.5,0.09013965662063124,10,1,100,0.10259831230815242,-10,-1,-100,6425.5683052018285,-0.01612976121077363,0.0036415543619961843,0.9998632755957747,213.5973420698507,23.52058849027682,618.0068330763609,-34.50651610735891,-89.8739013671875,4381.2578125,True
1599565905.2498553,0.0,10,0.5,0.5,0.008793216705322265,-0.001,-0.02275,-0.5,0.12246866261977758,10,1,100,0.04072061828497012,-10,-1,-100,6423.468652101117,-0.01486104597134178,0.004413667185553825,0.9998798272065563,214.24471552607363,23.61688592701883,630.9281057611953,-35.07527335648958,-89.90090942382812,4381.2578125,True
1599565905.3146815,0.0,10,0.5,0.5,0.010106336212158203,-0.001,-0.02275,-0.5,0.12129561830314914,10,1,100,0.023140485364240987,-10,-1,-100,6421.362654581782,-0.01355380701316129,0.0050994655916930766,0.9998951393851903,214.86177937279132,23.71017921029901,643.8549758443672,-35.64380677300822,-89.92965698242188,4381.2578125,True
1599565905.3735218,0.0,10,0.5,0.5,0.005401451873779297,-0.001,-0.02275,-0.5,0.09770410077033446,10,1,100,0.057028638686534266,-10,-1,-100,6419.925617839326,-0.012680628402835136,0.005502368590571972,0.999904458237487,215.26282342992894,23.771412643799525,652.4934645847311,-36.02270380396978,-89.947998046875,4381.2578125,True
1599565905.4433348,0.0,10,0.5,0.5,-0.00332120361328125,-0.001,-0.02275,-0.5,0.05801170490665392,10,1,100,0.14354899096360313,-10,-1,-100,6419.925617839326,-0.012680628402835136,0.005502368590571972,0.999904458237487,215.26282342992894,23.771412643799525,652.4934645847311,-36.02270380396978,-89.947998046875,4381.2578125,True
1599565905.5056796,0.0,10,0.5,0.5,0.009251416778564453,-0.001,-0.02275,-0.5,0.11751431909073243,10,1,100,-0.0024532768356412826,-10,-1,-100,6417.7112278400455,-0.011360064997262343,0.006038507982383472,0.9999172392476312,215.8638074280331,23.863448519189465,665.5260985894179,-36.59086085206413,-89.9722900390625,4381.2578125,True
1599565905.577488,0.0,10,0.5,0.5,0.00909300537109375,-0.001,-0.02275,-0.5,0.11526248856712172,10,1,100,-0.02049149583744686,-10,-1,-100,6415.480241539422,-0.01000291865436088,0.006500802151191149,0.9999288380628819,216.46457918859878,23.95573985954323,678.6503582551816,-37.15879123316405,-89.99539184570312,4381.2578125,True
1599565905.6358454,0.0,10,0.5,0.5,0.002001708984375,-0.001,-0.02275,-0.5,0.08307311342062797,10,1,100,0.06771331539765463,-10,-1,-100,6414.766852942295,-0.009578984914849301,0.006623978977047001,0.9999321806755259,216.6609827108602,23.986136323300926,683.033496606222,-37.34805062865539,-90.00344848632812,4381.2578125,True
1599565905.691738,0.0,10,0.5,0.5,0.00929870376586914,-0.001,-0.02275,-0.5,0.10701297943276386,10,1,100,-0.03205495914336509,-10,-1,-100,6412.4802075598855,-0.008293974362201306,0.006949868802984972,0.9999414529425713,217.25850392145554,24.078415696559087,696.2704280484573,-37.915676206803354,-90.02529907226562,4381.2578125,True
1599565905.754569,0.0,10,0.5,0.5,0.005488369750976562,-0.001,-0.02275,-0.5,0.09460002198851555,10,1,100,-0.0006491011845775468,-10,-1,-100,6410.970427420223,-0.00741948080119563,0.007129534302028925,0.9999470591212701,217.66587751594054,24.14107096727439,705.1756604589403,-38.293965695421896,-90.03868865966797,4381.2578125,True
1599565905.8164108,0.0,10,0.5,0.5,-0.0007903623580932617,-0.001,-0.02275,-0.5,0.0770355546738915,10,1,100,0.08585093748503794,-10,-1,-100,6410.970427420223,-0.00741948080119563,0.007129534302028925,0.9999470591212701,217.66587751594054,24.14107096727439,705.1756604589403,-38.293965695421896,-90.03868865966797,4381.2578125,True
1599565905.8752515,0.0,10,0.5,0.5,0.008941584396362305,-0.001,-0.02275,-0.5,0.09711319915920462,10,1,100,-0.04843210122415123,-10,-1,-100,6408.621287405142,-0.006206644340575345,0.007308887451949924,0.9999540278084008,218.28720453075093,24.236381707812313,718.645619477053,-38.86120669785334,-90.05736541748047,4381.2578125,True
1599565905.9330995,0.0,10,0.5,0.5,0.005738500785827637,-0.001,-0.02275,-0.5,0.0881571765377277,10,1,100,-0.017262209365329476,-10,-1,-100,6407.052429458359,-0.005395296031119616,0.007387885364167954,0.9999581540897511,218.71453496413335,24.3014970703489,727.7221360568211,-39.23923774589504,-90.06890106201172,4381.2578125,True
1599565905.9929564,0.0,10,0.5,0.5,0.006292333984375,-0.001,-0.02275,-0.5,0.08480568290027354,10,1,100,-0.021867618972378593,-10,-1,-100,6405.493337596883,-0.004623256126988546,0.00742715314241433,0.9999617307172228,219.14736919868724,24.3673151846512,736.860493769984,-39.61716459621974,-90.08088684082031,4381.2578125,True
1599565906.0537934,0.0,10,0.5,0.5,0.00871656608581543,-0.001,-0.02275,-0.5,0.08012349219782983,10,1,100,-0.06698741562684121,-10,-1,-100,6403.082193176029,-0.0035185465829886816,0.007418535948478054,0.999966292009048,219.8172616500176,24.468499534893176,750.7205469548563,-40.183857411690674,-90.09708404541016,4381.2578125,True
1599565906.12113,0.0,10,0.5,0.5,0.0034645807266235353,-0.001,-0.02275,-0.5,0.07897926987522721,10,1,100,0.003675810825008209,-10,-1,-100,6402.299474733183,-0.0031649873123872968,0.007398558144368774,0.9999676215721671,220.04698834101384,24.502984907093644,755.385055756898,-40.3727021339336,-90.10208892822266,4381.2578125,True
1599565906.179972,0.0,10,0.5,0.5,0.005893914031982422,-0.001,-0.02275,-0.5,0.07394656811500797,10,1,100,-0.03547617148713542,-10,-1,-100,6400.6749566741055,-0.0024950927523528003,0.007333408260847449,0.9999699973676395,220.51814728461957,24.573319396610312,764.7890606419662,-40.750311967250425,-90.11134338378906,4381.2578125,True
1599565906.666213,0.0,10,0.5,0.5,0.0035907100677490234,-0.001,-0.02275,-0.5,0.07555844354931628,10,1,100,-0.00405995823196853,-10,-1,-100,6399.825833099196,-0.0021785249327338735,0.007288077592403905,0.999971068558548,220.75999427736784,24.609214441264935,769.530444641184,-40.93907679140569,-90.1154556274414,4381.2578125,True
1599565906.7250595,0.0,10,0.5,0.5,0.005745512580871582,-0.001,-0.02275,-0.5,0.06744680965509668,10,1,100,-0.04291637587365256,-10,-1,-100,6398.197898279526,-0.0015442235363214629,0.007172522041493817,0.9999730847884029,221.25684546195552,24.682529416651068,779.095390187213,-41.31652597794264,-90.12335205078125,4381.2578125,True
1599565906.7878904,0.0,10,0.5,0.5,0.005781540870666504,-0.001,-0.02275,-0.5,0.06292694384755587,10,1,100,-0.043907026590471146,-10,-1,-100,6396.507464148221,-0.000964716124726266,0.007026179439471994,0.999974850746399,221.7693735428216,24.757669621723252,788.7649375543152,-41.69386752496219,-90.130859375,4381.2578125,True
1599565906.8562207,0.0,10,0.5,0.5,0.004026416015625,-0.001,-0.02275,-0.5,0.06839152899420688,10,1,100,-0.016526313070873627,-10,-1,-100,6395.662247036933,-0.0006926747504328547,0.006942912716114943,0.9999756577860817,222.03125897321422,24.795895321877218,793.638582451565,-41.88249774511348,-90.13442993164062,4381.2578125,True
1599565906.9150605,0.0,10,0.5,0.5,0.005807307243347168,-0.001,-0.02275,-0.5,0.05590841028297035,10,1,100,-0.046860930751621455,-10,-1,-100,6394.030407131999,-0.00017571043675092125,0.006753902453493578,0.9999771767032942,222.56915436893922,24.873979746007283,803.4751081757552,-42.25967654226768,-90.14111328125,4381.2578125,True
1599565906.9689188,0.0,10,0.5,0.5,0.005717842483520508,-0.001,-0.02275,-0.5,0.050742178102342106,10,1,100,-0.048819977802730605,-10,-1,-100,6392.277473847964,0.0003065839726028974,0.006535613726739767,0.9999785956506682,223.12577492077776,24.95423099500241,813.4320716171871,-42.636745938976944,-90.14722442626953,4381.2578125,True
1599565907.0317516,0.0,10,0.5,0.5,0.004315873718261719,-0.001,-0.02275,-0.5,0.05930472030101616,10,1,100,-0.026171360179903937,-10,-1,-100,6391.435675797169,0.0005339533845318332,0.006415785514803729,0.9999792760802653,223.41139281300104,24.995201759883702,818.4574590331972,-42.8252395007028,-90.1501693725586,4381.2578125,True
1599565907.0876026,0.0,10,0.5,0.5,0.006930370140075684,-0.001,-0.02275,-0.5,0.02818752346094562,10,1,100,-0.06978946470594298,-10,-1,-100,6388.830689900438,0.001132492700602566,0.006024886594159063,0.9999812089243532,224.29610761634646,25.121342429340796,833.7195688587583,-43.39055466242934,-90.15801239013672,4381.2578125,True
1599565907.1464417,0.0,10,0.5,0.5,0.004290349006652832,-0.001,-0.02275,-0.5,0.05144759451417215,10,1,100,-0.03000056956924029,-10,-1,-100,6387.982056009001,0.0013106739055299427,0.005882246084378989,0.9999818404925742,224.60129730378475,25.164578162776998,838.8735796310357,-43.578937595846604,-90.16029357910156,4381.2578125,True
1599565907.201733,0.0,10,0.5,0.5,0.006343853759765625,-0.001,-0.02275,-0.5,0.014764102065765922,10,1,100,-0.06424605210488152,-10,-1,-100,6385.325312315603,0.0017799106046807354,0.005420465064193401,0.9999837251059276,225.54757136867806,25.297839931565587,854.5392846281779,-44.143918404278736,-90.1664047241211,4381.2578125,True
1599565907.26257,0.0,10,0.5,0.5,0.004200945091247558,-0.001,-0.02275,-0.5,0.0430794496306069,10,1,100,-0.03176658043369454,-10,-1,-100,6384.476678088773,0.0019073351311188166,0.005259815426611106,0.9999843480846965,225.8739622612328,25.343528218676763,859.8328938927131,-44.332189333904,-90.16797637939453,4381.2578125,True
1599565907.3273985,0.0,10,0.5,0.5,0.006011469841003418,-0.001,-0.02275,-0.5,-0.017657267041755194,10,1,100,-0.06423918321784024,-10,-1,-100,6380.846300590085,0.0023146666713148942,0.0045634622064837215,0.9999869084797514,227.23173861223273,25.53233825858249,881.3646444050363,-45.084989491042904,-90.17292022705078,4381.2578125,True
1599565907.3812535,0.0,10,0.5,0.5,0.004477936172485352,-0.001,-0.02275,-0.5,0.00999431855839266,10,1,100,-0.03899758892228698,-10,-1,-100,6379.024031625711,0.0024519909504357204,0.004184163748037453,0.9999882401879078,227.94248912703952,25.63044382206242,892.3515417730566,-45.46121870107828,-90.17456817626953,4381.2578125,True
1599565907.435652,0.0,10,0.5,0.5,0.003936870765686035,-0.001,-0.02275,-0.5,0.02786229890749732,10,1,100,-0.03018634973919196,-10,-1,-100,6378.126568469335,0.0024936229324490967,0.004004366803252191,0.9999888733836871,228.3063462434497,25.68048172930405,897.9034367040846,-45.64929012602092,-90.17493438720703,4381.2578125,True
1599565907.4954588,0.0,10,0.5,0.5,0.0039376487731933585,-0.001,-0.02275,-0.5,0.025294616593723077,10,1,100,-0.029624945827672285,-10,-1,-100,6377.215922504198,0.002523469882644822,0.0038202438741520624,0.9999895188633197,228.6756894139663,25.731157720124052,903.4941031835558,-45.837332834162595,-90.17511749267578,4381.2578125,True
1599565907.55234,0.0,10,0.5,0.5,0.003954034233093261,-0.001,-0.02275,-0.5,-0.021280355668735505,10,1,100,-0.030612210687968523,-10,-1,-100,6374.4234370515915,0.002557124808535087,0.003232117516747178,0.9999915072284722,229.80980593715867,25.886254969920113,920.4748810629965,-46.401287240452895,-90.17517852783203,4381.2578125,True
1599565907.623159,0.0,10,0.5,0.5,0.0037730619430541993,-0.001,-0.02275,-0.5,-0.007049837224613706,10,1,100,-0.02332328395888428,-10,-1,-100,6372.608491885359,0.0025194112792291693,0.0028298287196983837,0.999992822292352,230.59327049888026,25.99285458676283,931.9950978327631,-46.77711122188934,-90.17475128173828,4381.2578125,True
1599565907.6949332,0.0,10,0.5,0.5,0.0033201890945434567,-0.001,-0.02275,-0.5,-0.03347460178660898,10,1,100,-0.011701078574119991,-10,-1,-100,6369.75399545033,0.0023776648782762077,0.002227146459813255,0.9999946932501059,231.80854237167472,26.157457092790935,949.577899489379,-47.340626832604755,-90.17330932617188,4381.2578125,True
1599565907.7647455,0.0,10,0.5,0.5,0.0037472473144531246,-0.001,-0.02275,-0.5,0.004094358187339355,10,1,100,-0.01834811294008887,-10,-1,-100,6368.782313877833,0.002308100124211711,0.0020242419870757098,0.9999952875479936,232.2220457441024,26.213324616250894,955.5115332022978,-47.52840625143082,-90.17265319824219,4381.2578125,True
1599565907.8362255,0.0,10,0.5,0.5,0.0033274971008300782,-0.001,-0.02275,-0.5,-0.02064099403827206,10,1,100,-0.0070762134816507,-10,-1,-100,6366.871178068221,0.0021414808743321105,0.001618423813533568,0.9999963973755228,233.0624965650333,26.326657490320546,967.493021648743,-47.903876009109844,-90.17110443115234,4381.2578125,True
1599565907.9181602,0.0,10,0.5,0.5,0.0036500709533691415,-0.001,-0.02275,-0.5,-0.0022934032704615727,10,1,100,-0.012912124821281235,-10,-1,-100,6365.884361049393,0.0020427338681930684,0.0014197508820668614,0.9999969057681012,233.48916377548687,26.384093157075668,973.5403251427011,-48.091566195101976,-90.17018127441406,4381.2578125,True
1599565907.9869745,0.0,10,0.5,0.5,0.002645069694519043,-0.001,-0.02275,-0.5,-0.05003280282076792,10,1,100,0.01676758683111139,-10,-1,-100,6362.925372669473,0.0016830252123748478,0.0008086355525893835,0.9999982567658192,234.79174216636628,26.55912633784165,991.8985546356032,-48.654456612688,-90.16724395751953,4381.2578125,True
1599565908.0689197,0.0,10,0.5,0.5,0.002315788078308105,-0.001,-0.02275,-0.5,-0.05554010687556851,10,1,100,0.029929545910260875,-10,-1,-100,6360.008378324914,0.0012369373895105066,0.00020642324043339304,0.9999992136873609,236.1327386854775,26.73878123010679,1010.6064978025317,-49.21707492708448,-90.16368103027344,4381.2578125,True
1599565908.1347432,0.0,10,0.5,0.5,0.004072483444213867,-0.001,-0.02275,-0.5,0.004283350289270129,10,1,100,-0.01455773102008073,-10,-1,-100,6360.008378324914,0.0012369373895105066,0.00020642324043339304,0.9999992136873609,236.1327386854775,26.73878123010679,1010.6064978025317,-49.21707492708448,-90.16368103027344,4381.2578125,True
1599565908.1955812,0.0,10,0.5,0.5,0.001963714027404785,-0.001,-0.02275,-0.5,-0.06038528157515287,10,1,100,0.042551893390783246,-10,-1,-100,6357.031814811286,0.0007189014271780509,-0.00037802073691334444,0.9999996701404759,237.5109030959892,26.922940462199733,1029.6669565601374,-49.77941833555898,-90.1595230102539,4381.2578125,True
1599565908.25941,0.0,10,0.5,0.5,0.0033039384841918942,-0.001,-0.02275,-0.5,-0.02324810965649692,10,1,100,0.011547482514151105,-10,-1,-100,6355.997635637876,0.0005314584407138078,-0.0005679061855943558,0.9999996975171993,237.97559332949947,26.984996562886856,1036.087308715991,-49.966804618741385,-90.15811920166016,4381.2578125,True
1599565908.3202815,0.0,10,0.5,0.5,0.002636863136291504,-0.001,-0.02275,-0.5,-0.04858337771543367,10,1,100,0.039019550983140805,-10,-1,-100,6353.993241461925,0.00011315116363533616,-0.0009673953724743898,0.9999995256713912,238.91206594424844,27.110020404775668,1049.0258202040984,-50.34148456238583,-90.15546417236328,4381.2578125,True
1599565908.4140265,0.0,10,0.5,0.5,0.0015774133682250977,-0.001,-0.02275,-0.5,-0.06939083310494963,10,1,100,0.06931298832492194,-10,-1,-100,6350.954668941791,-0.0005403355548925632,-0.0015162740240044087,0.9999987044744469,240.3446750211628,27.301004205174923,1068.7264727407137,-50.90327103233882,-90.15078735351562,4381.2578125,True
1599565908.46885,0.0,10,0.5,0.5,0.0014832757949829103,-0.001,-0.02275,-0.5,-0.07390442692822863,10,1,100,0.08361921788954838,-10,-1,-100,6347.852623023675,-0.001261818294657104,-0.0020528841778944006,0.9999970967363572,241.7991705880034,27.494832093546293,1088.7331847345604,-51.46477528610487,-90.14603424072266,4381.2578125,True
1599565908.5366695,0.0,10,0.5,0.5,0.0029583621978759764,-0.001,-0.02275,-0.5,-0.03912977547828643,10,1,100,0.038863981767619016,-10,-1,-100,6346.818445036188,-0.0015076005311356296,-0.0022208719171904006,0.9999963974277936,242.28797437782328,27.559976399274348,1095.4670785073938,-51.65188026568292,-90.14435577392578,4381.2578125,True
1599565908.5965092,0.0,10,0.5,0.5,0.002907297515869141,-0.001,-0.02275,-0.5,-0.04087935425751524,10,1,100,0.04234305931847322,-10,-1,-100,6345.785244525527,-0.0017593495589370842,-0.002386003036606368,0.999995605829665,242.77746812095222,27.625241817037292,1102.2278966916772,-51.83895349343047,-90.1427001953125,4381.2578125,True
1599565908.6643279,0.0,10,0.5,0.5,0.0006032390594482421,-0.001,-0.02275,-0.5,-0.0938950407912887,10,1,100,0.13367415086447176,-10,-1,-100,6341.587013635202,-0.0028150385224228205,-0.003014623246456394,0.9999914937662217,244.731811846868,27.886334826597487,1129.4939993866471,-52.58692811712399,-90.1365737915039,4381.2578125,True
1599565908.7351384,0.0,10,0.5,0.5,0.0035966663360595705,-0.001,-0.02275,-0.5,-0.03141534568619067,10,1,100,0.028555060889377905,-10,-1,-100,6341.587013635202,-0.0028150385224228205,-0.003014623246456394,0.9999914937662217,244.731811846868,27.886334826597487,1129.4939993866471,-52.58692811712399,-90.1365737915039,4381.2578125,True
1599565908.7949793,0.0,10,0.5,0.5,0.00037393321990966807,-0.001,-0.02275,-0.5,-0.09219681894287551,10,1,100,0.1486659783159128,-10,-1,-100,6337.38781004562,-0.003903272339107744,-0.0035642538701654474,0.99998603018212,246.70250439339685,28.150044225557572,1157.2232623077343,-53.33438975804387,-90.13026428222656,4381.2578125,True
1599565908.8578107,0.0,10,0.5,0.5,0.0021224950790405274,-0.001,-0.02275,-0.5,-0.06732082936305608,10,1,100,0.10591463164450729,-10,-1,-100,6335.2574480137555,-0.004499254284782516,-0.003834344825438411,0.9999825271026691,247.68142591848664,28.281464538092266,1171.2049256279633,-53.70792644648684,-90.12760925292969,4381.2578125,True
1599565908.9166534,0.0,10,0.5,0.5,0.0026052959442138673,-0.001,-0.02275,-0.5,-0.052947825527684345,10,1,100,0.07646719035200306,-10,-1,-100,6334.160772870295,-0.004768608263907762,-0.00394607627346634,0.9999808442451632,248.17411806211467,28.34762147129499,1178.2480305156869,-53.8946460501446,-90.12606811523438,4381.2578125,True
1599565908.9735029,0.0,10,0.5,0.5,0.002011002159118652,-0.001,-0.02275,-0.5,-0.06636854675893253,10,1,100,0.11200767532876167,-10,-1,-100,6331.9684001533315,-0.005331752593169771,-0.004166585810059556,0.9999771057264125,249.15187912219088,28.47922487292912,1192.3724508999373,-54.267987605859894,-90.12348937988281,4381.2578125,True
1599565909.0418985,0.0,10,0.5,0.5,0.0020771068572998045,-0.001,-0.02275,-0.5,-0.06754105379784786,10,1,100,0.1199716767819361,-10,-1,-100,6329.775051836739,-0.005911152084112451,-0.00437479982510027,0.9999729593381655,250.11912475332514,28.60984286064935,1206.5454922324338,-54.64119831383347,-90.1211929321289,4381.2578125,True
1599565909.106727,0.0,10,0.5,0.5,0.0014647127151489257,-0.001,-0.02275,-0.5,-0.07689106221882658,10,1,100,0.1572002546064858,-10,-1,-100,6326.485519651673,-0.006771437950166048,-0.004646486710054274,0.9999662783260944,251.56560072075402,28.80568956793012,1227.9697230011059,-55.20076796238095,-90.11781311035156,4381.2578125,True
1599565909.1695557,0.0,10,0.5,0.5,0.0030904205322265627,-0.001,-0.02275,-0.5,-0.04998173397664213,10,1,100,0.07172262996667694,-10,-1,-100,6326.485519651673,-0.006771437950166048,-0.004646486710054274,0.9999662783260944,251.56560072075402,28.80568956793012,1227.9697230011059,-55.20076796238095,-90.11781311035156,4381.2578125,True
1599565909.229434,0.0,10,0.5,0.5,0.0011150503158569333,-0.001,-0.02275,-0.5,-0.08238957235834451,10,1,100,0.19627259618824955,-10,-1,-100,6322.036326938658,-0.00789892506361759,-0.004938898318258056,0.9999566061916093,253.46942493252544,29.064799663801395,1256.7622152086699,-55.9463982301765,-90.1139907836914,4381.2578125,True
1599565909.2902732,0.0,10,0.5,0.5,0.002207901382446289,-0.001,-0.02275,-0.5,-0.06730615153678962,10,1,100,0.14881568321787875,-10,-1,-100,6319.780970621388,-0.008486905434747729,-0.005065284231627675,0.9999511564730521,254.40421804728288,29.19275703554473,1271.2226621492614,-56.3190141874915,-90.11248779296875,4381.2578125,True
1599565909.3591263,0.0,10,0.5,0.5,0.0029046010971069333,-0.001,-0.02275,-0.5,-0.05487262629834482,10,1,100,0.09058483279609733,-10,-1,-100,6319.780970621388,-0.008486905434747729,-0.005065284231627675,0.9999511564730521,254.40421804728288,29.19275703554473,1271.2226621492614,-56.3190141874915,-90.11248779296875,4381.2578125,True
1599565909.423008,0.0,10,0.5,0.5,0.0018521781921386716,-0.001,-0.02275,-0.5,-0.07001104615142187,10,1,100,0.17897554806892563,-10,-1,-100,6316.365464358474,-0.009285301149125872,-0.005201041993032765,0.9999433645685925,255.79189037672973,29.383501214443246,1293.02629990581,-56.87768809147992,-90.1104965209961,4381.2578125,True
1599565909.4848063,0.0,10,0.5,0.5,0.0023556303024291994,-0.001,-0.02275,-0.5,-0.06467872759971782,10,1,100,0.15990946136638418,-10,-1,-100,6314.109619578347,-0.009832894620528337,-0.005274494527364749,0.999937745007589,256.6951533860428,29.50847552811515,1307.5747083854524,-57.249970054640656,-90.10960388183594,4381.2578125,True
1599565909.5411706,0.0,10,0.5,0.5,0.002363465690612793,-0.001,-0.02275,-0.5,-0.06320742657521504,10,1,100,0.16330974391426384,-10,-1,-100,6311.790787082748,-0.010356769762842442,-0.005326584867714776,0.9999321801070943,257.5909433656115,29.63285408781329,1322.1828088162474,-57.62211780307953,-90.10881042480469,4381.2578125,True
1599565909.6121562,0.0,10,0.5,0.5,0.0023807458877563477,-0.001,-0.02275,-0.5,-0.06296929195720039,10,1,100,0.19515209687489216,-10,-1,-100,6308.314247842762,-0.0111174156814074,-0.005370519854601715,0.9999237773875859,258.9096602296572,29.817056901377587,1344.1493830908394,-58.18008695728034,-90.1081314086914,4381.2578125,True
1599565909.6690028,0.0,10,0.5,0.5,0.0026356243133544926,-0.001,-0.02275,-0.5,-0.05955640242840697,10,1,100,0.17350441307387976,-10,-1,-100,6305.995415274752,-0.011606855151831578,-0.005378339997833044,0.9999181738384156,259.76863835792125,29.937879997382137,1358.8099634357416,-58.551897785381016,-90.1080322265625,4381.2578125,True
