Timestamp,Input Throttle,horizon,dT,dt,Input Roll,Roll P,Roll I,Roll D,Input Pitch,Pitch P,Pitch I,Pitch D,Input Yaw,Yaw P,Yaw I,Yaw D,Altitude,Direction X,Direction Y,Direction Z,Drag X,Drag Y,Drag Z,Vertical Velocity,Roll,Mass,Has Fuel
1599569184.6566045,0.0,10,0.5,0.5,-5.432968811035157,-0.1005,-0.02275,-0.12575,-0.06719602830212089,10,1,100,0.6903744801449289,-10,-1,-100,6483.6179671303835,-0.0672588525967702,-0.007002634875495376,0.9977109851315493,205.07322813301164,21.498778016137464,-156.76524438440188,9.590824100683209,-35.944580078125,4381.2578125,True
1599569184.7146492,0.0,10,0.5,0.5,-5.555918630981446,-0.1005,-0.02275,-0.12575,-0.06907560662571935,10,1,100,0.6894788650624999,-10,-1,-100,6483.7766752616735,-0.06735125672254402,-0.0069876257335246125,0.9977048568111223,204.8426229291206,21.4777750729357,-153.51315276764237,9.400810168611244,-35.94293212890625,4381.2578125,True
1599569184.7734597,0.0,10,0.5,0.5,-5.670164047241212,-0.1005,-0.02275,-0.12575,-0.050440026183617676,10,1,100,0.7100401386070427,-10,-1,-100,6484.316760081216,-0.06756095272663194,-0.00679821430431979,0.9976919875136527,204.14935724969286,21.41434436841962,-143.7892753305941,8.830798074647902,-35.980621337890625,4381.2578125,True
1599569184.8323016,0.0,10,0.5,0.5,-5.7744116645813,-0.1005,-0.02275,-0.12575,-0.05282892811473936,10,1,100,0.6980388007624296,-10,-1,-100,6484.538935734425,-0.067581063338373,-0.0066415591914125854,0.9976916806155905,203.94232664789124,21.395596551359304,-140.57576978170735,8.640801108984098,-36.083984375,4381.2578125,True
1599569184.8931403,0.0,10,0.5,0.5,-5.74401972732544,-0.1005,-0.02275,-0.12575,0.0015885555983695399,10,1,100,0.6989596175685897,-10,-1,-100,6485.01694973791,-0.06754627944424961,-0.005998403273931034,0.9976981102976004,203.4464597683322,21.351658303008204,-131.04527537053204,8.070816550771632,-36.817901611328125,4381.2578125,True
1599569184.9529824,0.0,10,0.5,0.5,-5.764135946655274,-0.1005,-0.02275,-0.12575,0.012544537077564068,10,1,100,0.6896884759800055,-10,-1,-100,6485.335755694658,-0.06736896890838281,-0.0053086631507061,0.997714007180301,203.19919768467955,21.330063361294204,-124.76104325164081,7.690822579194842,-37.671661376953125,4381.2578125,True
1599569185.0138502,0.0,10,0.5,0.5,-5.730943979644776,-0.1005,-0.02275,-0.12575,0.04201506656864655,10,1,100,0.6787378625393041,-10,-1,-100,6485.590081800707,-0.06704698196367173,-0.00440888671317295,0.9977400783408039,202.97224754305006,21.3094845674978,-118.49835715210703,7.310816154659557,-38.819061279296875,4381.2578125,True
1599569185.0747437,0.0,10,0.5,0.5,-5.665568702697754,-0.1005,-0.02275,-0.12575,0.07305934072262218,10,1,100,0.6651931215339801,-10,-1,-100,6485.909322656924,-0.06657018074846446,-0.003304679380640151,0.9977762725828411,202.7094960039133,21.283851044905855,-112.22437660434427,6.93078863208095,-40.2603759765625,4381.2578125,True
1599569185.1355813,0.0,10,0.5,0.5,-5.567362188720703,-0.1005,-0.02275,-0.12575,0.1049422081062673,10,1,100,0.6490524230683388,-10,-1,-100,6486.165060588974,-0.06592947312972615,-0.002008006029958432,0.9978222649773959,202.33846737771523,21.24539996613238,-105.90447515389408,6.550731119217395,-41.99566650390625,4381.2578125,True
1599569185.1944242,0.0,10,0.5,0.5,-5.673519953918457,-0.1005,-0.02275,-0.12575,0.05391130124397951,10,1,100,0.6772390852269046,-10,-1,-100,6486.261181743466,-0.06554331815674216,-0.0012913039498777055,0.9978488893510445,202.08525765998786,21.21848593999664,-102.71661961668556,6.3606880814596245,-42.9736328125,4381.2578125,True
1599569185.256257,0.0,10,0.5,0.5,-5.139821406555177,-0.1005,-0.02275,-0.12575,0.2440263061970641,10,1,100,0.5635839347377256,-10,-1,-100,6486.675483397208,-0.06409945470580351,0.0010897355351781584,0.9979429204032072,200.89736629294407,21.090407801840552,-92.99311590085527,5.79048167217146,-46.34893798828125,4381.2578125,True
1599569185.3161328,0.0,10,0.5,0.5,-5.252736354064942,-0.1005,-0.02275,-0.12575,0.10214626254027692,10,1,100,0.6439060576958171,-10,-1,-100,6486.77206884732,-0.06351992486628827,0.001957141606157539,0.9979786514458686,200.30986689578722,21.026838798799375,-89.68758246366994,5.600380021326361,-47.621246337890625,4381.2578125,True
1599569185.3779664,0.0,10,0.5,0.5,-4.068051718902588,-0.1005,-0.02275,-0.12575,0.4284593392578157,10,1,100,0.38887170082703937,-10,-1,-100,6487.157867502538,-0.06067806843324575,0.005704043488716708,0.9981410901766788,196.56084737063367,20.62226777408244,-76.08873136227471,4.839743999795973,-53.4471435546875,4381.2578125,True
1599569185.4397678,0.0,10,0.5,0.5,-4.389778881835938,-0.1005,-0.02275,-0.12575,0.1674875882692768,10,1,100,0.5796053366052304,-10,-1,-100,6487.254427529639,-0.05983476189600283,0.00672648177497193,0.9981856318900707,195.18044198807385,20.473904946584025,-72.59191095140953,4.6495132547626685,-55.087554931640625,4381.2578125,True
1599569185.501601,0.0,10,0.5,0.5,-4.164989087677002,-0.1005,-0.02275,-0.12575,0.18055383669936725,10,1,100,0.5638930050332402,-10,-1,-100,6487.351960813277,-0.0589323223037115,0.007762602438235331,0.9982317984272376,193.58419050663616,20.30272257632435,-69.05860569338104,4.459246346725662,-56.8017578125,4381.2578125,True
1599569185.5624385,0.0,10,0.5,0.5,-3.0708127639770515,-0.1005,-0.02275,-0.12575,0.40518577596819894,10,1,100,0.3204743427087989,-10,-1,-100,6487.578621122055,-0.05590685661426132,0.010734128847544015,0.9983782859524725,187.29460589686443,19.63153749930924,-58.274122472223944,3.88818665982386,-62.38970947265625,4381.2578125,True
1599569185.6229987,0.0,10,0.5,0.5,-2.7909979515075687,-0.1005,-0.02275,-0.12575,0.3357257401078235,10,1,100,0.36777890523098583,-10,-1,-100,6487.770730461692,-0.05359689483977569,0.012789477264550087,0.9984807470025816,181.66358537509643,19.034012420857238,-50.992374699352375,3.507225587555393,-66.48370361328125,4381.2578125,True
1599569185.681881,0.0,10,0.5,0.5,-2.754621719360352,-0.1005,-0.02275,-0.12575,0.2433009121034632,10,1,100,0.4612357648958033,-10,-1,-100,6487.805259505636,-0.05235876475730882,0.013802115239990765,0.9985329545728528,178.38514144165362,18.687265288827053,-47.35493445244665,3.3166532040203376,-68.64175415039062,4381.2578125,True
1599569185.7437167,0.0,10,0.5,0.5,-1.9343348609924313,-0.1005,-0.02275,-0.12575,0.35075805437506175,10,1,100,0.3004657066893318,-10,-1,-100,6487.934863255592,-0.049784565440453885,0.015684026697750795,0.9986368250522556,170.76490834218538,17.88404291739834,-40.12496467104362,2.9352735134961603,-73.181396484375,4381.2578125,True
1599569185.8044572,0.0,10,0.5,0.5,-0.7680978279113769,-0.1005,-0.02275,-0.12575,0.46952773946464776,10,1,100,0.08672510165647818,-10,-1,-100,6488.100461268332,-0.045515965022731884,0.018458496039503686,0.9987930620764288,156.6192349850452,16.398478195436937,-29.627062129438016,2.362630222366591,-80.54559326171875,4381.2578125,True
1599569185.8673205,0.0,10,0.5,0.5,-0.4138348823547364,-0.1005,-0.02275,-0.12575,0.37952712791567095,10,1,100,0.17630681370289947,-10,-1,-100,6488.167083648383,-0.04246800507352845,0.020144599154297997,0.9988947210141755,145.36381115372618,15.21895343767973,-23.054196984327877,1.980609031473349,-85.82662963867188,4381.2578125,True
1599569185.929123,0.0,10,0.5,0.5,-0.36544954071044916,-0.1005,-0.02275,-0.12575,0.2992656813824892,10,1,100,0.30618468435370116,-10,-1,-100,6488.200642767944,-0.04089750526165287,0.020930448050519246,0.9989440977390965,148.00631909146793,15.49559125362435,-21.210220745808503,1.789561274839445,-88.5787353515625,4381.2578125,True
1599569185.9898596,0.0,10,0.5,0.5,1.3300490230560302,-0.1005,-0.02275,-0.12575,0.4524721339631096,10,1,100,-0.06633446077139149,-10,-1,-100,6488.301342252991,-0.03610380631299662,0.023020393610140237,0.9990828677580994,160.21706713207544,16.773031679272904,-15.609576412900195,1.2164388514847033,-97.19043731689453,4381.2578125,True
1599569186.0496948,0.0,10,0.5,0.5,1.6905742250442506,-0.1005,-0.02275,-0.12575,0.3768851090212959,10,1,100,0.04288663787673286,-10,-1,-100,6488.306972067221,-0.03276115749476502,0.024217447210214266,0.9991697662610812,168.51376219217227,17.639486668538666,-11.263898864592246,0.8344667659088469,-103.13046264648438,4381.2578125,True
1599569186.110086,0.0,10,0.5,0.5,2.40953159198761,-0.1005,-0.02275,-0.12575,0.36904824682990545,10,1,100,0.009750558276544752,-10,-1,-100,6488.311642142828,-0.029445761122190255,0.025218532676327794,0.9992482037820172,175.76326821817025,18.39676160202899,-6.372484558132179,0.45256560408823,-109.1265640258789,4381.2578125,True
1599569186.1713288,0.0,10,0.5,0.5,3.082646266937256,-0.1005,-0.02275,-0.12575,0.3628900582522662,10,1,100,-0.024899553292099363,-10,-1,-100,6488.318288312876,-0.026143569370299633,0.02605675781278147,0.9993185473876015,182.2344706138105,19.073406582739434,-1.0314147500092452,0.07063933239081699,-114.90815734863281,4381.2578125,True
1599569186.2351592,0.0,10,0.5,0.5,3.719380794143677,-0.1005,-0.02275,-0.12575,0.35456240765644953,10,1,100,-0.05977032455623371,-10,-1,-100,6488.322026997223,-0.022851627390946903,0.0267291450868999,0.9993814866848939,186.59678108187182,19.529278079835315,4.656252532855011,-0.3113991280145507,-120.40778350830078,4381.2578125,True
1599569186.2962272,0.0,10,0.5,0.5,3.7478179235458375,-0.1005,-0.02275,-0.12575,0.3192396770539373,10,1,100,0.0884051731104506,-10,-1,-100,6488.3546664485475,-0.02123395308618594,0.027006618087146224,0.9994097066848153,188.193188401157,19.696034945846023,7.578101407008703,-0.5024716478810398,-123.0479507446289,4381.2578125,True
1599569186.3580625,0.0,10,0.5,0.5,5.23155509262085,-0.1005,-0.02275,-0.12575,0.36283807499822873,10,1,100,-0.27276827387003294,-10,-1,-100,6488.26853559725,-0.016508240392645326,0.027643211247911754,0.9994815310304848,191.5725299437201,20.048724889216675,16.520780602365654,-1.0758706659981554,-130.5262451171875,4381.2578125,True
1599569186.4183733,0.0,10,0.5,0.5,4.9522101551055915,-0.1005,-0.02275,-0.12575,0.3170088336261524,10,1,100,0.028252128208855726,-10,-1,-100,6488.240650656982,-0.014978938258369037,0.027794430850179578,0.9995014262232779,191.9828483576134,20.091295944483026,19.499769012092347,-1.267063120646716,-132.87139892578125,4381.2578125,True
1599569186.479246,0.0,10,0.5,0.5,6.2678700496673585,-0.1005,-0.02275,-0.12575,0.33433015846767883,10,1,100,-0.3121361596779665,-10,-1,-100,6488.153604772175,-0.010521985543477993,0.02808088259188177,0.9995502748001641,191.46974622612507,20.036062177932706,28.259875250767987,-1.8407920524692132,-139.46376037597656,4381.2578125,True
1599569186.5390813,0.0,10,0.5,0.5,6.024531835937501,-0.1005,-0.02275,-0.12575,0.3153416837745734,10,1,100,-0.023511513454133465,-10,-1,-100,6488.12427564594,-0.009123112604275571,0.028161455965821366,0.9995617545776221,190.80270221046086,19.96558993751962,31.090124250285815,-2.0320753204522566,-141.512939453125,4381.2578125,True
1599569186.5989218,0.0,10,0.5,0.5,6.764671734619141,-0.1005,-0.02275,-0.12575,0.30827326735150523,10,1,100,-0.19623747329501948,-10,-1,-100,6488.003128993441,-0.006310059745226568,0.028163872512906467,0.9995834029389885,188.93341374991545,19.768318995200175,36.587512080542766,-2.4146803595334854,-145.3909454345703,4381.2578125,True
1599569186.6587608,0.0,10,0.5,0.5,7.196623338890076,-0.1005,-0.02275,-0.12575,0.3175628619817782,10,1,100,-0.20110908569053443,-10,-1,-100,6487.882978031295,-0.003735536803011674,0.028245844344256525,0.9995940266138417,186.45456820676955,19.506686855762,41.8356036990279,-2.797315408137872,-148.97085571289062,4381.2578125,True
1599569186.7195675,0.0,10,0.5,0.5,7.594068710899354,-0.1005,-0.02275,-0.12575,0.3014496510800781,10,1,100,-0.22444907992223107,-10,-1,-100,6487.761378436,-0.0012092665631570313,0.02817021827625563,0.9996024091991011,183.57659406125032,19.202604633205674,46.83155544988842,-3.17996238405856,-152.2563018798828,4381.2578125,True
1599569186.7814357,0.0,10,0.5,0.5,8.267848616409303,-0.1005,-0.02275,-0.12575,0.30597473228958694,10,1,100,-0.35582091870510596,-10,-1,-100,6487.549464133335,0.0022559626487742034,0.028139921056704962,0.9996014483160025,179.00957641405407,18.719287973736183,53.92175705678368,-3.7539277374287146,-156.626708984375,4381.2578125,True
1599569186.8432682,0.0,10,0.5,0.5,8.109248963928223,-0.1005,-0.02275,-0.12575,0.3070367588028531,10,1,100,-0.13200976101527842,-10,-1,-100,6487.518709740718,0.003345706378786827,0.028120139131557753,0.9995989515921117,177.44746108123078,18.553798489278748,56.17982080572119,-3.945247218819295,-157.935302734375,4381.2578125,True
1599569186.9061043,0.0,10,0.5,0.5,8.57176550769806,-0.1005,-0.02275,-0.12575,0.30720460066997346,10,1,100,-0.254187387802258,-10,-1,-100,6487.336603165721,0.005423272437071087,0.02810241685835715,0.9995903372296037,174.32936260412254,18.22307282731845,60.555438217976906,-4.327895152870319,-160.3295440673828,4381.2578125,True
1599569186.9699342,0.0,10,0.5,0.5,9.04188141784668,-0.1005,-0.02275,-0.12575,0.31563646809243534,10,1,100,-0.3611641687809563,-10,-1,-100,6487.058826940483,0.0082602512030238,0.028161962860405156,0.9995692432732772,169.95298369404227,17.75759806942473,66.88197840739122,-4.901937215875836,-163.36325073242188,4381.2578125,True
1599569187.5493464,0.0,10,0.5,0.5,8.93035223388672,-0.1005,-0.02275,-0.12575,0.311418666345318,10,1,100,-0.17700004724041712,-10,-1,-100,6486.905041359132,0.009142586711161667,0.02817728034491819,0.9995611306871596,168.62456433829905,17.61593038441578,68.95576162229237,-5.093316078133264,-164.22625732421875,4381.2578125,True
1599569187.6051872,0.0,10,0.5,0.5,9.232978352355957,-0.1005,-0.02275,-0.12575,0.3240014622242453,10,1,100,-0.2719163157859293,-10,-1,-100,6486.721011044574,0.010785656409910265,0.028305246339288707,0.9995411360446751,166.20331506360924,17.357166102908398,73.08663626644298,-5.476136249067925,-165.72821044921875,4381.2578125,True
1599569187.664043,0.0,10,0.5,0.5,9.376273540115356,-0.1005,-0.02275,-0.12575,0.33423889517045174,10,1,100,-0.2741921249862821,-10,-1,-100,6486.473023809609,0.012280674727000026,0.028514442666638867,0.9995179396027168,164.18501064351636,17.14058782976788,77.26140711096507,-5.859047748036547,-166.9322509765625,4381.2578125,True
1599569187.7238812,0.0,10,0.5,0.5,9.488061408615113,-0.1005,-0.02275,-0.12575,0.33471718542654216,10,1,100,-0.2780198606680614,-10,-1,-100,6486.226995571982,0.013655121896614825,0.028708648342284544,0.9994945478372294,162.64965311115498,16.974655838305328,81.55752280235197,-6.242050089237457,-167.83995056152344,4381.2578125,True
1599569187.7817602,0.0,10,0.5,0.5,9.562815886306764,-0.1005,-0.02275,-0.12575,0.3500398901101114,10,1,100,-0.27622398961750816,-10,-1,-100,6485.979994112742,0.014870143057948848,0.029024001021059082,0.9994681016471538,161.6272793509547,16.862483616684425,86.03575303820497,-6.6251410325373445,-168.44912719726562,4381.2578125,True
1599569187.843595,0.0,10,0.5,0.5,9.601065858840943,-0.1005,-0.02275,-0.12575,0.35917161535286196,10,1,100,-0.2745414219355654,-10,-1,-100,6485.732508009649,0.01594249742581579,0.029392993543354756,0.9994407879941604,161.15672394685708,16.807990716426616,90.76563146072066,-7.008319097997184,-168.7609100341797,4381.2578125,True
1599569187.904476,0.0,10,0.5,0.5,9.578928100967408,-0.1005,-0.02275,-0.12575,0.3980064880239828,10,1,100,-0.31548581417360333,-10,-1,-100,6485.267777719535,0.017273994267868832,0.030080373974027286,0.9993982090356257,161.52354333400874,16.837893655710662,98.46768340126279,-7.583238493298495,-168.67039489746094,4381.2578125,True
1599569187.9651642,0.0,10,0.5,0.5,9.577210821533203,-0.1005,-0.02275,-0.12575,0.35863152849843793,10,1,100,-0.2242125045727331,-10,-1,-100,6485.1125429573,0.017641035826437237,0.030345547049027068,0.999383780951675,161.93465807166604,16.877789416080272,101.22533132390969,-7.774914783588272,-168.49139404296875,4381.2578125,True
1599569188.0249953,0.0,10,0.5,0.5,9.492230236053468,-0.1005,-0.02275,-0.12575,0.396515612889999,10,1,100,-0.2566305974980099,-10,-1,-100,6484.802561544697,0.01825642415223135,0.03092899114993427,0.9993548421274704,163.18503852451664,17.00170992309488,107.06308299787227,-8.158314320798567,-167.91015625,4381.2578125,True
1599569188.087311,0.0,10,0.5,0.5,9.383672814559937,-0.1005,-0.02275,-0.12575,0.41202876034474023,10,1,100,-0.2444164900648529,-10,-1,-100,6484.429591988213,0.018693164242910787,0.031597853878264304,0.9993258433768615,164.9879240560125,17.182287903835153,113.36252068795282,-8.541765385384657,-167.03106689453125,4381.2578125,True
1599569188.1471877,0.0,10,0.5,0.5,8.903091223526001,-0.1005,-0.02275,-0.12575,0.5081354223098578,10,1,100,-0.24603761430028775,-10,-1,-100,6483.746147398953,0.019095453715632513,0.03307648429368553,0.9992703887507944,170.11822124356505,17.698354690182196,127.45316703806903,-9.308760256203733,-164.3814697265625,4381.2578125,True
1599569188.2090166,0.0,10,0.5,0.5,9.044745380020142,-0.1005,-0.02275,-0.12575,0.40494500092422037,10,1,100,-0.2054258895845374,-10,-1,-100,6483.528897242388,0.019082925859777743,0.033478145200609245,0.9992572520300051,171.68020032733443,17.855488296159244,131.29202479263702,-9.500514860287554,-163.53335571289062,4381.2578125,True
1599569188.2678618,0.0,10,0.5,0.5,8.712265211868287,-0.1005,-0.02275,-0.12575,0.45655803034689946,10,1,100,-0.18789442417394725,-10,-1,-100,6483.155429601902,0.018904616969404524,0.03430779820269032,0.9992325006922681,175.08111822751243,18.197286381177356,139.33935527037147,-9.884013919782621,-161.61451721191406,4381.2578125,True
1599569188.3277104,0.0,10,0.5,0.5,8.440225175476074,-0.1005,-0.02275,-0.12575,0.46824008947555257,10,1,100,-0.1671332275646918,-10,-1,-100,6482.719456020393,0.018547758061488,0.035162962055264466,0.9992094609091692,178.78038785138176,18.568394154214687,147.84966760564978,-10.267482005685784,-159.39910888671875,4381.2578125,True
1599569188.3865485,0.0,10,0.5,0.5,8.131354204177857,-0.1005,-0.02275,-0.12575,0.4785356985652248,10,1,100,-0.14317041116350054,-10,-1,-100,6482.282500714529,0.018001049235948627,0.036028112627771634,0.9991886395105208,182.68852894540362,18.959630109364962,156.77414925602068,-10.650898751109612,-156.88748168945312,4381.2578125,True
1599569188.4483805,0.0,10,0.5,0.5,7.785723881149291,-0.1005,-0.02275,-0.12575,0.4866989449231718,10,1,100,-0.11574545171130354,-10,-1,-100,6481.847003059927,0.017251877121185588,0.03688245710457157,0.9991706846649,186.6873451183622,19.35901990112065,166.02731744995356,-11.0342453439588,-154.0801239013672,4381.2578125,True
1599569188.5082247,0.0,10,0.5,0.5,7.762692196273805,-0.1005,-0.02275,-0.12575,0.4481771174807215,10,1,100,-0.14179783252845762,-10,-1,-100,6481.628763442161,0.01680646104274298,0.03730212686712994,0.9991626965606789,188.68097204764868,19.557800475545385,170.74382367546974,-11.225886357319254,-152.56561279296875,4381.2578125,True
1599569188.5690613,0.0,10,0.5,0.5,7.18112894744873,-0.1005,-0.02275,-0.12575,0.4955344638743536,10,1,100,-0.07256862747093368,-10,-1,-100,6481.192765337648,0.01577260595565869,0.03810760093404048,0.9991491558583331,192.57006110218182,19.94500695246987,180.27467092261574,-11.60909107023576,-149.31533813476562,4381.2578125,True
1599569188.6298625,0.0,10,0.5,0.5,6.744176527404786,-0.1005,-0.02275,-0.12575,0.497746683435348,10,1,100,-0.0413922601944008,-10,-1,-100,6480.693282062537,0.014551014746587015,0.03885290476007273,0.9991389892109852,196.19623007982707,20.305524381464842,189.79798053491342,-11.99217862665607,-145.77037048339844,4381.2578125,True
1599569188.6926928,0.0,10,0.5,0.5,5.811626084518433,-0.1005,-0.02275,-0.12575,0.53328212181083,10,1,100,0.07518716180696294,-10,-1,-100,6479.975047343411,0.01238403291051459,0.039846299574779025,0.9991290748141944,200.760523954398,20.759560227229848,203.62772000105335,-12.566572541259712,-139.9009246826172,4381.2578125,True
1599569188.7525692,0.0,10,0.5,0.5,5.519658810424805,-0.1005,-0.02275,-0.12575,0.49236013656105704,10,1,100,0.041010448613142236,-10,-1,-100,6479.475542520406,0.010730482389785662,0.04036986913524453,0.9991271843032227,202.94592233177306,20.97823668321301,212.19402881240467,-12.949345637377656,-135.6210174560547,4381.2578125,True
1599569188.8124056,0.0,10,0.5,0.5,4.957820830154419,-0.1005,-0.02275,-0.12575,0.48259311246431835,10,1,100,0.07381973215698431,-10,-1,-100,6478.913527457276,0.008936592949020659,0.040750419984932305,0.9991293913090111,204.20844307390163,21.106924498911287,219.907907510798,-13.33200772889628,-131.0481719970703,4381.2578125,True
1599569188.8752327,0.0,10,0.5,0.5,4.358113673400879,-0.1005,-0.02275,-0.12575,0.4703624347121016,10,1,100,0.10647140472075427,-10,-1,-100,6478.352476695087,0.007018174918573436,0.04097857616436984,0.9991353769716861,204.32776819584817,21.123910207060202,226.43944967049987,-13.714586817490646,-126.18258666992188,4381.2578125,True
1599569188.9370675,0.0,10,0.5,0.5,3.7223513568878177,-0.1005,-0.02275,-0.12575,0.45487991180739573,10,1,100,0.13831078546124537,-10,-1,-100,6477.789950512233,0.00499551546784498,0.04103917632112329,0.99914504994625,203.79408271358173,21.08024519963712,232.24111116085325,-14.097120796910097,-121.02456665039062,4381.2578125,True
1599569188.996497,0.0,10,0.5,0.5,3.050584315109253,-0.1005,-0.02275,-0.12575,0.4352649632696914,10,1,100,0.1676075779204098,-10,-1,-100,6477.226437945967,0.0029027198926391087,0.040910607645769245,0.9991585942177943,201.7824004741357,20.890067690334757,236.28701305228603,-14.479661966839016,-115.574462890625,4381.2578125,True
1599569189.0573325,0.0,10,0.5,0.5,2.3427588356018068,-0.1005,-0.02275,-0.12575,0.41361136080237293,10,1,100,0.19486058831912828,-10,-1,-100,6476.663404677529,0.0007661495745938847,0.0405924374684554,0.9991754936122077,198.0517249643509,20.526504044713032,238.1497793774422,-14.862274969579815,-109.83219146728516,4381.2578125,True
1599569189.1197412,0.0,10,0.5,0.5,2.2898008554458618,-0.1005,-0.02275,-0.12575,0.42036125160435855,10,1,100,0.10131101313321843,-10,-1,-100,6476.3196293261135,-0.0003107493696238732,0.040361181786948246,0.9991851071946529,195.4829517657594,20.272700312748537,238.1405237148999,-15.053627844565835,-106.85148620605469,4381.2578125,True
1599569189.1836195,0.0,10,0.5,0.5,0.43824862422943145,-0.1005,-0.02275,-0.12575,0.33639895174808254,10,1,100,0.3475655901235025,-10,-1,-100,6475.413290511118,-0.003512865282085902,0.039384874755139396,0.9992179399000161,186.26181234461853,19.352448325081255,235.728494125675,-15.627936381316823,-97.47081756591797,4381.2578125,True
1599569189.245448,0.0,10,0.5,0.5,0.7593838638305664,-0.1005,-0.02275,-0.12575,0.3881301327066591,10,1,100,0.1447613801151421,-10,-1,-100,6475.132007686654,-0.004562672864941066,0.03896644521328105,0.9992301027109662,182.12014327809104,18.932452489569673,233.36816054640278,-15.819472159723189,-94.19772338867188,4381.2578125,True
1599569189.309415,0.0,10,0.5,0.5,-1.2615689521789553,-0.1005,-0.02275,-0.12575,0.2635791231986978,10,1,100,0.37886308700104876,-10,-1,-100,6474.162663347786,-0.007627864650488978,0.037453669597470894,0.9992692521610766,167.18065976305078,17.39582432910217,222.17467464356085,-16.394379825327093,-83.9647216796875,4381.2578125,True
1599569189.371291,0.0,10,0.5,0.5,-1.6992930599212648,-0.1005,-0.02275,-0.12575,0.28222044657695944,10,1,100,0.2863574527583481,-10,-1,-100,6473.474112022668,-0.00955524969190707,0.036250060731970686,0.9992970680934943,177.42190220539487,18.45781684909001,241.4180003453774,-16.77762186527697,-76.90496826171875,4381.2578125,True
1599569189.4351177,0.0,10,0.5,0.5,-1.7610801406860355,-0.1005,-0.02275,-0.12575,0.32866963270360017,10,1,100,0.1988265170657152,-10,-1,-100,6473.130324406433,-0.010493240557734406,0.03558188146303384,0.9993116739106713,183.98191167842094,19.13450694354179,253.26584146851926,-16.969130198881107,-73.2984619140625,4381.2578125,True
1599569189.49696,0.0,10,0.5,0.5,-3.047991019821167,-0.1005,-0.02275,-0.12575,0.24776903423615068,10,1,100,0.29263201777116526,-10,-1,-100,6472.443235625629,-0.012181073320802663,0.03424368444931617,0.9993392774869249,195.53277144371336,20.318956527975054,275.3763040148073,-17.351876119496577,-66.1866455078125,4381.2578125,True
1599569189.5567603,0.0,10,0.5,0.5,-3.8403506977081303,-0.1005,-0.02275,-0.12575,0.21994071301976606,10,1,100,0.3010094591380205,-10,-1,-100,6471.753706742893,-0.01377417143761851,0.03278027960007393,0.9993676628101131,205.04615907378925,21.288621329065045,295.2846123332699,-17.73424683055024,-59.33502197265625,4381.2578125,True
1599569189.615872,0.0,10,0.5,0.5,-5.319627044296265,-0.1005,-0.02275,-0.12575,0.11035391412884898,10,1,100,0.37434625898936813,-10,-1,-100,6470.658867457649,-0.015872077281640203,0.03046117601695542,0.9994099228637014,214.76085713055647,22.27613299250319,319.50145097982903,-18.30718134185846,-49.60894775390625,4381.2578125,True
1599569189.677271,0.0,10,0.5,0.5,-4.94646069908142,-0.1005,-0.02275,-0.12575,0.2557641706651141,10,1,100,0.23459414594524547,-10,-1,-100,6470.252092848066,-0.01649172266019128,0.029684310938658105,0.9994232660728869,216.76560647854333,22.48097549287956,325.9256979139388,-18.49803189437158,-46.515838623046875,4381.2578125,True
1599569189.7380955,0.0,10,0.5,0.5,-6.699787094306947,-0.1005,-0.02275,-0.12575,0.07809518008870342,10,1,100,0.356891820533178,-10,-1,-100,6469.157751369639,-0.018151144707641842,0.027372813795447537,0.9994604869682053,220.59337612624722,22.883790316450526,342.1989812311493,-19.070357447122717,-37.683837890625,4381.2578125,True
1599569189.8001986,0.0,10,0.5,0.5,-6.9943467031478885,-0.1005,-0.02275,-0.12575,0.14056667097223108,10,1,100,0.29566485874644266,-10,-1,-100,6468.345190276741,-0.019086882920592015,0.02585118300782591,0.9994835702689021,220.9225069254799,22.9346020772339,349.7458562503947,-19.451832927603935,-32.1685791015625,4381.2578125,True
1599569189.8609962,0.0,10,0.5,0.5,-7.047966882324219,-0.1005,-0.02275,-0.12575,0.20808398821639967,10,1,100,0.2490996013877657,-10,-1,-100,6468.000435011461,-0.019500075303978286,0.025093979441068975,0.9994948920624609,220.488082723926,22.901182508874097,352.57498696466115,-19.64257969408769,-29.5228271484375,4381.2578125,True
1599569189.925072,0.0,10,0.5,0.5,-8.557685904693605,-0.1005,-0.02275,-0.12575,0.05568391526199612,10,1,100,0.3334018374419371,-10,-1,-100,6466.780632583424,-0.02062850925078642,0.023032768686042832,0.9995218637792499,217.20223409643668,22.604344193648913,357.7404898280997,-20.21494591790844,-22.02984619140625,4381.2578125,True
1599569189.9872205,0.0,10,0.5,0.5,-8.287792610931398,-0.1005,-0.02275,-0.12575,0.18737890322551543,10,1,100,0.2571387152004602,-10,-1,-100,6466.373872583616,-0.020949238414234662,0.022369277800152357,0.9995302620834264,215.55259833328822,22.449680861170297,358.47979762593934,-20.405792695268193,-19.680908203125,4381.2578125,True
1599569190.049056,0.0,10,0.5,0.5,-9.616229529571534,-0.1005,-0.02275,-0.12575,0.04794503445923198,10,1,100,0.31821502237908406,-10,-1,-100,6465.091586634866,-0.021785691365609348,0.020511142535951002,0.999552238096435,209.65011216986835,21.886800939669047,358.7775010665561,-20.97854338005032,-13.0792236328125,4381.2578125,True
1599569190.1098924,0.0,10,0.5,0.5,-9.834971063995361,-0.1005,-0.02275,-0.12575,0.10867602030974668,10,1,100,0.28743324887298494,-10,-1,-100,6464.277589547215,-0.022256002970614638,0.019387729202524524,0.9995642982260529,205.55890953668754,21.49226893016341,358.41066795143865,-21.360547223325668,-9.0487060546875,4381.2578125,True
1599569190.1707263,0.0,10,0.5,0.5,-9.888900412750244,-0.1005,-0.02275,-0.12575,0.16076848214142828,10,1,100,0.26333927426136233,-10,-1,-100,6463.810290202033,-0.022455363815377594,0.018853517602649188,0.9995700583300431,203.34239938087424,21.275410949904913,357.834119898353,-21.55159646203316,-7.14471435546875,4381.2578125,True
1599569190.2316062,0.0,10,0.5,0.5,-10.960161667633056,-0.1005,-0.02275,-0.12575,0.05810207692456981,10,1,100,0.3105587312110272,-10,-1,-100,6462.526076065376,-0.02305797674436109,0.017447200429879645,0.9995818750385664,196.99702209598468,20.647445774549308,356.2479693501217,-22.124895956076543,-1.87640380859375,4381.2578125,True
1599569190.2924082,0.0,10,0.5,0.5,-10.770052826690675,-0.1005,-0.02275,-0.12575,0.15085355562113004,10,1,100,0.26989884706170586,-10,-1,-100,6462.056829952402,-0.023229638733477057,0.017023756420591587,0.9995852017720374,194.98866092689119,20.445871941465317,355.7839865392208,-22.316032521027026,-0.26849365234375,4381.2578125,True
1599569190.3552375,0.0,10,0.5,0.5,-11.350391581726074,-0.1005,-0.02275,-0.12575,0.10675694602333653,10,1,100,0.28690547126900184,-10,-1,-100,6461.181327378377,-0.023534175383582184,0.01624943864718438,0.9995909655117268,190.97426659918253,20.037503384711442,354.67361589240693,-22.698339848366242,2.725189208984375,4381.2578125,True
1599569190.881829,0.0,10,0.5,0.5,-11.676267842864991,-0.1005,-0.02275,-0.12575,0.1113806684623451,10,1,100,0.2928110320193925,-10,-1,-100,6460.24186487589,-0.023859820135339542,0.015597659398212692,0.9995936284332781,187.06397879069635,19.63278995249208,353.5090413914381,-23.080669369158002,5.423095703125,4381.2578125,True
1599569190.9336734,0.0,10,0.5,0.5,-11.702577820587157,-0.1005,-0.02275,-0.12575,0.14294225768862212,10,1,100,0.27490633335891157,-10,-1,-100,6459.77360015607,-0.02398875179710118,0.015301377731758778,0.9995951218502056,189.10828369070086,19.847618752411805,360.4578115917371,-23.27180016470236,6.660888671875,4381.2578125,True
1599569190.989525,0.0,10,0.5,0.5,-11.892571021270752,-0.1005,-0.02275,-0.12575,0.1421474465145034,10,1,100,0.27647872076109,-10,-1,-100,6459.303871726268,-0.024116176214637814,0.01503370757131715,0.9995961172800967,191.89430908320526,20.138773955162947,368.901281224951,-23.462886501857348,7.82476806640625,4381.2578125,True
1599569191.047602,0.0,10,0.5,0.5,-12.503722660064698,-0.1005,-0.02275,-0.12575,0.09824895340634468,10,1,100,0.30689968239623366,-10,-1,-100,6457.8951802677475,-0.024505400184568923,0.01439856572549125,0.9995960017261187,199.11848142165152,20.885196870273344,392.5541979483783,-24.03587346010607,10.8726806640625,4381.2578125,True
1599569191.1091456,0.0,10,0.5,0.5,-12.566023120880127,-0.1005,-0.02275,-0.12575,0.1287760179683549,10,1,100,0.29384123720671446,-10,-1,-100,6456.895672948682,-0.02473729414481036,0.014105928918099309,0.9995944622934596,203.07776710901572,21.287316253169276,407.00893593361565,-24.417640118925096,12.53485107421875,4381.2578125,True
1599569191.168983,0.0,10,0.5,0.5,-12.578225820159913,-0.1005,-0.02275,-0.12575,0.1457263150974075,10,1,100,0.2832556143209669,-10,-1,-100,6456.425462031155,-0.024849190625360146,0.013999811988568795,0.999593178743007,204.82543529024858,21.462692739612347,413.8677080042454,-24.608458431151067,13.25506591796875,4381.2578125,True
1599569191.22835,0.0,10,0.5,0.5,-12.814166238403322,-0.1005,-0.02275,-0.12575,0.1422423705765537,10,1,100,0.2984524225480779,-10,-1,-100,6455.424007203081,-0.025086710057329372,0.013876567936273254,0.9995889644452911,207.89379740235447,21.766478182191776,426.8863489245805,-24.989970967129132,14.473922729492188,4381.2578125,True
1599569191.2944012,0.0,10,0.5,0.5,-12.918979581069946,-0.1005,-0.02275,-0.12575,0.15222164612170797,10,1,100,0.2987622615949369,-10,-1,-100,6454.423533320194,-0.025303061399325612,0.013859773075202688,0.9995837442526394,210.43859468392031,22.013066586436683,439.0224953753086,-25.37132792039128,15.397247314453125,4381.2578125,True
1599569191.3552048,0.0,10,0.5,0.5,-12.984248519515992,-0.1005,-0.02275,-0.12575,0.16385085767725516,10,1,100,0.30059622926878327,-10,-1,-100,6453.359098245972,-0.02551437588485265,0.013953486422329582,0.9995770689846123,212.50397455965182,22.20776255096638,450.31904822914277,-25.75254288543215,16.025222778320312,4381.2578125,True
1599569191.4160757,0.0,10,0.5,0.5,-13.017653852081297,-0.1005,-0.02275,-0.12575,0.17753113966343048,10,1,100,0.30312076969966384,-10,-1,-100,6452.357167887036,-0.02572735329638398,0.014165837728681317,0.9995686231238992,214.12045984201643,22.35436956310544,460.7954586195108,-26.13363040129412,16.358062744140625,4381.2578125,True
1599569191.4768827,0.0,10,0.5,0.5,-13.01535500640869,-0.1005,-0.02275,-0.12575,0.19193273179307702,10,1,100,0.3042864378145727,-10,-1,-100,6451.293229234288,-0.02592957230980909,0.014491702118287412,0.9995587265636499,215.31004141290498,22.455747991608305,470.4566062920423,-26.514606226494365,16.39581298828125,4381.2578125,True
1599569191.5374527,0.0,10,0.5,0.5,-12.923288206481933,-0.1005,-0.02275,-0.12575,0.23745880202917335,10,1,100,0.31524120163480635,-10,-1,-100,6449.634096734575,-0.02621111494567543,0.015202821253966487,0.9995408204166675,216.31368351406203,22.52625774209854,483.37398498998476,-27.085894441290556,15.8995361328125,4381.2578125,True
1599569191.5992844,0.0,10,0.5,0.5,-12.935947677612305,-0.1005,-0.02275,-0.12575,0.1989820310286663,10,1,100,0.29686066686481555,-10,-1,-100,6449.102377208415,-0.026297946695691667,0.015499593965013575,0.9995339817067304,216.43866698064085,22.528149358744063,487.23684118776134,-27.276285129835635,15.586761474609375,4381.2578125,True
1599569191.662315,0.0,10,0.5,0.5,-12.680704616546631,-0.1005,-0.02275,-0.12575,0.2879188070699388,10,1,100,0.31219590493264865,-10,-1,-100,6447.443747068872,-0.02651431247770395,0.016577479951437317,0.9995109696207913,216.15834110362078,22.46730704408858,497.36459083648475,-27.847368800231447,14.20672607421875,4381.2578125,True
1599569191.7221558,0.0,10,0.5,0.5,-12.570413387298585,-0.1005,-0.02275,-0.12575,0.27603648084582477,10,1,100,0.3027613709224762,-10,-1,-100,6446.312934769085,-0.026623413868265246,0.017447374324125187,0.9994932630904486,215.39062817362782,22.36859929572313,502.76483346962715,-28.228037098821417,12.918701171875,4381.2578125,True
1599569191.781583,0.0,10,0.5,0.5,-12.375300493621827,-0.1005,-0.02275,-0.12575,0.29908685755678655,10,1,100,0.2984507564242067,-10,-1,-100,6445.190916844527,-0.026681694891769924,0.018444698591753787,0.9994738016834469,214.11450620907735,22.219808158562635,506.9270679479081,-28.608679539824482,11.336578369140625,4381.2578125,True
1599569191.842421,0.0,10,0.5,0.5,-12.365967359924317,-0.1005,-0.02275,-0.12575,0.2600560037571137,10,1,100,0.2932702890770992,-10,-1,-100,6444.597195231472,-0.0266859165697401,0.018992490267234412,0.9994634296312608,213.27046610469617,22.12534299667572,508.49165764606914,-28.798995402912517,10.435272216796875,4381.2578125,True
1599569191.9052525,0.0,10,0.5,0.5,-12.01239189491272,-0.1005,-0.02275,-0.12575,0.33564192300912893,10,1,100,0.29015138412718944,-10,-1,-100,6443.468836853164,-0.026659946953338887,0.0201729765814797,0.9994409928776626,211.13955916937786,21.893744956869842,510.47877593377865,-29.179624321165516,8.41217041015625,4381.2578125,True
1599569191.9660947,0.0,10,0.5,0.5,-11.439684202194215,-0.1005,-0.02275,-0.12575,0.4378382032437428,10,1,100,0.2730543541291369,-10,-1,-100,6441.686709913658,-0.026479677133397297,0.022169463775193472,0.9994034928770418,206.71459226691513,21.429292907376492,510.1920102906153,-29.75057909985709,4.82666015625,4381.2578125,True
1599569192.0289292,0.0,10,0.5,0.5,-11.241220068359375,-0.1005,-0.02275,-0.12575,0.40120683256199985,10,1,100,0.2659794386196066,-10,-1,-100,6440.49830765801,-0.026250600518592352,0.02364397060205118,0.999375739462682,202.85337594284573,21.033840826041597,507.4936224980969,-30.131232415734857,2.069244384765625,4381.2578125,True
1599569192.0907612,0.0,10,0.5,0.5,-10.865149736022952,-0.1005,-0.02275,-0.12575,0.42826181796912066,10,1,100,0.24980449604493515,-10,-1,-100,6439.244481645757,-0.025894828438797927,0.025221769282101677,0.9993464465411409,205.64240019523655,21.336433559712695,521.4107558636373,-30.51178712395404,-0.981842041015625,4381.2578125,True
1599569192.1511564,0.0,10,0.5,0.5,-10.452545304107668,-0.1005,-0.02275,-0.12575,0.4553044049866277,10,1,100,0.2329178789769765,-10,-1,-100,6438.051694786758,-0.025417916160067926,0.026892218812157816,0.9993151345323651,211.0127016708002,21.91631943926655,542.1596969584509,-30.892104133305484,-4.326568603515625,4381.2578125,True
1599569192.212991,0.0,10,0.5,0.5,-10.003936006164551,-0.1005,-0.02275,-0.12575,0.4822355884160506,10,1,100,0.21256245879426888,-10,-1,-100,6436.797877551755,-0.0248000313584575,0.028645011509241612,0.9992819530844411,216.34504236966808,22.50211853906496,563.1808298907239,-31.272153033226765,-7.964996337890625,4381.2578125,True
1599569192.2731445,0.0,10,0.5,0.5,-9.518230070495605,-0.1005,-0.02275,-0.12575,0.5079390936719574,10,1,100,0.1880178010214441,-10,-1,-100,6435.48840082332,-0.024016546391183464,0.03046017726569492,0.9992474083530978,221.8699973395965,23.11745497662525,585.0744292864273,-31.65190244098924,-11.897186279296875,4381.2578125,True
1599569192.3349473,0.0,10,0.5,0.5,-9.48354814529419,-0.1005,-0.02275,-0.12575,0.42975255482615377,10,1,100,0.21612792103346273,-10,-1,-100,6434.894211266306,-0.023562104572031346,0.031386920602677656,0.9992295474230224,224.74886748626133,23.440491858680055,596.4703171618469,-31.841652377213393,-13.9735107421875,4381.2578125,True
1599569192.3992867,0.0,10,0.5,0.5,-8.17434800796509,-0.1005,-0.02275,-0.12575,0.6474223049535961,10,1,100,0.080829366607398,-10,-1,-100,6432.924145614728,-0.021921771795561772,0.03419555814084003,0.9991747093100283,232.7920029660092,24.357646125311977,629.630308258321,-32.41038176390698,-20.643646240234375,4381.2578125,True
1599569192.4621592,0.0,10,0.5,0.5,-8.404047571563723,-0.1005,-0.02275,-0.12575,0.47138297308653976,10,1,100,0.17402565468165182,-10,-1,-100,6432.328493309091,-0.021282126365897384,0.035134188468060684,0.9991559737588703,235.6081693395746,24.679708408665576,641.22880142159,-32.59977854989184,-23.01409912109375,4381.2578125,True
1599569192.524029,0.0,10,0.5,0.5,-7.5035811645507815,-0.1005,-0.02275,-0.12575,0.5877670330955092,10,1,100,0.08402230340471403,-10,-1,-100,6430.946274131769,-0.01988733077296109,0.0370308514036148,0.9991162145211387,240.78609280181237,25.276989106656924,663.4514421495612,-32.97830364289477,-27.9752197265625,4381.2578125,True
1599569192.5868251,0.0,10,0.5,0.5,-6.855301637268067,-0.1005,-0.02275,-0.12575,0.5936882698901372,10,1,100,0.042765843157171024,-10,-1,-100,6429.63338921126,-0.018250432973659865,0.03879359452059503,0.9990805666814091,245.07872159537712,25.77892702730772,683.5441414493007,-33.356498279735106,-33.2320556640625,4381.2578125,True
1599569192.650691,0.0,10,0.5,0.5,-5.521098414611816,-0.1005,-0.02275,-0.12575,0.7048748830469712,10,1,100,-0.09616980580360832,-10,-1,-100,6427.600339258555,-0.01550677384206961,0.04139176280950701,0.9990226533650438,249.35072165423816,26.29019624770907,708.0589165579562,-33.9232865564306,-41.66815185546875,4381.2578125,True
1599569192.71249,0.0,10,0.5,0.5,-5.126474660491944,-0.1005,-0.02275,-0.12575,0.616527685635562,10,1,100,-0.04898536374178178,-10,-1,-100,6426.287448417512,-0.013451254856346458,0.042934443284589216,0.9989873359170435,250.40750850580747,26.42810337765119,719.4947395645019,-34.30091764654688,-47.661346435546875,4381.2578125,True
1599569192.7723315,0.0,10,0.5,0.5,-4.351098566436768,-0.1005,-0.02275,-0.12575,0.6127299972369091,10,1,100,-0.0862289336568196,-10,-1,-100,6424.850037946831,-0.01125533566426366,0.04428625320921939,0.9989554770838257,249.7601900144198,26.372807922636238,726.0583206388219,-34.678476209261305,-53.9500732421875,4381.2578125,True
1599569192.833168,0.0,10,0.5,0.5,-3.539337692260742,-0.1005,-0.02275,-0.12575,0.6055607922389491,10,1,100,-0.12225383473864235,-10,-1,-100,6423.471207812312,-0.008944421462077095,0.04543418397308622,0.9989272907731614,247.19009219230213,26.101943891562396,726.9454638243712,-35.056068563699824,-60.534271240234375,4381.2578125,True
1599569192.8940048,0.0,10,0.5,0.5,-2.691180335998535,-0.1005,-0.02275,-0.12575,0.5938005740474064,10,1,100,-0.15654583348486623,-10,-1,-100,6422.026934580179,-0.006546259116847619,0.046355583436256724,0.9989035520889189,242.50149960843592,25.59831190307956,721.3895231739008,-35.43380071263044,-67.4139404296875,4381.2578125,True
1599569192.9568727,0.0,10,0.5,0.5,-2.6266407676696777,-0.1005,-0.02275,-0.12575,0.5431880064079848,10,1,100,-0.05245420183819487,-10,-1,-100,6421.368757943856,-0.0053282811700399585,0.04671865469135284,0.9988938766073218,239.31236420946973,25.255708560363058,715.979547498534,-35.62274918361235,-70.96469116210938,4381.2578125,True
1599569193.0177107,0.0,10,0.5,0.5,-0.4331382369995116,-0.1005,-0.02275,-0.12575,0.5863160130055128,10,1,100,-0.33418728861596186,-10,-1,-100,6419.210608728114,-0.001676394814418741,0.04742685431588259,0.9988733068763659,226.18046731786484,23.85662392442432,688.3134509741259,-36.190029539872164,-82.0601806640625,4381.2578125,True
1599569193.0795088,0.0,10,0.5,0.5,0.06838208541870117,-0.1005,-0.02275,-0.12575,0.5353014711553058,10,1,100,-0.23694010075283384,-10,-1,-100,6417.710625116015,0.0007410316401347078,0.04759487514302135,0.9988664468947932,214.38031744835843,22.61621254530705,659.7911448081062,-36.56861630409448,-89.826171875,4381.2578125,True
1599569193.1433382,0.0,10,0.5,0.5,1.0619225158691408,-0.1005,-0.02275,-0.12575,0.5113188847080129,10,1,100,-0.25050030045654936,-10,-1,-100,6416.27312662825,0.00304194554339341,0.04751826993937668,0.9988657370183841,207.48349172049535,21.910975155517264,645.7328527299809,-36.94739494385579,-97.86204528808594,4381.2578125,True
1599569193.204213,0.0,10,0.5,0.5,2.059565139007568,-0.1005,-0.02275,-0.12575,0.489045046097382,10,1,100,-0.26103510366885946,-10,-1,-100,6414.769695765921,0.005208611597089272,0.04723660538638874,0.9988701484561451,219.7900942334291,23.252806376213215,691.6212646601036,-37.325703199589384,-106.0351333618164,4381.2578125,True
1599569193.2646248,0.0,10,0.5,0.5,2.1237028467178343,-0.1005,-0.02275,-0.12575,0.4943921616351252,10,1,100,-0.16078504196370647,-10,-1,-100,6413.9835512324935,0.006245617408065257,0.04702148137868301,0.9988743527351908,225.27294309852067,23.858552160481846,712.754684285754,-37.51463252911817,-110.1291732788086,4381.2578125,True
1599569193.3244324,0.0,10,0.5,0.5,3.5830117900848393,-0.1005,-0.02275,-0.12575,0.4557435249595345,10,1,100,-0.27057334529857535,-10,-1,-100,6412.483028860879,0.008166650547223929,0.04646944493047318,0.9988863281208192,234.11107866716748,24.849483974430584,748.760806950925,-37.892077517061225,-118.1662368774414,4381.2578125,True
1599569193.3867779,0.0,10,0.5,0.5,4.488879963111877,-0.1005,-0.02275,-0.12575,0.43546559881188995,10,1,100,-0.2697184001042381,-10,-1,-100,6410.983959706151,0.009885619439780046,0.04578003519289849,0.9989026293418336,240.82881918304236,25.61308924259094,778.4909261049798,-38.26905441153286,-125.92813873291016,4381.2578125,True
1599569193.4486127,0.0,10,0.5,0.5,5.36594232749939,-0.1005,-0.02275,-0.12575,0.41279291597267703,10,1,100,-0.2688883599780838,-10,-1,-100,6409.410660933936,0.011421553563589619,0.044945825785670766,0.9989241316830013,245.28658588394805,26.125857204732117,801.28097594348,-38.645685570717184,-133.3949737548828,4381.2578125,True
1599569193.512442,0.0,10,0.5,0.5,6.214264094924927,-0.1005,-0.02275,-0.12575,0.3998957393153363,10,1,100,-0.2592700786693293,-10,-1,-100,6407.845164982369,0.012711903868768129,0.044070650498749205,0.9989475387950301,247.13220661016186,26.345543264594294,815.7536908120312,-39.02213042242993,-140.56190490722656,4381.2578125,True
1599569193.573282,0.0,10,0.5,0.5,7.033066247558594,-0.1005,-0.02275,-0.12575,0.38418845267729196,10,1,100,-0.2513713754864999,-10,-1,-100,6406.282103595673,0.013795635787281402,0.04313432029841784,0.9989740291146804,246.67597816187836,26.30487135152429,822.6944671630475,-39.39853347686466,-147.4287872314453,4381.2578125,True
1599569193.63412,0.0,10,0.5,0.5,7.829095434188844,-0.1005,-0.02275,-0.12575,0.37262533772785605,10,1,100,-0.2399719219545824,-10,-1,-100,6404.717084361124,0.014659829847496654,0.04218125028438804,0.9990024181718924,244.2420684569512,26.041698157546254,822.9741486080231,-39.775010939688045,-153.99490356445312,4381.2578125,True
1599569193.6939614,0.0,10,0.5,0.5,8.584524268722534,-0.1005,-0.02275,-0.12575,0.36333754427519127,10,1,100,-0.22645428330703313,-10,-1,-100,6403.094933033921,0.015307722073931057,0.0412351572439108,0.9990321994069947,240.16071757705936,25.59664085847754,817.5216972389555,-40.15164460951072,-160.25994873046875,4381.2578125,True
1599569194.2311409,0.0,10,0.5,0.5,9.30621520500183,-0.1005,-0.02275,-0.12575,0.3567491340593029,10,1,100,-0.21164696482508658,-10,-1,-100,6401.519166392973,0.01574886057500482,0.04032095958505898,0.9990626574988823,234.75454297566722,25.010069350173566,807.2772764530202,-40.528481169124944,-166.2236328125,4381.2578125,True
1599569194.290046,0.0,10,0.5,0.5,9.36087511138916,-0.1005,-0.02275,-0.12575,0.39891252268282695,10,1,100,-0.18490839643758572,-10,-1,-100,6400.673909544363,0.015895265940611317,0.039879717346638734,0.9990780493360013,231.65083630511583,24.675679768430136,800.6460358997649,-40.716981634255234,-169.0924530029297,4381.2578125,True
1599569194.3550248,0.0,10,0.5,0.5,10.39055786190033,-0.1005,-0.02275,-0.12575,0.3501208207661719,10,1,100,-0.18756810677675279,-10,-1,-100,6399.04882633884,0.01604282577211554,0.03904171519250506,0.9991087889794948,224.8242474144382,23.946788290544855,784.925577315808,-41.09414470534969,-174.60397338867188,4381.2578125,True
1599569194.428826,0.0,10,0.5,0.5,11.02298014717102,-0.1005,-0.02275,-0.12575,0.34738592797415146,10,1,100,-0.16899622375796558,-10,-1,-100,6397.358314424055,0.015999229220253992,0.03826228672353442,0.9991396409306578,217.39356570591656,23.163698146775324,766.6265000292516,-41.471507315928065,-179.814208984375,4381.2578125,True
1599569194.5135994,0.0,10,0.5,0.5,-69.8313387933731,-0.1005,-0.02275,-0.12575,0.34750356172008323,10,1,100,-0.15003765185207624,-10,-1,-100,6395.726397478138,0.015780124811532657,0.037562245838712253,0.9991696879652048,213.46480189444472,22.76554769613545,760.2962317832588,-41.848976386466354,175.2769775390625,4381.2578125,True
1599569194.5903966,0.0,10,0.5,0.5,-25.33411503982544,-0.1005,-0.02275,-0.12575,0.3817105496908836,10,1,100,-0.15385097909740106,-10,-1,-100,6394.877725688042,0.015610246955496438,0.03724428836983955,0.9991842588701108,217.20634312676944,23.179589870644794,777.4543476603643,-42.03760691814086,172.935546875,4381.2578125,True
1599569194.6642005,0.0,10,0.5,0.5,-24.81822903709412,-0.1005,-0.02275,-0.12575,0.3215041124361355,10,1,100,-0.08806415402340184,-10,-1,-100,6392.345386562985,0.01485394259170724,0.036414906275290135,0.9992263582344313,227.01860178722336,24.288150620490903,824.5938713065002,-42.602955402702705,166.27378845214844,4381.2578125,True
1599569194.7395122,0.0,10,0.5,0.5,-25.319807804489137,-0.1005,-0.02275,-0.12575,0.35677572415239733,10,1,100,-0.08695421051173388,-10,-1,-100,6390.592387845274,0.014154355466590135,0.03598853333605074,0.9992519600629489,233.29108905733943,25.00974154853234,855.6058724702502,-42.97939109604062,161.70278930664062,4381.2578125,True
1599569194.8173053,0.0,10,0.5,0.5,-25.501917800140383,-0.1005,-0.02275,-0.12575,0.3621494754049454,10,1,100,-0.06473650751308387,-10,-1,-100,6388.891642412287,0.013316061944060213,0.035656270027185695,0.9992753939240425,239.13038831341257,25.69101110917836,885.4459530639775,-43.35545086350888,156.85873413085938,4381.2578125,True
1599569194.8941016,0.0,10,0.5,0.5,-25.65707867126465,-0.1005,-0.02275,-0.12575,0.3695086411449026,10,1,100,-0.04088468430127584,-10,-1,-100,6387.142075519892,0.012338363774292425,0.03542704578063272,0.9992960968635022,244.85748419578192,26.363084907117525,915.2636268397528,-43.731136332624494,151.7264862060547,4381.2578125,True
1599569194.9669468,0.0,10,0.5,0.5,-25.1473881855011,-0.1005,-0.02275,-0.12575,0.37755773146479066,10,1,100,0.05040291187630108,-10,-1,-100,6384.478435739875,0.010622359434979772,0.035297113751641074,0.9993204086982501,252.4912360835686,27.264526024438414,957.0898178478143,-44.29399333779624,143.48410034179688,4381.2578125,True
1599569195.044699,0.0,10,0.5,0.5,-26.234010952377318,-0.1005,-0.02275,-0.12575,0.3913539759121195,10,1,100,-0.050648175673759996,-10,-1,-100,6383.574122108053,0.00998566219618703,0.03530898126192749,0.9993265544319078,254.5404381659737,27.50834516982185,969.3184898485597,-44.48145846245783,140.59153747558594,4381.2578125,True
1599569195.1204941,0.0,10,0.5,0.5,-25.944212181472782,-0.1005,-0.02275,-0.12575,0.4013144873307024,10,1,100,0.03750858040787751,-10,-1,-100,6381.8177503411425,0.008610793836310035,0.03541447522607018,0.9993356138825287,257.72499268140524,27.889320815693743,990.4778927299669,-44.85621164063221,134.58901977539062,4381.2578125,True
1599569195.1962943,0.0,10,0.5,0.5,-25.978972821426396,-0.1005,-0.02275,-0.12575,0.4170634135008118,10,1,100,0.06424483805690433,-10,-1,-100,6379.9954741322435,0.00712461301409962,0.035656848376806737,0.9993386958650369,259.49780020952693,28.104706050729497,1006.3956561457351,-45.230805339201076,128.2974395751953,4381.2578125,True
1599569195.273085,0.0,10,0.5,0.5,-25.213426253509525,-0.1005,-0.02275,-0.12575,0.45982244246715553,10,1,100,0.185131631620841,-10,-1,-100,6377.276254539378,0.004682636521696322,0.03626827463021285,0.9993311188843031,258.9822820877065,28.058777754118307,1018.0846738095896,-45.792630071530475,118.31880187988281,4381.2578125,True
1599569195.3464744,0.0,10,0.5,0.5,-26.338660094070434,-0.1005,-0.02275,-0.12575,0.3985504200056942,10,1,100,-0.057956268790505146,-10,-1,-100,6377.276254539378,0.004682636521696322,0.03626827463021285,0.9993311188843031,258.9822820877065,28.058777754118307,1018.0846738095896,-45.792630071530475,118.31880187988281,4381.2578125,True
1599569195.419843,0.0,10,0.5,0.5,-22.976317800140382,-0.1005,-0.02275,-0.12575,0.5465301530547491,10,1,100,0.3475384416059293,-10,-1,-100,6373.576647170121,0.0010062551639412815,0.037614432215876646,0.999291820210504,251.2148782015194,27.202049556338963,1005.4539473452338,-46.542198858868005,104.00680541992188,4381.2578125,True
1599569195.4886606,0.0,10,0.5,0.5,-24.634393968582152,-0.1005,-0.02275,-0.12575,0.4120343470824282,10,1,100,-0.018714925426798132,-10,-1,-100,6373.576647170121,0.0010062551639412815,0.037614432215876646,0.999291820210504,251.2148782015194,27.202049556338963,1005.4539473452338,-46.542198858868005,104.00680541992188,4381.2578125,True
1599569195.557517,0.0,10,0.5,0.5,-22.78667915382385,-0.1005,-0.02275,-0.12575,0.5130441561200734,10,1,100,0.18975992534963904,-10,-1,-100,6371.687089641811,-0.0008770179337511936,0.038531225117237215,0.9992570117494841,243.88799225827353,26.404851932432155,984.9272980494283,-46.917405970354174,96.42025756835938,4381.2578125,True
1599569195.6279142,0.0,10,0.5,0.5,-21.82213755607605,-0.1005,-0.02275,-0.12575,0.5481641166818763,10,1,100,0.23893823966956318,-10,-1,-100,6369.778034636402,-0.003023257171036562,0.03968133198259044,0.9992078121232665,234.07333289494625,25.352772938739808,953.79815176709,-47.29297754428338,88.54820251464844,4381.2578125,True
1599569195.6957335,0.0,10,0.5,0.5,-19.875268262100217,-0.1005,-0.02275,-0.12575,0.6571054172256245,10,1,100,0.3665508220901543,-10,-1,-100,6366.875460601179,-0.006120533026078336,0.04171339160494385,0.9991108707427266,238.8115445416249,25.92607458784066,986.1839407042003,-47.856397903631525,76.20323181152344,4381.2578125,True
1599569195.7605593,0.0,10,0.5,0.5,-18.33656915817261,-0.1005,-0.02275,-0.12575,0.7397275739390297,10,1,100,0.41305098264704354,-10,-1,-100,6363.948085409473,-0.009343746269850706,0.04430599607006581,0.9989743105395072,257.7054375643635,28.083399083166423,1078.2885827682705,-48.418315212142616,63.217529296875,4381.2578125,True
1599569195.826421,0.0,10,0.5,0.5,-19.79349538078308,-0.1005,-0.02275,-0.12575,0.48136682890764737,10,1,100,0.09266259911641025,-10,-1,-100,6363.948085409473,-0.009343746269850706,0.04430599607006581,0.9989743105395072,257.7054375643635,28.083399083166423,1078.2885827682705,-48.418315212142616,63.217529296875,4381.2578125,True
1599569195.8932433,0.0,10,0.5,0.5,-16.548800410842897,-0.1005,-0.02275,-0.12575,0.8410918424654449,10,1,100,0.44495315075049036,-10,-1,-100,6361.034018232254,-0.012530065339154925,0.047568140265278516,0.9987894019733585,272.18162393451263,29.772628832343372,1153.6404691246469,-48.97880176918173,49.593994140625,4381.2578125,True
1599569195.9570775,0.0,10,0.5,0.5,-17.02346747970581,-0.1005,-0.02275,-0.12575,0.6520373224018847,10,1,100,0.24116760038235138,-10,-1,-100,6360.062044758699,-0.01355625523667272,0.04880421999499546,0.998716364166843,275.92326966738716,30.21213594679216,1174.4809424325206,-49.165378853739185,44.911376953125,4381.2578125,True
1599569196.0211554,0.0,10,0.5,0.5,-15.27788106956482,-0.1005,-0.02275,-0.12575,0.8051912165111792,10,1,100,0.3581999854338198,-10,-1,-100,6358.057588184136,-0.015536505106012819,0.051308840654491004,0.9985619759833554,280.79496599188747,30.789608105295017,1205.3669929666146,-49.53831890921751,35.33160400390625,4381.2578125,True
1599569196.0839872,0.0,10,0.5,0.5,-12.923688236999512,-0.1005,-0.02275,-0.12575,1.049481385575195,10,1,100,0.4527219918688873,-10,-1,-100,6355.079826723551,-0.018177642189706515,0.05579291500368321,0.9982768774041674,280.72596131311866,30.806472121662324,1220.4202124092049,-50.097685821493144,20.43634033203125,4381.2578125,True
1599569196.147039,0.0,10,0.5,0.5,-12.27995275039673,-0.1005,-0.02275,-0.12575,0.955731466746456,10,1,100,0.3558846469303362,-10,-1,-100,6353.013992360444,-0.019680896496028822,0.05900054834742595,0.9980639246099499,275.252015938398,30.209533598232163,1206.8089002404415,-50.47093324889502,10.152618408203125,4381.2578125,True
1599569196.2291274,0.0,10,0.5,0.5,-12.172379993438721,-0.1005,-0.02275,-0.12575,0.8227706622961136,10,1,100,0.27816349382821626,-10,-1,-100,6352.041642152122,-0.020322128881157128,0.06068840215025119,0.9979498629300909,270.79983420527174,29.725854373002413,1192.3519986521972,-50.65773153517942,4.905181884765625,4381.2578125,True
1599569196.291958,0.0,10,0.5,0.5,-10.20176203842163,-0.1005,-0.02275,-0.12575,1.0423990753423347,10,1,100,0.32394058855589886,-10,-1,-100,6349.9749053946,-0.021303545446118698,0.06419929374684613,0.9977096820387337,258.42780335415915,28.396186033691258,1147.6251587207094,-51.03174264770199,-5.801055908203125,4381.2578125,True
1599569196.3543015,0.0,10,0.5,0.5,-8.847052061080934,-0.1005,-0.02275,-0.12575,1.086759938887695,10,1,100,0.3014128428109668,-10,-1,-100,6347.968751323875,-0.02197432619087976,0.06777200490165003,0.9974588133552521,251.28313713100522,27.677954167736086,1125.425174368078,-51.40611329437022,-16.790557861328125,4381.2578125,True
1599569196.417133,0.0,10,0.5,0.5,-7.466978440856934,-0.1005,-0.02275,-0.12575,1.130610766174444,10,1,100,0.27458337210832706,-10,-1,-100,6345.901584274485,-0.022325810049579634,0.07139487836926338,0.9971982398441487,268.5353038500053,29.687418309243192,1212.8312053256113,-51.77965164684659,-28.063232421875,4381.2578125,True
1599569196.4799654,0.0,10,0.5,0.5,-6.0621083557128905,-0.1005,-0.02275,-0.12575,1.1629471003698453,10,1,100,0.2298295335026913,-10,-1,-100,6343.773385312874,-0.02222668587581944,0.07495774012132535,0.9969389708657604,281.4947025759933,31.247032028377905,1281.8879020098273,-52.1522528481511,-39.6201171875,4381.2578125,True
1599569196.5427976,0.0,10,0.5,0.5,-3.2385724258422846,-0.1005,-0.02275,-0.12575,1.366189247017981,10,1,100,0.15849060951279553,-10,-1,-100,6340.608881120221,-0.021476325554669332,0.08001649600722723,0.9965621545129009,293.20674646602464,32.71164279863034,1351.5103984989883,-52.70991401368611,-57.489105224609375,4381.2578125,True
1599569196.6046324,0.0,10,0.5,0.5,-3.8621403282165527,-0.1005,-0.02275,-0.12575,1.0366274354617107,10,1,100,0.1898606834067526,-10,-1,-100,6339.575511447154,-0.021071229334282012,0.08158985002049743,0.9964432245080372,294.37293067089763,32.879912459861465,1362.3338983309059,-52.89564810705128,-63.587860107421875,4381.2578125,True
1599569196.6684997,0.0,10,0.5,0.5,-0.14595963897705078,-0.1005,-0.02275,-0.12575,1.3505198696472052,10,1,100,0.06255359700996233,-10,-1,-100,6336.4123263716465,-0.019538791099324892,0.08584393431604256,0.9961169884022257,287.8800353890823,32.22648018454279,1348.4342346972048,-53.453167759137024,-82.31167602539062,4381.2578125,True
1599569196.7312934,0.0,10,0.5,0.5,0.6719440418243409,-0.1005,-0.02275,-0.12575,1.1929102474123336,10,1,100,0.08443635305023434,-10,-1,-100,6334.219953738269,-0.018340961135190608,0.08824707338834699,0.9959297481163163,274.9704639722242,30.825253057741925,1298.441464833792,-53.82555435500577,-95.15050506591797,4381.2578125,True
1599569196.7911334,0.0,10,0.5,0.5,2.2810957349777223,-0.1005,-0.02275,-0.12575,1.179746465334647,10,1,100,0.07156176488038196,-10,-1,-100,6332.091469264822,-0.017134834621755798,0.09028257074574962,0.9957687758019047,255.354156838067,28.69938417985274,1215.6343107897214,-54.19871855447439,-108.23635864257812,4381.2578125,True
1599569196.8529706,0.0,10,0.5,0.5,3.8757725748062133,-0.1005,-0.02275,-0.12575,1.1651304051374571,10,1,100,0.0681341995010591,-10,-1,-100,6329.897973362589,-0.01600951088961601,0.09197171141214272,0.9956329142113558,266.3101183435493,30.05423897855257,1277.9898179700685,-54.57159366304031,-121.36735534667969,4381.2578125,True
1599569196.9148352,0.0,10,0.5,0.5,6.887428339195251,-0.1005,-0.02275,-0.12575,1.2127910747781592,10,1,100,0.031479357540427994,-10,-1,-100,6326.60931935499,-0.014657184040748231,0.09391213327899565,0.9954725903705154,288.3251716046054,32.75761823048665,1399.9432243932179,-55.12880041465217,-140.70706176757812,4381.2578125,True
1599569196.9756753,0.0,10,0.5,0.5,6.1884824506759655,-0.1005,-0.02275,-0.12575,1.0786175471348045,10,1,100,0.1307920338428373,-10,-1,-100,6325.512261201162,-0.014336680654895217,0.0944293821434386,0.995428325584423,292.9225021808401,33.34167790228759,1427.7414970200355,-55.314164550919884,-147.01031494140625,4381.2578125,True
1599569197.0354805,0.0,10,0.5,0.5,8.492314909934997,-0.1005,-0.02275,-0.12575,1.1280145417322938,10,1,100,0.11811328210927143,-10,-1,-100,6323.25757223845,-0.013936995875210955,0.09532443799178046,0.995348688484355,297.4835647796188,33.95687402677894,1461.1189794541615,-55.68467564067443,-159.386962890625,4381.2578125,True
1599569197.0943575,0.0,10,0.5,0.5,9.964968635368347,-0.1005,-0.02275,-0.12575,1.123050912036751,10,1,100,0.15184373188504985,-10,-1,-100,6321.002374782111,-0.013887912722709037,0.0960712470752022,0.9952775700103071,295.1747049254193,33.75828415350511,1460.9709794150376,-56.05530069271932,-171.4543914794922,4381.2578125,True
1599569197.1621447,0.0,10,0.5,0.5,-70.0426517370224,-0.1005,-0.02275,-0.12575,1.1249942702784623,10,1,100,0.19332505645951925,-10,-1,-100,6318.745708769886,-0.01422797532852348,0.0967486372196431,0.9952071472382985,286.6018831008693,32.83576379986145,1429.597182342081,-56.426397945453914,176.7889862060547,4381.2578125,True
1599569197.2763479,0.0,10,0.5,0.5,-24.19462781467438,-0.1005,-0.02275,-0.12575,1.1346846643486157,10,1,100,0.23977737877930635,-10,-1,-100,6316.490038324962,-0.014966006400558443,0.0974373298959431,0.9951291300103557,272.5795891750334,31.307522453888406,1370.3205261060677,-56.79814653177169,165.3441162109375,4381.2578125,True
1599569197.3506658,0.0,10,0.5,0.5,-22.334693544197084,-0.1005,-0.02275,-0.12575,1.1993796021017096,10,1,100,0.3694227099001117,-10,-1,-100,6313.075367905083,-0.016821087860719116,0.09863714314499356,0.9949812887664652,272.47875811646963,31.495288397089137,1385.8350495026584,-57.35614888796712,148.4603729248047,4381.2578125,True
1599569197.4174871,0.0,10,0.5,0.5,-24.98283067378998,-0.1005,-0.02275,-0.12575,1.080677598079559,10,1,100,0.18364279356018387,-10,-1,-100,6313.075367905083,-0.016821087860719116,0.09863714314499356,0.9949812887664652,272.47875811646963,31.495288397089137,1385.8350495026584,-57.35614888796712,148.4603729248047,4381.2578125,True
1599569197.9758315,0.0,10,0.5,0.5,-22.932802142715456,-0.1005,-0.02275,-0.12575,1.1931887258701819,10,1,100,0.37199042932763615,-10,-1,-100,6310.756854697363,-0.018534720797945475,0.09965052606149317,0.9948498564007586,288.98759111575635,33.579142347569864,1480.9870416614147,-57.72685734607444,136.9499053955078,4381.2578125,True
