Timestamp,Input Throttle,horizon,dT,dt,Input Roll,Roll P,Roll I,Roll D,Input Pitch,Pitch P,Pitch I,Pitch D,Input Yaw,Yaw P,Yaw I,Yaw D,Altitude,Direction X,Direction Y,Direction Z,Drag X,Drag Y,Drag Z,Vertical Velocity,Roll,Mass,Has Fuel
1599573709.3388205,0.0,10,0.5,0.5,-10.812262756347657,-0.2,-0.02275,-0.37525,-0.06720112346905528,10,1,100,0.6903462617118526,-10,-1,-100,6483.617967351689,-0.06725805069986411,-0.007002708934890323,0.9977110386698284,205.07328790725563,21.498784254684146,-156.7652835216324,9.590823610914683,-35.94464111328125,4381.2578125,True
1599573709.4076393,0.0,10,0.5,0.5,-10.93597879486084,-0.2,-0.02275,-0.37525,-0.06733376302929538,10,1,100,0.6999060356926294,-10,-1,-100,6483.997883095988,-0.06744532091462777,-0.006971858051134897,0.9976986127493802,204.61193114995498,21.456719040720643,-150.2665534974265,9.210801250119736,-35.9412841796875,4381.2578125,True
1599573709.4764555,0.0,10,0.5,0.5,-11.035038873291017,-0.2,-0.02275,-0.37525,-0.05201516874839707,10,1,100,0.7005385083046973,-10,-1,-100,6484.316760010319,-0.0675600023873275,-0.006798213792393493,0.9976920518710457,204.14939059207282,21.414347746462905,-143.78929216391236,8.830797580385624,-35.980682373046875,4381.2578125,True
1599573709.5422792,0.0,10,0.5,0.5,-11.014000096893312,-0.2,-0.02275,-0.37525,-0.0340415992992496,10,1,100,0.6995689882738219,-10,-1,-100,6484.6971405184595,-0.067594026269149,-0.006470779095097791,0.9976919247095408,203.7565878304558,21.378968006784863,-137.381499707188,8.45080525682995,-36.256591796875,4381.2578125,True
1599573709.6110957,0.0,10,0.5,0.5,-10.916872780609133,-0.2,-0.02275,-0.37525,-0.015264276597197535,10,1,100,0.6973495800208309,-10,-1,-100,6485.016949245008,-0.06754333151735122,-0.005996525728360227,0.9976983211606233,203.44705934021803,21.351720901461057,-131.0456525287845,8.070815902525883,-36.817962646484375,4381.2578125,True
1599573709.6796129,0.0,10,0.5,0.5,-10.757391021728516,-0.2,-0.02275,-0.37525,0.012295506548809516,10,1,100,0.689260728454238,-10,-1,-100,6485.335754500702,-0.06736230733645934,-0.00530939143388205,0.9977144530941258,203.19975626555112,21.33012181489023,-124.76137612992693,7.690821882085027,-37.671722412109375,4381.2578125,True
1599573709.7504237,0.0,10,0.5,0.5,-10.53675185623169,-0.2,-0.02275,-0.37525,0.042116605818057644,10,1,100,0.6784769991694487,-10,-1,-100,6485.590080418042,-0.06703846753548096,-0.004408796271514286,0.9977406508637056,202.97332204163692,21.3095973382399,-118.49897069745248,7.310815224146991,-38.81915283203125,4381.2578125,True
1599573709.8207462,0.0,10,0.5,0.5,-10.69034869155884,-0.2,-0.02275,-0.37525,0.009831215787076207,10,1,100,0.6936217177055024,-10,-1,-100,6485.750192629523,-0.06682080291443247,-0.0038795689457602283,0.99775745010632,202.8507438867463,21.297875435400396,-115.36562739674002,7.1208046337044575,-39.5030517578125,4381.2578125,True
1599573709.8890715,0.0,10,0.5,0.5,-10.148200020599367,-0.2,-0.02275,-0.37525,0.08871247474877679,10,1,100,0.6605995026859635,-10,-1,-100,6486.0054549721535,-0.06626197784701583,-0.002677823960017661,0.9977986668414829,202.54393103141462,21.266909566699518,-109.07298928368068,6.74076327655516,-41.091339111328125,4381.2578125,True
1599573709.9578872,0.0,10,0.5,0.5,-9.772629936218262,-0.2,-0.02275,-0.37525,0.12062691738430278,10,1,100,0.6427389594369397,-10,-1,-100,6486.261179493973,-0.06553134832178502,-0.0012927628363287112,0.9978496736239272,202.08624913329945,21.218590191070433,-102.71711051541375,6.360687213446275,-42.973724365234375,4381.2578125,True
1599573710.0292087,0.0,10,0.5,0.5,-9.334080731964113,-0.2,-0.02275,-0.37525,0.15597161035984766,10,1,100,0.623068561143342,-10,-1,-100,6486.517856529681,-0.0646287439067954,0.00028887426938104113,0.9979093355674584,201.37988746579214,21.14257899278687,-96.26494581545187,5.980564460990406,-45.149993896484375,4381.2578125,True
1599573710.099597,0.0,10,0.5,0.5,-7.934255558776856,-0.2,-0.02275,-0.37525,0.28688068504329545,10,1,100,0.5222835181268788,-10,-1,-100,6486.868648495991,-0.06289435705373979,0.0029101799687810035,0.9980159471187553,199.599814891161,20.950042627249292,-86.34550258910991,5.410256741592748,-48.966644287109375,4381.2578125,True
1599573710.1684127,0.0,10,0.5,0.5,-8.52030930404663,-0.2,-0.02275,-0.37525,0.12949768975242854,10,1,100,0.6205424485766915,-10,-1,-100,6486.965224043233,-0.06221504197674288,0.0038534469764822557,0.998055328876226,198.7500314888639,20.858229464214517,-82.96531337360773,5.220111774475035,-50.38604736328125,4381.2578125,True
1599573710.237229,0.0,10,0.5,0.5,-7.2599396179199225,-0.2,-0.02275,-0.37525,0.25140739616489544,10,1,100,0.5202987052760553,-10,-1,-100,6487.1578711327165,-0.0606910351134768,0.005809549168352297,0.9981396933271993,196.55886002610265,20.62204984535902,-76.08794032833362,4.839742630463322,-53.44598388671875,4381.2578125,True
1599573710.3080394,0.0,10,0.5,0.5,-5.410227542114258,-0.2,-0.02275,-0.37525,0.38997188453600495,10,1,100,0.37505861041627553,-10,-1,-100,6487.44754099194,-0.05799148527646934,0.008836337120459285,0.9982779706984035,191.75054978815322,20.106524360092944,-65.49126652515204,4.268937721169978,-58.589569091796875,4381.2578125,True
1599573710.3768556,0.0,10,0.5,0.5,-5.106008042907715,-0.2,-0.02275,-0.37525,0.31743856948577687,10,1,100,0.4148141087734711,-10,-1,-100,6487.578626497998,-0.05590744617901969,0.010915084337510091,0.9983762909823354,187.29282581675128,19.631325413366657,-58.273546555462545,3.888185273163538,-62.387603759765625,4381.2578125,True
1599573710.4446745,0.0,10,0.5,0.5,-4.119676019287109,-0.2,-0.02275,-0.37525,0.3336694918784058,10,1,100,0.370162065541022,-10,-1,-100,6487.770738233929,-0.05361735102573177,0.012937658851333458,0.9984777396879861,181.66157967841454,19.03376891439561,-50.9917870627597,3.5072240146640805,-66.48202514648438,4381.2578125,True
1599573710.5130763,0.0,10,0.5,0.5,-3.067537799835205,-0.2,-0.02275,-0.37525,0.35181252860257095,10,1,100,0.3233279525888856,-10,-1,-100,6487.839797598543,-0.0511218826927322,0.014925530147644523,0.9985808838846068,174.75460955254772,18.30414401413347,-43.72760582432762,3.126002481583377,-70.87252807617188,4381.2578125,True
1599573710.5836794,0.0,10,0.5,0.5,-1.9475225296020513,-0.2,-0.02275,-0.37525,0.36535798107376594,10,1,100,0.27519298273707216,-10,-1,-100,6487.969402686227,-0.048429956227917646,0.016838730803944168,0.9986846331473586,166.39602669384124,17.42467174094807,-36.55910048582367,2.744460297593822,-75.55950927734375,4381.2578125,True
1599573710.6534927,0.0,10,0.5,0.5,-0.7607758613586426,-0.2,-0.02275,-0.37525,0.37309035899797893,10,1,100,0.22810317228706078,-10,-1,-100,6488.100475463434,-0.04557087209364895,0.018630556150105816,0.9987873637537482,156.6121358465342,16.397699670597024,-29.62569071992629,2.362628115737724,-80.54364013671875,4381.2578125,True
1599573710.7223084,0.0,10,0.5,0.5,-1.0479270446777345,-0.2,-0.02275,-0.37525,0.289249690692138,10,1,100,0.34819189101750764,-10,-1,-100,6488.133543369011,-0.04408156621116159,0.019479188281121093,0.9988380132655542,151.15985738192845,15.826094051381345,-26.28420284224382,2.1716332346419995,-83.14715576171875,4381.2578125,True
1599573710.7901275,0.0,10,0.5,0.5,2.805200466156006,-0.2,-0.02275,-0.37525,0.4611277287014133,10,1,100,-0.015984957797739507,-10,-1,-100,6488.234712715028,-0.03943563239939414,0.021795753914844992,0.998984372254413,152.04921346717612,15.91879886926691,-19.464387191730033,1.598505906922469,-91.39340209960938,4381.2578125,True
1599573710.85997,0.0,10,0.5,0.5,3.1550615634918215,-0.2,-0.02275,-0.37525,0.3805526573683748,10,1,100,0.08764634718564435,-10,-1,-100,6488.301360716578,-0.03617548509277663,0.02315205332070631,0.9990772326028341,160.21879879237846,16.773179374785578,-15.609727024374637,1.2164375472212083,-97.2130355834961,4381.2578125,True
1599573710.9297535,0.0,10,0.5,0.5,4.5392556489944464,-0.2,-0.02275,-0.37525,0.37517989944578667,10,1,100,0.04965599273828114,-10,-1,-100,6488.306987536722,-0.03289002027986101,0.02431866533915287,0.9991630743187583,168.69492686600606,17.65842191333818,-11.27601742214685,0.8344674274360435,-103.23038482666016,4381.2578125,True
1599573711.000565,0.0,10,0.5,0.5,4.0918855949401856,-0.2,-0.02275,-0.37525,0.31701350802378764,10,1,100,0.19619513814650436,-10,-1,-100,6488.341059505125,-0.03126068178531576,0.02483360987374902,0.9992027129641691,172.37560005690784,18.042767592102287,-8.885981411480618,0.6435142472890552,-106.18106842041016,4381.2578125,True
1599573711.0693812,0.0,10,0.5,0.5,7.951767296028137,-0.2,-0.02275,-0.37525,0.4115753394807705,10,1,100,-0.19342335755359635,-10,-1,-100,6488.318304016371,-0.026261779377992945,0.026146851306851467,0.99931309463583,182.03154130727498,19.05217044331441,-1.0302960782126749,0.07064138147502419,-114.62757873535156,4381.2578125,True
1599573711.1382172,0.0,10,0.5,0.5,6.4375647905349735,-0.2,-0.02275,-0.37525,0.32016777507036653,10,1,100,0.12259095589799263,-10,-1,-100,6488.350443323259,-0.024617130645260308,0.0264958822359688,0.999345768542266,184.38680565098187,19.29831811529881,1.7782803878872417,-0.12036079150212897,-117.29859924316406,4381.2578125,True
1599573711.2080672,0.0,10,0.5,0.5,9.90645358066559,-0.2,-0.02275,-0.37525,0.3760471173927639,10,1,100,-0.25382765304288557,-10,-1,-100,6488.327748957789,-0.01972637191638672,0.027308851444111226,0.9994323873498496,189.39489008031865,19.82151693652335,10.527735622860156,-0.6935720433960957,-124.87023162841797,4381.2578125,True
1599573711.2788787,0.0,10,0.5,0.5,9.87966926689148,-0.2,-0.02275,-0.37525,0.3364476603247083,10,1,100,-0.11713668168213642,-10,-1,-100,6488.268541062134,-0.0165514141850324,0.02767666173153432,0.9994798912853994,191.35173793341568,20.025679735967834,16.501682995372477,-1.0758676255629567,-129.54928588867188,4381.2578125,True
1599573711.348692,0.0,10,0.5,0.5,9.528950505065918,-0.2,-0.02275,-0.37525,0.31380691601433564,10,1,100,0.022764355714677748,-10,-1,-100,6488.240164983901,-0.01496589708017486,0.02779535710734503,0.9995015958205673,191.87059313327933,20.079635951819885,19.488302483858597,-1.2670597519046982,-131.77835083007812,4381.2578125,True
1599573712.014838,0.0,10,0.5,0.5,12.3998536567688,-0.2,-0.02275,-0.37525,0.3384262053713204,10,1,100,-0.30752733051222036,-10,-1,-100,6488.15360792412,-0.010549688905526636,0.02811874207863895,0.9995489184666809,191.77402733601815,20.06812086567104,28.30477664905896,-1.8407921989121936,-138.0205078125,4381.2578125,True
1599573712.0778258,0.0,10,0.5,0.5,12.363927959442139,-0.2,-0.02275,-0.37525,0.3142190575031978,10,1,100,-0.18343553666055956,-10,-1,-100,6488.033428409719,-0.007693544942957563,0.02818480929574366,0.9995731218331019,190.6511230254131,19.949252151230827,33.99264565707996,-2.223383141021458,-141.81295776367188,4381.2578125,True
1599573712.1416562,0.0,10,0.5,0.5,13.066485536956788,-0.2,-0.02275,-0.37525,0.31317600182101624,10,1,100,-0.19665225755157859,-10,-1,-100,6487.974790497217,-0.005005754866573175,0.028229579845654565,0.9995889321315805,188.91300991646062,19.765535372301088,39.48565101358211,-2.6060267929738994,-145.30877685546875,4381.2578125,True
1599573712.2057943,0.0,10,0.5,0.5,12.80551436367035,-0.2,-0.02275,-0.37525,0.31207429184737556,10,1,100,-0.0717997272647115,-10,-1,-100,6487.882979261922,-0.0037256684635827075,0.028255648867154155,0.9995937863460314,187.85697432872556,19.65387971232673,42.15105341252245,-2.797361193206234,-146.9453125,4381.2578125,True
1599573712.2726161,0.0,10,0.5,0.5,14.859950622558593,-0.2,-0.02275,-0.37525,0.3062775135604082,10,1,100,-0.3533360170807265,-10,-1,-100,6487.732568689506,-2.904578236967214e-05,0.028223070917246806,0.9996016493705592,184.2453645359305,19.271414264368875,49.83584750398531,-3.3713929297104728,-151.41136169433594,4381.2578125,True
1599573712.339945,0.0,10,0.5,0.5,14.057937914848328,-0.2,-0.02275,-0.37525,0.30888558446190956,10,1,100,-0.11377506399081674,-10,-1,-100,6487.640773227788,0.0011253010488221384,0.028214083006396048,0.9996012701160687,183.00707836219058,19.13993812061929,52.31464119020403,-3.562743630153613,-152.75160217285156,4381.2578125,True
1599573712.4057686,0.0,10,0.5,0.5,15.698814813041688,-0.2,-0.02275,-0.37525,0.30490587317488427,10,1,100,-0.35994280898785463,-10,-1,-100,6487.426926007029,0.004387698504036116,0.02816785368328645,0.9995935774707213,179.22186292949172,18.737132585162797,59.502346645832446,-4.136815528782096,-156.3275604248047,4381.2578125,True
1599573712.4726267,0.0,10,0.5,0.5,15.045739027214049,-0.2,-0.02275,-0.37525,0.3118734345565184,10,1,100,-0.1471838461677025,-10,-1,-100,6487.336607534555,0.005392973956638987,0.02818764851897684,0.9995881013211759,177.97387716079436,18.603999467755184,61.82651691938239,-4.328182734744806,-157.37060546875,4381.2578125,True
1599573712.5414062,0.0,10,0.5,0.5,16.27301267814636,-0.2,-0.02275,-0.37525,0.30876926172767105,10,1,100,-0.36192060302779405,-10,-1,-100,6487.058827270404,0.00823617729784877,0.028176625164728703,0.9995690287208008,174.57594662092308,18.239879823537198,68.70860787452538,-4.902340098219382,-160.05593872070312,4381.2578125,True
1599573712.6117184,0.0,10,0.5,0.5,16.15069386253357,-0.2,-0.02275,-0.37525,0.3158060893815763,10,1,100,-0.26804887238487585,-10,-1,-100,6486.813267811784,0.009944994064483062,0.028230120581872086,0.9995519783307871,172.621052234117,18.028934607210072,73.25764533441925,-5.285178514167703,-161.474365234375,4381.2578125,True
1599573712.6805334,0.0,10,0.5,0.5,16.33082670478821,-0.2,-0.02275,-0.37525,0.3222088247993805,10,1,100,-0.27137945218858445,-10,-1,-100,6486.628261353471,0.011506095585870988,0.028336564225369267,0.9995322150347484,171.02217750081041,17.85482143719266,77.85153092069142,-5.66808356215426,-162.5953369140625,4381.2578125,True
1599573712.7493494,0.0,10,0.5,0.5,16.224151799392704,-0.2,-0.02275,-0.37525,0.32184346971140687,10,1,100,-0.19673042180306038,-10,-1,-100,6486.47301688767,0.012226600524999432,0.028429811743979006,0.9995210133077763,170.36684220036256,17.782712345252286,80.1806171117494,-5.85956259791184,-163.0439453125,4381.2578125,True
1599573712.8191648,0.0,10,0.5,0.5,16.49238116722107,-0.2,-0.02275,-0.37525,0.3321487394133813,10,1,100,-0.27455760892900516,-10,-1,-100,6486.226983649889,0.013571015674926645,0.02860804375596196,0.9994985779709784,169.39525540125746,17.67370691338731,84.95094423533163,-6.242577028690654,-163.71890258789062,4381.2578125,True
1599573712.8889766,0.0,10,0.5,0.5,16.542392739486697,-0.2,-0.02275,-0.37525,0.3571324954412701,10,1,100,-0.3327238200019764,-10,-1,-100,6485.8252257587155,0.015305107029577032,0.028996853854463354,0.9994623235346873,168.8272338397555,17.602461797420766,92.48849158227104,-6.817242135478407,-164.17332458496094,4381.2578125,True
1599573712.9587898,0.0,10,0.5,0.5,16.412723582458497,-0.2,-0.02275,-0.37525,0.3348141971750268,10,1,100,-0.21699202341189264,-10,-1,-100,6485.7324857123895,0.015812145768901022,0.029146750137055765,0.9994500702899725,168.8896194362733,17.60477842521824,95.13315804901139,-7.0088344546174834,-164.17620849609375,4381.2578125,True
1599573713.0271168,0.0,10,0.5,0.5,16.188570665359496,-0.2,-0.02275,-0.37525,0.38417756483393745,10,1,100,-0.3076133577944518,-10,-1,-100,6485.267253192724,0.01708251930671767,0.02973093766429368,0.9994119565423147,169.83852632738837,17.690309611192937,103.54963680404246,-7.583713845406694,-163.73794555664062,4381.2578125,True
1599573713.0969293,0.0,10,0.5,0.5,16.208421621704105,-0.2,-0.02275,-0.37525,0.3507949999706914,10,1,100,-0.21990290573215568,-10,-1,-100,6485.112502379459,0.017425530033022933,0.029957160413336917,0.9993992792888324,170.40733453888726,17.74478344058488,106.53478284837944,-7.775370630022375,-163.443115234375,4381.2578125,True
1599573713.1647506,0.0,10,0.5,0.5,15.57027514305115,-0.2,-0.02275,-0.37525,0.40765644097264286,10,1,100,-0.2756651713929036,-10,-1,-100,6484.584767903201,0.01823243507973544,0.030678113006366643,0.9993630129704781,172.84611126654224,17.98311975477546,116.09465139230988,-8.350410700846433,-162.11331176757812,4381.2578125,True
1599573713.2335644,0.0,10,0.5,0.5,15.356323802566529,-0.2,-0.02275,-0.37525,0.39658164489946063,10,1,100,-0.23230271671809027,-10,-1,-100,6484.274771552766,0.018560108751409326,0.03123058043164893,0.9993398687178643,175.0299313912898,18.198768958505514,122.99175820113355,-8.73381042481034,-160.85516357421875,4381.2578125,True
1599573713.3013835,0.0,10,0.5,0.5,15.404354548263552,-0.2,-0.02275,-0.37525,0.373113844480114,10,1,100,-0.2123751227075431,-10,-1,-100,6484.119039561483,0.018667448569695558,0.03151670358239611,0.9993288866830565,176.27574429451633,18.322162904803985,126.60341368503542,-8.925516071835442,-160.11477661132812,4381.2578125,True
1599573713.372195,0.0,10,0.5,0.5,14.14509754371643,-0.2,-0.02275,-0.37525,0.4473228666290809,10,1,100,-0.20492298505006817,-10,-1,-100,6483.528788764845,0.01868935401261035,0.03244845520897459,0.9992986569595411,180.51720565369465,18.742934706520305,138.06295514205826,-9.500628098155648,-157.4481201171875,4381.2578125,True
1599573713.4420424,0.0,10,0.5,0.5,14.53745330696106,-0.2,-0.02275,-0.37525,0.3897149339661033,10,1,100,-0.19514977923849514,-10,-1,-100,6483.309575171443,0.01861389049113064,0.03276805558076104,0.9992896364989683,182.06967105841747,18.89702208754187,142.0811698890977,-9.692322313204192,-156.4110107421875,4381.2578125,True
1599573713.5118544,0.0,10,0.5,0.5,12.866107811355592,-0.2,-0.02275,-0.37525,0.46516122578359265,10,1,100,-0.1488954693081696,-10,-1,-100,6482.718329999829,0.01811898693590419,0.033740532895419735,0.9992663702698844,186.9806631380931,19.38422695020025,154.6420883845494,-10.26734284175169,-152.85528564453125,4381.2578125,True
1599573713.5811937,0.0,10,0.5,0.5,12.59928888053894,-0.2,-0.02275,-0.37525,0.43922439998246365,10,1,100,-0.13780199006324342,-10,-1,-100,6482.28232703649,0.017564090282325383,0.034384147956790595,0.9992543385454175,190.32510558561333,19.715627781683853,163.33687211553956,-10.650616464624747,-150.11492919921875,4381.2578125,True
1599573713.652004,0.0,10,0.5,0.5,11.849317604827881,-0.2,-0.02275,-0.37525,0.4428205236077627,10,1,100,-0.11270905242925186,-10,-1,-100,6481.846804675413,0.01682946754307859,0.03499704705090107,0.9992457033782701,193.5841079010529,20.038263966488035,172.16837802676613,-11.033810232100219,-147.07919311523438,4381.2578125,True
1599573713.724809,0.0,10,0.5,0.5,11.033612091827393,-0.2,-0.02275,-0.37525,0.44427942384365227,10,1,100,-0.08582544664676686,-10,-1,-100,6481.409807513817,0.015916307435036935,0.03556217232322428,0.9992407132704745,196.6109803013172,20.337862795762593,180.99359190272438,-11.416908643817305,-143.74851989746094,4381.2578125,True
1599573713.792628,0.0,10,0.5,0.5,10.152488138198853,-0.2,-0.02275,-0.37525,0.4439666238043245,10,1,100,-0.05819967458816935,-10,-1,-100,6480.974265102181,0.014836078692531526,0.036067777811652456,0.9992392136884732,199.24684437848717,20.599109629998058,189.63968878894292,-11.79990293018045,-140.1231689453125,4381.2578125,True
1599573713.863439,0.0,10,0.5,0.5,10.35364006767273,-0.2,-0.02275,-0.37525,0.41857278211690374,10,1,100,-0.09970531145517764,-10,-1,-100,6480.693014185526,0.014233730581172586,0.03629101095179396,0.9992398928374705,200.36438871820678,20.710171027284833,193.83219817558992,-11.991360513393413,-138.20016479492188,4381.2578125,True
1599573713.934531,0.0,10,0.5,0.5,8.681653548049928,-0.2,-0.02275,-0.37525,0.437776082404157,10,1,100,-0.014553030658018162,-10,-1,-100,6480.193491817336,0.012915664931325338,0.036663422992765426,0.99924420389304,202.08583485491803,20.882304935875283,201.81234068407588,-12.3741989716715,-134.13377380371094,4381.2578125,True
1599573714.0025992,0.0,10,0.5,0.5,6.321243730163574,-0.2,-0.02275,-0.37525,0.44087281873498796,10,1,100,0.10097772065567107,-10,-1,-100,6479.475195146631,0.010672275186630742,0.03702519259432784,0.9992573430581803,203.018165864937,20.979877844712227,212.26855565071656,-12.948289345851975,-127.48356628417969,4381.2578125,True
1599573714.0704186,0.0,10,0.5,0.5,5.981278787612916,-0.2,-0.02275,-0.37525,0.41459578548201326,10,1,100,0.05898602354793299,-10,-1,-100,6478.913149003056,0.009021841004599697,0.03711018421252851,0.9992704541877538,202.5173791912378,20.93654081171935,218.08668753251587,-13.330942572874896,-122.68353271484375,4381.2578125,True
1599573714.1417394,0.0,10,0.5,0.5,6.259619773101806,-0.2,-0.02275,-0.37525,0.4051784807490568,10,1,100,-0.010238876596561405,-10,-1,-100,6478.632855536183,0.008159552215892341,0.0370975995233172,0.9992783345080809,202.00101771768416,20.8897007647273,220.69603339423927,-13.522259691119228,-120.17369842529297,4381.2578125,True
1599573714.21059,0.0,10,0.5,0.5,2.5351165979385377,-0.2,-0.02275,-0.37525,0.37598358459052683,10,1,100,0.19771734804851782,-10,-1,-100,6477.789517670637,0.0054946461278169685,0.03681681480082704,0.9993069253296766,198.2452340677574,20.52886708242801,225.9248969798438,-14.096250908938828,-112.2052001953125,4381.2578125,True
1599573714.2803695,0.0,10,0.5,0.5,2.1663312551498417,-0.2,-0.02275,-0.37525,0.3627836600542157,10,1,100,0.13780972712918757,-10,-1,-100,6477.225980698713,0.0036280956386588025,0.03643876002831915,0.999329301926865,193.66462655149937,20.07736586552404,226.79476452013876,-14.479018030441821,-106.52682495117188,4381.2578125,True
1599573714.3491848,0.0,10,0.5,0.5,0.7631736585617066,-0.2,-0.02275,-0.37525,0.3400653607614421,10,1,100,0.15672684323962496,-10,-1,-100,6476.66341382754,0.0017719268608234631,0.0358866760487672,0.9993542949111546,188.13192001234142,19.52725381443212,226.24275612724924,-14.861925939098606,-100.55584716796875,4381.2578125,True
1599573714.418998,0.0,10,0.5,0.5,1.1173762327194212,-0.2,-0.02275,-0.37525,0.35827493611414296,10,1,100,0.07301804396304729,-10,-1,-100,6476.319140179548,0.0008591784568350017,0.03554951436238282,0.9993675469220412,184.71867006980472,19.184018254050233,225.0522658674413,-15.053444832275055,-97.46055603027344,4381.2578125,True
1599573714.4888115,0.0,10,0.5,0.5,-1.5139510446548456,-0.2,-0.02275,-0.37525,0.30543393012472375,10,1,100,0.1861375184361561,-10,-1,-100,6475.757054066751,-0.0009852633792934962,0.03476264246391216,0.9993951110271652,176.2174080763026,18.31879679835707,220.26324874352656,-15.436630142244596,-91.05024719238281,4381.2578125,True
1599573714.5576274,0.0,10,0.5,0.5,-3.055495136070251,-0.2,-0.02275,-0.37525,0.28073515694636675,10,1,100,0.19890984494897518,-10,-1,-100,6475.13148760621,-0.0027637577058251903,0.033823956559451716,0.9994239849063097,166.47266847337346,17.314425950657405,213.35262450578634,-15.819997084180613,-84.3829345703125,4381.2578125,True
1599573714.627441,0.0,10,0.5,0.5,-4.663025217247009,-0.2,-0.02275,-0.37525,0.2532090901621403,10,1,100,0.2147776600178733,-10,-1,-100,6474.443907360081,-0.004509371332128534,0.032722611543169564,0.9994542992373308,174.03274468552723,18.09784829087375,228.55699660137094,-16.203328928630064,-77.4520263671875,4381.2578125,True
1599573714.6952596,0.0,10,0.5,0.5,-6.170257976722716,-0.2,-0.02275,-0.37525,0.23073921850694415,10,1,100,0.22020516987843441,-10,-1,-100,6473.818826045725,-0.006129792867260807,0.031520699796456365,0.9994843025899637,186.5394309562169,19.385541710800595,250.89596663051282,-16.586369489708495,-70.53485107421875,4381.2578125,True
1599573714.7650723,0.0,10,0.5,0.5,-9.390919468498229,-0.2,-0.02275,-0.37525,0.13102181945153213,10,1,100,0.3083909229038932,-10,-1,-100,6472.786479658447,-0.008389317410290779,0.029526535028756868,0.9995287905221065,201.32744623454468,20.89419376107938,280.35928499761985,-17.160281029979416,-60.64910888671875,4381.2578125,True
1599573715.4333408,0.0,10,0.5,0.5,-9.401777816581726,-0.2,-0.02275,-0.37525,0.1739217039288718,10,1,100,0.23368448582707074,-10,-1,-100,6472.098414737848,-0.009748452877424285,0.02811055114353657,0.9995572842918526,208.58752220952306,21.630609795535815,297.0810050775697,-17.542470690137247,-54.426849365234375,4381.2578125,True
1599573715.4961736,0.0,10,0.5,0.5,-10.624359359741211,-0.2,-0.02275,-0.37525,0.15745568687171896,10,1,100,0.23519676546310178,-10,-1,-100,6471.348830809351,-0.010981498566879286,0.026681772045889254,0.9995836581946089,213.58270145177724,22.137245412325115,310.96659048437004,-17.9243872184921,-48.50262451171875,4381.2578125,True
1599573715.561,0.0,10,0.5,0.5,-10.185876461791992,-0.2,-0.02275,-0.37525,0.2212999678177792,10,1,100,0.17632359804756978,-10,-1,-100,6471.004559099674,-0.011552260267429271,0.02597249818640582,0.9995959056642193,215.29748715953147,22.31226172131008,316.87735297859047,-18.115266988164226,-45.65228271484375,4381.2578125,True
1599573715.627729,0.0,10,0.5,0.5,-12.405062532806397,-0.2,-0.02275,-0.37525,0.1313693636536696,10,1,100,0.23727478931195672,-10,-1,-100,6470.254496316193,-0.012611435955872696,0.024519667605239808,0.9996197965144844,217.93753059482702,22.587244776735325,327.6798605785129,-18.496916650488387,-40.1759033203125,4381.2578125,True
1599573715.696612,0.0,10,0.5,0.5,-14.891550463104249,-0.2,-0.02275,-0.37525,0.041340098913850765,10,1,100,0.2838144930354718,-10,-1,-100,6469.158709080541,-0.013984335376656222,0.022390798314221014,0.9996514845259448,219.1000010263846,22.727148911554163,339.8771450386373,-19.069258534521296,-32.519866943359375,4381.2578125,True
1599573715.7646437,0.0,10,0.5,0.5,-14.888355014419558,-0.2,-0.02275,-0.37525,0.10134668926574308,10,1,100,0.23469285791931602,-10,-1,-100,6468.345670714276,-0.014772371336463929,0.021012939521992187,0.9996700622794217,218.2305888624936,22.659840281990594,345.4841587409687,-19.45082998619283,-27.78802490234375,4381.2578125,True
1599573715.8317637,0.0,10,0.5,0.5,-14.553528408813477,-0.2,-0.02275,-0.37525,0.1643800762813739,10,1,100,0.19719898388477408,-10,-1,-100,6468.001409707591,-0.015135380528741308,0.02034587114096437,0.9996784311886325,217.3956246604676,22.58685759041946,347.6328441680586,-19.6416381224728,-25.5335693359375,4381.2578125,True
1599573715.900588,0.0,10,0.5,0.5,-17.475781610107422,-0.2,-0.02275,-0.37525,0.02095498362359638,10,1,100,0.2715011501090894,-10,-1,-100,6466.782113070483,-0.01612961619392096,0.01844783366624882,0.9996997113705991,213.63288854785537,22.242721968989393,351.87287143873294,-20.21419597479138,-19.2156982421875,4381.2578125,True
1599573715.9676077,0.0,10,0.5,0.5,-17.44676201629639,-0.2,-0.02275,-0.37525,0.07716993985353819,10,1,100,0.23494982415920596,-10,-1,-100,6465.969581476995,-0.01669061815830189,0.017246367180304083,0.9997119515563351,210.34668915841394,21.93406321920637,353.2148321348033,-20.596032731717294,-15.375152587890625,4381.2578125,True
1599573716.0389242,0.0,10,0.5,0.5,-18.16988055648804,-0.2,-0.02275,-0.37525,0.0740669688131183,10,1,100,0.2376395539374925,-10,-1,-100,6465.092601162032,-0.017215471282731667,0.016138892758728825,0.9997215430753885,207.0033581126042,21.61831646291196,354.2653156831814,-20.9779773214868,-11.830963134765625,4381.2578125,True
1599573716.1077757,0.0,10,0.5,0.5,-18.81924815826416,-0.2,-0.02275,-0.37525,0.07024879396636619,10,1,100,0.23943536537838062,-10,-1,-100,6464.278615343268,-0.017700912269064593,0.015109557733480869,0.9997291528058694,203.71374677225322,21.305419606318548,355.21078889057577,-21.360015468584784,-8.583221435546875,4381.2578125,True
1599573716.1791956,0.0,10,0.5,0.5,-18.57500531768799,-0.2,-0.02275,-0.37525,0.11813060250018034,10,1,100,0.21621438927855097,-10,-1,-100,6463.812298776,-0.0179238929653764,0.014620906873026543,0.9997324457789574,202.01326740312564,21.14172251033126,355.5118503535849,-21.551065612672424,-7.070526123046875,4381.2578125,True
1599573716.2480116,0.0,10,0.5,0.5,-20.45662433395386,-0.2,-0.02275,-0.37525,0.01960770011357027,10,1,100,0.2650159808087177,-10,-1,-100,6462.527124229353,-0.018563942253753653,0.013291980491983303,0.9997393176736624,197.5498965712372,20.710561993325257,357.26068268425405,-22.124305867154654,-2.976654052734375,4381.2578125,True
1599573716.3178558,0.0,10,0.5,0.5,-19.717290299987795,-0.2,-0.02275,-0.37525,0.10719681862276573,10,1,100,0.22400280883356116,-10,-1,-100,6462.058370740269,-0.018766583968880347,0.012891658057204337,0.9997407766409625,196.20819254455907,20.57972075959431,358.0204911185927,-22.315404709496303,-1.7601318359375,4381.2578125,True
1599573716.3866413,0.0,10,0.5,0.5,-21.192118072509764,-0.2,-0.02275,-0.37525,0.027502802929106396,10,1,100,0.26715977832164933,-10,-1,-100,6460.713148302864,-0.019337544207057227,0.011813808437052042,0.9997432136875212,192.45131357414414,20.207972600028096,360.5590416045736,-22.888722609649296,1.4453125,4381.2578125,True
1599573716.458449,0.0,10,0.5,0.5,-21.082994080352783,-0.2,-0.02275,-0.37525,0.06714323343062731,10,1,100,0.2508134389057451,-10,-1,-100,6459.775161216385,-0.019703129329954897,0.01120392814136121,0.9997430963446612,190.27827566412728,19.989107833706704,362.6933742703556,-23.270927835396396,3.2122802734375,4381.2578125,True
1599573716.5271535,0.0,10,0.5,0.5,-21.696088561248782,-0.2,-0.02275,-0.37525,0.0455415393104798,10,1,100,0.2752323177257593,-10,-1,-100,6458.366476746043,-0.020252986741867915,0.010462029754532412,0.9997401474690556,187.70727996384483,19.725523840803252,366.9940564473093,-23.844183304763792,5.30810546875,4381.2578125,True
1599573716.595969,0.0,10,0.5,0.5,-21.57087979049683,-0.2,-0.02275,-0.37525,0.07643926125962577,10,1,100,0.2597872582537504,-10,-1,-100,6457.365510098054,-0.020607795115485918,0.010077450367304315,0.9997368472626047,190.37806078348834,20.006467609186906,378.4494826791316,-24.22624662980413,6.33563232421875,4381.2578125,True
1599573716.6647851,0.0,10,0.5,0.5,-21.243429615020755,-0.2,-0.02275,-0.37525,0.11406016165254095,10,1,100,0.2247542387841066,-10,-1,-100,6457.365510098054,-0.020607795115485918,0.010077450367304315,0.9997368472626047,190.37806078348834,20.006467609186906,378.4494826791316,-24.22624662980413,6.33563232421875,4381.2578125,True
1599573716.7345989,0.0,10,0.5,0.5,-21.71397178192139,-0.2,-0.02275,-0.37525,0.0824342145419722,10,1,100,0.26632000017050916,-10,-1,-100,6456.426558047184,-0.020982104603583046,0.009796458954310963,0.9997318543881458,192.91352249408783,20.270802955510725,389.8162232882846,-24.60818653100542,7.0677490234375,4381.2578125,True
1599573716.8064072,0.0,10,0.5,0.5,-21.73338477859497,-0.2,-0.02275,-0.37525,0.08883793612876947,10,1,100,0.2694317316084592,-10,-1,-100,6455.425109288539,-0.02134725021190648,0.00960499371492827,0.9997259819591199,194.8836214826539,20.474061812835803,400.19845433747645,-24.990011309662886,7.50433349609375,4381.2578125,True
1599573716.8772178,0.0,10,0.5,0.5,-21.687331057739257,-0.2,-0.02275,-0.37525,0.0955976401373305,10,1,100,0.27216072465568586,-10,-1,-100,6454.422686195583,-0.021700694939954534,0.009497390410129607,0.9997194003391755,196.3084224366406,20.619086849489417,409.5829909410517,-25.371731255686793,7.64544677734375,4381.2578125,True
1599573716.9460335,0.0,10,0.5,0.5,-21.57932607803345,-0.2,-0.02275,-0.37525,0.10619417627265648,10,1,100,0.277667697544279,-10,-1,-100,6453.359230559901,-0.022068638262644904,0.009500559112872783,0.9997113156215525,197.19511361154593,20.70738175664015,417.9319190714014,-25.753357621669764,7.491546630859375,4381.2578125,True
1599573717.0165124,0.0,10,0.5,0.5,-21.20981045455933,-0.2,-0.02275,-0.37525,0.12527080740869043,10,1,100,0.2995842175509259,-10,-1,-100,6451.826551286969,-0.02259918719605213,0.009680310417856988,0.9996977384831336,197.5198962100353,20.73553947613919,428.4066223082095,-26.325648841013418,6.7073974609375,4381.2578125,True
1599573717.0853271,0.0,10,0.5,0.5,-21.01060781326294,-0.2,-0.02275,-0.37525,0.13408649162421268,10,1,100,0.2847615731222113,-10,-1,-100,6450.761637666263,-0.022943268910500227,0.009926782685837693,0.999687483865437,197.05128319429375,20.684405094720248,433.91431590987446,-26.707095615345587,5.81610107421875,4381.2578125,True
1599573717.1531827,0.0,10,0.5,0.5,-20.672796268463138,-0.2,-0.02275,-0.37525,0.14824598205210854,10,1,100,0.28699558107138895,-10,-1,-100,6449.634714667569,-0.023273101700715164,0.010281286502211218,0.9996762765441058,196.0087886238523,20.57564713918195,438.1208816938043,-27.088491302242332,4.630157470703125,4381.2578125,True
1599573717.2215455,0.0,10,0.5,0.5,-20.26942518310547,-0.2,-0.02275,-0.37525,0.16332007558924344,10,1,100,0.28845273906500873,-10,-1,-100,6448.570293756784,-0.023582951153242777,0.010741438678014876,0.9996641765663259,196.69221697501345,20.65161953112736,446.1861016473661,-27.4698210937767,3.14971923828125,4381.2578125,True
1599573717.2913592,0.0,10,0.5,0.5,-19.79910694885254,-0.2,-0.02275,-0.37525,0.17963967424688498,10,1,100,0.2889442058483271,-10,-1,-100,6447.444352832972,-0.023866073113196797,0.011307864817520868,0.9996512105466707,200.14414198153904,21.022762672349376,460.6817021391543,-27.85100473644714,1.37493896484375,4381.2578125,True
1599573717.3631668,0.0,10,0.5,0.5,-19.879839201354983,-0.2,-0.02275,-0.37525,0.15874478131271383,10,1,100,0.2751440153260815,-10,-1,-100,6446.912633292726,-0.023995038364773028,0.01163172554089729,0.9996444073243317,202.00269094439616,21.224224914682893,468.3277247227958,-28.041535048916952,0.377166748046875,4381.2578125,True
1599573717.4319842,0.0,10,0.5,0.5,-18.265013809967037,-0.2,-0.02275,-0.37525,0.2509110743807771,10,1,100,0.2974432338016762,-10,-1,-100,6445.1905224890215,-0.024311920358484746,0.012762606794427709,0.9996229521155932,208.00422068331835,21.882305518836517,492.6636055902897,-28.612848431455383,-3.05731201171875,4381.2578125,True
1599573717.4998016,0.0,10,0.5,0.5,-18.787619165802003,-0.2,-0.02275,-0.37525,0.18530333364940396,10,1,100,0.2748961268555822,-10,-1,-100,6444.596793010482,-0.024391994093480997,0.013191550156588228,0.9996154328683656,210.11308241117325,22.11626898732093,501.1727815084422,-28.803184309999107,-4.34918212890625,4381.2578125,True
1599573717.5696146,0.0,10,0.5,0.5,-17.6322057472229,-0.2,-0.02275,-0.37525,0.2450259973048859,10,1,100,0.2813168562029229,-10,-1,-100,6443.474276925554,-0.0245203907158338,0.014121171467746118,0.9995995913142028,214.4244270027278,22.599097006172496,518.6354525534474,-29.183686078906796,-7.153564453125,4381.2578125,True
1599573717.6379402,0.0,10,0.5,0.5,-16.868604601287842,-0.2,-0.02275,-0.37525,0.26600614270477707,10,1,100,0.2711237273964016,-10,-1,-100,6442.280960959382,-0.024541886750844448,0.015152806907836287,0.9995839575731107,219.0795539342751,23.12486532359214,537.2361223369711,-29.563938745811193,-10.2518310546875,4381.2578125,True
1599573717.7067566,0.0,10,0.5,0.5,-15.000310812377931,-0.2,-0.02275,-0.37525,0.35157930760005784,10,1,100,0.26041496286762145,-10,-1,-100,6440.498802631162,-0.02446182778833049,0.016863456763516298,0.9995585239530694,226.46971892465652,23.96788428087733,566.7471839184358,-30.133784935592423,-15.450531005859375,4381.2578125,True
1599573717.7770777,0.0,10,0.5,0.5,-13.529704442596437,-0.2,-0.02275,-0.37525,0.38833576298704797,10,1,100,0.23287635068777163,-10,-1,-100,6438.65805282339,-0.02413700258387164,0.018746212457338346,0.9995328832133391,233.98620732991395,24.833850010742413,597.3213119068337,-30.702939924267238,-21.31060791015625,4381.2578125,True
1599573717.8464694,0.0,10,0.5,0.5,-15.666985037994387,-0.2,-0.02275,-0.37525,0.20094213658199317,10,1,100,0.2654782445009938,-10,-1,-100,6438.65805282339,-0.02413700258387164,0.018746212457338346,0.9995328832133391,233.98620732991395,24.833850010742413,597.3213119068337,-30.702939924267238,-21.31060791015625,4381.2578125,True
1599573717.9152856,0.0,10,0.5,0.5,-13.149148217773439,-0.2,-0.02275,-0.37525,0.3464186691072495,10,1,100,0.2227436196133767,-10,-1,-100,6437.396379679209,-0.02374772062954498,0.020061031002154197,0.9995166836026459,238.65083236272037,25.375993685428796,617.2225598436293,-31.08197865569832,-25.5849609375,4381.2578125,True
1599573717.9860988,0.0,10,0.5,0.5,-10.682430293273928,-0.2,-0.02275,-0.37525,0.4405370448374995,10,1,100,0.17207773813398347,-10,-1,-100,6435.487751726876,-0.022933079230820528,0.022103469829239844,0.9994926265353341,244.6051730516338,26.073111838948645,644.90127778761,-31.649982838607034,-32.54766845703125,4381.2578125,True
1599573718.061894,0.0,10,0.5,0.5,-10.336495787048342,-0.2,-0.02275,-0.37525,0.3897510791803841,10,1,100,0.1745133321931722,-10,-1,-100,6434.24023534765,-0.022215486081502176,0.023488727616060547,0.9994772392871892,247.57103017351386,26.42272298587499,661.001706569077,-32.02833466064377,-37.55682373046875,4381.2578125,True
1599573718.151657,0.0,10,0.5,0.5,-9.078904203033447,-0.2,-0.02275,-0.37525,0.3998182546394612,10,1,100,0.14987933511651552,-10,-1,-100,6432.923379326123,-0.021340801019864315,0.02482879356091174,0.9994639069131712,249.40040195635555,26.64108187750747,674.2293003594081,-32.40649720770374,-42.860565185546875,4381.2578125,True
1599573718.232442,0.0,10,0.5,0.5,-7.758423693847657,-0.2,-0.02275,-0.37525,0.4102474815209876,10,1,100,0.12635596560662388,-10,-1,-100,6431.669506852748,-0.02033448498586599,0.026130877221729895,0.9994516926675259,249.86457841338773,26.701620744140325,683.8503272211395,-32.784543258001776,-48.458404541015625,4381.2578125,True
1599573718.963308,0.0,10,0.5,0.5,-8.085141260528566,-0.2,-0.02275,-0.37525,0.3506545702895215,10,1,100,0.16561518612655113,-10,-1,-100,6430.952236605692,-0.01978024287705559,0.026761072877582944,0.9994461401046909,249.51417428734052,26.664923012297166,687.0738422052901,-32.97354906988389,-51.36761474609375,4381.2578125,True
1599573719.0291324,0.0,10,0.5,0.5,-3.8014485298156737,-0.2,-0.02275,-0.37525,0.47878111882573016,10,1,100,0.016567588568634634,-10,-1,-100,6428.974244082463,-0.01792571748019124,0.02848727400467867,0.9994334114249946,245.81338194569128,26.25485933228469,689.2799034465984,-33.540638876756425,-60.53717041015625,4381.2578125,True
1599573719.0979505,0.0,10,0.5,0.5,-3.3998775001525883,-0.2,-0.02275,-0.37525,0.41986352684989503,10,1,100,0.04953505254005591,-10,-1,-100,6427.595840705675,-0.01654550421848262,0.029508811041260973,0.9994275743449784,240.89546270386106,25.710272410019872,683.6294849552119,-33.918876740956286,-67.01791381835938,4381.2578125,True
1599573719.1654444,0.0,10,0.5,0.5,-1.8169172111511238,-0.2,-0.02275,-0.37525,0.4137705647202112,10,1,100,0.02648527291438607,-10,-1,-100,6426.286278980784,-0.015088418096304918,0.030370594733086172,0.9994248178902252,233.8220701550005,24.934873772366814,671.4974106623922,-34.29735554057366,-73.79330444335938,4381.2578125,True
1599573719.2332628,0.0,10,0.5,0.5,-0.17306802673339838,-0.2,-0.02275,-0.37525,0.4062708663112335,10,1,100,0.0054008622716535115,-10,-1,-100,6424.848778901622,-0.013580343874379954,0.03107528775623133,0.9994247849393776,224.47470800440365,23.92368277665758,652.3184747280104,-34.67613165406608,-80.86312866210938,4381.2578125,True
1599573719.3031137,0.0,10,0.5,0.5,1.5455937294006346,-0.2,-0.02275,-0.37525,0.39721568659029566,10,1,100,-0.014684370814230407,-10,-1,-100,6423.469864575076,-0.012036371243403307,0.031622389711355774,0.9994274111891439,212.77915811940179,22.676213326990897,625.6313822584588,-35.05522093784872,-88.22711181640625,4381.2578125,True
1599573719.3729274,0.0,10,0.5,0.5,3.3091201179504393,-0.2,-0.02275,-0.37525,0.38457385147133516,10,1,100,-0.030643104141831662,-10,-1,-100,6422.091431095265,-0.010498327048070109,0.03199431902519726,0.9994329135461298,210.24414584909366,22.424516988117386,625.4099701585562,-35.43443420855836,-95.8487548828125,4381.2578125,True
1599573719.4437382,0.0,10,0.5,0.5,5.003387787628174,-0.2,-0.02275,-0.37525,0.3711792863598983,10,1,100,-0.043819832338547915,-10,-1,-100,6420.646585455397,-0.008991620934326826,0.03220167612840741,0.9994409451325749,222.47171311622307,23.766776728688914,669.4345550821487,-35.81314052983873,-103.51547241210938,4381.2578125,True
1599573719.5135908,0.0,10,0.5,0.5,6.558726155471802,-0.2,-0.02275,-0.37525,0.3572138736335596,10,1,100,-0.0539543600792427,-10,-1,-100,6419.2022216282785,-0.007541777728869504,0.032255303426075056,0.9994512079084101,232.58093872553283,24.8961240366264,707.8349463522671,-36.191282021129126,-110.9595718383789,4381.2578125,True
1599573719.5834014,0.0,10,0.5,0.5,6.000193155097962,-0.2,-0.02275,-0.37525,0.34945985223821274,10,1,100,0.013054168991837103,-10,-1,-100,6418.491756584961,-0.006845451463909932,0.03222681303866507,0.9994571388086766,236.60381276153055,25.35240159993681,724.1285416246876,-36.38016000403372,-114.57528686523438,4381.2578125,True
1599573719.6552103,0.0,10,0.5,0.5,10.77821667690277,-0.2,-0.02275,-0.37525,0.322797615157406,10,1,100,-0.132436789766114,-10,-1,-100,6416.26806862792,-0.0049020452648034524,0.03195298695317872,0.9994773517078772,246.47422544139587,26.480152588573656,766.9612212491306,-36.94613471488352,-124.97842407226562,4381.2578125,True
1599573719.7250571,0.0,10,0.5,0.5,10.817140153312685,-0.2,-0.02275,-0.37525,0.3137484860004498,10,1,100,-0.06807333358047894,-10,-1,-100,6414.768027113518,-0.00373396031967811,0.03161706941578644,0.9994930807473799,250.30941401139518,26.92417125172953,787.4263210805022,-37.323046210877145,-131.54119873046875,4381.2578125,True
1599573719.7939095,0.0,10,0.5,0.5,12.119152818107604,-0.2,-0.02275,-0.37525,0.3016501200064327,10,1,100,-0.06620747411892511,-10,-1,-100,6413.258216044866,-0.0027019288711787547,0.0311988594223832,0.9995095451025555,252.0027772795975,27.12324571447628,801.3454113029584,-37.69978589386505,-137.80484008789062,4381.2578125,True
1599573719.8627286,0.0,10,0.5,0.5,11.666738229942322,-0.2,-0.02275,-0.37525,0.31837755687429387,10,1,100,-0.015128579558625076,-10,-1,-100,6412.481337808771,-0.0022406571188614355,0.030969199719559793,0.999517827817196,252.13349124595695,27.140185568684245,806.0651692869078,-37.8881284416959,-140.82435607910156,4381.2578125,True
1599573719.9350464,0.0,10,0.5,0.5,15.639159901618958,-0.2,-0.02275,-0.37525,0.25094888279889455,10,1,100,-0.10312273010194709,-10,-1,-100,6410.19562010339,-0.0010330521217949847,0.03014688603904718,0.99954494549543,250.09201994702696,26.9105024869464,812.3885267784913,-38.453192444068975,-149.4345245361328,4381.2578125,True
1599573720.0053692,0.0,10,0.5,0.5,15.650957736015322,-0.2,-0.02275,-0.37525,0.26537791351771267,10,1,100,-0.052119048791489105,-10,-1,-100,6408.6223281255225,-0.00041030585615017926,0.029531345155767864,0.9995637705031107,247.04864744035274,26.565927979122453,811.0112124712283,-38.83002160802672,-154.80047607421875,4381.2578125,True
1599573720.078172,0.0,10,0.5,0.5,16.70322757701874,-0.2,-0.02275,-0.37525,0.25640377943201587,10,1,100,-0.04414166483424464,-10,-1,-100,6407.06075324316,7.273628992719135e-05,0.02889208044705814,0.9995825340595307,242.97189121924976,26.107364974695866,806.0390082805575,-39.20700060256182,-159.8667755126953,4381.2578125,True
1599573720.1519747,0.0,10,0.5,0.5,16.34024742679596,-0.2,-0.02275,-0.37525,0.28467714462968907,10,1,100,-0.0179648029464595,-10,-1,-100,6406.28045470221,0.0002642839843467567,0.02857078152146282,0.9995917369592591,240.6247774712147,25.845256597547706,802.4338814204403,-39.395553407402566,-162.2874755859375,4381.2578125,True
1599573720.2307637,0.0,10,0.5,0.5,18.221693361854552,-0.2,-0.02275,-0.37525,0.24121739215708407,10,1,100,-0.03001137630327058,-10,-1,-100,6404.715461979853,0.0005395180962276681,0.027886903743540616,0.9996109390757099,235.4651763856727,25.27423324290285,793.441995735947,-39.77278898936385,-166.90478515625,4381.2578125,True
1599573720.3125455,0.0,10,0.5,0.5,20.27746794395447,-0.2,-0.02275,-0.37525,0.19528753686689831,10,1,100,-0.02026621260702797,-10,-1,-100,6402.296929372707,0.0006937918954034755,0.026851623806139226,0.9996391893837395,226.95519979131143,24.34838317495813,776.7102418774786,-40.33895036394198,-173.26922607421875,4381.2578125,True
1599573720.3883429,0.0,10,0.5,0.5,20.248340459060667,-0.2,-0.02275,-0.37525,0.22203497875356507,10,1,100,0.001657689788065712,-10,-1,-100,6400.668950146879,0.000627878742553982,0.026158505324955412,0.999657610568463,221.04921493106102,23.717746470084215,764.2899872472423,-40.71656883928063,-177.13815307617188,4381.2578125,True
1599573720.4631424,0.0,10,0.5,0.5,-186.1212520778656,-0.2,-0.02275,-0.37525,0.21500671451915293,10,1,100,0.014841706616351315,-10,-1,-100,6399.037065939279,0.0004430757924269756,0.02546977201413749,0.9996754945468005,216.38926794494924,23.230895274329693,755.8267174673425,-41.09427970850837,179.2919921875,4381.2578125,True
1599573720.53894,0.0,10,0.5,0.5,-51.19630996360779,-0.2,-0.02275,-0.37525,0.20773663745115667,10,1,100,0.03037588235188414,-10,-1,-100,6397.412020284799,0.0001300560255229396,0.024783147664959097,0.999692842165656,222.31335963986254,23.890550946802577,784.392616496123,-41.471773665365774,176.02093505859375,4381.2578125,True
1599573720.6137397,0.0,10,0.5,0.5,-51.376691763687134,-0.2,-0.02275,-0.37525,0.20119930224209645,10,1,100,0.04672785996046667,-10,-1,-100,6395.721546850866,-0.000305736272555754,0.024105345856312212,0.9997093771824285,227.4631019901429,24.476482894925788,810.629414262859,-41.84897733097283,172.9595947265625,4381.2578125,True
1599573720.6855483,0.0,10,0.5,0.5,-51.37581226806641,-0.2,-0.02275,-0.37525,0.19479023643355764,10,1,100,0.06356857546181369,-10,-1,-100,6394.024239978753,-0.0008567675215907263,0.02343713802643128,0.9997249454277631,232.29691629163094,25.036744151549797,836.1015741595183,-42.22589179319661,169.72012329101562,4381.2578125,True
1599573720.7573557,0.0,10,0.5,0.5,-52.327201061630255,-0.2,-0.02275,-0.37525,0.2246885221442389,10,1,100,0.04359586898741458,-10,-1,-100,6393.182424202329,-0.001176295220582713,0.02310757873119355,0.9997322922336439,234.87982710804522,25.33769017382572,849.5680814553413,-42.41423313586188,167.9986114501953,4381.2578125,True
1599573720.829164,0.0,10,0.5,0.5,-50.486443676757816,-0.2,-0.02275,-0.37525,0.14943033675472045,10,1,100,0.1362493096905303,-10,-1,-100,6390.5808078715345,-0.00230838259936336,0.02212965383782233,0.9997524442534728,242.98196349556704,26.28875870304623,891.8125416680289,-42.978750297660476,162.3990936279297,4381.2578125,True
1599573720.9004805,0.0,10,0.5,0.5,-50.962903514099125,-0.2,-0.02275,-0.37525,0.17761916298638736,10,1,100,0.12268418117397284,-10,-1,-100,6388.890348599758,-0.0032120689400231615,0.021503040924690228,0.9997636229850112,248.33845133380262,26.92397264776605,920.2801201277144,-43.35465923830142,158.30015563964844,4381.2578125,True
1599573720.9712913,0.0,10,0.5,0.5,-50.70368550834656,-0.2,-0.02275,-0.37525,0.17083987151048713,10,1,100,0.14424330676039426,-10,-1,-100,6387.137394346413,-0.0042264337069319305,0.020878188118059016,0.9997730935162377,253.8144670853773,27.57381253472972,949.5636559391237,-43.73020411372556,153.9078369140625,4381.2578125,True
1599573721.0430992,0.0,10,0.5,0.5,-50.38654898262024,-0.2,-0.02275,-0.37525,0.1649538458407559,10,1,100,0.16775728375026788,-10,-1,-100,6385.384445570875,-0.005358014238754063,0.020263002347419887,0.9997803270815473,258.7608831236804,28.164150040118653,977.2223511781547,-44.10539980846609,149.22256469726562,4381.2578125,True
1599573721.1149106,0.0,10,0.5,0.5,-50.01491397361756,-0.2,-0.02275,-0.37525,0.160095863946941,10,1,100,0.19268422786791284,-10,-1,-100,6383.624667581171,-0.006607830754085358,0.01966556874003938,0.9997847778291368,262.97456887729584,28.668524593876665,1002.4270227346371,-44.48028095363586,144.24481201171875,4381.2578125,True
1599573721.183762,0.0,10,0.5,0.5,-49.58240951194763,-0.2,-0.02275,-0.37525,0.15421939111876287,10,1,100,0.21895662416455874,-10,-1,-100,6381.813139953767,-0.007976289634813644,0.019074927468150857,0.9997862401262313,266.23230674439554,29.058306704070553,1024.247162493928,-44.85490182489272,138.97483825683594,4381.2578125,True
1599573721.2545733,0.0,10,0.5,0.5,-48.26883883895874,-0.2,-0.02275,-0.37525,0.14903422396358734,10,1,100,0.24704172239060762,-10,-1,-100,6379.994297564845,-0.009468008268960493,0.018496656469156048,0.9997840919512977,268.2985446713887,29.304262440538015,1041.6780457029774,-45.22933621460188,133.41307067871094,4381.2578125,True
1599573721.32625,0.0,10,0.5,0.5,-46.89199647407533,-0.2,-0.02275,-0.37525,0.14409291680281233,10,1,100,0.2770792206541325,-10,-1,-100,6378.17253630457,-0.01108845877122196,0.01793174957878627,0.999777724516366,268.9286515736382,29.377794661366938,1053.6508933668008,-45.60367621630624,127.56002807617188,4381.2578125,True
1599573721.4015927,0.0,10,0.5,0.5,-47.238838512802126,-0.2,-0.02275,-0.37525,0.16970023999015368,10,1,100,0.2105943226897457,-10,-1,-100,6377.268252329086,-0.011947384953148264,0.017656604067678234,0.9997727263361301,268.6279083174998,29.341540570804607,1057.244826630542,-45.79084347577994,124.52442932128906,4381.2578125,True
1599573721.4714093,0.0,10,0.5,0.5,-44.65731720581054,-0.2,-0.02275,-0.37525,0.1373489071684507,10,1,100,0.3265836519207524,-10,-1,-100,6375.446023139288,-0.013772593004789002,0.017117623790072495,0.9997586221872288,266.6405185683503,29.107961888876453,1058.9379417502325,-46.165242866519336,118.23532104492188,4381.2578125,True
1599573721.5427277,0.0,10,0.5,0.5,-43.11943031654358,-0.2,-0.02275,-0.37525,0.13399179165578087,10,1,100,0.36232251217542544,-10,-1,-100,6373.568634156953,-0.01574532060151924,0.0166025679011713,0.9997381855357143,262.6107583154793,28.64323204377761,1052.374728890253,-46.539822214055526,111.65615844726562,4381.2578125,True
1599573721.6107862,0.0,10,0.5,0.5,-41.521848083496096,-0.2,-0.02275,-0.37525,0.1347674807268323,10,1,100,0.3961956518465537,-10,-1,-100,6371.691264875117,-0.017834431561009573,0.016146411617304,0.9997105713369147,256.3223291549743,27.932163791934308,1036.470623627057,-46.91468532944619,104.78788757324219,4381.2578125,True
1599573721.682595,0.0,10,0.5,0.5,-37.739164138793946,-0.2,-0.02275,-0.37525,0.11190394657479119,10,1,100,0.5712457891171738,-10,-1,-100,6368.796395725105,-0.021311695169714616,0.015528743439049158,0.9996522744315632,242.26716466943222,26.38395830065545,992.9630143598866,-47.47768161979846,93.94345092773438,4381.2578125,True
1599573721.7544024,0.0,10,0.5,0.5,-37.30613261566162,-0.2,-0.02275,-0.37525,0.13858206136256632,10,1,100,0.5022605224280056,-10,-1,-100,6366.881980713573,-0.023830173060942414,0.015214618361141812,0.9996002392156629,238.6092726803367,26.002357090371262,986.7933619805239,-47.85336644403418,86.35372924804688,4381.2578125,True
1599573721.8242178,0.0,10,0.5,0.5,-37.76608883743286,-0.2,-0.02275,-0.37525,0.15602554127056503,10,1,100,0.39780599832674357,-10,-1,-100,6365.895733723184,-0.02515331896220877,0.015092216638559012,0.9995696751813353,245.57054846736793,26.779606857716026,1020.1317867126634,-48.0410125371842,82.45097351074219,4381.2578125,True
1599573722.49428,0.0,10,0.5,0.5,-34.4760091632843,-0.2,-0.02275,-0.37525,0.15057668007395114,10,1,100,0.5808650226879342,-10,-1,-100,6363.9427996310405,-0.028003492286454348,0.014935564836334049,0.9994962397742085,259.6459543651201,28.369063344994842,1088.2169869268325,-48.41575445035365,74.43009948730469,4381.2578125,True
1599573722.5660877,0.0,10,0.5,0.5,-32.56015140419006,-0.2,-0.02275,-0.37525,0.16408540326176507,10,1,100,0.6268826655477489,-10,-1,-100,6362.000162395299,-0.030994694604810788,0.014919723738411316,0.9994081902555751,271.6980332962245,29.75243679242439,1148.7560538319083,-48.78977530625109,66.12266540527344,4381.2578125,True
1599573722.644878,0.0,10,0.5,0.5,-33.073245320510864,-0.2,-0.02275,-0.37525,0.17005489771809482,10,1,100,0.499936641742843,-10,-1,-100,6361.027639893116,-0.032540344962966726,0.01496284262874887,0.9993584138286715,277.1065064145145,30.377498538057264,1176.719553507729,-48.976532567807205,61.86158752441406,4381.2578125,True
1599573722.7256622,0.0,10,0.5,0.5,-29.497722301483154,-0.2,-0.02275,-0.37525,0.19511429156843615,10,1,100,0.7103031144185252,-10,-1,-100,6359.023063718458,-0.03583840241634947,0.015232553297649783,0.9992415014561186,286.730965629735,31.488343229015893,1228.1064775697341,-49.349596648512296,53.12620544433594,4381.2578125,True
1599573722.8064466,0.0,10,0.5,0.5,-27.42454745330811,-0.2,-0.02275,-0.37525,0.21932892505971424,10,1,100,0.7581778754939872,-10,-1,-100,6357.080066171824,-0.03925014245878052,0.01570008152908953,0.999106067320655,292.99664407129484,32.20661030570662,1265.6807738344548,-49.72223836063631,44.10630798339844,4381.2578125,True
1599573722.889224,0.0,10,0.5,0.5,-25.28909963493347,-0.2,-0.02275,-0.37525,0.25264360864657776,10,1,100,0.8102523775153947,-10,-1,-100,6355.074136975454,-0.042801967470772466,0.016429256628698045,0.9989484827093233,295.3416315445011,32.462446723758504,1286.6824956385176,-50.094723992601814,34.80335998535156,4381.2578125,True
1599573722.9790227,0.0,10,0.5,0.5,-23.091485863494874,-0.2,-0.02275,-0.37525,0.294145451167923,10,1,100,0.8593557344047218,-10,-1,-100,6353.068269255222,-0.04645269650169607,0.017469590116056626,0.998767720948619,293.2812202386428,32.20722769441687,1288.6176898187816,-50.4673461142926,25.218475341796875,4381.2578125,True
1599573723.0842812,0.0,10,0.5,0.5,-23.68957790412903,-0.2,-0.02275,-0.37525,0.2598635600481789,10,1,100,0.700085198254401,-10,-1,-100,6352.034841838293,-0.04829761050576853,0.018102491386658797,0.9986689344447582,290.4786758427837,31.880068229436997,1281.7689020625378,-50.65379572332964,20.320404052734375,4381.2578125,True
1599573723.1700888,0.0,10,0.5,0.5,-19.603777237319946,-0.2,-0.02275,-0.37525,0.3657767270477675,10,1,100,0.9256048222728346,-10,-1,-100,6349.965592192486,-0.052000450804787386,0.019638363379977385,0.9984539487627133,281.1540535896475,30.823924352258903,1251.3393297700272,-51.027111882032386,10.31378173828125,4381.2578125,True
1599573723.264842,0.0,10,0.5,0.5,-14.24861097984314,-0.2,-0.02275,-0.37525,0.5368643022001113,10,1,100,1.1606102790600086,-10,-1,-100,6346.92506278411,-0.05747747315855716,0.022585930652543922,0.9980912863139654,261.1381116231815,28.64507819669463,1177.454758411016,-51.58827929056357,-5.22235107421875,4381.2578125,True
1599573723.347621,0.0,10,0.5,0.5,-13.719324065399169,-0.2,-0.02275,-0.37525,0.5074725876295112,10,1,100,1.0015435877416818,-10,-1,-100,6344.857907134807,-0.0609811379643664,0.024991527391495332,0.9978259990455305,281.5154737319457,30.957967089844608,1280.3196156520198,-51.961857133566156,-15.930328369140625,4381.2578125,True
1599573723.4300413,0.0,10,0.5,0.5,-7.989615603256226,-0.2,-0.02275,-0.37525,0.7302807578040251,10,1,100,1.176464078855168,-10,-1,-100,6341.693025690154,-0.0657264943927902,0.02919482055344205,0.9974104924190875,304.78790389744023,33.68856144498127,1403.840919036788,-52.52025418311125,-32.5184326171875,4381.2578125,True
1599573723.5068355,0.0,10,0.5,0.5,-10.728428662872316,-0.2,-0.02275,-0.37525,0.47999489317098065,10,1,100,0.8632727289426447,-10,-1,-100,6340.658741132822,-0.06716168632870892,0.030727692752352268,0.9972688287455901,310.9460576199999,34.421648736829866,1438.1600017220317,-52.70593488925196,-38.188079833984375,4381.2578125,True
1599573723.583631,0.0,10,0.5,0.5,-9.326544292068482,-0.2,-0.02275,-0.37525,0.5030503036057539,10,1,100,0.870804956785995,-10,-1,-100,6339.563421033556,-0.068503407122333,0.03231647589156531,0.9971273382064008,315.56244835772503,34.97621215108848,1465.536018776797,-52.89145406342715,-43.9278564453125,4381.2578125,True
1599573723.6607375,0.0,10,0.5,0.5,-1.1115646148681648,-0.2,-0.02275,-0.37525,0.8843333630865898,10,1,100,1.11132940562769,-10,-1,-100,6336.3989980117185,-0.07188004373809212,0.03721150299286303,0.9967188988662862,319.067870924176,35.42147396992752,1500.1306388663288,-53.447659224061475,-61.568939208984375,4381.2578125,True
1599573723.7370768,0.0,10,0.5,0.5,-0.5239282306671145,-0.2,-0.02275,-0.37525,0.7656457100638423,10,1,100,0.9716023501837021,-10,-1,-100,6334.2058428758755,-0.07364980388358297,0.04056299312886891,0.9964589053123752,311.99166480289983,34.62437714690067,1478.9996391521363,-53.8188165285148,-73.68026733398438,4381.2578125,True
1599573723.8138394,0.0,10,0.5,0.5,2.3075060317993166,-0.2,-0.02275,-0.37525,0.7839268314651455,10,1,100,0.944237856755627,-10,-1,-100,6332.074645953253,-0.07498186513339869,0.043754054595704125,0.9962245241949995,297.0525118329612,32.95842518928375,1419.9830347928416,-54.1907596020113,-86.0738525390625,4381.2578125,True
1599573723.8888023,0.0,10,0.5,0.5,5.189685945892334,-0.2,-0.02275,-0.37525,0.7952673107450285,10,1,100,0.9234841885470966,-10,-1,-100,6329.882826292538,-0.07597822458712479,0.04673421986402631,0.9960136656102111,274.3339436004523,30.4790464731966,1322.4609702688117,-54.56369850517458,-98.72866821289062,4381.2578125,True
1599573723.967592,0.0,10,0.5,0.5,4.389484674835205,-0.2,-0.02275,-0.37525,0.6544047397900113,10,1,100,0.8686384593044352,-10,-1,-100,6328.786887344671,-0.07636024417550491,0.04813686334611235,0.9959176449368968,280.8370703762987,31.251959157283004,1359.493405723741,-54.75008817153225,-105.12185668945312,4381.2578125,True
1599573724.0384312,0.0,10,0.5,0.5,13.128297766113281,-0.2,-0.02275,-0.37525,0.9186711097173492,10,1,100,0.9221377807723706,-10,-1,-100,6325.497488385066,-0.0771717469115856,0.051788507601924424,0.9956718696232106,312.66778685529187,35.02530304047498,1532.3455860948773,-55.30711381976457,-124.027099609375,4381.2578125,True
1599573724.1102092,0.0,10,0.5,0.5,13.350426232910156,-0.2,-0.02275,-0.37525,0.7733913345475447,10,1,100,0.8828617049938077,-10,-1,-100,6323.241966865491,-0.07753451755207835,0.053760911172074106,0.9955391318365716,325.660256355775,36.62123691446866,1608.8363040300765,-55.67709300265069,-136.2757568359375,4381.2578125,True
1599573724.1840422,0.0,10,0.5,0.5,15.898531601715089,-0.2,-0.02275,-0.37525,0.7475138297238558,10,1,100,0.8887861264001753,-10,-1,-100,6321.0493792544585,-0.077903118892959,0.05529260129764885,0.9954264575087849,331.27664485944354,37.336656571124216,1649.5945849884317,-56.04655890172186,-148.219482421875,4381.2578125,True
1599573724.2568526,0.0,10,0.5,0.5,18.373627596282958,-0.2,-0.02275,-0.37525,0.7212498459451493,10,1,100,0.905487537437854,-10,-1,-100,6318.794254459906,-0.07837897237182925,0.05642255812223382,0.9953256912312066,328.8563838756238,37.091184645186416,1650.619190835324,-56.416121726615486,-159.85574340820312,4381.2578125,True
1599573724.3286264,0.0,10,0.5,0.5,20.800532611083984,-0.2,-0.02275,-0.37525,0.6936479781468998,10,1,100,0.9297302361648787,-10,-1,-100,6316.477102003177,-0.07902175708100868,0.057175506559717995,0.9952318942625733,319.0299713744899,35.98725766205764,1614.2638129114252,-56.78626541957182,-171.18406677246094,4381.2578125,True
1599573724.4004345,0.0,10,0.5,0.5,-183.9114447322845,-0.2,-0.02275,-0.37525,0.6645077196062863,10,1,100,0.9677843704154727,-10,-1,-100,6314.2200136586325,-0.07994249135530568,0.05757249457918153,0.9951354711514593,302.67646256846285,34.17056119542611,1544.0917211813378,-57.15726803685804,177.79556274414062,4381.2578125,True
1599573724.4722419,0.0,10,0.5,0.5,-47.33918888130188,-0.2,-0.02275,-0.37525,0.6381381083755558,10,1,100,1.0145810499331414,-10,-1,-100,6311.902897533379,-0.0811976173751752,0.05767515904788145,0.9950279005944488,285.1642796096007,32.28222941244578,1466.7434879503471,-57.52909168025107,167.08334350585938,4381.2578125,True
1599573724.5450478,0.0,10,0.5,0.5,-48.892048433303835,-0.2,-0.02275,-0.37525,0.6252805694400451,10,1,100,0.9745938525792215,-10,-1,-100,6310.743871380575,-0.08196825940502858,0.057636047150995816,0.9949669796123477,295.97871411716136,33.580566793408806,1528.5833717867245,-57.714731162402686,161.8427734375,4381.2578125,True
1599573724.6128664,0.0,10,0.5,0.5,-42.26859754524231,-0.2,-0.02275,-0.37525,0.5861666860092045,10,1,100,1.2220210037539105,-10,-1,-100,6307.265925691347,-0.08491182953896372,0.05723229012940551,0.9947434072015203,323.2531940707506,36.972204364600806,1689.5696536540088,-58.26967679927338,145.92971801757812,4381.2578125,True
1599573724.6816826,0.0,10,0.5,0.5,-45.67430033149719,-0.2,-0.02275,-0.37525,0.6062491708873708,10,1,100,1.0613726139763782,-10,-1,-100,6306.107960660243,-0.08611924102188005,0.05703826263570186,0.9946507492186973,330.20387286103636,37.865543355499334,1732.6554759645478,-58.454088341002674,140.50204467773438,4381.2578125,True
