Timestamp,Input Throttle,horizon,dT,dt,Input Roll,Roll P,Roll I,Roll D,Input Pitch,Pitch P,Pitch I,Pitch D,Input Yaw,Yaw P,Yaw I,Yaw D,Altitude,Direction X,Direction Y,Direction Z,Drag X,Drag Y,Drag Z,Vertical Velocity,Roll,Mass,Has Fuel
1598631310.3669362,0,5,0.5,0.5,-0.008109130859375,-0.14,-0.011,-0.56,0.004451465238288972,10,1,100,0.13059716488175913,-10,-1,-100,476.42070348782,-0.011848290813747076,0.0004161892361639666,0.999929719926012,5.834440339535245,-0.4789562057706748,133.72441760142928,-15.60105169777157,-89.92816162109375,6440.1796875,True
1598631310.4611318,0,5,0.5,0.5,-0.008000164794921875,-0.14,-0.011,-0.56,0.0043281824579535135,10,1,100,0.12529277855616322,-10,-1,-100,475.45622808660846,-0.011899427553177237,0.00041732261046121616,0.9999291122203341,6.020278478395447,-0.49475754640056696,143.3001770045634,-16.184238222667688,-89.93121337890625,6440.1796875,True
1598631310.5203202,0,5,0.5,0.5,-0.0049782958984375,-0.14,-0.011,-0.56,0.003937873317603451,10,1,100,0.11571737750671335,-10,-1,-100,474.2289565347601,-0.011848048736252224,0.00041442530162784136,0.999929723527015,6.318701744744597,-0.5102420708726384,135.23543822457546,-15.02443734267207,-89.93807983398438,6435.443359375,True
1598631310.579094,0,5,0.5,0.5,-0.004384176635742186,-0.14,-0.011,-0.56,0.00399749712198964,10,1,100,0.11493252698568887,-10,-1,-100,473.6286899993429,-0.01178343476273267,0.0004119566688177134,0.999930488062493,6.1659169551135955,-0.4922020929807733,121.45568552705048,-14.120974221237079,-89.94451904296875,6432.28515625,True
1598631310.6361237,0,5,0.5,0.5,-0.0023474273681640626,-0.14,-0.011,-0.56,0.0038640896823665567,10,1,100,0.11137275831645682,-10,-1,-100,473.0981038584141,-0.01168162104002848,0.00040812515620391657,0.9999316842483461,5.9947981378381625,-0.47324188050437405,108.28810502869275,-13.216977444057669,-89.95266723632812,6429.126953125,True
1598631310.7452915,0,5,0.5,0.5,-0.0003188049316406247,-0.14,-0.011,-0.56,0.003771610826482908,10,1,100,0.10716398965936982,-10,-1,-100,472.59433982602786,-0.011540181921560219,0.0004034302231777009,0.9999333285000919,5.811477815306966,-0.45387002544494964,95.86718074944956,-12.312445627615764,-89.962158203125,6425.9697265625,True
1598631310.8575718,0,5,0.5,0.5,0.009470501708984376,-0.14,-0.011,-0.56,0.002718530955322533,10,1,100,0.07932511486479857,-10,-1,-100,471.71553264406975,-0.011148029150346097,0.000389221894122249,0.999937783040715,5.405234667553705,-0.41368968557591457,73.2229260722556,-10.50172610908446,-89.98379516601562,6419.65380859375,True
1598631311.0191133,0,5,0.5,0.5,0.013704843139648438,-0.14,-0.011,-0.56,0.0021377560877419675,10,1,100,0.060915206642483254,-10,-1,-100,470.9655064396793,-0.010614029257084623,0.00037067162173554005,0.9999436009023099,4.9484992424855765,-0.37179012808336764,53.542306334529584,-8.688755808781838,-90.0071792602539,6413.33837890625,True
1598631311.1292408,0,5,0.5,0.5,0.018604708099365236,-0.14,-0.011,-0.56,0.00011781155837270853,10,1,100,0.004535989261556919,-10,-1,-100,470.10279189120047,-0.009606387351332058,0.00033510763146087,0.9999538014453124,4.188641016671506,-0.3070978647542865,29.671959394393888,-5.964977666324598,-90.03287506103516,6403.86474609375,True
1598631311.2742748,0,5,0.5,0.5,0.007108430480957032,-0.14,-0.011,-0.56,0.0014427712695757882,10,1,100,0.042130214069539915,-10,-1,-100,469.7973176026717,-0.009023381855855633,0.00031451717619350623,0.9999592389986851,3.803592767706732,-0.27587989787123074,20.347525490348463,-4.6010975112463965,-90.03695678710938,6399.1279296875,True
1598631311.3282895,0,5,0.5,0.5,0.002059513854980469,-0.14,-0.011,-0.56,0.0012207448025755218,10,1,100,0.03537400160192676,-10,-1,-100,469.5759512829827,-0.008423753672211622,0.0002934942333629972,0.9999644764866424,3.4982802532550483,-0.25125412776089406,12.90688240671019,-3.235859961950327,-90.03295135498047,6394.3916015625,True
1598631311.4342253,0,5,0.5,0.5,-0.0003085853576660154,-0.14,-0.011,-0.56,0.001690672018270476,10,1,100,0.048354784510790526,-10,-1,-100,469.47373296204023,-0.007999757474562679,0.00027876607366230765,0.9999679625717137,3.5305968597227095,-0.25204584506993527,9.246487797473081,-2.324937817618591,-90.02619934082031,6391.2333984375,True
1598631311.4921868,0,5,0.5,0.5,-0.008166899871826172,-0.14,-0.011,-0.56,-0.00020455200002212053,10,1,100,-0.005874362241055073,-10,-1,-100,469.3788551017642,-0.007124859297209238,0.0002482734888015653,0.9999745870472259,13.066845441176238,-0.9226617453126893,7.216483976173707,-0.5012287703539634,-90.0094223022461,6384.91796875,True
1598631311.548398,0,5,0.5,0.5,-0.004941755676269532,-0.14,-0.011,-0.56,0.0010415640266767975,10,1,100,0.03039021424740082,-10,-1,-100,469.38604286534246,-0.006663469094454839,0.00023203233172799535,0.9999777719232685,1.4580231377988926,-0.1024420898915736,-0.6546335767194406,0.41158921452937636,-90.00049591064453,6381.759765625,True
1598631311.6022656,0,5,0.5,0.5,-0.005419579315185547,-0.14,-0.011,-0.56,0.000905370857625146,10,1,100,0.026413491223665195,-10,-1,-100,469.4299435989233,-0.006212525942342587,0.0002161930913398165,0.9999806787043253,0.6688947350549851,-0.046783469448940546,-0.9579434886720747,1.3250741130925057,-89.99258422851562,6378.6025390625,True
1598631311.7091215,0,5,0.5,0.5,-0.0054525749206542976,-0.14,-0.011,-0.56,0.000649901849194663,10,1,100,0.018407798778101288,-10,-1,-100,469.5102526625851,-0.0057347705046424,0.00019964582006016236,0.9999835361388735,1.5379855538749898,-0.10712246592604245,-3.690537803712926,2.2392059583527053,-89.98614501953125,6375.4443359375,True
1598631311.8161035,0,5,0.5,0.5,-0.008058025360107423,-0.14,-0.011,-0.56,-0.0014603400715986013,10,1,100,-0.04058735663423628,-10,-1,-100,469.78082564950455,-0.00476940543154545,0.0001656040872560994,0.9999886126087216,2.744428115858806,-0.18977364042908298,-11.791280506518719,4.0693469477832105,-89.97723388671875,6369.12841796875,True
1598631311.8761156,0,5,0.5,0.5,-0.005553035736083985,-0.14,-0.011,-0.56,-0.0018815065402421984,10,1,100,-0.05369073151854048,-10,-1,-100,470.1949862377951,-0.003778477978617095,0.00013103156027097869,0.9999928529419074,3.702630310364632,-0.25453753913691257,-22.795830070091224,5.901968533417813,-89.97369384765625,6362.8125,True
1598631311.993276,0,5,0.5,0.5,-0.003244288635253907,-0.14,-0.011,-0.56,-0.0003227180286593566,10,1,100,-0.008054847285827268,-10,-1,-100,470.47918528760783,-0.0032987206519600443,0.00011399064953658984,0.9999945527092595,4.16051671397103,-0.28532309417546314,-29.448558399155278,6.819204054674212,-89.97421264648438,6359.6552734375,True
1598631312.0525522,0,5,0.5,0.5,0.0003740440368652344,-0.14,-0.011,-0.56,-0.002233379975359243,10,1,100,-0.06354171102678094,-10,-1,-100,471.1010217964649,-0.0023638858361716667,8.133027388253217e-05,0.9999972027106576,5.061623181992073,-0.3457703963428151,-45.11274411300973,8.655508020652675,-89.97988891601562,6353.33935546875,True
1598631312.1123908,0,5,0.5,0.5,0.00031554183959960937,-0.14,-0.011,-0.56,-0.0007964601917246198,10,1,100,-0.021569940203271278,-10,-1,-100,471.497771507944,-0.0019016516438683966,6.491391850489539e-05,0.9999981897519657,5.507786156617453,-0.3756809941231088,-54.135794230284304,9.57457050544391,-89.98443603515625,6350.181640625,True
1598631312.1759808,0,5,0.5,0.5,0.0011123947143554687,-0.14,-0.011,-0.56,-0.0008343629299761551,10,1,100,-0.02255355915481834,-10,-1,-100,471.87831699545495,-0.0014784259349680353,4.985318900917354e-05,0.9999989058851086,5.95151341594145,-0.4054466403925942,-63.95793387806612,10.494235375455958,-89.98928833007812,6347.02392578125,True
1598631312.2332733,0,5,0.5,0.5,0.0017083892822265625,-0.14,-0.011,-0.56,-0.001028394310683438,10,1,100,-0.0283036694781039,-10,-1,-100,472.34473924478516,-0.0010473300435192877,3.4605797719953955e-05,0.9999994509509588,6.392719121764108,-0.43507976707857676,-74.58189630465723,11.41449865033258,-89.99407958984375,6343.8662109375,True
1598631312.2945518,0,5,0.5,0.5,0.0021753684997558595,-0.14,-0.011,-0.56,-0.0011457601641981555,10,1,100,-0.03129491524931667,-10,-1,-100,472.81134471111,-0.000633756570876392,1.9871813962422e-05,0.9999997989788397,6.831175294876976,-0.46458376678894,-86.01026722315133,12.335355867825339,-89.99860382080078,6340.70849609375,True
1598631312.3542767,0,5,0.5,0.5,0.0024915855407714846,-0.14,-0.011,-0.56,-0.00124708497721347,10,1,100,-0.0346641479975886,-10,-1,-100,473.3473176881671,-0.0002326328548745406,5.7490218079497056e-06,0.9999999729244514,7.266509111190839,-0.49395255712535946,-98.2452991347259,13.25680372494621,-90.00267791748047,6337.55029296875,True
1598631312.5245504,0,5,0.5,0.5,0.002672518920898438,-0.14,-0.011,-0.56,-0.0014028654845158898,10,1,100,-0.03810830227552844,-10,-1,-100,473.91008503187913,0.0001578992957561701,-8.314753790199956e-06,0.9999999874993386,7.6982634017020635,-0.5231719739097423,-111.28847416734348,14.178840996123977,-90.00617980957031,6334.392578125,True
1598631312.641393,0,5,0.5,0.5,0.004963233947753907,-0.14,-0.011,-0.56,-0.00433307550349691,10,1,100,-0.1200953817704166,-10,-1,-100,475.7967834509909,0.001252908637373619,-4.754922216666313e-05,0.9999992139792,8.967248258912933,-0.609765322130643,-155.27438133081958,16.948452523322185,-90.01222229003906,6324.9189453125,True
1598631312.7552032,0,5,0.5,0.5,0.001516461181640625,-0.14,-0.011,-0.56,-0.0029801357961590303,10,1,100,-0.08388537665439717,-10,-1,-100,477.23341697012074,0.001913714979544833,-7.072369306999188e-05,0.9999981663448869,9.786837707152996,-0.6664432577817706,-188.64892851961233,18.797736721643552,-90.01207733154297,6318.603515625,True
1598631312.8692663,0,5,0.5,0.5,-0.0017834495544433596,-0.14,-0.011,-0.56,-0.00275344164956945,10,1,100,-0.07608275791712214,-10,-1,-100,478.852087578387,0.002438340399399653,-8.954712414643913e-05,0.9999970232342739,10.580706221961044,-0.7220697683419893,-225.2388208089712,20.64929151783557,-90.00718688964844,6312.28759765625,True
1598631312.984347,0,5,0.5,0.5,-0.005502671051025391,-0.14,-0.011,-0.56,-0.0025211088923036856,10,1,100,-0.07000605685563047,-10,-1,-100,480.58358089555986,0.0028548143522983288,-0.00010436218390108147,0.9999959195634491,11.346790695872677,-0.7764866291378754,-264.98839098881126,22.50309060572808,-89.99790954589844,6305.9716796875,True
1598631313.0991337,0,5,0.5,0.5,-0.007775023651123048,-0.14,-0.011,-0.56,-0.0021542571509306557,10,1,100,-0.06079457904474207,-10,-1,-100,482.4808147606673,0.0031449420564813486,-0.00011432659288574368,0.9999950481221852,12.086699995060876,-0.8297609864419697,-307.88754430565945,24.359107736051183,-89.98721313476562,6299.65625,True
1598631313.212537,0,5,0.5,0.5,-0.007934322357177736,-0.14,-0.011,-0.56,-0.0018931038118728026,10,1,100,-0.05227247071845321,-10,-1,-100,484.50686191406567,0.0033266329903175137,-0.00012084807932455553,0.9999944594389959,12.80202581756401,-0.8819301885310399,-353.91325076308624,26.217316748422718,-89.97842407226562,6293.3408203125,True
1598631313.3230991,0,5,0.5,0.5,-0.0059510337829589855,-0.14,-0.011,-0.56,-0.001549984998595516,10,1,100,-0.04384947822010172,-10,-1,-100,486.7153117991984,0.0034108656720696633,-0.00012350225844974213,0.9999941753543163,13.495084903644077,-0.933056128887875,-403.0405579794523,28.077695040116303,-89.9742431640625,6287.025390625,True
1598631313.4311714,0,5,0.5,0.5,-0.0026275169372558596,-0.14,-0.011,-0.56,-0.0013037588528751003,10,1,100,-0.03548094193301726,-10,-1,-100,489.0628901316086,0.0034073103294930416,-0.00012353299446048099,0.9999941874710662,14.169011786431717,-0.983248135748504,-455.25014747094855,29.94021649286289,-89.97567749023438,6280.70947265625,True
1598631313.555428,0,5,0.5,0.5,0.0007737777709960936,-0.14,-0.011,-0.56,-0.0009774579997007034,10,1,100,-0.027483637387879442,-10,-1,-100,491.5499023522716,0.003327701734103615,-0.0001204641968882737,0.9999944559294047,14.82736136300383,-1.0326258982895653,-510.5238948966153,31.804856994409228,-89.98171997070312,6274.3935546875,True
1598631313.7131245,0,5,0.5,0.5,0.0027288734436035156,-0.14,-0.011,-0.56,-0.0006978677413503756,10,1,100,-0.01978980314788172,-10,-1,-100,494.19215648714453,0.0031821496683050858,-0.00011501791200244935,0.9999949303343335,15.474121168369162,-1.0813303316946843,-568.8495580273978,33.67159120263289,-89.9893798828125,6268.07861328125,True
1598631313.8284812,0,5,0.5,0.5,0.0041566215515136725,-0.14,-0.011,-0.56,8.969060209720295e-05,10,1,100,0.0006305935699722973,-10,-1,-100,498.42107026523445,0.002861440319805433,-0.00010281011974925627,0.9999959007862859,16.431714911595474,-1.1534737234282197,-662.0439432617086,36.475565530968495,-89.99757385253906,6258.6044921875,True
1598631313.9964283,0,5,0.5,0.5,-0.0009127449035644531,-0.14,-0.011,-0.56,3.292220278285161e-05,10,1,100,-0.0018181649614699771,-10,-1,-100,501.4279167234199,0.0025906855062893764,-9.217796596959067e-05,0.99999663992027,17.067878514754863,-1.2011855089294892,-727.9625867947452,38.34742720989426,-89.99691009521484,6252.2890625,True
1598631314.2123394,0,5,0.5,0.5,-0.008392350006103517,-0.14,-0.011,-0.56,0.0005171802723201081,10,1,100,0.011827832725380062,-10,-1,-100,505.38861462671775,0.00221987481455183,-7.809052165328362e-05,0.9999975330257961,17.868715875930697,-1.2607342584894181,-814.6462659371414,40.69007271109031,-89.9857177734375,6244.39453125,True
1598631314.323263,0,5,0.5,0.5,-0.03312360763549805,-0.14,-0.011,-0.56,0.0023057183244014996,10,1,100,0.05599419512787815,-10,-1,-100,513.154773751623,0.0014814604052993936,-4.9034732349076515e-05,0.9999989014347278,19.34724149448567,-1.368534894976879,-982.7328190272954,44.91457597372304,-89.94146728515625,6230.1845703125,True
1598631314.4341416,0,5,0.5,0.5,-0.024491236114501956,-0.14,-0.011,-0.56,0.0009054919227404662,10,1,100,0.01993442614617527,-10,-1,-100,516.8476241286844,0.0011392391639462951,-3.5400007043581274e-05,0.9999993504402725,20.02738240621544,-1.416977623486521,-1062.3852622079166,46.79526411140747,-89.91848754882812,6223.86865234375,True
1598631314.5461726,0,5,0.5,0.5,-0.017572815704345705,-0.14,-0.011,-0.56,0.0008652592901568716,10,1,100,0.0192833627555654,-10,-1,-100,520.6529012538958,0.0008358710688967817,-2.344230486738388e-05,0.9999996503849462,20.72726235858109,-1.4660173590102223,-1145.1701120917437,48.67784236540368,-89.91009521484375,6217.552734375,True
1598631314.7130475,0,5,0.5,0.5,-0.0033138710021972653,-0.14,-0.011,-0.56,0.0010511161925187554,10,1,100,0.021313535868430437,-10,-1,-100,524.6404908329714,0.0005438901013906516,-1.0970609026148372e-05,0.9999998520315906,21.44811895729718,-1.515748840603511,-1231.173146365501,50.56228198133723,-89.92385864257812,6211.2373046875,True
1598631314.831201,0,5,0.5,0.5,0.021522063446044924,-0.14,-0.011,-0.56,0.001639862568866311,10,1,100,0.036479851368948234,-10,-1,-100,530.9165827656398,0.00014318360417189796,5.617234569567513e-06,0.999999989733451,22.566713937590777,-1.5914812384316026,-1366.0268701587527,53.39237199430452,-89.97042846679688,6201.763671875,True
1598631314.9473357,0,5,0.5,0.5,0.0211947868347168,-0.14,-0.011,-0.56,0.0012224139372700542,10,1,100,0.024493010225310703,-10,-1,-100,535.2952240179293,-0.00010915635860724492,1.6784695524770482e-05,0.9999999939015818,23.33913949890941,-1.6428104804414536,-1459.8246538495064,55.28134551949359,-90.0072250366211,6195.4482421875,True
1598631315.0642693,0,5,0.5,0.5,0.014737246704101564,-0.14,-0.011,-0.56,0.0012117924714952306,10,1,100,0.02449942199284531,-10,-1,-100,539.8011959017022,-0.0003354901971179523,2.6715602256626566e-05,0.9999999433663006,24.10817008523645,-1.6930194668883802,-1549.803759239636,56.97547337784797,-90.02739715576172,6189.59375,True
1598631315.1800904,0,5,0.5,0.5,-0.0030274833679199225,-0.14,-0.011,-0.56,0.0012957249137807167,10,1,100,0.02536046612574329,-10,-1,-100,544.446816264186,-0.0005458780516400106,3.6377872838855535e-05,0.9999998503468904,24.799845364851986,-1.7370180154645356,-1630.5332197863834,58.469026489638715,-90.01809692382812,6184.2138671875,True
1598631315.3434312,0,5,0.5,0.5,-0.023260645294189457,-0.14,-0.011,-0.56,0.0012907268736205605,10,1,100,0.025621312163894037,-10,-1,-100,549.1624081339687,-0.0007364135030328473,4.498978391889126e-05,0.9999997278354988,25.436583967718512,-1.7765156406140732,-1703.7955651273442,59.79576773030461,-89.98171997070312,6179.22705078125,True
1598631315.4530604,0,5,0.5,0.5,-0.039264903259277346,-0.14,-0.011,-0.56,0.0013626698663784732,10,1,100,0.025983829404133952,-10,-1,-100,554.033424067311,-0.000909898525565496,5.334812324409705e-05,0.9999995846192393,26.02361216440413,-1.8119795074636873,-1770.057615098105,60.97463785600645,-89.92977905273438,6174.5888671875,True
1598631315.5674007,0,5,0.5,0.5,-0.06689235382080079,-0.14,-0.011,-0.56,0.0017924920594355159,10,1,100,0.0341588304606164,-10,-1,-100,561.4450751865515,-0.0011390851253449104,6.473459834489599e-05,0.9999993491470426,26.822313334912547,-1.858594778348872,-1858.284424563544,62.53021103619648,-89.84884643554688,6168.1337890625,True
1598631315.680239,0,5,0.5,0.5,-0.0437605941772461,-0.14,-0.011,-0.56,0.0014232153267724904,10,1,100,0.025959377132404416,-10,-1,-100,566.482325254241,-0.001270513780769138,7.162545147532755e-05,0.9999991903319361,27.330115312802604,-1.8874715250983072,-1912.4996225155214,63.46139511726342,-89.81729125976562,6164.07861328125,True
1598631315.7962687,0,5,0.5,0.5,-0.018766929626464843,-0.14,-0.011,-0.56,0.001404462584701979,10,1,100,0.024814840462761563,-10,-1,-100,571.6052435424645,-0.001377398813299214,7.76220880673344e-05,0.9999990483732076,27.79407052029701,-1.9130381320752372,-1959.7203433932016,64.25227832390183,-89.82791137695312,6160.353515625,True
1598631315.9650824,0,5,0.5,0.5,0.013711637878417969,-0.14,-0.011,-0.56,0.0013868051187114758,10,1,100,0.024118186563831162,-10,-1,-100,576.7981843960006,-0.0014662217438979194,8.282117673930449e-05,0.9999989216666437,28.207519600799937,-1.9349164150375695,-2000.381500058595,64.93820654261116,-89.8829345703125,6156.875,True
1598631316.0840814,0,5,0.5,0.5,0.06478341217041016,-0.14,-0.011,-0.56,0.0016001919617636673,10,1,100,0.02649582838087769,-10,-1,-100,584.6439445157303,-0.0015667574138287213,8.940223611814681e-05,0.9999987686384652,28.776879558678434,-1.9639301662815576,-2053.5290836347535,65.82162284410873,-89.9999771118164,6151.99755859375,True
1598631316.191255,0,5,0.5,0.5,0.04923318252563477,-0.14,-0.011,-0.56,0.0013322642495959918,10,1,100,0.02193070291905,-10,-1,-100,589.9497696331237,-0.0016150978450055616,9.287314271416226e-05,0.999998691415909,29.11281840767551,-1.9801303991586885,-2083.8365142242374,66.34295990161712,-90.07135009765625,6148.9052734375,True
1598631316.3043032,0,5,0.5,0.5,0.024283120727539062,-0.14,-0.011,-0.56,0.0012991761776974039,10,1,100,0.02084988570965884,-10,-1,-100,595.2553879419575,-0.0016478490428205894,9.565854037765332e-05,0.9999986377205601,29.44331879708174,-1.9958715187019254,-2111.888171881517,66.80043881517801,-90.09270477294922,6145.9619140625,True
1598631316.4161522,0,5,0.5,0.5,-0.02041615905761719,-0.14,-0.011,-0.56,0.0012093793808143174,10,1,100,0.019971510837548296,-10,-1,-100,600.6307591211516,-0.00166844457940988,9.73117101563253e-05,0.9999986034105829,29.744603026570942,-2.0095596711164068,-2136.135326807458,67.19897781487691,-90.04582977294922,6143.1572265625,True
1598631316.5330591,0,5,0.5,0.5,-0.06148565902709961,-0.14,-0.011,-0.56,0.0012237842536729723,10,1,100,0.019087716279583347,-10,-1,-100,606.0224341707071,-0.0016781127834843083,9.889015076536262e-05,0.9999985870781138,30.027406501510228,-2.0219438670575935,-2157.7361071348,67.55201504107751,-89.94961547851562,6140.458984375,True
1598631316.6517062,0,5,0.5,0.5,-0.08518613510131837,-0.14,-0.011,-0.56,0.0011482615391671075,10,1,100,0.018354174808700975,-10,-1,-100,611.467583280406,-0.0016793774108344475,9.958952630821008e-05,0.9999985848857177,30.293082077540916,-2.033140645120077,-2176.9574617822364,67.86525384292361,-89.83883666992188,6137.8544921875,True
1598631316.7705495,0,5,0.5,0.5,-0.08105643539428711,-0.14,-0.011,-0.56,0.0011836499911333331,10,1,100,0.01767570115847688,-10,-1,-100,616.8860670329304,-0.001673659603527747,0.00010050499781679699,0.9999985943801505,30.54253362718217,-2.04322618818749,-2194.009005218423,68.14344480769608,-89.75625610351562,6135.3330078125,True
1598631316.992958,0,5,0.5,0.5,-0.05003767929077149,-0.14,-0.011,-0.56,0.0011348989612084879,10,1,100,0.017049030718338715,-10,-1,-100,622.3579011262627,-0.0016622786160856878,0.00010086153491667567,0.9999986133274154,30.776474862314323,-2.052266851886013,-2209.064351783049,68.39056604930073,-89.73464965820312,6132.8828125,True
1598631317.1132724,0,5,0.5,0.5,0.07989094619750978,-0.14,-0.011,-0.56,0.0010970395073859804,10,1,100,0.01432339974667654,-10,-1,-100,633.3503514180193,-0.0016267976506365992,0.00010081490444232319,0.9999986716819971,31.201807320544106,-2.067500035253224,-2233.8995059077733,68.8054460107427,-89.90310668945312,6128.17138671875,True
1598631317.2191553,0,5,0.5,0.5,0.10621725234985353,-0.14,-0.011,-0.56,0.0010522785519815469,10,1,100,0.015390557269079518,-10,-1,-100,638.8386414709967,-0.0016040169333071481,0.00010034451094707609,0.9999987085294945,31.398690140260417,-2.0740546675703713,-2244.7144552368322,68.99503384596802,-90.07536315917969,6125.8583984375,True
1598631317.3882751,0,5,0.5,0.5,0.13147943038940432,-0.14,-0.011,-0.56,0.0010001827986093107,10,1,100,0.015195482007664199,-10,-1,-100,644.369609566289,-0.001581408510458954,9.942735243509678e-05,0.9999987446298744,31.589322932973033,-2.08018812961051,-2254.2522492663174,69.15460515868577,-90.24895477294922,6123.615234375,True
1598631317.5507698,0,5,0.5,0.5,0.08174735488891602,-0.14,-0.011,-0.56,0.0008874396611592234,10,1,100,0.013599795911469745,-10,-1,-100,652.6930632058065,-0.0015463358423618914,9.755952061437212e-05,0.9999987996630807,31.850608844491624,-2.0877363137869467,-2265.7769517735505,69.35629761992496,-90.31639099121094,6120.33984375,True
1598631317.663216,0,5,0.5,0.5,-0.11649872512817383,-0.14,-0.011,-0.56,0.0008372440895611801,10,1,100,0.013334339405506997,-10,-1,-100,661.016457865946,-0.0015121008685854856,9.540090796473094e-05,0.9999988522241564,32.10356459394463,-2.094708851038953,-2276.0080080228227,69.5310352926723,-90.08674621582031,6117.12841796875,True
1598631317.776284,0,5,0.5,0.5,-0.2039732360839844,-0.14,-0.011,-0.56,0.0008931455333117235,10,1,100,0.014461873018688062,-10,-1,-100,666.5743707825895,-0.0014913518781578855,9.394696198316473e-05,0.9999988835211486,32.267925811215186,-2.099073169583751,-2282.002278642134,69.6280978058578,-89.778076171875,6115.033203125,True
1598631317.8911028,0,5,0.5,0.5,-0.24535602188110356,-0.14,-0.011,-0.56,0.0009266425920445777,10,1,100,0.014497423038732849,-10,-1,-100,672.1750715187518,-0.0014729733349525217,9.293277048674245e-05,0.9999989108559343,32.42566039658622,-2.1030178452503776,-2287.195270001322,69.71273159511938,-89.47244262695312,6112.96875,True
1598631318.113081,0,5,0.5,0.5,-0.1870918495178223,-0.14,-0.011,-0.56,0.0009380068128710156,10,1,100,0.014532659031732342,-10,-1,-100,677.7491111140698,-0.0014567723860190334,9.211950511594311e-05,0.9999989346635386,32.57281320307248,-2.106296049646351,-2291.3459123442312,69.78634614017781,-89.31192016601562,6110.92919921875,True
1598631318.2213335,0,5,0.5,0.5,0.13910771713256836,-0.14,-0.011,-0.56,0.0009412919002021545,10,1,100,0.013225040955736152,-10,-1,-100,688.9346078600502,-0.00143035918177482,9.141682831931066e-05,0.9999989728572598,32.83815172134198,-2.1110198304411196,-2296.995749516412,69.9099587046254,-89.65032958984375,6106.908203125,True
1598631318.3330464,0,5,0.5,0.5,0.29320140304565434,-0.14,-0.011,-0.56,0.0009679554834523159,10,1,100,0.01474550425946981,-10,-1,-100,694.5086585140089,-0.0014203907537883437,9.102868941509853e-05,0.9999989871014292,32.957767892757744,-2.112528640730365,-2298.799453893755,69.9667667949567,-90.141357421875,6104.91064453125,True
1598631318.4478564,0,5,0.5,0.5,0.37221933822631836,-0.14,-0.011,-0.56,0.0009302503069025225,10,1,100,0.014980461662730482,-10,-1,-100,700.1094283100683,-0.0014136844209778235,9.034200048399991e-05,0.999998996666837,33.073017578245896,-2.1137239846528,-2300.064737757217,70.01485316359093,-90.64642333984375,6102.93359375,True
1598631318.5635116,0,5,0.5,0.5,0.2865890800476074,-0.14,-0.011,-0.56,0.0009010265746807895,10,1,100,0.01514503315891258,-10,-1,-100,705.7104508487973,-0.0014092775985968776,8.946158834822024e-05,0.9999990029661402,33.187081539893185,-2.114796450164809,-2301.0630799688256,70.05608805559106,-90.9269790649414,6100.97412109375,True
1598631318.6881592,0,5,0.5,0.5,0.14098899230957032,-0.14,-0.011,-0.56,0.000934253590679652,10,1,100,0.015437335625093874,-10,-1,-100,708.5456294656033,-0.0014081057273383115,8.897317102713644e-05,0.9999990046605224,33.24636115284956,-2.1154614299768464,-2301.6714205486514,70.07496371562512,-90.94208526611328,6099.99853515625,True
1598631318.7921262,0,5,0.5,0.5,-0.2109882797241211,-0.14,-0.011,-0.56,0.0007495058218162829,10,1,100,0.015388984240219398,-10,-1,-100,716.9388050428824,-0.001406758379770866,8.685913391049141e-05,0.9999990067426827,33.43188713609219,-2.1179079210946057,-2303.8609874999443,70.12556368240537,-90.45025634765625,6097.0859375,True
1598631318.904921,0,5,0.5,0.5,-0.4061565795898438,-0.14,-0.011,-0.56,0.000828576115511141,10,1,100,0.015612915886355685,-10,-1,-100,722.5558230655733,-0.0014076961491858735,8.566583046231635e-05,0.999999005525964,33.56283911400824,-2.1199954623798085,-2305.7369873353273,70.1563441265024,-89.77777099609375,6095.15234375,True
1598631319.0194588,0,5,0.5,0.5,-0.4916081466674805,-0.14,-0.011,-0.56,0.0009017382696102038,10,1,100,0.01572869273322423,-10,-1,-100,728.1567858913913,-0.0014096960970068667,8.525496970805996e-05,0.9999990027437548,33.69404943338492,-2.1221287263005024,-2307.515584676214,70.18333738832706,-89.11819458007812,6093.22900390625,True
1598631319.1350873,0,5,0.5,0.5,-0.3799597488403321,-0.14,-0.011,-0.56,0.0009221563284228214,10,1,100,0.01588218601097515,-10,-1,-100,733.7843010018114,-0.0014129838573520063,8.507498045910078e-05,0.9999989981189314,33.81700186039907,-2.12378128976742,-2308.6288551941307,70.20709995475457,-88.75106811523438,6091.3134765625,True
1598631319.3001437,0,5,0.5,0.5,-0.12530282135009768,-0.14,-0.011,-0.56,0.0009761279436957648,10,1,100,0.01604391858066652,-10,-1,-100,739.3852052412694,-0.0014174975623698733,8.540914836255341e-05,0.9999989917024608,33.92826887963482,-2.124731732211632,-2308.872365776945,70.22847685794335,-88.82229614257812,6089.40380859375,True
1598631319.4142385,0,5,0.5,0.5,0.45612758636474615,-0.14,-0.011,-0.56,0.001096327730954933,10,1,100,0.01651943084257119,-10,-1,-100,747.8374046715908,-0.0014259594736976578,8.681176302873314e-05,0.9999989795511279,34.07282896626991,-2.1247662315064733,-2307.6207358375054,70.25701782305794,-89.71066284179688,6086.5498046875,True
1598631319.5210712,0,5,0.5,0.5,0.6088169387817384,-0.14,-0.011,-0.56,0.0010046668085475518,10,1,100,0.016433384233549043,-10,-1,-100,753.4382505902322,-0.0014328738781936943,8.725777258091177e-05,0.9999989696287342,34.157321477810946,-2.1239979055322715,-2305.944968141983,70.27450465356388,-90.63938903808594,6084.6513671875,True
1598631319.6881592,0,5,0.5,0.5,0.6186199920654297,-0.14,-0.011,-0.56,0.0010111614474380079,10,1,100,0.016582587544272186,-10,-1,-100,759.065826950362,-0.0014405047459017512,8.772570608810939e-05,0.9999989586245966,34.24225754441199,-2.1231920981080243,-2304.247958848366,70.29001526605833,-91.39559173583984,6082.7587890625,True
1598631319.80242,0,5,0.5,0.5,0.2574299171447754,-0.14,-0.011,-0.56,0.0008053390180078853,10,1,100,0.01720467294370926,-10,-1,-100,767.5182095869677,-0.0014530728380631182,8.628236564019328e-05,0.9999989405667792,34.391734115054035,-2.1232389383057257,-2303.0139676474814,70.30728646515311,-91.48339080810547,6079.9345703125,True
1598631319.9194598,0,5,0.5,0.5,-0.30336687393188483,-0.14,-0.011,-0.56,0.0007877770119972191,10,1,100,0.016892585685605206,-10,-1,-100,773.1191185656935,-0.0014616214056457184,8.481347356263442e-05,0.9999989282341963,34.51185059299811,-2.1245037122197417,-2303.585490519544,70.31978559686948,-90.75161743164062,6078.05078125,True
1598631320.0353396,0,5,0.5,0.5,-0.7259091522216797,-0.14,-0.011,-0.56,0.0007923228434900326,10,1,100,0.01695194648534664,-10,-1,-100,778.7628099146532,-0.0014698838237381794,8.352322441248331e-05,0.9999989162321207,34.64617960655129,-2.1266621535190398,-2305.06288768598,70.33127417219191,-89.5628662109375,6076.169921875,True
1598631320.1480901,0,5,0.5,0.5,-0.892114163208008,-0.14,-0.011,-0.56,0.0009020370469916409,10,1,100,0.01705764348035189,-10,-1,-100,784.3904496326577,-0.001478298607918676,8.335070513463148e-05,0.9999989038423422,34.78263074095177,-2.129024168436945,-2306.635138684824,70.34176315601432,-88.37582397460938,6074.29296875,True
1598631320.2556238,0,5,0.5,0.5,-0.7116366516113282,-0.14,-0.011,-0.56,0.0009926663660395443,10,1,100,0.01707354116846733,-10,-1,-100,790.0075308462838,-0.001486028752103147,8.401987698731774e-05,0.9999988923289906,34.90819175465921,-2.130815053124025,-2307.4457870970546,70.35146396996555,-87.68621826171875,6072.41796875,True
1598631320.4333484,0,5,0.5,0.5,-0.249679721069336,-0.14,-0.011,-0.56,0.001112377107240517,10,1,100,0.017165026197164847,-10,-1,-100,795.6350486176088,-0.0014938184446634652,8.571761731224203e-05,0.9999988805788456,35.0139389793122,-2.1314738389343124,-2306.9154319485397,70.36035786561732,-87.79672241210938,6070.5458984375,True
1598631320.5373847,0,5,0.5,0.5,0.8289042877197267,-0.14,-0.011,-0.56,0.001353473749742841,10,1,100,0.017682846277152865,-10,-1,-100,804.087373798131,-0.0015055339526388169,8.945222105141876e-05,0.9999988626822622,35.1322005441715,-2.1300521162226147,-2303.4454840379567,70.3727536281333,-89.42745971679688,6067.7412109375,True
1598631320.7063532,0,5,0.5,0.5,1.2030300506591798,-0.14,-0.011,-0.56,0.0011909134591357431,10,1,100,0.01743087740958263,-10,-1,-100,809.7149530363968,-0.0015138137552837081,9.13658190154341e-05,0.9999988500094394,35.18739676343426,-2.127593992087123,-2299.5864476057236,70.38046574014517,-91.26556396484375,6065.87353515625,True
1598631320.8163433,0,5,0.5,0.5,1.59946669921875,-0.14,-0.011,-0.56,0.0010116775111129817,10,1,100,0.01794182333110854,-10,-1,-100,818.1673383819871,-0.0015259059439914938,9.14718957679805e-05,0.9999988316212886,35.27612338828992,-2.1240130465409863,-2294.1905764386083,70.39105539875928,-93.29994201660156,6063.076171875,True
1598631320.9272335,0,5,0.5,0.5,0.6107391021728517,-0.14,-0.011,-0.56,0.0007325448923306249,10,1,100,0.017605315305315516,-10,-1,-100,823.8110319332918,-0.0015337551043406372,8.902692889664936e-05,0.9999988198340466,35.36982176608051,-2.1235552336749195,-2292.84161278494,70.39774903990761,-93.51079559326172,6061.2138671875,True
1598631321.1010914,0,5,0.5,0.5,-0.07612805175781251,-0.14,-0.011,-0.56,0.0006328154756843459,10,1,100,0.017581792032858416,-10,-1,-100,829.4118166367989,-0.0015405920836734858,8.589641775064712e-05,0.9999988095982099,35.48435707911208,-2.124269964546851,-2292.83017790468,70.40400509007014,-92.69491577148438,6059.3525390625,True
1598631321.2140572,0,5,0.5,0.5,-1.5147257942199708,-0.14,-0.011,-0.56,0.0002772428137597389,10,1,100,0.017981508250323172,-10,-1,-100,837.8908143591834,-0.0015503617402752002,7.981837064395734e-05,0.9999987950030249,35.708861396879904,-2.1284896886581066,-2296.179040676428,70.41267109415497,-89.98516845703125,6056.564453125,True
1598631321.3273146,0,5,0.5,0.5,-1.5728967689514162,-0.14,-0.011,-0.56,0.000609056669937204,10,1,100,0.017611228761645566,-10,-1,-100,843.5078965114662,-0.001555796396075481,7.731390387850602e-05,0.9999987867593312,35.873198545725586,-2.1322726882584964,-2299.3310703692914,70.41840443324237,-87.7354736328125,6054.70654296875,True
1598631321.4403155,0,5,0.5,0.5,-1.5260000404357912,-0.14,-0.011,-0.56,0.0008300620509026169,10,1,100,0.017580842457046015,-10,-1,-100,849.1354755470529,-0.0015603826507863427,7.705190057372127e-05,0.9999987796337492,36.02711168648027,-2.1355814197960026,-2301.776285425716,70.4236119812202,-86.00558471679688,6052.8505859375,True
1598631321.54945,0,5,0.5,0.5,-1.075897342681885,-0.14,-0.011,-0.56,0.001100521901059599,10,1,100,0.01763606461836493,-10,-1,-100,854.7792297106935,-0.0015649793710419638,7.927816784767217e-05,0.9999987722765166,36.15411109977116,-2.137466403645507,-2302.4774463173,70.42852189154443,-85.26840209960938,6050.99609375,True
1598631321.7121017,0,5,0.5,0.5,-0.47460613479614266,-0.14,-0.011,-0.56,0.0013829593480739826,10,1,100,0.017617814817466534,-10,-1,-100,860.4231667941203,-0.0015689205270671442,8.387397098697615e-05,0.9999987657260067,36.25445822753962,-2.1379257981681814,-2301.474444168445,70.43319269397345,-85.54144287109375,6049.142578125,True
1598631321.8232763,0,5,0.5,0.5,0.9723539756774904,-0.14,-0.011,-0.56,0.0019765579017417493,10,1,100,0.01790271669167939,-10,-1,-100,868.8754925748799,-0.0015750251385988762,9.345000037089153e-05,0.9999987552806805,36.353575959789325,-2.1357781574364902,-2296.7390928890663,70.44005313837441,-87.83050537109375,6046.365234375,True
1598631321.942133,0,5,0.5,0.5,1.444661046600342,-0.14,-0.011,-0.56,0.0017141762295828642,10,1,100,0.01776082611800954,-10,-1,-100,874.5193084535422,-0.0015792216973343975,9.97665593554434e-05,0.9999987480519484,36.389672830892465,-2.13259454254958,-2291.739601564341,70.44498930167042,-90.3389892578125,6044.513671875,True
1598631322.0563216,0,5,0.5,0.5,1.6198348991394045,-0.14,-0.011,-0.56,0.001485222170042995,10,1,100,0.01789574298275512,-10,-1,-100,880.1200321763754,-0.0015842038059170579,0.00010341984812709173,0.9999987398005242,36.41498022401705,-2.128682130689276,-2286.089736166284,70.44967362478071,-92.59748077392578,6042.6640625,True
1598631322.171061,0,5,0.5,0.5,1.2389520233154299,-0.14,-0.011,-0.56,0.0013151865114573705,10,1,100,0.017960347985992442,-10,-1,-100,885.763847418013,-0.0015892673156926106,0.00010518437924839444,0.9999987315820184,36.48732590433888,-2.12741137415779,-2283.4076852640615,70.45411016841548,-93.86125946044922,6040.8154296875,True
1598631322.3402839,0,5,0.5,0.5,0.6885756622314453,-0.14,-0.011,-0.56,0.0010344764462750268,10,1,100,0.018043503225845924,-10,-1,-100,891.4076014084276,-0.0015945759974769157,0.000104221900174874,0.9999987232317769,36.601443611378116,-2.1284870863607064,-2283.3403925490284,70.4583642967727,-94.08547973632812,6038.9677734375,True
1598631322.457074,0,5,0.5,0.5,-0.5553021270751954,-0.14,-0.011,-0.56,0.0005336486502716827,10,1,100,0.018375850586518215,-10,-1,-100,899.8599876448279,-0.0016023743351834836,9.8777279705803e-05,0.9999987113189391,36.74280299606977,-2.1282808590781523,-2281.3811991463335,70.46451556184111,-92.48570251464844,6036.19970703125,True
1598631322.5722442,0,5,0.5,0.5,-1.1912160903930664,-0.14,-0.011,-0.56,0.0006106597148368171,10,1,100,0.018137802341741883,-10,-1,-100,905.5038645488676,-0.0016072523739688437,9.451048994900163e-05,0.999998703902947,36.905598105355175,-2.1321589141101214,-2284.3304053671186,70.4685759255964,-90.29350280761719,6034.3544921875,True
1598631322.7520704,0,5,0.5,0.5,-1.5588310302734376,-0.14,-0.011,-0.56,0.0006242165592651727,10,1,100,0.01808258897149169,-10,-1,-100,911.147557114251,-0.001611138236791539,9.073920095028499e-05,0.999998697999142,37.07726759038476,-2.136660941330005,-2287.804144737173,70.472445004545,-88.01055908203125,6032.51123046875,True
1598631322.8498602,0,5,0.5,0.5,-1.6166963592529298,-0.14,-0.011,-0.56,0.0008283401416431341,10,1,100,0.018294611916064397,-10,-1,-100,919.5998217688175,-0.0016165521792301002,8.915398233636354e-05,0.9999986894044507,37.29254853565188,-2.1412572648762627,-2290.365006784713,70.47794685788679,-86.098388671875,6029.748046875,True
1598631322.9584055,0,5,0.5,0.5,-0.5541750976562501,-0.14,-0.011,-0.56,0.0011934344677339672,10,1,100,0.01811703232266144,-10,-1,-100,925.2436373162782,-0.0016198127007722306,9.102293582045281e-05,0.9999986839599537,37.39939695563225,-2.1423543008998545,-2289.812661124312,70.48162613846766,-86.08523559570312,6027.90625,True
1598631323.127304,0,5,0.5,0.5,0.15022129211425778,-0.14,-0.011,-0.56,0.0013800019137997742,10,1,100,0.018164886152828283,-10,-1,-100,930.8712169970386,-0.0016231655804723158,9.441155307491996e-05,0.999998678209105,37.47714740760383,-2.1418420327575647,-2287.489480563541,70.48522750406397,-87.08013916015625,6026.06640625,True
1598631323.2431629,0,5,0.5,0.5,1.6016737213134766,-0.14,-0.011,-0.56,0.0016470617490942229,10,1,100,0.018345406753976147,-10,-1,-100,939.3236644187709,-0.0016278109852629434,9.991905676101778e-05,0.999998670122905,37.54594914154056,-2.1383011840431485,-2281.137216476403,70.49053951689098,-89.95074462890625,6023.3076171875,True
1598631323.3591228,0,5,0.5,0.5,1.5659838958740235,-0.14,-0.011,-0.56,0.0013928665358963802,10,1,100,0.018356688312992975,-10,-1,-100,944.9674190705409,-0.001632092468074641,0.00010261487408530307,0.9999986628712878,37.57299539920614,-2.134710062615958,-2275.8049702263334,70.49419739134909,-92.19685363769531,6021.4697265625,True
1598631323.4752507,0,5,0.5,0.5,1.470258782196045,-0.14,-0.011,-0.56,0.0011460114882658342,10,1,100,0.018418849682160968,-10,-1,-100,950.6111120341811,-0.001636506293384841,0.00010282221210532273,0.9999986556364685,37.628924244136854,-2.132568159249885,-2272.246764113082,70.49778435629453,-93.85762023925781,6019.6328125,True
1598631323.5917306,0,5,0.5,0.5,0.986676287841797,-0.14,-0.011,-0.56,0.0008646696846924184,10,1,100,0.018498085252767065,-10,-1,-100,956.2548046162119,-0.0016411962406926307,0.0001004551958793487,0.9999986481909129,37.75379488127304,-2.1341547075271974,-2272.850375537602,70.50109342337049,-94.49540710449219,6017.796875,True
1598631323.7561824,0,5,0.5,0.5,0.34946882171630855,-0.14,-0.011,-0.56,0.0005845236089003605,10,1,100,0.01859002281304693,-10,-1,-100,961.8720702453284,-0.001646253243117515,9.57600047160768e-05,0.9999986403392161,37.84872046588642,-2.1339098726207304,-2271.659516976566,70.50465920264371,-94.09469604492188,6015.9619140625,True
1598631323.8672006,0,5,0.5,0.5,-1.1872445617675782,-0.14,-0.011,-0.56,-2.0998537351341095e-06,10,1,100,0.018905105743545512,-10,-1,-100,970.3673035749234,-0.001653675018410184,8.616145152095216e-05,0.9999986289666292,38.00369356048988,-2.134151956343822,-2270.639456301113,70.50996266348855,-91.5762939453125,6013.21044921875,True
1598631323.9964402,0,5,0.5,0.5,-1.6117465774536135,-0.14,-0.011,-0.56,0.0003388187199716392,10,1,100,0.018656255920120844,-10,-1,-100,976.0109971183119,-0.001658117613331985,8.05423438667441e-05,0.9999986220785064,38.18739290042052,-2.1388914301695485,-2274.7615121480317,70.51364638432294,-88.953125,6011.376953125,True
1598631324.1895423,0,5,0.5,0.5,-1.7661675186157229,-0.14,-0.011,-0.56,0.0004938754575913801,10,1,100,0.0186052485245629,-10,-1,-100,981.6282617362449,-0.0016616499238680587,7.685294075681036e-05,0.9999986165056208,38.362938175874625,-2.1433162492734734,-2278.3706515221447,70.51725361500864,-86.63250732421875,6009.54443359375,True
1598631324.3243897,0,5,0.5,0.5,-1.5954164138793947,-0.14,-0.011,-0.56,0.0008527576678928416,10,1,100,0.018856673873800564,-10,-1,-100,990.1070762242889,-0.0016671058023078882,7.67726862428653e-05,0.9999986074311297,38.57023879025439,-2.147135403929993,-2280.4109069314713,70.52226352594873,-85.01910400390625,6006.7978515625,True
1598631324.454756,0,5,0.5,0.5,-0.5561936508178712,-0.14,-0.011,-0.56,0.0012943752506258785,10,1,100,0.018672818047143425,-10,-1,-100,995.7508917512605,-0.0016703512814639995,8.072738766374066e-05,0.9999986017038651,38.669637235195566,-2.1476871567221685,-2279.4754864482,70.52569409603022,-85.21466064453125,6004.966796875,True
1598631324.6622217,0,5,0.5,0.5,0.1755409439086914,-0.14,-0.011,-0.56,0.0015440365109897348,10,1,100,0.018696322059466985,-10,-1,-100,1001.3948900966207,-0.0016734724938079588,8.660465874549075e-05,0.9999985959937372,38.73816808900455,-2.146626125975234,-2276.7354660850783,70.52909950544988,-86.41937255859375,6003.1376953125,True
1598631324.8580823,0,5,0.5,0.5,1.7288231826782228,-0.14,-0.011,-0.56,0.0020394358180147077,10,1,100,0.019006654536071397,-10,-1,-100,1009.8471543313935,-0.0016790896534456482,9.646336651823197e-05,0.9999985856753771,38.789427502767346,-2.1422247969696513,-2269.6551422789694,70.53420854489104,-89.607666015625,6000.39501953125,True
1598631324.993479,0,5,0.5,0.5,2.460481607055664,-0.14,-0.011,-0.56,0.0017858074475149092,10,1,100,0.019200111905575308,-10,-1,-100,1018.299358582939,-0.0016859121408523369,0.00010312570795033225,0.9999985735316533,38.81318445716758,-2.1360631987939263,-2261.0574033726557,70.53971673844298,-93.20759582519531,5997.6533203125,True
1598631325.1390495,0,5,0.5,0.5,1.6627710357666017,-0.14,-0.011,-0.56,0.0011940255507928083,10,1,100,0.019072891089368115,-10,-1,-100,1023.9594086080324,-0.0016909129348497453,0.00010380227064945431,0.9999985650182381,38.934999487172185,-2.1375315112805984,-2261.5193284644724,70.54332216188084,-94.948974609375,5995.8271484375,True
1598631325.3086612,0,5,0.5,0.5,1.1881466690063478,-0.14,-0.011,-0.56,0.0008360123114193908,10,1,100,0.019180658176049123,-10,-1,-100,1029.6030403360492,-0.0016963936150043465,0.00010115961904092502,0.9999985560066746,39.062034732288694,-2.1390805516708546,-2262.2742235022815,70.5468105794603,-95.663330078125,5994.001953125,True
1598631325.4061155,0,5,0.5,0.5,0.5607971542358399,-0.14,-0.011,-0.56,0.0004089550822027367,10,1,100,0.019284258465915305,-10,-1,-100,1035.2469167977106,-0.001702272290169234,9.486996129999713e-05,0.9999985466333142,39.15754843224641,-2.1387230722578754,-2261.1995199305934,70.55020672041385,-95.33613586425781,5992.17724609375,True
1598631325.5880733,0,5,0.5,0.5,0.3617123077392579,-0.14,-0.011,-0.56,0.0005854841263766376,10,1,100,0.019010549390928194,-10,-1,-100,1038.0554880036507,-0.0017050840966631043,9.074898329184446e-05,0.9999985422253601,39.19352620554989,-2.1378498522938765,-2259.98492820937,70.55189946237671,-94.78406524658203,5991.265625,True
1598631325.775907,0,5,0.5,0.5,-0.48325335769653327,-0.14,-0.011,-0.56,5.390264287197016e-05,10,1,100,0.01932779853921081,-10,-1,-100,1043.699364084634,-0.001710481670747982,8.216080194400407e-05,0.9999985337499534,39.244236437538156,-2.1349011459190894,-2256.3387781070637,70.55506214596907,-93.12615203857422,5989.44287109375,True
1598631325.9170759,0,5,0.5,0.5,-1.0498441741943358,-0.14,-0.011,-0.56,-8.309583656654785e-05,10,1,100,0.019346175610534474,-10,-1,-100,1049.3431185266236,-0.0017155112280672858,7.310309830453791e-05,0.9999985258374952,39.38695575991747,-2.1369663815187665,-2257.9933821243694,70.55835485824136,-90.9802017211914,5987.62109375,True
1598631326.0689034,0,5,0.5,0.5,-1.3105390113830566,-0.14,-0.011,-0.56,1.7577075867048495e-06,10,1,100,0.019377640529392604,-10,-1,-100,1055.0031078092288,-0.0017203255926874002,6.564355411363309e-05,0.9999985180842914,39.56120164259226,-2.1407910429622614,-2261.4415725600857,70.56168442737935,-88.88165283203125,5985.7998046875,True
1598631326.289059,0,5,0.5,0.5,-1.0875374244689942,-0.14,-0.011,-0.56,0.00014775286074650913,10,1,100,0.01937788830277765,-10,-1,-100,1060.6467399015091,-0.0017246591090898924,6.0203091544763394e-05,0.999998510962164,39.712534806692766,-2.143441231732685,-2263.558948801113,70.56496144660794,-87.515625,5983.9794921875,True
1598631326.4384565,0,5,0.5,0.5,-0.43034643936157235,-0.14,-0.011,-0.56,0.00030331700361763174,10,1,100,0.019619548635160564,-10,-1,-100,1069.099187588552,-0.0017307490482817464,5.669543738752908e-05,0.9999985006455555,39.87535864992245,-2.144001144102474,-2263.0771330777025,70.57025395707032,-87.35992431640625,5981.2490234375,True
1598631326.6325226,0,5,0.5,0.5,0.46814906234741216,-0.14,-0.011,-0.56,0.0006950360024745093,10,1,100,0.01942922215134285,-10,-1,-100,1074.7590552292531,-0.0017345081527897835,5.710389535158832e-05,0.9999984941091726,39.94062219527162,-2.14199377406003,-2260.31685508205,70.57396237823924,-88.5224609375,5979.42919921875,True
1598631326.7713766,0,5,0.5,0.5,2.0403570167541507,-0.14,-0.011,-0.56,0.0009300236508739797,10,1,100,0.019714463339649668,-10,-1,-100,1083.2383580541937,-0.0017404744440435724,5.9653310133999854e-05,0.9999984835939464,39.97924434699335,-2.1355083767588856,-2252.875770552405,70.57949496265574,-91.70586395263672,5976.70166015625,True
1598631326.9956837,0,5,0.5,0.5,1.8065253128051761,-0.14,-0.011,-0.56,0.0007111083543339337,10,1,100,0.01960581048288703,-10,-1,-100,1088.855256895884,-0.0017448655360226349,6.002095629538761e-05,0.9999984759197117,40.00424195539023,-2.130815402025905,-2247.9144561888215,70.58329264908045,-93.92363739013672,5974.884765625,True
1598631327.1875253,0,5,0.5,0.5,1.8332723869323733,-0.14,-0.011,-0.56,0.00024544517293682383,10,1,100,0.01992991817667177,-10,-1,-100,1097.3506727938075,-0.0017517598060189,5.6159277213716875e-05,0.9999984640906794,40.21984666040903,-2.1327385095845126,-2250.4830950083056,70.58881106871134,-95.73880004882812,5972.16015625,True
1598631327.3942332,0,5,0.5,0.5,0.45115443496704105,-0.14,-0.011,-0.56,-0.00033058659900446843,10,1,100,0.020045324165356797,-10,-1,-100,1105.8028764536139,-0.0017590314808982324,4.744719892553744e-05,0.9999984517773077,40.36050003443111,-2.1302422823210208,-2248.855493261974,70.59446684234423,-95.2158432006836,5969.4375,True
1598631327.600604,0,5,0.5,0.5,-1.2520144081115725,-0.14,-0.011,-0.56,-0.0007334528281179463,10,1,100,0.02004004630680798,-10,-1,-100,1114.298170222086,-0.0017655450708160588,3.5904072748312075e-05,0.9999984407795347,40.44030635335696,-2.1244003015863893,-2243.865268562728,70.59996643348741,-92.36370086669922,5966.716796875,True
1598631327.816412,0,5,0.5,0.5,-2.8352348487854004,-0.14,-0.011,-0.56,-0.0005260891542488882,10,1,100,0.019963253727007607,-10,-1,-100,1122.750373122166,-0.001770718344197654,2.7337497558003807e-05,0.999998431903374,40.75482045579912,-2.131171636457533,-2251.8910808897817,70.60530799536406,-87.82144165039062,5963.998046875,True
1598631327.958301,0,5,0.5,0.5,-3.061890026855469,-0.14,-0.011,-0.56,0.00043269649480777564,10,1,100,0.019818035246329753,-10,-1,-100,1131.2190561984899,-0.0017740509637055506,2.8307540195280992e-05,0.9999984259696918,41.03899927373624,-2.1369738859700766,-2258.1714492827687,70.6104197574616,-83.86880493164062,5961.28173828125,True
1598631328.1600254,0,5,0.5,0.5,-1.8132232513427735,-0.14,-0.011,-0.56,0.001139100903099986,10,1,100,0.019743338603993025,-10,-1,-100,1136.8790453982074,-0.001776352716172379,3.564519722629703e-05,0.9999984216489782,41.186758071396035,-2.139096198158293,-2260.031511309764,70.61374439636265,-82.49838256835938,5959.4716796875,True
1598631328.3081822,0,5,0.5,0.5,-1.1461329650878906,-0.14,-0.011,-0.56,0.0026338894875760064,10,1,100,0.019846498982900484,-10,-1,-100,1145.3579817133723,-0.0017793360458531248,5.592710701729222e-05,0.9999984154164417,41.34479111213843,-2.139705112459701,-2259.3226387254435,70.61861144275197,-82.3629150390625,5956.7587890625,True
1598631328.5131047,0,5,0.5,0.5,-0.25009342041015625,-0.14,-0.011,-0.56,0.0025945478357727696,10,1,100,0.019807295478568313,-10,-1,-100,1151.0178495360306,-0.001781647598252991,7.400825392941318e-05,0.9999984101260432,41.408190539819806,-2.1384636822141294,-2256.5769085541087,70.62193858609956,-83.54244995117188,5954.9501953125,True
1598631328.726165,0,5,0.5,0.5,1.643434915161133,-0.14,-0.011,-0.56,0.0038723075675310666,10,1,100,0.019958261122755318,-10,-1,-100,1159.4702968681231,-0.001785078570431421,0.00010204629017589146,0.9999984015392485,41.434149276546805,-2.1337196079963965,-2248.7596539934307,70.62703797798443,-87.19894409179688,5952.23974609375,True
1598631328.94324,0,5,0.5,0.5,3.132155281829834,-0.14,-0.011,-0.56,0.0036930451421490454,10,1,100,0.02019146665326223,-10,-1,-100,1167.9654687349685,-0.0017902771371197039,0.00012586721655099707,0.9999983895313113,41.40970455622793,-2.1266616093673285,-2238.313832718419,70.63233202162945,-92.25796508789062,5949.53125,True
1598631329.0794988,0,5,0.5,0.5,3.218817457580567,-0.14,-0.011,-0.56,0.0025151002873558927,10,1,100,0.020476044511919908,-10,-1,-100,1176.434029196389,-0.0017975488950049427,0.00013675415433910478,0.9999983750568153,41.58785815090763,-2.1296449507353206,-2238.866422536962,70.63777877599908,-96.43160247802734,5946.8232421875,True
1598631329.2210822,0,5,0.5,0.5,1.9181153068542482,-0.14,-0.011,-0.56,0.0012494874154876463,10,1,100,0.0204403661784344,-10,-1,-100,1182.078027472482,-0.0018037936090607588,0.0001350725308775592,0.9999983640406753,41.72517178060542,-2.132274937292381,-2240.217630895777,70.64131298930258,-97.9112777709961,5945.0205078125,True
1598631329.439578,0,5,0.5,0.5,1.3914542778015138,-0.14,-0.011,-0.56,0.0005062857616522215,10,1,100,0.0205836948676465,-10,-1,-100,1187.7377724451944,-0.0018107329170787357,0.00012670774421223932,0.9999983525943684,41.84157548298278,-2.1335513591210313,-2240.432635929943,70.64472593445173,-98.33840942382812,5943.21728515625,True
1598631329.56387,0,5,0.5,0.5,0.23686236419677742,-0.14,-0.011,-0.56,-0.001046465137657839,10,1,100,0.021084207269571324,-10,-1,-100,1196.2063329473604,-0.0018215504117977924,0.00010490492663961714,0.9999983354731414,41.952150441766825,-2.131604499902308,-2237.328484505901,70.64970383324506,-97.02130889892578,5940.51513671875,True
1598631329.6984751,0,5,0.5,0.5,-0.5363628135681152,-0.14,-0.011,-0.56,-0.0008931539166207297,10,1,100,0.02077633285704228,-10,-1,-100,1201.8502092976123,-0.0018285394286397616,8.640740592022377e-05,0.9999983244872553,41.98980595450974,-2.1281310650067575,-2233.357869422546,70.65312219714936,-94.84856414794922,5938.71484375,True
1598631330.2253313,0,5,0.5,0.5,-0.2676714614868164,-0.14,-0.011,-0.56,8.766142324278235e-06,10,1,100,0.020417216777354637,-10,-1,-100,1204.6853945965413,-0.001831578853712633,7.773793319688902e-05,0.9999983196364464,41.99478578926088,-2.125637022553749,-2230.668943655912,70.65565402432404,-93.47695922851562,5937.81298828125,True
1598631330.351074,0,5,0.5,0.5,-1.484284297180176,-0.14,-0.011,-0.56,-0.0009888567135351862,10,1,100,0.020747003194494466,-10,-1,-100,1210.345384028391,-0.0018372898201732962,6.074902954425266e-05,0.9999983103364085,42.109907390136485,-2.1259570883847685,-2230.9270767144462,70.66225496645701,-90.62440490722656,5936.0068359375,True
1598631330.4991558,0,5,0.5,0.5,-1.6704160797119143,-0.14,-0.011,-0.56,-0.0009738531550884214,10,1,100,0.020768220700548668,-10,-1,-100,1216.0053730821237,-0.0018426218090341008,4.543658409816569e-05,0.9999983013387501,42.306204597028994,-2.13039746304687,-2235.4663291930397,70.66868549595785,-88.0634765625,5934.201171875,True
1598631330.691224,0,5,0.5,0.5,-1.5673002502441409,-0.14,-0.011,-0.56,-0.0005749933857846542,10,1,100,0.020736515934291433,-10,-1,-100,1221.649367189384,-0.001847125415386329,3.516815129524019e-05,0.9999982934439944,42.484495627177964,-2.133932916054567,-2238.950037713941,70.67237978095413,-86.15493774414062,5932.40234375,True
1598631330.829227,0,5,0.5,0.5,-1.1713832275390628,-0.14,-0.011,-0.56,-0.0003095240299336126,10,1,100,0.020955602705343055,-10,-1,-100,1230.1175610802602,-0.0018531548946752287,2.830736847202707e-05,0.9999982825063398,42.67479482500922,-2.135348841963596,-2240.0289814391567,70.67601465409464,-85.19534301757812,5929.71044921875,True
1598631330.9584434,0,5,0.5,0.5,-0.19485828857421877,-0.14,-0.011,-0.56,0.00047974912043949135,10,1,100,0.020761932349259986,-10,-1,-100,1235.7776725264266,-0.0018568184382847864,2.933419440711515e-05,0.9999982756809095,42.75317196600649,-2.1338594743188297,-2238.2029502815817,70.67834437539105,-85.83380126953125,5927.91650390625,True
1598631331.0983026,0,5,0.5,0.5,0.5930794670104982,-0.14,-0.011,-0.56,0.000917727983767589,10,1,100,0.02077862678149221,-10,-1,-100,1241.4374177248683,-0.0018602468186380591,3.434695306920701e-05,0.9999982691495324,42.791744344553074,-2.1303608671395753,-2234.318918221397,70.68084818018608,-87.48684692382812,5926.123046875,True
1598631331.2333724,0,5,0.5,0.5,1.2357776321411134,-0.14,-0.011,-0.56,0.0010716725743465086,10,1,100,0.020852338851081557,-10,-1,-100,1247.0814157022396,-0.001863982316674049,4.039507138347011e-05,0.9999982619675704,42.79685501784813,-2.1251130326886534,-2228.72084786213,70.68336352379399,-89.74380493164062,5924.3310546875,True
1598631331.3726683,0,5,0.5,0.5,1.4018565567016603,-0.14,-0.011,-0.56,0.00112602972318156,10,1,100,0.02093078007133005,-10,-1,-100,1252.7415273246588,-0.0018680429174366669,4.646598272478136e-05,0.9999982541267616,42.79792595816676,-2.119529687515706,-2222.9523707619396,70.68610501844189,-91.80013275146484,5922.5390625,True
1598631331.5982246,0,5,0.5,0.5,1.1091395385742189,-0.14,-0.011,-0.56,0.0010464698401742478,10,1,100,0.020959173918820323,-10,-1,-100,1258.401517815073,-0.0018719502326474684,5.1314847684011333e-05,0.9999982465830192,42.826191281628304,-2.1151806002528843,-2218.6516819209273,70.68989172119801,-93.03523254394531,5920.74609375,True
1598631331.7781007,0,5,0.5,0.5,0.3434285957336426,-0.14,-0.011,-0.56,0.001015548731850554,10,1,100,0.02122530016812796,-10,-1,-100,1266.896689672256,-0.0018778822025564412,5.547370807876519e-05,0.9999982352389934,42.96496305623953,-2.113389942103005,-2217.231741890819,70.69614831942455,-92.93228912353516,5918.0556640625,True
1598631331.9273415,0,5,0.5,0.5,-1.3136923004150391,-0.14,-0.011,-0.56,0.0007631116801135705,10,1,100,0.02127913370047395,-10,-1,-100,1275.365248588263,-0.0018837222042687948,5.6979848171948966e-05,0.9999982241704003,43.182430359772944,-2.1157867186765196,-2219.8630439763792,70.7020150300398,-90.48347473144531,5915.369140625,True
1598631332.1361861,0,5,0.5,0.5,-1.7586169158935547,-0.14,-0.011,-0.56,0.0007332643644748405,10,1,100,0.021011274037111165,-10,-1,-100,1281.0090023371158,-0.0018865539976275496,5.808115373392058e-05,0.9999982187687104,43.37892243298665,-2.1202982391572576,-2224.2146211501254,70.70458744472177,-87.8890380859375,5913.5810546875,True
1598631332.341031,0,5,0.5,0.5,-2.447132162475586,-0.14,-0.011,-0.56,0.0013293804107500028,10,1,100,0.021131690604812414,-10,-1,-100,1289.520531219081,-0.0018901831129431621,6.449008232945466e-05,0.9999982115228151,43.651747754969705,-2.1267692804461484,-2229.565158646409,70.70800310354383,-84.83016967773438,5910.90234375,True
1598631332.482521,0,5,0.5,0.5,-1.275833059692383,-0.14,-0.011,-0.56,0.0020815636157085664,10,1,100,0.02109230567084279,-10,-1,-100,1298.015825263341,-0.0018930851204689435,7.71277538877142e-05,0.9999982051384072,43.83213315024576,-2.1295713613935976,-2230.1702495289646,70.71155575258544,-84.05844116210938,5908.22412109375,True
1598631332.6269882,0,5,0.5,0.5,-0.30880728454589845,-0.14,-0.011,-0.56,0.0020903704729903485,10,1,100,0.020947660235471413,-10,-1,-100,1303.6594569046283,-0.0018943720504201015,8.865222638377027e-05,0.9999982017460418,43.902684783561995,-2.1294025688219276,-2228.057306748061,70.71405576492585,-84.82431030273438,5906.439453125,True
1598631332.7833834,0,5,0.5,0.5,0.508668701171875,-0.14,-0.011,-0.56,0.0023156343677743826,10,1,100,0.020993454409385232,-10,-1,-100,1309.3194462894462,-0.0018959241577638842,0.00010112294766733368,0.9999981976212444,43.931700878521994,-2.127424427440277,-2223.865082373147,70.71666017772266,-86.60641479492188,5904.65576171875,True
1598631332.9094365,0,5,0.5,0.5,1.2205218811035157,-0.14,-0.011,-0.56,0.00232819256825135,10,1,100,0.02106192568162173,-10,-1,-100,1314.979435719084,-0.0018979251966066313,0.00011251342702527455,0.999998192608705,43.92412148084288,-2.123724871541137,-2217.8637503419213,70.7194735589333,-89.0504150390625,5902.8720703125,True
1598631332.99913,0,5,0.5,0.5,1.6143636444091798,-0.14,-0.011,-0.56,0.0021772190567616763,10,1,100,0.021167339788704012,-10,-1,-100,1320.6396692704875,-0.0019006717757281198,0.00012143035965018577,0.9999981863490897,43.90124644717862,-2.1191854384173023,-2211.134008363204,70.72243697531876,-91.5693359375,5901.0888671875,True
1598631333.1272163,0,5,0.5,0.5,0.9127853050231935,-0.14,-0.011,-0.56,0.0016297650828693763,10,1,100,0.021089226384696798,-10,-1,-100,1323.4479957036674,-0.001902428881385506,0.00012449165829478832,0.9999981826314378,43.895226399599046,-2.1171111187381784,-2208.05621761299,70.72396785673452,-92.58258056640625,5900.1982421875,True
1598631333.2667415,0,5,0.5,0.5,1.2226314735412598,-0.14,-0.011,-0.56,0.001826603600877266,10,1,100,0.02131429245925129,-10,-1,-100,1329.1079852279508,-0.0019060445975256817,0.0001289975737621253,0.9999981751751441,43.99791364994319,-2.1183760239161273,-2207.6790368460033,70.72699352993558,-93.8365249633789,5898.416015625,True
1598631333.4005194,0,5,0.5,0.5,0.6923637733459473,-0.14,-0.011,-0.56,0.0014471299441019794,10,1,100,0.021443074410398617,-10,-1,-100,1334.7679746717913,-0.001910476755031754,0.00012957726015658052,0.9999981666424704,44.108564946625755,-2.1199226248575602,-2207.703543153172,70.73006633625647,-94.08073425292969,5896.6357421875,True
1598631333.5421026,0,5,0.5,0.5,0.026990619659423842,-0.14,-0.011,-0.56,0.0010868470101095206,10,1,100,0.021523854099193784,-10,-1,-100,1340.4280859818682,-0.0019152160276165368,0.00012676295074071325,0.9999981579376642,44.1797276208174,-2.1195551859612536,-2205.7588779866433,70.73320960553922,-93.31991577148438,5894.8544921875,True
1598631333.6831663,0,5,0.5,0.5,-0.6931476280212403,-0.14,-0.011,-0.56,0.0008275131038019326,10,1,100,0.021587461980370884,-10,-1,-100,1346.0879529248923,-0.001920076654313414,0.00012178446867166785,0.9999981492353796,44.25613997146143,-2.119520720668241,-2204.0877466121883,70.73639494886663,-91.67395782470703,5893.0751953125,True
1598631333.816115,0,5,0.5,0.5,-1.1898862762451174,-0.14,-0.011,-0.56,0.0007383521941041139,10,1,100,0.021558151495136565,-10,-1,-100,1351.7479419321753,-0.0019242017709526537,0.00011639593635133531,0.9999981419480392,44.439358595493715,-2.1247727027285,-2207.732192906644,70.73955009683515,-89.63681030273438,5891.2958984375,True
1598631333.9572313,0,5,0.5,0.5,-1.2462860809326173,-0.14,-0.011,-0.56,0.0007293761808055916,10,1,100,0.02160806472479839,-10,-1,-100,1357.4078089724062,-0.0019283773457575394,0.00011137997213698859,0.9999981344759169,44.613418795064106,-2.129781938412659,-2210.902516466426,70.74265144451033,-87.91775512695312,5889.517578125,True
1598631334.1570916,0,5,0.5,0.5,-0.8871368316650392,-0.14,-0.011,-0.56,0.0008527928133536519,10,1,100,0.021631746793189556,-10,-1,-100,1363.0516846923856,-0.0019323577004788665,0.00010792131246915283,0.9999981271716,44.751980512326355,-2.133232426948429,-2212.2988671102958,70.74571885777647,-87.05072021484375,5887.740234375,True
1598631334.3049934,0,5,0.5,0.5,0.02925644531249999,-0.14,-0.011,-0.56,0.0009601616702222856,10,1,100,0.02182096189629638,-10,-1,-100,1371.563213670859,-0.0019376632206694851,0.00010574697659283353,0.9999981171376375,44.876411862655395,-2.1344503611151726,-2210.2727455552404,70.75032612748102,-87.66552734375,5885.076171875,True
1598631334.4410226,0,5,0.5,0.5,0.8234191040039064,-0.14,-0.011,-0.56,0.0011234923224355238,10,1,100,0.02173088359847284,-10,-1,-100,1377.2232032016618,-0.0019416314017497763,0.00010526128304396581,0.999998109491994,44.9033482288218,-2.1324247336529987,-2206.1872354638163,70.75353536633403,-89.2940673828125,5883.30029296875,True
1598631334.6441731,0,5,0.5,0.5,1.355039080810547,-0.14,-0.011,-0.56,0.0010571450157425312,10,1,100,0.021791638077723864,-10,-1,-100,1382.8831916069612,-0.001945753916519576,0.00010423128528106452,0.9999981015869658,44.89872268573226,-2.128588064041041,-2200.5803964166157,70.75677200625917,-91.35993194580078,5881.525390625,True
1598631334.7850776,0,5,0.5,0.5,1.689410262298584,-0.14,-0.011,-0.56,0.0007111919492757774,10,1,100,0.02214578667587542,-10,-1,-100,1391.3782414576272,-0.0019526818035342864,0.00010016831432237806,0.9999980884982145,44.9683792103047,-2.125770540566601,-2195.963031800617,70.76166140301102,-93.49221801757812,5878.8642578125,True
