Timestamp,Input Throttle,horizon,dT,dt,Input Roll,Roll P,Roll I,Roll D,Input Pitch,Pitch P,Pitch I,Pitch D,Input Yaw,Yaw P,Yaw I,Yaw D,Altitude,Direction X,Direction Y,Direction Z,Drag X,Drag Y,Drag Z,Vertical Velocity,Roll,Mass,Has Fuel
1599305103.1098642,1.0,5,0.5,0.5,0.013257446289062502,-0.14,-0.011,-0.56,0.005666262680204709,10,1,100,0.17774796028948553,-10,-1,-100,469.7687098272145,-0.012250411335583213,0.0004272620360226829,0.9999248696123431,7.001498964914346,-0.5791636998943205,199.98615060811315,-19.29288046020373,-89.95504760742188,6440.1796875,True
1599305103.2485027,1.0,5,0.5,0.5,-0.002155770874023438,-0.14,-0.011,-0.56,0.004589922237836063,10,1,100,0.13205930583611947,-10,-1,-100,468.5840200074017,-0.01232613998418984,0.00042975817851365533,0.9999239378977774,7.183653301927317,-0.5950206817884144,211.6714466907412,-19.875449315254947,-89.96102905273438,6440.1796875,True
1599305103.4509969,1.0,5,0.5,0.5,-0.0018312072753906253,-0.14,-0.011,-0.56,0.004259548671540134,10,1,100,0.12446668363146002,-10,-1,-100,467.01405568420887,-0.01231475479016788,0.00042863331364956394,0.9999240786619454,7.632997436485233,-0.6248672532048021,214.40511503791976,-19.36088470024814,-89.96633911132812,6437.0224609375,True
1599305103.5557172,1.0,5,0.5,0.5,-0.0057390838623046884,-0.14,-0.011,-0.56,0.004114498114970395,10,1,100,0.11812307170185735,-10,-1,-100,465.8936279506888,-0.01223554018279683,0.00042590240115552907,0.999925052273209,7.464138847996448,-0.6000082546570383,188.67694250349493,-18.005610764160654,-89.96505737304688,6432.28515625,True
1599305103.6456869,1.0,5,0.5,0.5,-0.004760675048828125,-0.14,-0.011,-0.56,0.002751873431032566,10,1,100,0.07674996876831362,-10,-1,-100,463.91868230630644,-0.011776284567442934,0.0004106450723059212,0.9999305728361401,7.007121587860486,-0.5446988478135635,141.4141663748755,-15.291599929521547,-89.96548461914062,6422.8115234375,True
1599305103.7155,1.0,5,0.5,0.5,-0.0018976409912109375,-0.14,-0.011,-0.56,0.002449034294487171,10,1,100,0.06840024050320564,-10,-1,-100,462.74495013279375,-0.011272167128740736,0.0003936483765901323,0.9999363896214485,6.628715238583796,-0.505064629331821,113.5521819483491,-13.479623559938975,-89.969970703125,6416.49609375,True
1599305103.7823215,0.9999999529856021,5,0.5,0.5,0.002756216430664063,-0.14,-0.011,-0.56,0.001831839676668394,10,1,100,0.04945948497347534,-10,-1,-100,461.7630479251966,-0.010631442436805971,0.0003722281127077989,0.9999434153380606,6.191074032445768,-0.4632574955854846,88.64506899262106,-11.66547588929362,-89.98025512695312,6410.1806640625,True
1599305103.8471477,0.9999999903412696,5,0.5,0.5,0.001909912109375,-0.14,-0.011,-0.56,0.002640645036270976,10,1,100,0.07462802973991085,-10,-1,-100,461.3680738027906,-0.01026810544889032,0.0003597695323450576,0.999947216895159,5.951082895168467,-0.44161163836715966,77.31421284812079,-10.757571236587648,-89.9873046875,6407.0224609375,True
1599305103.9136133,1.0,5,0.5,0.5,0.011342358398437502,-0.14,-0.011,-0.56,0.00017199066547890843,10,1,100,0.0021153848758025118,-10,-1,-100,460.40279300743714,-0.00926925859252157,0.0003256741745241421,0.9999569864656566,5.296132115251255,-0.38571927981485093,52.29947535709209,-8.485334653284996,-90.00643920898438,6399.1279296875,True
1599305103.9814312,0.9999995937922862,5,0.5,0.5,0.005483352661132814,-0.14,-0.011,-0.56,0.0019891813538052126,10,1,100,0.05490666814127666,-10,-1,-100,460.0829222819302,-0.008832710154061089,0.0003109022426039816,0.9999609425228216,5.015761631147565,-0.3628644866686274,43.62989296200372,-7.575433122647123,-90.01336669921875,6395.97021484375,True
1599305104.1759114,1.0,5,0.5,0.5,0.009533395385742188,-0.14,-0.011,-0.56,2.5460452960584558e-05,10,1,100,-0.0001542283551559248,-10,-1,-100,459.57104920211714,-0.007927264596262118,0.00027933856699379,0.9999685397281186,4.43779807488666,-0.31720252220378786,28.61110091096447,-5.753870141993259,-90.02467346191406,6389.654296875,True
1599305104.2427328,0.9999999081241582,5,0.5,0.5,0.005617369079589844,-0.14,-0.011,-0.56,-0.0005279953319428615,10,1,100,-0.01656044868249623,-10,-1,-100,459.21820464148186,-0.006958914946868433,0.0002457473760936107,0.9999757562616153,3.8951461116977275,-0.2755376131967455,16.78928119713669,-3.929919928244942,-90.02801513671875,6383.3388671875,True
1599305104.3045664,1.0,5,0.5,0.5,0.0031094192504882816,-0.14,-0.011,-0.56,0.0009348335389245117,10,1,100,0.027003356339308837,-10,-1,-100,459.0883069632109,-0.0064795109703790574,0.00022867565664898756,0.9999789816016279,3.7248086734205796,-0.26227846190912335,12.208474908809535,-3.0170337318079024,-90.0270004272461,6380.18115234375,True
1599305104.4132762,1.0,5,0.5,0.5,-0.0021676338195800787,-0.14,-0.011,-0.56,-0.0011474409580146667,10,1,100,-0.0333305927775058,-10,-1,-100,458.9383160774596,-0.005500503494162937,0.00019440792323351995,0.9999848532187225,6.040275566561738,-0.42190077610444265,7.674105706358859,-1.1894089444055678,-90.0185546875,6373.86572265625,True
1599305104.4800968,0.9999999544415872,5,0.5,0.5,-0.009924185943603517,-0.14,-0.011,-0.56,-0.002583008381523907,10,1,100,-0.07310539496178162,-10,-1,-100,458.95653365179896,-0.004255030347462714,0.00015041527489475812,0.9999909360049155,0.6459371070624672,-0.04474888018163946,-0.745137641877997,1.0987188576433733,-90.0006332397461,6365.970703125,True
1599305104.5225043,0.9999999998656345,5,0.5,0.5,-0.0057401672363281255,-0.14,-0.011,-0.56,-0.0001444668439589869,10,1,100,-0.003692463382066649,-10,-1,-100,459.0278109284118,-0.0037606461868417203,0.00013282709019866589,0.999992919923547,1.389024388240812,-0.09597449758383947,-2.922337134887236,2.0151276747922413,-89.99221801757812,6362.8125,True
1599305104.582145,1.0,5,0.5,0.5,-0.009184933471679688,-0.14,-0.011,-0.56,-0.0012182011333130337,10,1,100,-0.03470898643426347,-10,-1,-100,459.2037587364903,-0.0030360663048407542,0.00010731372083208294,0.9999953853819318,2.440643015720153,-0.16807728835652605,-8.57946550587492,3.390918888731943,-89.98052978515625,6358.076171875,True
1599305104.6489656,1.0,5,0.5,0.5,-0.00819342041015625,-0.14,-0.011,-0.56,-0.0014855833890044144,10,1,100,-0.04179479399333841,-10,-1,-100,459.462289031595,-0.0023198457762409813,8.192983216697291e-05,0.9999973057979091,3.2222937284709703,-0.22133003598653514,-15.838805371470622,4.768111271993373,-89.97259521484375,6353.33935546875,True
1599305104.7118742,1.0,5,0.5,0.5,-0.006714239501953126,-0.14,-0.011,-0.56,-0.0016451870384646167,10,1,100,-0.04613568070890136,-10,-1,-100,459.8122505249921,-0.001636499288893024,5.765520902194203e-05,0.9999986592720784,3.9259384047276065,-0.2691376991311009,-24.77296650344306,6.146699811800138,-89.9683837890625,6348.6025390625,True
1599305104.7512872,1.0,5,0.5,0.5,-0.004483151245117188,-0.14,-0.011,-0.56,-0.0009582003108330709,10,1,100,-0.027250428766161468,-10,-1,-100,460.09590276447125,-0.0011938981901503604,4.207635729174819e-05,0.9999992864180912,4.378117704188009,-0.2998534048028159,-31.695767383688494,7.066526866817639,-89.96826171875,6345.4453125,True
1599305104.8141215,0.9999999994388848,5,0.5,0.5,-0.000555105590820313,-0.14,-0.011,-0.56,-0.0027358173544449024,10,1,100,-0.07650033509541157,-10,-1,-100,460.72708216065075,-0.00035075150826740245,1.1997997036293716e-05,0.9999999384147119,5.261759317822185,-0.35997897039492843,-47.90662872713089,8.908014201369635,-89.97384643554688,6339.12890625,True
1599305104.879461,1.0,5,0.5,0.5,-0.0020294723510742192,-0.14,-0.011,-0.56,-0.0005503386609578338,10,1,100,-0.01505698149018924,-10,-1,-100,460.93572707194835,-0.00014971820577400243,4.765058172087997e-06,0.9999999887808764,5.479479049657927,-0.3748301624552714,-52.45628923081018,9.368765753116387,-89.97628784179688,6337.55029296875,True
1599305104.9153802,1.0,5,0.5,0.5,0.00515544891357422,-0.14,-0.011,-0.56,-0.002862414639240875,10,1,100,-0.07928976902208118,-10,-1,-100,461.76997239596676,0.0006107835951998386,-2.2610138490743462e-05,0.9999998132160732,6.33909275520879,-0.43367984138629884,-72.6545868710848,11.21327679783489,-89.98858642578125,6331.234375,True
1599305104.9512835,0.9999999999910639,5,0.5,0.5,0.0005117530822753909,-0.14,-0.011,-0.56,-0.0008739743507576404,10,1,100,-0.02332105046645562,-10,-1,-100,461.97852596477605,0.000786896614156208,-2.9191509384251995e-05,0.9999996899707392,6.551139965859041,-0.4482602479092119,-78.20506087240092,11.67477891785721,-89.99185180664062,6329.6552734375,True
1599305105.0121212,0.9999999924138953,5,0.5,0.5,0.005516407012939453,-0.14,-0.011,-0.56,-0.002217870458706013,10,1,100,-0.06183356651932994,-10,-1,-100,462.73779368272517,0.0012913973226805658,-4.718853896641062e-05,0.9999991650327499,7.18010159312738,-0.491689422884056,-96.0596283949456,13.060177076256366,-90.00165557861328,6324.9189453125,True
1599305105.048513,0.9874504758843906,5,0.5,0.5,0.0038192283630371095,-0.14,-0.011,-0.56,-0.0016235929623856235,10,1,100,-0.044711076607551414,-10,-1,-100,463.28276981634554,0.0015893331242591378,-5.7967312425586584e-05,0.9999987353292059,7.593177318045644,-0.5203733596320812,-108.9660161182067,13.98451470185704,-90.00707244873047,6321.7607421875,True
1599305105.1133428,0.9374505152852259,5,0.5,0.5,0.005464443969726563,-0.14,-0.011,-0.56,-0.002299445588113436,10,1,100,-0.06293663010610022,-10,-1,-100,464.17543040018063,0.0020210070853981916,-7.373686271088644e-05,0.999997955044527,8.203206568907639,-0.5630048961807606,-129.83471992475233,15.372121094259573,-90.01373291015625,6317.0244140625,True
1599305105.2051754,0.9032846981869632,5,0.5,0.5,0.0038699554443359383,-0.14,-0.011,-0.56,-0.001777926246475955,10,1,100,-0.048563163979149525,-10,-1,-100,464.85398258140776,0.002278172745833926,-8.316714115214287e-05,0.9999974015027073,8.603102628628735,-0.5911453463180428,-144.75282770735726,16.297920744513846,-90.01673126220703,6313.86669921875,True
1599305105.2809646,0.8040299036821328,5,0.5,0.5,0.0030351737976074223,-0.14,-0.011,-0.56,-0.0034462975150998673,10,1,100,-0.09550200771594777,-10,-1,-100,466.9749663879629,0.0029344964542717825,-0.0001067570449286669,0.9999956886574527,9.745581723213734,-0.672452425367951,-192.29324996655532,18.930227532229324,-90.01786804199219,6304.7490234375,True
1599305105.3535044,0.7419640077738823,5,0.5,0.5,-0.002193291473388672,-0.14,-0.011,-0.56,-0.002463768824185357,10,1,100,-0.06739896711583829,-10,-1,-100,468.54575570463203,0.0032715167330841432,-0.00011912086730451083,0.9999946414798851,10.427778280539181,-0.7218206454410938,-225.29833596962771,20.57664258735641,-90.01123046875,6298.9365234375,True
1599305105.4263096,0.7015891972895693,5,0.5,0.5,-0.004122039031982422,-0.14,-0.011,-0.56,-0.0019180139947518634,10,1,100,-0.052787380776440726,-10,-1,-100,469.83173877734225,0.00344100673353428,-0.00012525275535624968,0.9999940718746323,10.90428277790445,-0.7565664609311614,-249.21004925384156,21.647751496530567,-90.00309753417969,6294.970703125,True
1599305105.4841545,0.655644236089706,5,0.5,0.5,-0.00800557327270508,-0.14,-0.011,-0.56,-0.0019387889110172862,10,1,100,-0.052975549492737035,-10,-1,-100,471.66353788389824,0.003593352123871824,-0.0001308912885035229,0.9999935353230962,11.398804150650822,-0.793180997980808,-277.08629031451056,22.866726132101075,-89.99099731445312,6290.1865234375,True
1599305105.5469856,0.6334295619306248,5,0.5,0.5,-0.005250745391845703,-0.14,-0.011,-0.56,-0.0015467768708543194,10,1,100,-0.04231743781594003,-10,-1,-100,472.5506756823743,0.003631553217726304,-0.0001323301579571301,0.9999933971331791,11.61344123290882,-0.8092922516308313,-290.5878281975265,23.456167165640522,-89.9852294921875,6287.84375,True
1599305105.6158013,0.6132165101776108,5,0.5,0.5,-0.005570600128173829,-0.14,-0.011,-0.56,-0.001434444374178182,10,1,100,-0.040558168863457325,-10,-1,-100,473.55961962614674,0.0036475419765509645,-0.00013251727110929324,0.999993338916166,11.828444483823892,-0.82540038779302,-303.7341995261181,23.99249711417212,-89.98016357421875,6285.62841796875,True
1599305105.6507106,0.5779007336878443,5,0.5,0.5,-0.006997641754150391,-0.14,-0.011,-0.56,-0.0013126528804746828,10,1,100,-0.03625396126218254,-10,-1,-100,475.52487036946695,0.0036203474651414352,-0.00013148624606693242,0.9999934378762687,12.193559444991216,-0.8529717281950808,-327.31864819099087,24.929616997295437,-89.97409057617188,6281.5224609375,True
1599305105.7125459,0.5611772149574795,5,0.5,0.5,-0.004695199584960938,-0.14,-0.011,-0.56,-0.0012660589041929237,10,1,100,-0.0347623027612413,-10,-1,-100,476.4814154600026,0.0035799474228128876,-0.0001300487346921334,0.9999935835113025,12.344087935768648,-0.864506591501383,-338.2831944226913,25.376457793897345,-89.97256469726562,6279.5224609375,True
1599305105.7494469,0.5367990538365985,5,0.5,0.5,-0.004177738189697266,-0.14,-0.011,-0.56,-0.001041883621715465,10,1,100,-0.029031787833323962,-10,-1,-100,478.04134674649686,0.0034893148719890013,-0.00012663842049046053,0.9999939043036385,12.569922767497117,-0.881773897734915,-354.69419850733703,26.020345315736307,-89.97213745117188,6276.5859375,True
1599305105.813465,0.5227142668165909,5,0.5,0.5,-0.003193830108642579,-0.14,-0.011,-0.56,-0.0010550465723103849,10,1,100,-0.029477506980445642,-10,-1,-100,479.1198106643278,0.00340963881095331,-0.0001236097057145485,0.9999941795249707,12.711538131171828,-0.8925594616764239,-364.7550980390016,26.394129814535837,-89.9732666015625,6274.76123046875,True
1599305105.846344,0.5030195424329892,5,0.5,0.5,-0.0014600250244140623,-0.14,-0.011,-0.56,-0.0007532414408741064,10,1,100,-0.02172966128930292,-10,-1,-100,480.7434299184242,0.003265742461851276,-0.00011807587966469646,0.9999946604778744,12.902139111439936,-0.907110034033777,-378.87139620871716,26.91681045220007,-89.97671508789062,6272.11474609375,True
1599305105.8822498,0.4849469618745489,5,0.5,0.5,-0.00012528839111328096,-0.14,-0.011,-0.56,-0.000581843370528465,10,1,100,-0.017014820243342638,-10,-1,-100,482.3730342712952,0.0030917642749701698,-0.00011147667458465603,0.9999952142718579,13.05176007757945,-0.9186460217149467,-391.3172599969511,27.396449613210432,-89.9814453125,6269.572265625,True
1599305105.94608,0.4792723069118729,5,0.5,0.5,-0.0016106887817382812,-0.14,-0.011,-0.56,-0.0009936879756241594,10,1,100,-0.027535340402736523,-10,-1,-100,482.9125022930093,0.0030294067905801214,-0.00010922838836978,0.9999954053712728,13.106564047612334,-0.9228080242185711,-395.5017382945727,27.54706488362886,-89.983154296875,6268.7470703125,True
1599305106.0149376,0.46890296217069494,5,0.5,0.5,-0.00028252868652343726,-0.14,-0.011,-0.56,-0.0006501522065947192,10,1,100,-0.019064337308516532,-10,-1,-100,484.0023270701058,0.0028960832311353086,-0.00010407600697143094,0.9999958009262354,13.201251168834647,-0.9300120711829281,-403.0495501024407,27.82227343240148,-89.9864501953125,6267.158203125,True
1599305106.0498323,0.45009788496031133,5,0.5,0.5,0.0017333435058593755,-0.14,-0.011,-0.56,9.659465142093366e-05,10,1,100,0.0005449999656740624,-10,-1,-100,486.2352018688107,0.0025972471735953248,-9.262779361054595e-05,0.9999966228579031,13.365053791607664,-0.9424130656326544,-416.63995662974,28.321359268916133,-89.99197387695312,6264.1044921875,True
1599305106.0827475,0.44090145098827227,5,0.5,0.5,0.0003564849853515625,-0.14,-0.011,-0.56,-0.0003685178182726616,10,1,100,-0.011031861239054835,-10,-1,-100,487.38384505035356,0.0024317625013693576,-8.64847151563619e-05,0.9999970395213831,13.43882947200719,-0.9479610010524644,-423.1176824487153,28.565447975469606,-89.99441528320312,6262.5908203125,True
1599305106.1485715,0.43195950670510547,5,0.5,0.5,0.0004949951171875,-0.14,-0.011,-0.56,-0.0002393649557412323,10,1,100,-0.008426659488414125,-10,-1,-100,488.53783943736926,0.002258743492044637,-7.976782922586607e-05,0.9999974458542034,13.51714536012989,-0.9537665790711234,-429.6349995082058,28.802778947986685,-89.99654388427734,6261.09375,True
1599305106.1834757,0.41622313284428125,5,0.5,0.5,0.0007642921447753908,-0.14,-0.011,-0.56,0.0006099411026451212,10,1,100,0.014384154959795035,-10,-1,-100,490.89861953246873,0.0018953202649230774,-6.59876218644858e-05,0.9999982017017466,13.659828828391836,-0.9641522759304765,-441.2948309623551,29.220443140430266,-89.99859619140625,6258.236328125,True
1599305106.246274,0.41257621700410513,5,0.5,0.5,-0.0003189811706542969,-0.14,-0.011,-0.56,-0.0003078682279222107,10,1,100,-0.011355012841498034,-10,-1,-100,491.4492892381968,0.001800459426786042,-6.186211918914098e-05,0.9999983772581487,13.689330751101194,-0.966267232276196,-443.87836698441845,29.317224826804555,-89.99864959716797,6257.5400390625,True
1599305106.2821794,0.39927049909796053,5,0.5,0.5,-0.001393180847167969,-0.14,-0.011,-0.56,0.0008756303288190186,10,1,100,0.021457716026727372,-10,-1,-100,493.8157124919817,0.001417460089173236,-4.741147196963571e-05,0.9999989942790182,13.812538513728844,-0.9749130284846506,-453.77071111812535,29.670391003400436,-89.99711608886719,6254.8369140625,True
1599305106.3121004,0.39329391752031945,5,0.5,0.5,-0.0017471954345703127,-0.14,-0.011,-0.56,0.00031429646499799355,10,1,100,0.005779517365545356,-10,-1,-100,495.02812703943346,0.0012136190234648672,-3.944682619913561e-05,0.9999992627861352,13.864384073810404,-0.9784408917014421,-458.0613672462489,29.82901345674516,-89.99534606933594,6253.5283203125,True
1599305106.3460102,0.39034995704241077,5,0.5,0.5,-0.0014724899291992189,-0.14,-0.011,-0.56,-7.375208407035339e-05,10,1,100,-0.0040107411399166164,-10,-1,-100,495.6372124318732,0.0011191768805418102,-3.5805434175180096e-05,0.9999993730803441,13.88942343050566,-0.9801197517687101,-460.1448199078772,29.907150946200325,-89.99429321289062,6252.876953125,True
1599305106.3789485,0.39034995704241077,5,0.5,0.5,-0.0008687576293945313,-0.14,-0.011,-0.56,-0.00043032416242495727,10,1,100,-0.013257696692779479,-10,-1,-100,495.6372124318732,0.0011191768805418102,-3.5805434175180096e-05,0.9999993730803441,13.88942343050566,-0.9801197517687101,-460.1448199078772,29.907150946200325,-89.99429321289062,6252.876953125,True
1599305106.4158235,0.3851263839589699,5,0.5,0.5,-0.002437315368652344,-0.14,-0.011,-0.56,0.0004117211567709236,10,1,100,0.00847646910230765,-10,-1,-100,496.79131672135554,0.0009233301277774166,-2.8217224868121724e-05,0.9999995733325406,13.941538245611975,-0.983562144542594,-464.06804721182243,30.04579786343405,-89.99203491210938,6251.6162109375,True
1599305106.445743,0.38027129733820014,5,0.5,0.5,-0.0029182327270507813,-0.14,-0.011,-0.56,0.0005181156741398487,10,1,100,0.0113735666826127,-10,-1,-100,498.00925318559166,0.0007207437864464291,-2.042059241480871e-05,0.9999997400556632,13.989098479423642,-0.986620201080935,-467.64298314546005,30.17463015657333,-89.98953247070312,6250.37890625,True
1599305106.47965,0.3778796176808258,5,0.5,0.5,-0.0025022171020507816,-0.14,-0.011,-0.56,0.00019949661457659414,10,1,100,0.0026105611444012617,-10,-1,-100,498.618307875935,0.0006179439841175889,-1.629492454527714e-05,0.9999998089398358,14.010485097670896,-0.9879581432422907,-469.3194022200835,30.238102935546923,-89.98812866210938,6249.76220703125,True
1599305106.512595,0.37309432351034344,5,0.5,0.5,-0.0037524185180664066,-0.14,-0.011,-0.56,0.0006347926424006512,10,1,100,0.014856284832325185,-10,-1,-100,499.83648256014567,0.00041481378348956374,-8.650889675130723e-06,0.9999999139273398,14.054395632165182,-0.990669090911673,-472.67721138967886,30.365120726888193,-89.9852294921875,6248.529296875,True
1599305106.5485,0.3679809961163605,5,0.5,0.5,-0.004213472747802735,-0.14,-0.011,-0.56,0.000765867009501121,10,1,100,0.016997574018647807,-10,-1,-100,501.05450532620307,0.00021235999914165804,-5.748336736758328e-07,0.9999999774514499,14.101689385902294,-0.9935571802662236,-475.9422542967947,30.482045927392107,-89.98226928710938,6247.3212890625,True
1599305106.5784183,0.36239385954759346,5,0.5,0.5,-0.004603136444091797,-0.14,-0.011,-0.56,0.0008597057709052592,10,1,100,0.019805140696447107,-10,-1,-100,502.27258008299395,4.317734723369603e-06,7.56064889660186e-06,0.999999999962097,14.14443419297992,-0.9960646794355595,-478.9311712024632,30.59423896745025,-89.9793701171875,6246.1240234375,True
1599305106.612331,0.35461007919384047,5,0.5,0.5,-0.005756546020507814,-0.14,-0.011,-0.56,0.0013686104253841187,10,1,100,0.03254366475805706,-10,-1,-100,504.0996610755101,-0.00029898350467874433,1.951983648476599e-05,0.9999999551139189,14.210564240523135,-0.9998569511284531,-483.202366057334,30.75053019045404,-89.97543334960938,6244.357421875,True
1599305106.6462076,0.35461007919384047,5,0.5,0.5,-0.0035758071899414066,-0.14,-0.011,-0.56,0.00017938479741314568,10,1,100,0.0023851851772308664,-10,-1,-100,504.0996610755101,-0.00029898350467874433,1.951983648476599e-05,0.9999999551139189,14.210564240523135,-0.9998569511284531,-483.202366057334,30.75053019045404,-89.97543334960938,6244.357421875,True
1599305106.6821427,0.34768470483607283,5,0.5,0.5,-0.005584405517578126,-0.14,-0.011,-0.56,0.0014667838807101543,10,1,100,0.03496563947892248,-10,-1,-100,505.9851630841149,-0.0005937943596685375,3.116985845775343e-05,0.9999998232183336,14.27120732915423,-1.0031373726062736,-486.9068330887879,30.88957664389454,-89.97259521484375,6242.6318359375,True
1599305106.7130609,0.34768470483607283,5,0.5,0.5,-0.004018917846679688,-0.14,-0.011,-0.56,0.0003084792126747036,10,1,100,0.005655851103964194,-10,-1,-100,505.9851630841149,-0.0005937943596685375,3.116985845775343e-05,0.9999998232183336,14.27120732915423,-1.0031373726062736,-486.9068330887879,30.88957664389454,-89.97259521484375,6242.6318359375,True
1599305106.7459788,0.3417096728070449,5,0.5,0.5,-0.00523907470703125,-0.14,-0.011,-0.56,0.0015888680688905476,10,1,100,0.03805150695055633,-10,-1,-100,507.8178977089701,-0.0008867430753282747,4.274887052095844e-05,0.9999996059295485,14.329208149049935,-1.0061183455581384,-490.11627042777764,31.00953274345008,-89.97088623046875,6240.9521484375,True
1599305106.779921,0.3417096728070449,5,0.5,0.5,-0.004305307006835938,-0.14,-0.011,-0.56,0.00043806347210895505,10,1,100,0.00893764270489317,-10,-1,-100,507.8178977089701,-0.0008867430753282747,4.274887052095844e-05,0.9999996059295485,14.329208149049935,-1.0061183455581384,-490.11627042777764,31.00953274345008,-89.97088623046875,6240.9521484375,True
1599305106.815793,0.33484617371219955,5,0.5,0.5,-0.0045180786132812505,-0.14,-0.011,-0.56,0.002072646649379541,10,1,100,0.049222195277274575,-10,-1,-100,510.31796912278514,-0.0012515049288392196,5.755129080256761e-05,0.999999215211323,14.404830091358559,-1.0098078929210788,-493.8313475043498,31.147318290526115,-89.97061157226562,6238.765625,True
1599305106.8467402,0.33484617371219955,5,0.5,0.5,-0.004383538818359375,-0.14,-0.011,-0.56,0.0005997892427534081,10,1,100,0.01293295481747577,-10,-1,-100,510.31796912278514,-0.0012515049288392196,5.755129080256761e-05,0.999999215211323,14.404830091358559,-1.0098078929210788,-493.8313475043498,31.147318290526115,-89.97061157226562,6238.765625,True
1599305106.879647,0.33327642060925483,5,0.5,0.5,-0.004185995483398438,-0.14,-0.011,-0.56,0.000990112629056163,10,1,100,0.023264270493924606,-10,-1,-100,510.927022384014,-0.0013439111452502738,6.103950142306748e-05,0.999999095088097,14.421653925272873,-1.0105575467608545,-494.61558498397466,31.178828194716097,-89.97091674804688,6238.2265625,True
1599305106.913565,0.3287886229616006,5,0.5,0.5,-0.003237179565429688,-0.14,-0.011,-0.56,0.0017953156917801284,10,1,100,0.042364879741844524,-10,-1,-100,512.8181467533577,-0.0016001439068374205,7.147461679819728e-05,0.9999987172146055,14.476884253034184,-1.0130770719039444,-496.999012978129,31.268902478769732,-89.9725341796875,6236.6181640625,True
1599305106.9491482,0.3274430056023695,5,0.5,0.5,-0.003616403198242188,-0.14,-0.011,-0.56,0.001133716918329241,10,1,100,0.026333807281447734,-10,-1,-100,513.4328145784093,-0.0016858871571479824,7.48884474097603e-05,0.9999985760870931,14.493319727569594,-1.0137607349467574,-497.65913026284477,31.29591530774039,-89.97329711914062,6236.08984375,True
1599305106.9800668,0.324800153656179,5,0.5,0.5,-0.002764260864257813,-0.14,-0.011,-0.56,0.0015296211155580602,10,1,100,0.03563988596779124,-10,-1,-100,514.7093403144972,-0.0018471754603493712,8.154072374878414e-05,0.9999982906455036,14.528115384369912,-1.0152328779727364,-498.9997955964551,31.34895384925756,-89.97512817382812,6235.03515625,True
1599305107.0129774,0.3212496155151494,5,0.5,0.5,-0.0014401336669921873,-0.14,-0.011,-0.56,0.001898352843584188,10,1,100,0.04484033575332974,-10,-1,-100,516.6004619552987,-0.0020760341958958287,9.088397168698514e-05,0.9999978409087297,14.581423743078329,-1.0174548274613644,-500.85076031538864,31.42020128152445,-89.97848510742188,6233.47265625,True
1599305107.0457659,0.3212496155151494,5,0.5,0.5,-0.00331353759765625,-0.14,-0.011,-0.56,0.0009699994610870114,10,1,100,0.022102686182306725,-10,-1,-100,516.6004619552987,-0.0020760341958958287,9.088397168698514e-05,0.9999978409087297,14.581423743078329,-1.0174548274613644,-500.85076031538864,31.42020128152445,-89.97848510742188,6233.47265625,True
1599305107.0817037,0.31810432191576193,5,0.5,0.5,-0.0007649444580078127,-0.14,-0.011,-0.56,0.0018845142963298334,10,1,100,0.04504629125996945,-10,-1,-100,518.4971494720085,-0.002283264933114374,9.914345735898422e-05,0.9999973884325,14.632863486504236,-1.0194777673117783,-502.43391870816663,31.483305356412988,-89.98211669921875,6231.9296875,True
1599305107.112619,0.3162974975944063,5,0.5,0.5,-0.0010772979736328122,-0.14,-0.011,-0.56,0.001704156659287197,10,1,100,0.03928080926700366,-10,-1,-100,519.7207495302428,-0.0024179734744153754,0.00010496119800874303,0.9999970711894228,14.667470596461206,-1.0208159652512987,-503.37236478634924,31.5195536908989,-89.98455810546875,6230.916015625,True
1599305107.146529,0.3162974975944063,5,0.5,0.5,-0.0024294464111328127,-0.14,-0.011,-0.56,0.0011286038270600944,10,1,100,0.025963078176812242,-10,-1,-100,519.7207495302428,-0.0024179734744153754,0.00010496119800874303,0.9999970711894228,14.667470596461206,-1.0208159652512987,-503.37236478634924,31.5195536908989,-89.98455810546875,6230.916015625,True
1599305107.1794395,0.31539200860761085,5,0.5,0.5,-0.0016023376464843753,-0.14,-0.011,-0.56,0.0014162674785742505,10,1,100,0.03250935696431765,-10,-1,-100,520.3882809465285,-0.00247642467380581,0.0001075332221977752,0.9999969278740016,14.68428169751806,-1.0214400907766468,-503.8133785994985,31.537706960921476,-89.9857177734375,6230.408203125,True
1599305107.2153141,0.3123009970881411,5,0.5,0.5,0.0005419647216796876,-0.14,-0.011,-0.56,0.002176823017329697,10,1,100,0.05130008234083491,-10,-1,-100,522.8940820952412,-0.0026992733405427558,0.00011674012914794922,0.9999963501409269,14.753131828779887,-1.0239975045501335,-505.40579168379173,31.599693409696872,-89.98968505859375,6228.40478515625,True
1599305107.2462304,0.3115560346182756,5,0.5,0.5,-0.00103956298828125,-0.14,-0.011,-0.56,0.001500729315276601,10,1,100,0.03459603890159858,-10,-1,-100,523.5087563749403,-0.002748775949769383,0.00011891310124060212,0.9999962150380632,14.770151505397576,-1.0246104710833073,-505.7730126901514,31.61463414314734,-89.99057006835938,6227.90625,True
1599305107.28017,0.3115560346182756,5,0.5,0.5,-0.0015153289794921877,-0.14,-0.011,-0.56,0.0012881759544555523,10,1,100,0.02976064118322904,-10,-1,-100,523.5087563749403,-0.002748775949769383,0.00011891310124060212,0.9999962150380632,14.770151505397576,-1.0246104710833073,-505.7730126901514,31.61463414314734,-89.99057006835938,6227.90625,True
1599305107.3130794,0.3101229734960521,5,0.5,0.5,-0.0004495758056640627,-0.14,-0.011,-0.56,0.0017526568866229665,10,1,100,0.03963224378751626,-10,-1,-100,524.7909589040792,-0.002837551529087793,0.0001230956327568233,0.9999959665662582,14.80506627763719,-1.0258833706034098,-506.50290977130527,31.643362444383808,-89.9920654296875,6226.90966796875,True
1599305107.348981,0.308324953224992,5,0.5,0.5,-0.00028568115234375,-0.14,-0.011,-0.56,0.0018987910610205958,10,1,100,0.044384278445939555,-10,-1,-100,526.682027510833,-0.0029605565743913423,0.00012818864943972278,0.999995609326581,14.857950853190443,-1.027803303150056,-507.4736101793878,31.679401680342202,-89.99346923828125,6225.4326171875,True
1599305107.378908,0.30773168185586164,5,0.5,0.5,-0.0008417083740234375,-0.14,-0.011,-0.56,0.0015876079973240775,10,1,100,0.036151654889785396,-10,-1,-100,527.2967636929825,-0.0029967331992672625,0.00012995581431988785,0.9999955013406905,14.875318850214652,-1.028418020992256,-507.777157703117,31.691286301992157,-89.9937744140625,6224.9404296875,True
1599305107.4128766,0.30713786962049927,5,0.5,0.5,-0.0008676147460937501,-0.14,-0.011,-0.56,0.0015530599199842273,10,1,100,0.0361112265084262,-10,-1,-100,527.9641725462861,-0.0030284165102299507,0.00013121273456000935,0.9999954057277757,14.892911627081071,-1.0290456767324687,-508.0844128720375,31.703189666794074,-89.99395751953125,6224.4482421875,True
1599305107.4457874,0.3060790918406596,5,0.5,0.5,-0.0009784912109375,-0.14,-0.011,-0.56,0.0017058598164563206,10,1,100,0.039070745829568404,-10,-1,-100,529.2462463183329,-0.003083446830772673,0.00013371532540331973,0.9999952372265848,14.929368032691075,-1.0303829014194417,-508.68663977627455,31.7239331105284,-89.99392700195312,6223.47265625,True
1599305107.4817257,0.3055899066061998,5,0.5,0.5,-0.0011006317138671877,-0.14,-0.011,-0.56,0.0016163875988468536,10,1,100,0.036478747279314674,-10,-1,-100,529.8608582441229,-0.003109305795939789,0.0001351508840758844,0.9999951569641256,14.946748922951597,-1.0309893127180556,-508.9455613712404,31.733731453701214,-89.99371337890625,6222.9853515625,True
1599305107.5126379,0.3046482103346121,5,0.5,0.5,-0.0015049896240234375,-0.14,-0.011,-0.56,0.0017097431037259902,10,1,100,0.038606406983856076,-10,-1,-100,531.143001478631,-0.0031515278231134306,0.00013727717865341974,0.9999950245013004,14.982248956833942,-1.0322500323528565,-509.46956315689437,31.752589839234844,-89.99295043945312,6222.013671875,True
1599305107.5465193,0.30335866573545467,5,0.5,0.5,-0.0024369750976562504,-0.14,-0.011,-0.56,0.0017423735805193465,10,1,100,0.039114823469952376,-10,-1,-100,533.039753334946,-0.003193919722100064,0.00013947977446161362,0.999994889698043,15.036288431167748,-1.034187222738113,-510.23035676005406,31.77840703507721,-89.99099731445312,6220.5625,True
1599305107.5794306,0.30335866573545467,5,0.5,0.5,-0.0013417816162109375,-0.14,-0.011,-0.56,0.0015243879642313249,10,1,100,0.03492509820944475,-10,-1,-100,533.039753334946,-0.003193919722100064,0.00013947977446161362,0.999994889698043,15.036288431167748,-1.034187222738113,-510.23035676005406,31.77840703507721,-89.99099731445312,6220.5625,True
1599305107.6153355,0.30255038542811796,5,0.5,0.5,-0.0025803253173828124,-0.14,-0.011,-0.56,0.001657895000439692,10,1,100,0.036687955309559706,-10,-1,-100,534.321835081093,-0.0032095410195808085,0.00014067477781512514,0.99999483951521,15.072398146017768,-1.035481921723624,-510.71788426613324,31.79458333495047,-89.98922729492188,6219.59765625,True
1599305107.6462517,0.30184437599994907,5,0.5,0.5,-0.002936416625976563,-0.14,-0.011,-0.56,0.0015790252398665367,10,1,100,0.03567764063395507,-10,-1,-100,535.5455009124707,-0.003214138642903433,0.0001410243633344028,0.9999948246990646,15.109221791040682,-1.0368279094073136,-511.196826436475,31.80870879145501,-89.9873046875,6218.63720703125,True
1599305107.6801617,0.3008426288111184,5,0.5,0.5,-0.004193484497070313,-0.14,-0.011,-0.56,0.0015898173834938201,10,1,100,0.03414015178355948,-10,-1,-100,537.5007296343101,-0.0032039987771805716,0.00014142397990256,0.9999948571823226,15.162961468067262,-1.038748642710837,-511.84689073916513,31.828738602133715,-89.98397827148438,6217.2001953125,True
1599305107.7130744,0.30024772141782996,5,0.5,0.5,-0.003943304443359376,-0.14,-0.011,-0.56,0.0015007277543797083,10,1,100,0.03303893398091754,-10,-1,-100,538.7828689594753,-0.0031845483354059627,0.00014096532985397205,0.9999949193774313,15.199546723228169,-1.0400886641033422,-512.2873340568899,31.840627063379063,-89.981689453125,6216.24609375,True
1599305107.7499743,0.30024772141782996,5,0.5,0.5,-0.0026748596191406254,-0.14,-0.011,-0.56,0.0015476937107919127,10,1,100,0.0350027596719923,-10,-1,-100,538.7828689594753,-0.0031845483354059627,0.00014096532985397205,0.9999949193774313,15.199546723228169,-1.0400886641033422,-512.2873340568899,31.840627063379063,-89.981689453125,6216.24609375,True
1599305107.779895,0.299960739896065,5,0.5,0.5,-0.0034360351562500004,-0.14,-0.011,-0.56,0.0015086969771778845,10,1,100,0.033580603113192664,-10,-1,-100,539.3974205572158,-0.003171477701393988,0.00014060194809812273,0.9999949609674449,15.217413473792003,-1.040731792377207,-512.4917268512592,31.8463620036303,-89.98062133789062,6215.76904296875,True
1599305107.8139465,0.29945080453609907,5,0.5,0.5,-0.004176989746093751,-0.14,-0.011,-0.56,0.0014497770671340103,10,1,100,0.03124750803380481,-10,-1,-100,540.6795614075381,-0.0031383053235062835,0.00013972970493541105,0.9999950657454796,15.253367046657331,-1.04204002692434,-512.8938226247993,31.85654397521505,-89.97872924804688,6214.8193359375,True
1599305107.846866,0.29897693660338237,5,0.5,0.5,-0.004351553344726563,-0.14,-0.011,-0.56,0.001407524902610984,10,1,100,0.029853418447012142,-10,-1,-100,541.9673186470754,-0.0030954487114306494,0.00013854848345468243,0.9999951994892737,15.288950847660097,-1.043332711455614,-513.2805875983005,31.866000740205017,-89.97698974609375,6213.87158203125,True
1599305107.8827865,0.2982786384289532,5,0.5,0.5,-0.004997161865234375,-0.14,-0.011,-0.56,0.0012292650461906782,10,1,100,0.02535995695152047,-10,-1,-100,543.8584596310975,-0.0030156894860498603,0.00013585294586401613,0.99999544357007,15.34212052716166,-1.045278530001682,-513.8686658848053,31.879935816896854,-89.97470092773438,6212.44970703125,True
1599305107.914649,0.2978647385599501,5,0.5,0.5,-0.004502392578125,-0.14,-0.011,-0.56,0.001254996227611839,10,1,100,0.026327816285511473,-10,-1,-100,545.1462157281348,-0.0029521418480454704,0.00013363967409323694,0.9999956334899399,15.377610249502938,-1.0465962188731786,-514.2622072197103,31.888185941649834,-89.97360229492188,6211.5048828125,True
1599305107.9466007,0.2976644817863183,5,0.5,0.5,-0.004162640380859376,-0.14,-0.011,-0.56,0.0013411072970243962,10,1,100,0.028933798451389308,-10,-1,-100,545.755274118972,-0.0029182818130713277,0.00013241574593297764,0.9999957330395614,15.394968907178871,-1.0472346544803421,-514.4493159519097,31.892178939074388,-89.97323608398438,6211.033203125,True
1599305107.9795108,0.2976644817863183,5,0.5,0.5,-0.003975152587890625,-0.14,-0.011,-0.56,0.0014626742098621118,10,1,100,0.03229067602815263,-10,-1,-100,545.755274118972,-0.0029182818130713277,0.00013241574593297764,0.9999957330395614,15.394968907178871,-1.0472346544803421,-514.4493159519097,31.892178939074388,-89.97323608398438,6211.033203125,True
1599305108.0163782,0.2971417522603754,5,0.5,0.5,-0.0042256134033203125,-0.14,-0.011,-0.56,0.0010394929910818602,10,1,100,0.01975039361415365,-10,-1,-100,547.7104387843283,-0.00280454820642573,0.00012857646995988574,0.9999960589809588,15.446716244442788,-1.0491512118214634,-514.9996938687239,31.902582782521442,-89.972900390625,6209.62060546875,True
1599305108.0473304,0.29698166776137636,5,0.5,0.5,-0.003985723876953125,-0.14,-0.011,-0.56,0.0012412038145050018,10,1,100,0.0265019955028256,-10,-1,-100,548.3251731414348,-0.0027628953544365266,0.00012693163338814228,0.9999961751414956,15.463622684932776,-1.0497753982875653,-515.1757964897554,31.90576707154916,-89.97299194335938,6209.15087890625,True
1599305108.0802467,0.29665884848611146,5,0.5,0.5,-0.003704763793945313,-0.14,-0.011,-0.56,0.0010637390504526865,10,1,100,0.02077845455100013,-10,-1,-100,549.6071950467303,-0.0026733802557760825,0.00012383576928286883,0.9999964188449427,15.497067263893198,-1.0510115928427912,-515.5299261090097,31.912188754662967,-89.97348022460938,6208.2109375,True
1599305108.1132078,0.2964961793915568,5,0.5,0.5,-0.0037308837890625,-0.14,-0.011,-0.56,0.0011771874901218573,10,1,100,0.024759998542065814,-10,-1,-100,550.221808014554,-0.0026286634460759395,0.00012206826914831371,0.9999965376079183,15.51370089204368,-1.051630602263671,-515.7116168385711,31.915426275051438,-89.97384643554688,6207.7412109375,True
1599305108.1491075,0.29620290238694846,5,0.5,0.5,-0.003217095947265625,-0.14,-0.011,-0.56,0.0009500628423525892,10,1,100,0.018505052978042523,-10,-1,-100,551.5038885077229,-0.002531642126907705,0.00011841353011804281,0.9999967883780313,15.546697475834392,-1.0528643739529502,-516.0716404792815,31.92125314973444,-89.97488403320312,6206.802734375,True
1599305108.1800227,0.2960601956644734,5,0.5,0.5,-0.0033751342773437505,-0.14,-0.011,-0.56,0.0011086995258094046,10,1,100,0.022633106190991046,-10,-1,-100,552.1769729044754,-0.0024815201961421135,0.0001165525700990561,0.9999969142317462,15.562961365967134,-1.0534728568532192,-516.2505166965932,31.924085748070766,-89.97549438476562,6206.333984375,True
1599305108.213932,0.2957940754637053,5,0.5,0.5,-0.002671823120117188,-0.14,-0.011,-0.56,0.000882786531677359,10,1,100,0.016042099577977833,-10,-1,-100,553.4007661982905,-0.002376594679432627,0.00011282703005637289,0.9999971695298897,15.59491714531208,-1.0546671108432903,-516.6000286979264,31.929370840794704,-89.97698974609375,6205.39697265625,True
1599305108.247083,0.29554490182785265,5,0.5,0.5,-0.0023317810058593753,-0.14,-0.011,-0.56,0.0007862798578896633,10,1,100,0.014578941398940611,-10,-1,-100,554.6884017757839,-0.002268487403347862,0.00010858377472477968,0.9999974210839069,15.626287231316715,-1.0558434863458483,-516.9477062843669,31.934311345230412,-89.97866821289062,6204.46142578125,True
1599305108.2830133,0.2951887050138373,5,0.5,0.5,-0.00130081787109375,-0.14,-0.011,-0.56,0.0004677886816503464,10,1,100,0.006380526213516351,-10,-1,-100,556.6436293917941,-0.002096298518353035,0.00010185367363876338,0.9999977975767503,15.671791618600379,-1.0575449589778512,-517.4571966672545,31.94136760882661,-89.98147583007812,6203.05810546875,True
1599305108.313937,0.2951887050138373,5,0.5,0.5,-0.002864019775390625,-0.14,-0.011,-0.56,0.001137742583022554,10,1,100,0.02351721638352724,-10,-1,-100,556.6436293917941,-0.002096298518353035,0.00010185367363876338,0.9999977975767503,15.671791618600379,-1.0575449589778512,-517.4571966672545,31.94136760882661,-89.98147583007812,6203.05810546875,True
1599305108.3468978,0.2948729044979936,5,0.5,0.5,-0.0009109863281250002,-0.14,-0.011,-0.56,0.00043535464057864145,10,1,100,0.00405525644680154,-10,-1,-100,558.5403237914434,-0.0019201188673779997,9.549611240954074e-05,0.9999981520103063,15.71566249832646,-1.0591877402017573,-517.9567069948251,31.94761615704455,-89.9842529296875,6201.658203125,True
1599305108.3808167,0.29468729007922867,5,0.5,0.5,-0.0013214721679687498,-0.14,-0.011,-0.56,0.0005330131134101545,10,1,100,0.008133625499941998,-10,-1,-100,559.8224665260641,-0.0017978356572829243,9.06343886428524e-05,0.9999983797848659,15.743723523109917,-1.060231242652161,-518.2749642899006,31.951279839357042,-89.98587036132812,6200.7265625,True
1599305108.4156802,0.2945087034113686,5,0.5,0.5,-0.001294488525390625,-0.14,-0.011,-0.56,0.0005024820260458461,10,1,100,0.007253231158467554,-10,-1,-100,561.1102249309188,-0.001679542844725955,8.597008191959228e-05,0.999998585871489,15.77090146342315,-1.0612401580431703,-518.5877957841547,31.95480185919929,-89.9871826171875,6199.79443359375,True
1599305108.447628,0.2945087034113686,5,0.5,0.5,-0.0020142791748046875,-0.14,-0.011,-0.56,0.0009651261296355306,10,1,100,0.01898312867305947,-10,-1,-100,561.1102249309188,-0.001679542844725955,8.597008191959228e-05,0.999998585871489,15.77090146342315,-1.0612401580431703,-518.5877957841547,31.95480185919929,-89.9871826171875,6199.79443359375,True
1599305108.4805374,0.2943434014748687,5,0.5,0.5,-0.0013160156250000001,-0.14,-0.011,-0.56,0.00043041026030188486,10,1,100,0.005504587532887333,-10,-1,-100,562.3923072143225,-0.00155787348945289,8.114184509585797e-05,0.9999987832223556,15.796982682081211,-1.0621970364324884,-518.8864610426909,31.958057337626986,-89.9881591796875,6198.86328125,True
1599305108.5144496,0.29426260396798554,5,0.5,0.5,-0.001613302612304688,-0.14,-0.011,-0.56,0.0006490666776083915,10,1,100,0.010931860773153668,-10,-1,-100,563.0070423668949,-0.0014974890765138476,7.877420785436065e-05,0.999998875659913,15.809647371339933,-1.0626587836934065,-519.0325791956967,31.959649098452026,-89.98849487304688,6198.3984375,True
1599305108.5492475,0.2941101948064952,5,0.5,0.5,-0.0014665557861328127,-0.14,-0.011,-0.56,0.000354206007686998,10,1,100,0.0032926411863881608,-10,-1,-100,564.2890634529758,-0.001374041278616512,7.397560278302741e-05,0.9999990532686392,15.834288985507575,-1.063552521256078,-519.3187263624471,31.96264535292694,-89.98895263671875,6197.46875,True
1599305108.580164,0.294032739694579,5,0.5,0.5,-0.0016029327392578126,-0.14,-0.011,-0.56,0.0005566421629381912,10,1,100,0.008954674026581283,-10,-1,-100,564.9037379994988,-0.0013142004458032497,7.1488882699802e-05,0.9999991338828889,15.846324741748303,-1.063988174176295,-519.4625762856346,31.964169789247173,-89.98910522460938,6197.00341796875,True
1599305108.6140714,0.293746528830309,5,0.5,0.5,-0.0018477996826171874,-0.14,-0.011,-0.56,-0.00028358571179232814,10,1,100,-0.011748923652249358,-10,-1,-100,567.4735181032447,-0.0010724526979450462,6.162351548297869e-05,0.9999994230237099,15.892102086513614,-1.0656294398258466,-520.0183033307159,31.969788091148278,-89.98886108398438,6195.14453125,True
1599305108.647993,0.293746528830309,5,0.5,0.5,-0.0017029571533203126,-0.14,-0.011,-0.56,0.0006989279940744237,10,1,100,0.012323466551530203,-10,-1,-100,567.4735181032447,-0.0010724526979450462,6.162351548297869e-05,0.9999994230237099,15.892102086513614,-1.0656294398258466,-520.0183033307159,31.969788091148278,-89.98886108398438,6195.14453125,True
1599305108.6829,0.2936778950761241,5,0.5,0.5,-0.0018657318115234377,-0.14,-0.011,-0.56,0.00043896620653365395,10,1,100,0.005495919036315225,-10,-1,-100,568.1466028699651,-0.0010113148530980082,5.9296799376386044e-05,0.999999486862947,15.902890618894972,-1.066009467167253,-520.1510862416233,31.971132615289623,-89.98861694335938,6194.6806640625,True
1599305108.7138135,0.2935433148758711,5,0.5,0.5,-0.002194183349609375,-0.14,-0.011,-0.56,0.00013279035123520415,10,1,100,-0.001347553654348384,-10,-1,-100,569.4288078501122,-0.0008943477915167408,5.443109451589151e-05,0.9999995985895613,15.923830356812468,-1.0667422255140533,-520.4143362359151,31.973770244209394,-89.98794555664062,6193.751953125,True
1599305108.7482455,0.2934244311070269,5,0.5,0.5,-0.0024567932128906254,-0.14,-0.011,-0.56,7.888025147181595e-05,10,1,100,-0.0032054000786731797,-10,-1,-100,570.7107681856724,-0.0007719459388269689,4.9550546730435635e-05,0.9999997008220606,15.943789804323757,-1.0674309190814404,-520.6661473831006,31.97609313851935,-89.98703002929688,6192.82421875,True
1599305108.7811525,0.29336373661863363,5,0.5,0.5,-0.0023287872314453127,-0.14,-0.011,-0.56,0.0002663824401037432,10,1,100,0.0024874165221307433,-10,-1,-100,571.3255031879526,-0.0007132494935762109,4.685135912684705e-05,0.9999997445400225,15.953375206968424,-1.0677568258665937,-520.7890439097398,31.977280936540744,-89.98648071289062,6192.3603515625,True
1599305108.8170564,0.2931340897458131,5,0.5,0.5,-0.003816375732421875,-0.14,-0.011,-0.56,-0.0005081679799355353,10,1,100,-0.01692516197382967,-10,-1,-100,573.8952838598052,-0.000484289550976927,3.739174723485739e-05,0.9999998820327372,15.989487076890018,-1.0689608922192546,-521.2666770094361,31.981762390925027,-89.98391723632812,6190.505859375,True
1599305108.8479695,0.2931340897458131,5,0.5,0.5,-0.0023854949951171876,-0.14,-0.011,-0.56,0.0004334181994773304,10,1,100,0.0058634738922511255,-10,-1,-100,573.8952838598052,-0.000484289550976927,3.739174723485739e-05,0.9999998820327372,15.989487076890018,-1.0689608922192546,-521.2666770094361,31.981762390925027,-89.98391723632812,6190.505859375,True
1599305108.88089,0.29302652258966033,5,0.5,0.5,-0.003394558715820313,-0.14,-0.011,-0.56,-7.442151578468989e-05,10,1,100,-0.006666754754617945,-10,-1,-100,575.1829822997097,-0.0003712994719376963,3.281264296940221e-05,0.9999999305300139,16.005911601943744,-1.0694829444559095,-521.4868184504583,31.983857224057438,-89.98248291015625,6189.580078125,True
1599305108.9144473,0.29287711997549926,5,0.5,0.5,-0.003944277954101563,-0.14,-0.011,-0.56,-0.0003421385570437172,10,1,100,-0.012599343814179422,-10,-1,-100,577.0796781734098,-0.00021556017391209022,2.6253450498282366e-05,0.9999999764222836,16.02861316600258,-1.0701723898312738,-521.7942000402551,31.986761098465433,-89.98056030273438,6188.19091796875,True
1599305108.950349,0.29287711997549926,5,0.5,0.5,-0.0028770172119140626,-0.14,-0.011,-0.56,0.00030925714684811533,10,1,100,0.0028647219611920684,-10,-1,-100,577.0796781734098,-0.00021556017391209022,2.6253450498282366e-05,0.9999999764222836,16.02861316600258,-1.0701723898312738,-521.7942000402551,31.986761098465433,-89.98056030273438,6188.19091796875,True
1599305108.9812708,0.292734721714472,5,0.5,0.5,-0.004018350219726563,-0.14,-0.011,-0.56,-0.0003645828369346978,10,1,100,-0.01312136103834156,-10,-1,-100,578.9764972339617,-7.1011139847269e-05,2.0159787068424698e-05,0.9999999972755006,16.048903357465036,-1.0707384119419108,-522.0700982305598,31.98952422702213,-89.97894287109375,6186.802734375,True
1599305109.0141819,0.292734721714472,5,0.5,0.5,-0.00312349853515625,-0.14,-0.011,-0.56,0.00024063713320961365,10,1,100,0.0012333982123307829,-10,-1,-100,578.9764972339617,-7.1011139847269e-05,2.0159787068424698e-05,0.9999999972755006,16.048903357465036,-1.0707384119419108,-522.0700982305598,31.98952422702213,-89.97894287109375,6186.802734375,True
1599305109.0480914,0.2926477754286066,5,0.5,0.5,-0.003732284545898438,-0.14,-0.011,-0.56,-0.00025917418001474544,10,1,100,-0.009343512384786843,-10,-1,-100,580.2587018271443,2.428777129629965e-05,1.5651626959392307e-05,0.9999999995825655,16.061162541087604,-1.0710503036645835,-522.2358333126153,31.99120492337082,-89.97808837890625,6185.8779296875,True
1599305109.0839946,0.2925202037129382,5,0.5,0.5,-0.00390548095703125,-0.14,-0.011,-0.56,-0.000399361528421582,10,1,100,-0.013938039790340471,-10,-1,-100,582.2193630601978,0.00015185645278383773,1.0314123208897528e-05,0.9999999884166184,16.077805847687536,-1.0714277710950415,-522.4630222511904,31.993666700134902,-89.9771728515625,6184.4912109375,True
1599305109.1139147,0.29247762785875486,5,0.5,0.5,-0.0035531646728515632,-0.14,-0.011,-0.56,-7.467694864128785e-05,10,1,100,-0.0056451146703918615,-10,-1,-100,582.8284834864317,0.00019159793268969336,8.449194546015438e-06,0.9999999816094216,16.082891846381433,-1.0715293173972225,-522.5329082455859,31.99449065148893,-89.97695922851562,6184.02880859375,True
1599305109.1478238,0.29239548922777253,5,0.5,0.5,-0.0035508209228515626,-0.14,-0.011,-0.56,-0.00026703473805828255,10,1,100,-0.00999281964860271,-10,-1,-100,584.1162431372795,0.0002664285529276008,5.0400087346779785e-06,0.9999999644952116,16.092387610185664,-1.0716960577344852,-522.6624962418896,31.996074443443636,-89.976806640625,6183.1044921875,True
1599305109.180736,0.2923572988363965,5,0.5,0.5,-0.003473193359375,-0.14,-0.011,-0.56,-0.00013366832112364572,10,1,100,-0.006431514634972195,-10,-1,-100,584.7891449372983,0.00030139841838005334,3.18258154968624e-06,0.9999999545744312,16.09679809582154,-1.0717617437456513,-522.7214781582768,31.996806943131887,-89.976806640625,6182.64306640625,True
1599305109.2167668,0.2923183925406708,5,0.5,0.5,-0.003416928100585937,-0.14,-0.011,-0.56,-0.00011015749857855741,10,1,100,-0.006920460844999185,-10,-1,-100,585.3982649521204,0.00033691990891038557,1.7388453734538e-06,0.999999943240974,16.100906508952153,-1.0718098682502308,-522.7747504291489,31.997557167000394,-89.97689819335938,6182.1806640625,True
1599305109.2486796,0.2921688582446619,5,0.5,0.5,-0.002854833984375,-0.14,-0.011,-0.56,-0.0006087269551626133,10,1,100,-0.01683986783726428,-10,-1,-100,587.9681077047717,0.0004587447644305084,-4.077842757888973e-06,0.9999998947683006,16.115472408930284,-1.071899575486066,-522.9597371622588,32.00042850932326,-89.977783203125,6180.333984375,True
1599305109.2817402,0.2921688582446619,5,0.5,0.5,-0.003353494262695313,-0.14,-0.011,-0.56,-3.0091271353953122e-05,10,1,100,-0.004724812779086259,-10,-1,-100,587.9681077047717,0.0004587447644305084,-4.077842757888973e-06,0.9999998947683006,16.115472408930284,-1.071899575486066,-522.9597371622588,32.00042850932326,-89.977783203125,6180.333984375,True
1599305109.3146532,0.29209339738623935,5,0.5,0.5,-0.002843853759765625,-0.14,-0.011,-0.56,-0.00032455301996250517,10,1,100,-0.010593256528368797,-10,-1,-100,589.255866932217,0.0005114812485709473,-6.7271938422792905e-06,0.9999998691708301,16.121623640517868,-1.0718802170581916,-523.0344865175138,32.00187819522958,-89.978515625,6179.4111328125,True
1599305109.3505595,0.29205506861221453,5,0.5,0.5,-0.0029554077148437503,-0.14,-0.011,-0.56,-0.00016951713085858907,10,1,100,-0.007804844980139343,-10,-1,-100,589.8649262373801,0.0005335447724525165,-7.701834944497884e-06,0.9999998576353187,16.124413529308033,-1.0718542691340212,-523.0670084474261,32.002616640675576,-89.97894287109375,6178.94970703125,True
1599305109.3814745,0.29194952341182706,5,0.5,0.5,-0.0021692749023437506,-0.14,-0.011,-0.56,-0.00042919019195344096,10,1,100,-0.012750527909277049,-10,-1,-100,591.8256490591448,0.0005980136790531042,-1.0923207754638056e-05,0.9999998211301457,16.131844721678803,-1.071721317725656,-523.1456403439369,32.004635934632816,-89.98040771484375,6177.5654296875,True
1599305109.4144614,0.29194952341182706,5,0.5,0.5,-0.0029870361328125004,-0.14,-0.011,-0.56,-0.00010971039441082678,10,1,100,-0.006361009839993958,-10,-1,-100,591.8256490591448,0.0005980136790531042,-1.0923207754638056e-05,0.9999998211301457,16.131844721678803,-1.071721317725656,-523.1456403439369,32.004635934632816,-89.98040771484375,6177.5654296875,True
1599305109.4483635,0.2918462901518424,5,0.5,0.5,-0.001851275634765625,-0.14,-0.011,-0.56,-0.00043259627965302344,10,1,100,-0.01187721371157111,-10,-1,-100,593.722345584305,0.0006477553894981063,-1.3839227319600266e-05,0.9999997901106935,16.137870522100883,-1.0715043379372555,-523.1969909236806,32.006611052536904,-89.98202514648438,6176.18212890625,True
1599305109.4842744,0.2918462901518424,5,0.5,0.5,-0.0027514648437500003,-0.14,-0.011,-0.56,-0.00014322316534336402,10,1,100,-0.006948658412751746,-10,-1,-100,593.722345584305,0.0006477553894981063,-1.3839227319600266e-05,0.9999997901106935,16.137870522100883,-1.0715043379372555,-523.1969909236806,32.006611052536904,-89.98202514648438,6176.18212890625,True
1599305109.515153,0.29178100811963326,5,0.5,0.5,-0.0020194061279296873,-0.14,-0.011,-0.56,-0.00030378197833079304,10,1,100,-0.009856351787084848,-10,-1,-100,595.0045507089235,0.0006738423048678885,-1.528168995034573e-05,0.9999997728514833,16.141155791401385,-1.0713138697852393,-523.2147694645963,32.00785723788742,-89.98306274414062,6175.259765625,True
1599305109.5491378,0.2917155671792079,5,0.5,0.5,-0.0019527099609375,-0.14,-0.011,-0.56,-0.00029956341924788877,10,1,100,-0.009305734687990433,-10,-1,-100,596.2923101437045,0.0006922134871336615,-1.6537883376178814e-05,0.9999997602834646,16.14393890253687,-1.0710906698797409,-523.2214260453726,32.00910505482459,-89.98397827148438,6174.3388671875,True
1599305109.5820575,0.29161605077027647,5,0.5,0.5,-0.0015817626953125,-0.14,-0.011,-0.56,-0.00035104571848494116,10,1,100,-0.009541707952003799,-10,-1,-100,598.1890679362696,0.0007107367792497373,-1.8131283093864245e-05,0.9999997472622116,16.147135532443823,-1.0706915221590318,-523.2069087862092,32.01100636382694,-89.9852294921875,6172.9560546875,True
1599305109.6169665,0.29161605077027647,5,0.5,0.5,-0.00227425537109375,-0.14,-0.011,-0.56,-0.00019311109074999561,10,1,100,-0.007714577941878141,-10,-1,-100,598.1890679362696,0.0007107367792497373,-1.8131283093864245e-05,0.9999997472622116,16.147135532443823,-1.0706915221590318,-523.2069087862092,32.01100636382694,-89.9852294921875,6172.9560546875,True
1599305109.6478832,0.29155179894769745,5,0.5,0.5,-0.0017960937500000002,-0.14,-0.011,-0.56,-0.0002560638607481061,10,1,100,-0.008186704550817478,-10,-1,-100,599.4768271569628,0.0007147997556811684,-1.869080514808709e-05,0.9999997443559488,16.148859362178577,-1.0703964643769768,-523.1859389057898,32.01223097460266,-89.98590087890625,6172.03466796875,True
1599305109.681783,0.2914895285480372,5,0.5,0.5,-0.001843511962890625,-0.14,-0.011,-0.56,-0.0002599577894809661,10,1,100,-0.007594688816691906,-10,-1,-100,600.7588492897339,0.0007129265743930457,-1.922398490285585e-05,0.9999997456830366,16.150178853497525,-1.0700721283875887,-523.1518139682647,32.01341569854393,-89.98635864257812,6171.1142578125,True
1599305109.7147021,0.2914586178663147,5,0.5,0.5,-0.002006253051757813,-0.14,-0.011,-0.56,-0.00023180583846477192,10,1,100,-0.007500429812942508,-10,-1,-100,601.4319340666989,0.0007102037079134483,-1.944229226162718e-05,0.9999997476163135,16.150694541489305,-1.069899239750336,-523.1298087386066,32.0140014118762,-89.98648071289062,6170.6533203125,True
1599305109.7506037,0.29139449738461803,5,0.5,0.5,-0.0019183959960937503,-0.14,-0.011,-0.56,-0.00020477024951541436,10,1,100,-0.006660761771349461,-10,-1,-100,602.661222421797,0.0006999930379821863,-1.9387230793236965e-05,0.9999997548169111,16.15155442924443,-1.0695381813308316,-523.0799744128083,32.01522657834595,-89.9866943359375,6169.732421875,True
1599305109.7815223,0.2913630716653236,5,0.5,0.5,-0.002031109619140625,-0.14,-0.011,-0.56,-0.00021505506065271697,10,1,100,-0.0068914118083938086,-10,-1,-100,603.3286921165418,0.0006927147207824157,-1.9422978629549886e-05,0.999999759884503,16.151922941725722,-1.069351919045574,-523.0519568940338,32.01582269221876,-89.9866943359375,6169.27197265625,True
1599305109.8154314,0.29130196385771434,5,0.5,0.5,-0.0021114227294921875,-0.14,-0.011,-0.56,-0.00016210970753678184,10,1,100,-0.005576691573926438,-10,-1,-100,604.6164515126729,0.0006741051945317534,-1.8969079133044085e-05,0.9999997726111545,16.152460661701607,-1.0689619583767007,-522.9864472553292,32.01698452908432,-89.986572265625,6168.3515625,True
1599305109.8483434,0.2912414935068076,5,0.5,0.5,-0.0022516845703125,-0.14,-0.011,-0.56,-0.00015111665811997417,10,1,100,-0.004839178619059592,-10,-1,-100,605.8984736760613,0.000650458825800513,-1.8451842912601066e-05,0.9999997882814002,16.152901307769287,-1.0685588992529118,-522.9133340744867,32.018133125200954,-89.98626708984375,6167.431640625,True
1599305109.884247,0.2912110562762986,5,0.5,0.5,-0.0022267974853515627,-0.14,-0.011,-0.56,-0.00014848116837852554,10,1,100,-0.005648844916683727,-10,-1,-100,606.5131479130359,0.0006363439873678478,-1.795478721185583e-05,0.9999997973719571,16.153044759238785,-1.0683498567379888,-522.8724325791724,32.018712796686145,-89.98605346679688,6166.97119140625,True
1599305109.9151692,0.2910904661984386,5,0.5,0.5,-0.0029807403564453133,-0.14,-0.011,-0.56,-1.9768049352059228e-05,10,1,100,0.00039431500547327473,-10,-1,-100,609.0829296009615,0.0005686252890456029,-1.6331511034723487e-05,0.9999998381992681,16.15356682550106,-1.067489401298424,-522.6905784375858,32.02100259521686,-89.98480224609375,6165.13134765625,True
1599305109.9490986,0.2910904661984386,5,0.5,0.5,-0.002280526733398438,-0.14,-0.011,-0.56,-0.00018191568985937942,10,1,100,-0.006363343677730802,-10,-1,-100,609.0829296009615,0.0005686252890456029,-1.6331511034723487e-05,0.9999998381992681,16.15356682550106,-1.067489401298424,-522.6905784375858,32.02100259521686,-89.98480224609375,6165.13134765625,True
1599305109.9820101,0.2910003739610538,5,0.5,0.5,-0.003114126586914063,-0.14,-0.011,-0.56,1.914310968960804e-05,10,1,100,0.0005112424918554282,-10,-1,-100,610.9798697321676,0.0005062582434040955,-1.4505339922513728e-05,0.999999871746085,16.15392472276615,-1.0668177013596865,-522.5324884945326,32.02271394804138,-89.98361206054688,6163.751953125,True
1599305110.0179145,0.2909728837494804,5,0.5,0.5,-0.0027705749511718752,-0.14,-0.011,-0.56,-7.68316165717007e-05,10,1,100,-0.0030914314758764706,-10,-1,-100,611.6528935667593,0.0004825020939023579,-1.3721486845812731e-05,0.9999998835017182,16.154163993429204,-1.0665971841171409,-522.4782573926456,32.02323192419535,-89.983154296875,6163.29248046875,True
1599305110.0488317,0.29094462171983965,5,0.5,0.5,-0.002838186645507813,-0.14,-0.011,-0.56,-5.7783587800132595e-05,10,1,100,-0.002712662469221655,-10,-1,-100,612.2674460973358,0.0004576717165498169,-1.2840731512758517e-05,0.9999998951858523,16.15431147829877,-1.0663678038337512,-522.4189152385811,32.0237679013097,-89.98269653320312,6162.8330078125,True
1599305110.0817437,0.2908882845271043,5,0.5,0.5,-0.0031841461181640633,-0.14,-0.011,-0.56,1.0882321136843228e-05,10,1,100,0.00027838241353357693,-10,-1,-100,613.5552053274587,0.0004081369036509718,-1.1421810729417513e-05,0.9999999166469015,16.1547803987519,-1.0659118939026888,-522.2979664630345,32.02483310031015,-89.98184204101562,6161.9140625,True
1599305110.1156542,0.2908602142455109,5,0.5,0.5,-0.0030100402832031253,-0.14,-0.011,-0.56,-1.9419556844881252e-05,10,1,100,-0.0016536030713072978,-10,-1,-100,614.2227361461846,0.0003809340837272398,-1.0414595653544842e-05,0.9999999273903774,16.155070154424006,-1.06568292537904,-522.2351318021205,32.02536223359351,-89.98141479492188,6161.4541015625,True
1599305110.151557,0.2908033859055629,5,0.5,0.5,-0.0033106475830078125,-0.14,-0.011,-0.56,8.027646558120755e-05,10,1,100,0.0019517865483682463,-10,-1,-100,615.5102517969208,0.00032371141510593776,-8.600807547037974e-06,0.9999999475684715,16.155788473243305,-1.065226981753873,-522.1056499124456,32.02643743192347,-89.98065185546875,6160.53515625,True
1599305110.1814768,0.29077465432707017,5,0.5,0.5,-0.003167623901367188,-0.14,-0.011,-0.56,3.123257381273038e-05,10,1,100,-0.000553626935056934,-10,-1,-100,616.124987396528,0.00029478583328082465,-7.407188531368801e-06,0.9999999565232219,16.156252959025235,-1.0650013006873933,-522.0399623145805,32.02698304891602,-89.98025512695312,6160.076171875,True
1599305110.2153876,0.29071814303331917,5,0.5,0.5,-0.0034220397949218757,-0.14,-0.011,-0.56,0.0001587735921763477,10,1,100,0.0033451364999818613,-10,-1,-100,617.4071313107852,0.00023336988493265976,-5.172657126892333e-06,0.9999999727558699,16.157326773408236,-1.0645504500868774,-521.9034694735312,32.028052050365794,-89.97958374023438,6159.1572265625,True
1599305110.2492957,0.2906618344117049,5,0.5,0.5,-0.003416339111328125,-0.14,-0.011,-0.56,0.00014223899710643064,10,1,100,0.004202948593432999,-10,-1,-100,618.6948292404413,0.00017010525295062243,-3.303199559899303e-06,0.9999999855266458,16.15872300147087,-1.0641087205707536,-521.7642965448871,32.02911668892951,-89.97906494140625,6158.23876953125,True
1599305110.2851968,0.290633227080398,5,0.5,0.5,-0.0032816589355468754,-0.14,-0.011,-0.56,0.00010266590359961007,10,1,100,0.0015708069612287616,-10,-1,-100,619.3622992641758,0.00013688280238344062,-1.9752919958538484e-06,0.9999999906295984,16.15952691140641,-1.0638905115224133,-521.6932121964599,32.02965690052531,-89.97885131835938,6157.7802734375,True
1599305110.316118,0.2905197676803517,5,0.5,0.5,-0.003489010620117188,-0.14,-0.011,-0.56,0.0005358407888627821,10,1,100,0.01332038305307002,-10,-1,-100,621.8792855140055,2.587396571386072e-07,3.1567990929082464e-06,0.999999999994984,16.163616385939648,-1.0630420325703551,-521.4016425492333,32.03180574950896,-89.9783935546875,6155.9443359375,True
1599305110.349727,0.29049144408957894,5,0.5,0.5,-0.0032384033203125,-0.14,-0.011,-0.56,0.0001737393770261541,10,1,100,0.003666178955919888,-10,-1,-100,622.5468163636979,-3.571946238927389e-05,4.5144489396176955e-06,0.9999999993518699,16.164881959132575,-1.0628372223214966,-521.3274861779383,32.0323403913337,-89.9783935546875,6155.484375,True
1599305110.3827527,0.2904633302487142,5,0.5,0.5,-0.0032222778320312503,-0.14,-0.011,-0.56,0.0002259857710461753,10,1,100,0.004117018065568748,-10,-1,-100,623.1614910240751,-7.205434564982796e-05,6.207065167912451e-06,0.9999999973848218,16.166218451098302,-1.0626346759449776,-521.2518797452327,32.03287365951762,-89.97842407226562,6155.02587890625,True
