Timestamp,Input Throttle,horizon,dT,dt,Input Roll,Roll P,Roll I,Roll D,Input Pitch,Pitch P,Pitch I,Pitch D,Input Yaw,Yaw P,Yaw I,Yaw D,Altitude,Direction X,Direction Y,Direction Z,Drag X,Drag Y,Drag Z,Vertical Velocity,Roll,Mass,Has Fuel
1598625930.6308577,0,5,0.5,0.5,-0.0100531005859375,-0.14,-0.011,-0.56,0.004234616539951149,10,1,100,0.12481812188034866,-10,-1,-100,479.1480574453017,-0.011723233706569471,0.000412412426788279,0.9999311954866953,5.273468004951178,-0.43158530235917353,106.98370193279231,-13.85088102203712,-89.92111206054688,6440.1796875,True
1598625930.6699715,0,5,0.5,0.5,-0.00967845153808594,-0.14,-0.011,-0.56,0.004229833940585908,10,1,100,0.12306332070441273,-10,-1,-100,478.26866415760014,-0.011765585163551844,0.00041299850342486346,0.9999306978176015,5.4609084122203315,-0.44737283553454554,115.56742546829446,-14.434317850969213,-89.92318725585938,6440.1796875,True
1598625930.7098901,0,5,0.5,0.5,-0.008959722900390626,-0.14,-0.011,-0.56,0.004030221551101813,10,1,100,0.117198735264991,-10,-1,-100,477.7228000672767,-0.011740076088483303,0.00041134118909606223,0.999930998325316,5.906216974410577,-0.481130019586128,121.49656006723119,-14.177595059616996,-89.92599487304688,6438.60107421875,True
1598625930.7509375,0,5,0.5,0.5,-0.006981802368164064,-0.14,-0.011,-0.56,0.004048227766116381,10,1,100,0.11731116055573187,-10,-1,-100,477.16688083903864,-0.011707235271892743,0.00040962428603446985,0.9999313840710435,5.744936847837129,-0.462539582535648,108.33292033525612,-13.274793075564558,-89.93118286132812,6435.443359375,True
1598625930.7909312,0,5,0.5,0.5,-0.009962774658203126,-0.14,-0.011,-0.56,0.0042608805008790655,10,1,100,0.12176596574197716,-10,-1,-100,477.16688083903864,-0.011707235271892743,0.00040962428603446985,0.9999313840710435,5.744936847837129,-0.462539582535648,108.33292033525612,-13.274793075564558,-89.93118286132812,6435.443359375,True
1598625930.8319106,0,5,0.5,0.5,0.0020312286376953127,-0.14,-0.011,-0.56,0.0035998229366324234,10,1,100,0.10425978656606572,-10,-1,-100,476.21708882274106,-0.0115374452473191,0.00040324228609946904,0.9999333601559774,5.394661156060442,-0.4247277312232892,84.3522343970238,-11.467458229566843,-89.94842529296875,6429.1279296875,True
1598625930.8752458,0,5,0.5,0.5,0.0006500335693359373,-0.14,-0.011,-0.56,0.0037311732488940295,10,1,100,0.10648373728607925,-10,-1,-100,475.7424081637291,-0.011392819826754712,0.00039826797782811974,0.9999350204083328,5.199061877928341,-0.40500676696250065,73.42415424078693,-10.56296592289556,-89.9603271484375,6425.9697265625,True
1598625930.9160392,0,5,0.5,0.5,0.0029776092529296876,-0.14,-0.011,-0.56,0.0035746073299219123,10,1,100,0.10277440810243851,-10,-1,-100,475.33770316198934,-0.01121726388836603,0.00039196049106548467,0.999937007694901,4.990992547568609,-0.38484791245283656,63.2297122070022,-9.657914020473426,-89.97323608398438,6422.8115234375,True
1598625930.9582436,0,5,0.5,0.5,0.004712695312500001,-0.14,-0.011,-0.56,0.0034049345076680735,10,1,100,0.09786371008132161,-10,-1,-100,475.00273085583467,-0.011002827358831287,0.0003843276042689038,0.9999393932046102,4.771014198365564,-0.36430085168276544,53.775110242518046,-8.752296187710966,-89.986083984375,6419.654296875,True
1598625930.9998097,0,5,0.5,0.5,0.006255767822265625,-0.14,-0.011,-0.56,0.003233897332756669,10,1,100,0.09312723037080356,-10,-1,-100,474.66775726689957,-0.010754823582468783,0.00037548434413257306,0.9999420947140975,4.540041868597293,-0.34343173826819234,45.06578759601301,-7.846106305866853,-89.99858856201172,6416.49609375,True
1598625931.0418553,0,5,0.5,0.5,0.007412052154541016,-0.14,-0.011,-0.56,0.003056434757666901,10,1,100,0.08822653559272048,-10,-1,-100,474.38817232323345,-0.010475036720899871,0.00036549037119497217,0.9999450685025074,4.299564377422754,-0.32234677732529077,37.10714499280972,-6.939337561279061,-90.01024627685547,6413.33837890625,True
1598625931.0848656,0,5,0.5,0.5,0.008244963073730469,-0.14,-0.011,-0.56,0.002861686409022903,10,1,100,0.08182542062040754,-10,-1,-100,474.1374871600419,-0.01016362779880317,0.0003546771581327471,0.9999482860998768,4.052357007308435,-0.301239195626309,29.906974687058366,-6.031983094404735,-90.02062225341797,6410.1806640625,True
1598625931.1270065,0,5,0.5,0.5,0.008672576141357424,-0.14,-0.011,-0.56,0.002625258079089786,10,1,100,0.07530966315126061,-10,-1,-100,473.9279691904085,-0.009822750944781876,0.0003427506353906888,0.9999516968763436,3.8038880517542553,-0.2804944415336398,23.47736744272815,-5.124036461945112,-90.02938079833984,6407.0224609375,True
1598625931.2318778,0,5,0.5,0.5,0.006477035522460938,-0.14,-0.011,-0.56,0.0031054920465762277,10,1,100,0.08934631721606266,-10,-1,-100,473.8170912438072,-0.009642211864573175,0.00033633646037842653,0.9999534562309108,3.682533830937743,-0.2704959204582781,20.557997860613042,-4.669839802838682,-90.03308868408203,6405.44384765625,True
1598625931.2662172,0,5,0.5,0.5,0.0067504173278808595,-0.14,-0.011,-0.56,0.00298160152169206,10,1,100,0.08651272069464304,-10,-1,-100,473.7326720251003,-0.009454202753649922,0.0003294457399825648,0.9999552537567856,3.566602434958693,-0.26099580663871874,17.84181487854846,-4.2154931947486665,-90.03628540039062,6403.86474609375,True
1598625931.3020442,0,5,0.5,0.5,0.008531221771240235,-0.14,-0.011,-0.56,0.0021290764950788743,10,1,100,0.061353937940579265,-10,-1,-100,473.5913910602685,-0.009056617384608424,0.0003155041107862542,0.9999589382263179,3.375659499765908,-0.24524850393501724,13.05858337047551,-3.306344246223351,-90.04122161865234,6400.70751953125,True
1598625931.3389184,0,5,0.5,0.5,0.005869015502929688,-0.14,-0.011,-0.56,0.003514465597178615,10,1,100,0.10086439205845797,-10,-1,-100,473.5913910602685,-0.009056617384608424,0.0003155041107862542,0.9999589382263179,3.375659499765908,-0.24524850393501724,13.05858337047551,-3.306344246223351,-90.04122161865234,6400.70751953125,True
1598625931.3942254,0,5,0.5,0.5,0.00886861343383789,-0.14,-0.011,-0.56,0.0010040102351223006,10,1,100,0.02981047547728273,-10,-1,-100,473.44744657655247,-0.008412796508817873,0.0002927570291921439,0.9999645689464316,3.578001730078892,-0.25735714398306825,7.968225430380668,-1.941474805037564,-90.04537963867188,6395.97021484375,True
1598625931.4326346,0,5,0.5,0.5,0.007078769683837891,-0.14,-0.011,-0.56,0.0014176519861537013,10,1,100,0.04170821723343105,-10,-1,-100,473.39713760546874,-0.007938215608045583,0.00027592842862675946,0.9999684538006499,6.35966220587728,-0.454630045705723,7.428107792346711,-1.0307870300222484,-90.04603576660156,6392.81298828125,True
1598625931.469943,0,5,0.5,0.5,0.005938814544677735,-0.14,-0.011,-0.56,0.0012618499770594063,10,1,100,0.03709299408064817,-10,-1,-100,473.38308409927413,-0.007467607862091643,0.0002593118636443183,0.9999720834054194,14.73784154558726,-1.0475248614420483,1.972298991748041,-0.11946487452469001,-90.04483795166016,6389.654296875,True
1598625931.5079048,0,5,0.5,0.5,0.004492191314697266,-0.14,-0.011,-0.56,0.0009484333855654494,10,1,100,0.028574146471697967,-10,-1,-100,473.40565141569823,-0.0069653269472524934,0.00024146226508350697,0.9999757126633088,0.8219661426475855,-0.05811087725096603,-0.7219860122587697,0.7925161967402506,-90.04174041748047,6386.4970703125,True
1598625931.5509348,0,5,0.5,0.5,0.002955637359619141,-0.14,-0.011,-0.56,0.0007037884034371371,10,1,100,0.02194595367977864,-10,-1,-100,473.4647791190073,-0.00645164228090277,0.00022312406483261335,0.9999791630466762,0.999831351307752,-0.07034112143461263,-1.8710943899213306,1.7051617271548036,-90.03701782226562,6383.3388671875,True
1598625931.5909178,0,5,0.5,0.5,0.0013992706298828123,-0.14,-0.011,-0.56,0.0005051848550742318,10,1,100,0.01540265712664722,-10,-1,-100,473.5602238228312,-0.005928546238754464,0.00020476708061332012,0.9999824050501777,1.7843499402456784,-0.12497558834902008,-5.081901253636642,2.6184394299351763,-90.03099060058594,6380.181640625,True
1598625931.6309323,0,5,0.5,0.5,-0.00010500106811523434,-0.14,-0.011,-0.56,0.00023811004454100146,10,1,100,0.008811952934548534,-10,-1,-100,473.6924114989815,-0.00539662907569695,0.00018577639991345816,0.9999854208345982,2.372803585315457,-0.16551943672357328,-9.042375905114085,3.5323417546721187,-90.02401733398438,6377.0234375,True
1598625931.6688743,0,5,0.5,0.5,-0.0015078018188476568,-0.14,-0.011,-0.56,2.8173407563801545e-05,10,1,100,0.002408913943090049,-10,-1,-100,473.86109913140535,-0.004858718193712201,0.00016674050263239544,0.9999881824577325,2.876518728641609,-0.19992579773621708,-13.698764827132107,4.4468691596763605,-90.01644897460938,6373.86572265625,True
1598625931.7100325,0,5,0.5,0.5,-0.0027066848754882813,-0.14,-0.011,-0.56,-0.000187523421942008,10,1,100,-0.003813468098459477,-10,-1,-100,474.06634754361585,-0.004317318904766469,0.00014762217505169485,0.9999906694390543,3.346933657196368,-0.23186363137816893,-19.093214358622006,5.362010319835729,-90.00871276855469,6370.70751953125,True
1598625931.751938,0,5,0.5,0.5,-0.001101819610595703,-0.14,-0.011,-0.56,0.000679348238669926,10,1,100,0.020043513738645755,-10,-1,-100,474.21368030121084,-0.004046327839225707,0.0001382751486527433,0.9999918040219133,3.5760521138562096,-0.24736825414589728,-22.075791355734008,5.819813634108426,-90.00486755371094,6369.12890625,True
1598625931.793946,0,5,0.5,0.5,-0.0066255126953125,-0.14,-0.011,-0.56,-0.0015296747740839072,10,1,100,-0.042893078531063986,-10,-1,-100,474.60633284877986,-0.003232376294959819,0.00010985694177605571,0.9999947698237927,4.2514889840082875,-0.29294467130008756,-32.189917029191136,7.194145006648272,-89.99395751953125,6364.392578125,True
1598625931.8338237,0,5,0.5,0.5,-0.005272164916992188,-0.14,-0.011,-0.56,-0.0008605473319099732,10,1,100,-0.022788386604525514,-10,-1,-100,474.9002057459438,-0.002679899745153778,9.027145780557192e-05,0.999996404987748,4.69612125061276,-0.3228870630620392,-39.917224686616045,8.111129361611486,-89.98724365234375,6361.234375,True
1598625931.8786867,0,5,0.5,0.5,-0.005635908508300782,-0.14,-0.011,-0.56,-0.000937758887140078,10,1,100,-0.025791438951913104,-10,-1,-100,475.2783698445419,-0.002155128147501937,7.19333282128777e-05,0.9999976751214297,5.13779416638122,-0.3526222808664388,-48.44024972405359,9.028720445210086,-89.9814453125,6358.07666015625,True
1598625931.920109,0,5,0.5,0.5,-0.005577466583251953,-0.14,-0.011,-0.56,-0.001210405360751809,10,1,100,-0.03252894768183444,-10,-1,-100,475.65638152475003,-0.0016216425063778782,5.29540411279867e-05,0.9999986837348592,5.576639445899061,-0.3821886303398696,-57.76238197095181,9.946915987013194,-89.97698974609375,6354.91845703125,True
1598625931.9649334,0,5,0.5,0.5,-0.005353892517089844,-0.14,-0.011,-0.56,-0.0013338617349024301,10,1,100,-0.036946125235439595,-10,-1,-100,476.0900279219495,-0.0011013572952694821,3.4749184216676075e-05,0.9999993929021168,6.012506347795996,-0.41160270851064557,-67.88685028660885,10.865711473570164,-89.97384643554688,6351.7607421875,True
1598625932.0071197,0,5,0.5,0.5,-0.004987590026855469,-0.14,-0.011,-0.56,-0.0015098400953741224,10,1,100,-0.04133708805009731,-10,-1,-100,476.53801784839015,-0.0005933167913882639,1.6770760911756428e-05,0.9999998238469477,6.44497740565198,-0.44086118262449053,-78.81607274661471,11.785102948432685,-89.97195434570312,6348.6025390625,True
1598625932.0510848,0,5,0.5,0.5,-0.004420205688476562,-0.14,-0.011,-0.56,-0.0016444899612002328,10,1,100,-0.04556402570469063,-10,-1,-100,477.04161188949365,-9.788529049755008e-05,-6.264442186791963e-07,0.9999999952090387,6.8735384234739545,-0.4699545414171608,-90.5521392423988,12.705083426860131,-89.97134399414062,6345.4453125,True
1598625932.0948482,0,5,0.5,0.5,-0.0037518280029296886,-0.14,-0.011,-0.56,-0.0017912827295462617,10,1,100,-0.049502009499018194,-10,-1,-100,477.55945753096603,0.0003834897959104409,-1.7607107827555356e-05,0.9999999263127805,7.297541027056236,-0.4988609912482448,-103.09552867778109,13.625652787405633,-89.97189331054688,6342.287109375,True
1598625932.1369314,0,5,0.5,0.5,-0.0029762542724609377,-0.14,-0.011,-0.56,-0.001895162671155302,10,1,100,-0.053097528778160104,-10,-1,-100,478.14728092588484,0.0008490244061011567,-3.382084911347046e-05,0.9999996390067889,7.716449699739099,-0.5275657519030712,-116.44791129940218,14.54678781350334,-89.9735107421875,6339.12890625,True
1598625932.1790707,0,5,0.5,0.5,-0.002169029235839844,-0.14,-0.011,-0.56,-0.0020353323817858355,10,1,100,-0.0563629059046105,-10,-1,-100,478.79031043860596,0.0012972262589596587,-4.9669935811702525e-05,0.9999991573681102,8.129578037192559,-0.5560427042022261,-130.60818644168944,15.468466489448723,-89.97601318359375,6335.9716796875,True
1598625932.2240498,0,5,0.5,0.5,-0.0014018188476562499,-0.14,-0.011,-0.56,-0.002129830306038564,10,1,100,-0.05932361260947442,-10,-1,-100,479.37819571234286,0.0017267402278768912,-6.476640931742517e-05,0.9999985070856343,8.536361937887978,-0.5842696083266659,-145.57700309348206,16.390748999511864,-89.97915649414062,6332.814453125,True
1598625932.2660668,0,5,0.5,0.5,-0.0006362396240234378,-0.14,-0.011,-0.56,-0.002210210152907769,10,1,100,-0.061905925238015205,-10,-1,-100,480.10569923359435,0.00213617475394944,-7.906245352044445e-05,0.9999977152506645,8.93632568278759,-0.6122313199319303,-161.35499592039838,17.313644051690048,-89.9827880859375,6329.65625,True
1598625932.314003,0,5,0.5,0.5,3.818054199218731e-05,-0.14,-0.011,-0.56,-0.002329136023783256,10,1,100,-0.06420900789497139,-10,-1,-100,480.8188591831131,0.0025249468249885377,-9.298606170267003e-05,0.9999968079934671,9.328949160460676,-0.6399066339798221,-177.94083939126673,18.237110907635167,-89.98666381835938,6326.49853515625,True
1598625932.3529787,0,5,0.5,0.5,0.0006078857421875001,-0.14,-0.011,-0.56,-0.0023430878052502833,10,1,100,-0.06613352228376823,-10,-1,-100,481.5463629178703,0.00289161695221997,-0.00010562079498174303,0.9999958136890621,9.713789935588036,-0.6672750987692206,-195.33328692710273,19.16114575391234,-89.99057006835938,6323.3408203125,True
1598625932.3968818,0,5,0.5,0.5,0.0011162933349609374,-0.14,-0.011,-0.56,-0.00242590542856776,10,1,100,-0.06778791192547964,-10,-1,-100,482.34372178290505,0.0032358903742108324,-0.00011771564468732306,0.9999947575645148,10.090429483358205,-0.6943212488163104,-213.53016018637425,20.085745524261423,-89.99440002441406,6320.1826171875,True
1598625932.442116,0,5,0.5,0.5,-0.0010058731079101563,-0.14,-0.011,-0.56,-0.0012316669409001564,10,1,100,-0.03379429449334144,-10,-1,-100,482.34372178290505,0.0032358903742108324,-0.00011771564468732306,0.9999947575645148,10.090429483358205,-0.6943212488163104,-213.53016018637425,20.085745524261423,-89.99440002441406,6320.1826171875,True
1598625932.4849818,0,5,0.5,0.5,0.0035422851562500004,-0.14,-0.011,-0.56,-0.0036191005082469216,10,1,100,-0.1019203942325907,-10,-1,-100,484.0637131788535,0.003851737456235281,-0.00013929732583993086,0.9999925723298265,10.81789120998455,-0.747394444278955,-252.33003289885252,21.93662433359979,-90.00086212158203,6313.8671875,True
1598625932.5272524,0,5,0.5,0.5,0.001825182342529297,-0.14,-0.011,-0.56,-0.002599916885977509,10,1,100,-0.07217250461831698,-10,-1,-100,484.9453305177158,0.004137572513630716,-0.00014952566588383306,0.999991429031154,11.16833555013162,-0.7734023318476201,-272.93035527198197,22.862897622478634,-90.00353240966797,6310.708984375,True
1598625932.5701952,0,5,0.5,0.5,0.0017051086425781251,-0.14,-0.011,-0.56,-0.002448613589026758,10,1,100,-0.0697436065400942,-10,-1,-100,485.9379402316408,0.004371928871717523,-0.00015732874635323161,0.9999904306970175,11.50971039426974,-0.7990482209859383,-294.32962139769415,23.789721739594842,-90.00544738769531,6307.5517578125,True
1598625932.6122036,0,5,0.5,0.5,0.0013514450073242189,-0.14,-0.011,-0.56,-0.002522198361734146,10,1,100,-0.0715654723040172,-10,-1,-100,486.87506887409836,0.004598339881954268,-0.00016497912844344313,0.9999894139700767,11.84163776237745,-0.8243079110668281,-316.51677160354564,24.717093649143287,-90.00642395019531,6304.3935546875,True
1598625932.6551297,0,5,0.5,0.5,0.0008860870361328127,-0.14,-0.011,-0.56,-0.0025065294672755255,10,1,100,-0.07079331288710373,-10,-1,-100,487.88199083856307,0.004794147429631192,-0.00017168675021889183,0.999988493270839,12.164302969731976,-0.8491902057155242,-339.49015034409285,25.64501053441591,-90.0064926147461,6301.23583984375,True
1598625932.695866,0,5,0.5,0.5,0.0003596687316894532,-0.14,-0.011,-0.56,-0.002492886647836493,10,1,100,-0.06993222212883791,-10,-1,-100,488.958889131085,0.004961537641351657,-0.00017756336225539812,0.9999876757317991,12.477811570873307,-0.8736894188446537,-363.247085511732,26.57346956504094,-90.00575256347656,6298.078125,True
1598625932.743064,0,5,0.5,0.5,-0.00027409744262695327,-0.14,-0.011,-0.56,-0.0024299716412198944,10,1,100,-0.0690293822204764,-10,-1,-100,490.0356650351314,0.005102934413851155,-0.0001822442359477666,0.9999869633387259,12.782347454801316,-0.8978199119956207,-387.78462806472714,27.502467416700974,-90.00421905517578,6294.919921875,True
1598625932.785928,0,5,0.5,0.5,-0.0009234268188476564,-0.14,-0.011,-0.56,-0.002381588458515403,10,1,100,-0.06781280808826773,-10,-1,-100,491.1822343689855,0.005218073544386199,-0.00018597858475783796,0.9999863684673164,13.078109450139282,-0.9215837410863881,-413.09809536180455,28.432000544981324,-90.00203704833984,6291.76220703125,True
1598625932.8308709,0,5,0.5,0.5,-0.0016275184631347659,-0.14,-0.011,-0.56,-0.0023203876530901208,10,1,100,-0.0662762716036531,-10,-1,-100,492.3291695646476,0.005306662007201409,-0.00018874402381787654,0.9999859017576372,13.36535021017944,-0.944981252553429,-439.18240257604106,29.36206561816531,-89.999267578125,6288.6044921875,True
1598625932.8743336,0,5,0.5,0.5,-0.0023089622497558596,-0.14,-0.011,-0.56,-0.002262514328162815,10,1,100,-0.06455119864916893,-10,-1,-100,493.54565382550936,0.005369631972326298,-0.0001906673669375447,0.9999855652450375,13.644418097293535,-0.968026861489805,-466.03339450785705,30.292660457472635,-89.9960708618164,6285.4462890625,True
1598625932.9194055,0,5,0.5,0.5,-0.002978968811035157,-0.14,-0.011,-0.56,-0.0021980309637485815,10,1,100,-0.0626262125161407,-10,-1,-100,494.76225952617824,0.00540743775614129,-0.0001917633285314316,0.9999853613147239,13.915728444503342,-0.9907338637495199,-493.6471723451112,31.22378161576074,-89.9925537109375,6282.2890625,True
1598625932.9608665,0,5,0.5,0.5,-0.003603342437744141,-0.14,-0.011,-0.56,-0.002071210255363587,10,1,100,-0.060376961098662585,-10,-1,-100,496.04875027784146,0.0054199446373597495,-0.0001915590453562911,0.9999852936444916,14.179706463017393,-1.0131164237947499,-522.0180149555556,32.15542602365864,-89.98886108398438,6279.130859375,True
1598625933.0018911,0,5,0.5,0.5,-0.004157810974121094,-0.14,-0.011,-0.56,-0.002023738854452569,10,1,100,-0.05796782291652635,-10,-1,-100,497.3906298065558,0.005408247480335538,-0.0001909035630256337,0.9999853571003032,14.436872949266027,-1.0351863968362571,-551.1408376946573,33.08755674671684,-89.98513793945312,6275.9736328125,True
1598625933.0421047,0,5,0.5,0.5,-0.0020951904296875002,-0.14,-0.011,-0.56,-0.0020926445691855484,10,1,100,-0.059241170479809264,-10,-1,-100,497.3906298065558,0.005408247480335538,-0.0001909035630256337,0.9999853571003032,14.436872949266027,-1.0351863968362571,-551.1408376946573,33.08755674671684,-89.98513793945312,6275.9736328125,True
1598625933.0858335,0,5,0.5,0.5,-0.007117384338378907,-0.14,-0.011,-0.56,-0.0016518227113283756,10,1,100,-0.04893988451851498,-10,-1,-100,500.1176924627507,0.005313863146507062,-0.0001868725239227665,0.999985863868645,14.933025900445628,-1.078476682984705,-611.6248670581325,34.95338687819298,-89.97799682617188,6269.65771484375,True
1598625933.1274908,0,5,0.5,0.5,-0.005649095916748047,-0.14,-0.011,-0.56,-0.0016528024485941216,10,1,100,-0.04933445202585576,-10,-1,-100,501.5437386154663,0.005231173715168931,-0.00018320304437375413,0.9999863005352655,15.17329637016905,-1.0997405487692533,-642.9787482406715,35.88709783181666,-89.97442626953125,6266.5,True
1598625933.168417,0,5,0.5,0.5,-0.005905722808837892,-0.14,-0.011,-0.56,-0.001539164863820451,10,1,100,-0.04647328421373956,-10,-1,-100,503.03985278483015,0.0051297457646842844,-0.0001788289579384201,0.9999868267775298,15.409268458433887,-1.1207812867948341,-675.0664836760791,36.821317112175954,-89.97125244140625,6263.341796875,True
1598625933.209058,0,5,0.5,0.5,-0.005104583740234375,-0.14,-0.011,-0.56,-0.0017555156301222198,10,1,100,-0.05011510361332408,-10,-1,-100,503.75295156566426,0.005070621612102799,-0.00017682244567086827,0.9999871286823094,15.525883977070341,-1.1312264815849173,-691.3847770913586,37.28861646307638,-89.96990966796875,6261.7626953125,True
1598625933.2538757,0,5,0.5,0.5,-0.006011505889892578,-0.14,-0.011,-0.56,-0.0013720462293376427,10,1,100,-0.04134263194752596,-10,-1,-100,505.2490349006839,0.004937256687278087,-0.0001715205819105859,0.99998779696409,15.756831223461326,-1.1519873405504548,-724.5687003996692,38.22359279829628,-89.96759033203125,6258.60546875,True
1598625933.2968893,0,5,0.5,0.5,-0.006071985626220703,-0.14,-0.011,-0.56,-0.001241481486845477,10,1,100,-0.037728722660797215,-10,-1,-100,506.81491127354093,0.004783497948758018,-0.00016552941123486157,0.9999885453080892,15.985359441474063,-1.1725907856063655,-758.4783710819147,39.15906803411853,-89.9656982421875,6255.447265625,True
1598625933.340336,0,5,0.5,0.5,-0.006541186523437501,-0.14,-0.011,-0.56,-0.0007190032487551432,10,1,100,-0.0239691543664886,-10,-1,-100,509.2337477565743,0.004519163141994757,-0.00015535594296129342,0.9999897764622532,16.325237227979038,-1.2032477876958312,-810.6891455449559,40.563222751769835,-89.96356201171875,6250.7109375,True
1598625933.383057,0,5,0.5,0.5,-0.006039019775390626,-0.14,-0.011,-0.56,-0.0008728441481222488,10,1,100,-0.028544263169174078,-10,-1,-100,510.8838827634463,0.0043212581927927025,-0.00014753898669372345,0.9999906524362507,16.551157928559935,-1.2235736536231276,-846.3906214690768,41.49994543884543,-89.96261596679688,6247.552734375,True
1598625933.4271064,0,5,0.5,0.5,-0.0058799011230468755,-0.14,-0.011,-0.56,-0.0007775667886298165,10,1,100,-0.02516206527830678,-10,-1,-100,512.5896206536563,0.004111596154914375,-0.00013960652323569462,0.9999915376077328,16.77760199405915,-1.2438539712623302,-882.8078953596652,42.43716011474801,-89.96212768554688,6244.39501953125,True
1598625933.4689932,0,5,0.5,0.5,-0.00571722412109375,-0.14,-0.011,-0.56,-0.0005976403065215167,10,1,100,-0.021055934349545398,-10,-1,-100,514.2951757735573,0.003884844613241175,-0.00013080613119994744,0.9999924454075076,17.005450893191913,-1.2641205437156373,-919.9441949558798,43.3748644265097,-89.96200561523438,6241.2373046875,True
1598625933.51299,0,5,0.5,0.5,-0.005588861083984375,-0.14,-0.011,-0.56,-0.0004462441943259678,10,1,100,-0.017445503565737753,-10,-1,-100,516.0706767608644,0.003647269661746464,-0.00012148408054005927,0.9999933413106473,17.23545199624623,-1.2844019476451076,-957.794591059332,44.31303279630642,-89.96212768554688,6238.0791015625,True
1598625933.558162,0,5,0.5,0.5,-0.0054824157714843755,-0.14,-0.011,-0.56,-0.00036126441308566314,10,1,100,-0.013641853519950873,-10,-1,-100,517.8606425392209,0.0033982288813211737,-0.0001122963896046879,0.9999942196982895,17.468379391611904,-1.3047238041377582,-996.3550550256493,45.251684315288635,-89.96240234375,6234.921875,True
1598625933.607282,0,5,0.5,0.5,-0.0056494506835937505,-0.14,-0.011,-0.56,-0.0012729428411458934,10,1,100,-0.03836263707909512,-10,-1,-100,517.8606425392209,0.0033982288813211737,-0.0001122963896046879,0.9999942196982895,17.468379391611904,-1.3047238041377582,-996.3550550256493,45.251684315288635,-89.96240234375,6234.921875,True
1598625933.6458538,0,5,0.5,0.5,-0.0052105773925781255,-0.14,-0.011,-0.56,0.0010037832580375291,10,1,100,0.019792872524268548,-10,-1,-100,521.5512928145472,0.002871116536639107,-9.1659363765142e-05,0.9999958741356857,17.946424752567907,-1.3456324600876655,-1075.615788612002,47.1304549898313,-89.96304321289062,6228.6064453125,True
1598625933.6903183,0,5,0.5,0.5,-0.005406118774414063,-0.14,-0.011,-0.56,0.00013503844099772215,10,1,100,-0.001007586691113907,-10,-1,-100,523.4667475766037,0.0025830181298638535,-8.087353232219463e-05,0.999996660732831,18.19299485505054,-1.3662668500943516,-1116.3061086824885,48.07055191024934,-89.96328735351562,6225.4482421875,True
1598625933.7320914,0,5,0.5,0.5,-0.00550484619140625,-0.14,-0.011,-0.56,0.00023473779892897034,10,1,100,0.000531273582503558,-10,-1,-100,525.4517212448409,0.0023092610653602046,-7.024427961976604e-05,0.9999973311859752,18.445661635924417,-1.387066555166806,-1157.694958803419,49.01112547490573,-89.96334838867188,6222.2900390625,True
1598625933.7749865,0,5,0.5,0.5,-0.005584335327148438,-0.14,-0.011,-0.56,-0.00019718176388738948,10,1,100,-0.010538795192099529,-10,-1,-100,526.4441777315224,0.0021632773018381863,-6.459448694462976e-05,0.9999976580266913,18.574708138823656,-1.3975488272329624,-1178.6632194374502,49.48159051426963,-89.96328735351562,6220.7119140625,True
1598625933.818866,0,5,0.5,0.5,-0.005977703857421876,-0.14,-0.011,-0.56,0.0011211690429681874,10,1,100,0.0234843774916102,-10,-1,-100,529.4364394320874,0.001723404934093678,-4.7555814864924866e-05,0.9999985138058345,18.973345154946117,-1.4293535784765927,-1242.6553009648987,50.89368548757805,-89.96267700195312,6215.974609375,True
1598625933.8632147,0,5,0.5,0.5,-0.006191259765625,-0.14,-0.011,-0.56,0.0007399039528334986,10,1,100,0.012920481299352988,-10,-1,-100,531.505825107568,0.001421918068127099,-3.5623053040807404e-05,0.9999989884394911,19.249353258531933,-1.4508728978489673,-1286.2127510525902,51.83566053490202,-89.96188354492188,6212.81640625,True
1598625933.9130998,0,5,0.5,0.5,-0.0061103515625000005,-0.14,-0.011,-0.56,0.00016087006703259434,10,1,100,-0.00104455270654253,-10,-1,-100,532.5682280228939,0.0012772391155627019,-3.013356258997692e-05,0.999999183875772,19.3906262315704,-1.4617299377545405,-1308.255366085374,52.306820605411815,-89.96136474609375,6211.2373046875,True
1598625933.9682832,0,5,0.5,0.5,-0.007230441284179688,-0.14,-0.011,-0.56,0.0015015344416219824,10,1,100,0.03374467440255139,-10,-1,-100,535.7554368977435,0.0008318176445102857,-1.3046779291691109e-05,0.999999653954534,19.829191036662582,-1.4948023825014476,-1375.4909226224302,53.72097252008973,-89.9593505859375,6206.5009765625,True
1598625934.0151174,0,5,0.5,0.5,-0.007365942382812501,-0.14,-0.011,-0.56,0.0011748356657896534,10,1,100,0.022812507302271638,-10,-1,-100,537.9501894650748,0.0005288318735717563,-5.819081655873344e-07,0.9999998601682456,20.13428053612071,-1.517274983329644,-1421.229783132878,54.66431650653565,-89.95755004882812,6203.34326171875,True
1598625934.0762794,0,5,0.5,0.5,-0.007815615844726563,-0.14,-0.011,-0.56,0.0011614884841433105,10,1,100,0.024531136788408927,-10,-1,-100,540.1593461573357,0.00024037490194252632,1.0526896223686527e-05,0.9999999710545451,20.450083621946792,-1.5400989065012252,-1467.6923506371886,55.608110268011124,-89.95547485351562,6200.185546875,True
1598625934.1201928,0,5,0.5,0.5,-0.008284661865234376,-0.14,-0.011,-0.56,0.001356972327030556,10,1,100,0.028247695907739137,-10,-1,-100,542.423923256225,-5.2774833369431284e-05,2.2291277616702837e-05,0.999999998358958,20.77742174042009,-1.5633361882180654,-1514.9072668953158,56.552350586349355,-89.95315551757812,6197.02734375,True
1598625934.1709332,0,5,0.5,0.5,-0.008769781494140625,-0.14,-0.011,-0.56,0.0014261818724763463,10,1,100,0.030817618418637623,-10,-1,-100,544.702965586679,-0.0003399794415975531,3.351175598587772e-05,0.9999999416454692,21.11655842430546,-1.5869864731948053,-1562.873864646271,57.49703474080813,-89.95062255859375,6193.8701171875,True
1598625934.2151678,0,5,0.5,0.5,-0.009245138549804688,-0.14,-0.011,-0.56,0.0015501908669538311,10,1,100,0.03327857538718497,-10,-1,-100,547.0374889164232,-0.0006207896055449475,4.473555873646104e-05,0.999999806309479,21.467845020345386,-1.611064558860487,-1611.5926141881707,58.442157611406174,-89.94793701171875,6190.7119140625,True
1598625934.2649856,0,5,0.5,0.5,-0.009744879150390625,-0.14,-0.011,-0.56,0.0016345881502985978,10,1,100,0.03569930229047119,-10,-1,-100,549.3862949183676,-0.0008954144985534488,5.560173668707446e-05,0.9999995975705803,21.83165204152058,-1.6355890593115958,-1661.070124566263,59.38771749990934,-89.94509887695312,6187.5546875,True
1598625934.3116512,0,5,0.5,0.5,-0.010183587646484376,-0.14,-0.011,-0.56,0.00174707111889449,10,1,100,0.03796842163485003,-10,-1,-100,551.7907037445111,-0.0011629212209642653,6.63933834261114e-05,0.9999993216028462,22.208278167827576,-1.6605754281916978,-1711.3130935435665,60.33371117996078,-89.94223022460938,6184.396484375,True
1598625934.3611882,0,5,0.5,0.5,-0.0096250244140625,-0.14,-0.011,-0.56,0.0012900384098795334,10,1,100,0.02587628245658101,-10,-1,-100,553.0072820973583,-0.0012935566795761455,7.194553838119899e-05,0.9999991607671261,22.401490258206554,-1.673249012311389,-1736.7242699974813,60.80686912565523,-89.94076538085938,6182.8173828125,True
1598625934.409994,0,5,0.5,0.5,-0.011840026855468751,-0.14,-0.011,-0.56,0.0024294470361674045,10,1,100,0.05480099250857745,-10,-1,-100,556.6980937566841,-0.0016727994835617286,8.725342258714834e-05,0.99999859706338,23.00098671099672,-1.7120004826323811,-1814.1242513106197,62.22698362100537,-89.93646240234375,6178.0810546875,True
1598625934.4548142,0,5,0.5,0.5,-0.01150853271484375,-0.14,-0.011,-0.56,0.0020281741869092353,10,1,100,0.04435448056384058,-10,-1,-100,559.2420904946048,-0.0019199155253245377,9.7415030521867e-05,0.9999981522156365,23.4173600074219,-1.7384558355024708,-1866.6995531055668,63.1742553978376,-89.93353271484375,6174.9228515625,True
1598625934.5008993,0,5,0.5,0.5,-0.011861639404296874,-0.14,-0.011,-0.56,0.002055599879143653,10,1,100,0.04482806536941564,-10,-1,-100,561.8006741184508,-0.002146370213187015,0.0001068017605648209,0.9999976908414798,23.847238512369486,-1.7654133411799524,-1920.0560540838744,64.1219468968055,-89.93072509765625,6171.765625,True
1598625934.5498338,0,5,0.5,0.5,-0.012156039428710939,-0.14,-0.011,-0.56,0.0021454465997322565,10,1,100,0.04688508221972346,-10,-1,-100,564.3590751755983,-0.0023685062625313754,0.00011605431836492047,0.9999971883507871,24.290975002847315,-1.7929034437993119,-1974.2256941576863,65.07005416216445,-89.9281005859375,6168.607421875,True
1598625934.5969226,0,5,0.5,0.5,-0.012425408935546877,-0.14,-0.011,-0.56,0.002206755967541624,10,1,100,0.04794170866799821,-10,-1,-100,567.04290317907,-0.0025776821104064973,0.00012492715841587684,0.9999966699685269,24.748439614194663,-1.8209256669417646,-2029.21224497717,66.01857324546789,-89.9256591796875,6165.44970703125,True
1598625934.6398995,0,5,0.5,0.5,-0.012712002563476562,-0.14,-0.011,-0.56,0.0022339887187033504,10,1,100,0.04885245696168386,-10,-1,-100,569.6713113569422,-0.0027738261318018985,0.00013314764176294454,0.9999961440727141,25.219445307851156,-1.849469783835067,-2085.0116577950225,66.96749953592378,-89.92333984375,6162.2919921875,True
1598625934.6908348,0,5,0.5,0.5,-0.012938546752929688,-0.14,-0.011,-0.56,0.002320837658152165,10,1,100,0.04970522953731488,-10,-1,-100,572.3694213110721,-0.0029576787685850867,0.00014131976617728887,0.9999956160729033,25.70400705542376,-1.8785527016043027,-2141.6382140816404,67.91683016478231,-89.92120361328125,6159.1337890625,True
1598625934.7318525,0,5,0.5,0.5,-0.013181576538085937,-0.14,-0.011,-0.56,0.002333949772261845,10,1,100,0.05033163574477571,-10,-1,-100,575.1376607277198,-0.0031283876864894107,0.0001487803674027437,0.9999950955154155,26.20195579827037,-1.9081560338788381,-2199.0987438626835,68.8665625008031,-89.919189453125,6155.9765625,True
1598625934.77789,0,5,0.5,0.5,-0.013427972412109374,-0.14,-0.011,-0.56,0.0023871461491461977,10,1,100,0.050851334731677744,-10,-1,-100,577.9057782604359,-0.0032862721724761456,0.0001559616277332734,0.9999945880309448,26.71304174466334,-1.9382816074167313,-2257.3954815385,69.81669184509398,-89.91726684570312,6152.818359375,True
1598625934.8253388,0,5,0.5,0.5,-0.013660510253906253,-0.14,-0.011,-0.56,0.0024408676851157473,10,1,100,0.051164487501249495,-10,-1,-100,580.7291931101354,-0.0034307200476860916,0.00016289699813865346,0.9999941017948668,27.237115124682372,-1.9689290937098716,-2316.53932248891,70.7672134812664,-89.91543579101562,6149.66015625,True
1598625934.8691993,0,5,0.5,0.5,-0.013901995849609378,-0.14,-0.011,-0.56,0.0024127812567842385,10,1,100,0.051300537162680626,-10,-1,-100,583.5815995504381,-0.00356133023719168,0.00016886386601347846,0.9999936441857701,27.773869629278657,-2.0000905135700173,-2376.5374029357918,71.71812494515791,-89.91366577148438,6146.50244140625,True
1598625934.9161065,0,5,0.5,0.5,-0.014153512573242188,-0.14,-0.011,-0.56,0.002416689076446625,10,1,100,0.05129685785601962,-10,-1,-100,586.475082482677,-0.003678316478723815,0.00017424962567531713,0.9999932197894895,28.322979836019638,-2.0317604350133265,-2437.3932195594593,72.66942112932155,-89.91192626953125,6143.3447265625,True
1598625934.96683,0,5,0.5,0.5,-0.014420809936523438,-0.14,-0.011,-0.56,0.002496675567626701,10,1,100,0.051102856194474945,-10,-1,-100,589.4526718405541,-0.0037813054095995322,0.00017980307111030438,0.9999928346744567,28.884124462912727,-2.063930688175648,-2499.1162932434813,73.62109471349842,-89.91018676757812,6140.18701171875,True
1598625935.0059593,0,5,0.5,0.5,-0.014686932373046878,-0.14,-0.011,-0.56,0.0024468285634251267,10,1,100,0.05078875200558916,-10,-1,-100,592.4303828512784,-0.003870589913045393,0.0001843321384579644,0.9999924922495106,29.456872279691847,-2.096577209227689,-2561.7098545424437,74.57314557525365,-89.908447265625,6137.02880859375,True
1598625935.0531101,0,5,0.5,0.5,-0.015016168212890627,-0.14,-0.011,-0.56,0.002460842681347508,10,1,100,0.05029210204993879,-10,-1,-100,595.4080327830743,-0.003945877113262523,0.00018851480273686513,0.9999921972275466,30.040818486487584,-2.1296939517878313,-2625.178179840189,75.52557259540475,-89.9066162109375,6133.87109375,True
1598625935.0994864,0,5,0.5,0.5,-0.014011724853515626,-0.14,-0.011,-0.56,0.0020489350178895345,10,1,100,0.04290020152851139,-10,-1,-100,595.4080327830743,-0.003945877113262523,0.00018851480273686513,0.9999921972275466,30.040818486487584,-2.1296939517878313,-2625.178179840189,75.52557259540475,-89.9066162109375,6133.87109375,True
1598625935.1400018,0,5,0.5,0.5,-0.016764495849609377,-0.14,-0.011,-0.56,0.0028292110508743615,10,1,100,0.05517249293953802,-10,-1,-100,601.5731711753178,-0.004056377897925074,0.0001955578874358418,0.9999917537437305,31.240414326695454,-2.197284567983175,-2754.763942350091,77.43152870944337,-89.9027099609375,6127.5556640625,True
1598625935.1850777,0,5,0.5,0.5,-0.016199511718750004,-0.14,-0.011,-0.56,0.002432664592645342,10,1,100,0.04841388925486784,-10,-1,-100,604.6904686297057,-0.004094392487640082,0.00019830641652259447,0.9999915982770667,31.854981882822827,-2.2317190120876558,-2820.8825114133947,78.38505002078257,-89.90042114257812,6124.3974609375,True
1598625935.2269032,0,5,0.5,0.5,-0.016604678344726564,-0.14,-0.011,-0.56,0.0024130823903714426,10,1,100,0.04694602356524763,-10,-1,-100,607.8222926148446,-0.00411472878583795,0.0002005820356270434,0.9999915143509298,32.47864925097434,-2.2665529804627393,-2887.879737112859,79.33892833549126,-89.89804077148438,6121.240234375,True
1598625935.273865,0,5,0.5,0.5,-0.017001803588867187,-0.14,-0.011,-0.56,0.00236859324404112,10,1,100,0.04620279512124788,-10,-1,-100,611.0651392920408,-0.004125706565060231,0.00020220576947545425,0.9999914687926921,33.11103418268386,-2.301782763162428,-2955.7773378895045,80.29315871047861,-89.89559936523438,6118.08203125,True
1598625935.3181894,0,5,0.5,0.5,-0.017386782836914062,-0.14,-0.011,-0.56,0.0023526998677993035,10,1,100,0.044948025054891885,-10,-1,-100,614.2667868519202,-0.004123647557825092,0.00020350167067059597,0.9999914770226237,33.751484731334195,-2.337372581331063,-3024.5742710965424,81.24773673158265,-89.89312744140625,6114.9248046875,True
1598625935.360877,0,5,0.5,0.5,-0.017840893554687504,-0.14,-0.011,-0.56,0.002329391760452686,10,1,100,0.043602146438758,-10,-1,-100,617.593983929255,-0.004109029275354991,0.00020443638186788544,0.9999915370062789,34.39930814721443,-2.373301651770293,-3094.264982132503,82.20265690763446,-89.89053344726562,6111.76611328125,True
1598625935.4028094,0,5,0.5,0.5,-0.01827030944824219,-0.14,-0.011,-0.56,0.0022569487460155514,10,1,100,0.0423140164430336,-10,-1,-100,620.8655774781946,-0.0040836380978786484,0.00020460010395581776,0.9999916409844049,35.05387645255719,-2.409544758538836,-3164.8484802090175,83.15791651139031,-89.88787841796875,6108.6083984375,True
1598625935.4478633,0,5,0.5,0.5,-0.018730639648437502,-0.14,-0.011,-0.56,0.0022721077440667685,10,1,100,0.04087065236635659,-10,-1,-100,624.2480103747221,-0.004047158869759202,0.00020486420853363502,0.9999917892341611,35.714588856953654,-2.446091436041442,-3236.3259230895724,84.11351273357646,-89.8851318359375,6105.45068359375,True
1598625935.4908965,0,5,0.5,0.5,-0.01920489501953125,-0.14,-0.011,-0.56,0.0021854357776380008,10,1,100,0.03939422651033143,-10,-1,-100,627.659312987118,-0.0040004133646351905,0.00020429771111859311,0.999991977445498,36.38074399077911,-2.482889755515255,-3308.6920205376223,85.0694401926791,-89.88229370117188,6102.29296875,True
1598625935.5339262,0,5,0.5,0.5,-0.019671713256835942,-0.14,-0.011,-0.56,0.0021809515563560532,10,1,100,0.03787042059136627,-10,-1,-100,631.0562726636417,-0.003944015091394249,0.00020372759972200847,0.9999922015896043,37.05172258435054,-2.5199329513007243,-3381.9461882803816,86.02569517783913,-89.87939453125,6099.13525390625,True
1598625935.5748644,0,5,0.5,0.5,-0.020150265502929688,-0.14,-0.011,-0.56,0.002115306491552778,10,1,100,0.036273911503582015,-10,-1,-100,634.5373380149249,-0.0038782319076697807,0.0002025987135023698,0.9999924591070832,37.72683035444514,-2.5571955606225965,-3456.080764172718,86.9822727900751,-89.87643432617188,6095.9775390625,True
1598625935.6210227,0,5,0.5,0.5,-0.020614959716796877,-0.14,-0.011,-0.56,0.0020334119698247805,10,1,100,0.03470974766634902,-10,-1,-100,638.0187084177742,-0.0038043712930274686,0.000200821556899656,0.9999927431885529,38.405473630142964,-2.5946389880740877,-3531.094443112618,87.93916854835038,-89.87344360351562,6092.8193359375,True
1598625935.6669004,0,5,0.5,0.5,-0.021106060791015627,-0.14,-0.011,-0.56,0.0019933918666356137,10,1,100,0.03304127422526392,-10,-1,-100,641.5552544372622,-0.003722320994974241,0.00019883985437694462,0.9999930523704266,39.086985926569724,-2.632232805082532,-3606.9814934416063,88.89637880307224,-89.87039184570312,6089.66162109375,True
1598625935.710914,0,5,0.5,0.5,-0.021563720703125,-0.14,-0.011,-0.56,0.001968457364937909,10,1,100,0.031454544167360904,-10,-1,-100,645.1618077649036,-0.0036336617305729735,0.00019681321314200069,0.9999933788615738,39.77073387535183,-2.6699628432306337,-3683.7348880485997,89.85389914932672,-89.86734008789062,6086.50390625,True
1598625935.7542639,0,5,0.5,0.5,-0.022022052001953125,-0.14,-0.011,-0.56,0.0018751092010737738,10,1,100,0.029768098374692263,-10,-1,-100,648.7827042401768,-0.0035381783873970948,0.00019412709467177174,0.9999937217844771,40.45607886390691,-2.707780757193559,-3761.3459033702557,90.8117247131805,-89.86428833007812,6083.34619140625,True
1598625935.8001304,0,5,0.5,0.5,-0.02143426818847656,-0.14,-0.011,-0.56,0.002011864257840614,10,1,100,0.03379345179288577,-10,-1,-100,650.6136603250634,-0.0034885017148302624,0.000192936918920352,0.9999938965469393,40.79918468290232,-2.726721258198632,-3800.4737752970627,91.29075153489596,-89.86273193359375,6081.76708984375,True
1598625935.841887,0,5,0.5,0.5,-0.023797613525390626,-0.14,-0.011,-0.56,0.0016123771188650362,10,1,100,0.02137049027983231,-10,-1,-100,656.1499243057333,-0.0033309692056149513,0.00018823369375832656,0.9999944345906269,41.82912312097801,-2.783637096692631,-3919.109274410253,92.72827906347628,-89.858154296875,6077.0302734375,True
1598625935.8860743,0,5,0.5,0.5,-0.023531237792968753,-0.14,-0.011,-0.56,0.0017290566845381376,10,1,100,0.02464166331673099,-10,-1,-100,659.8961865510792,-0.0032181800147476234,0.00018503363639914752,0.9999948045264766,42.515769288112686,-2.821610568202224,-3999.251633766837,93.68699849950013,-89.85491943359375,6073.8720703125,True
1598625935.9299326,0,5,0.5,0.5,-0.023995989990234376,-0.14,-0.011,-0.56,0.0016811418857543671,10,1,100,0.023477700991008023,-10,-1,-100,663.6568534405669,-0.0031058165281389453,0.00018170693205834547,0.9999951604314316,43.2017258398141,-2.859583096168506,-4080.2228972168145,94.64600793523759,-89.85171508789062,6070.71484375,True
1598625935.9761028,0,5,0.5,0.5,-0.024392785644531255,-0.14,-0.011,-0.56,0.0015980554147373956,10,1,100,0.021651969487127005,-10,-1,-100,667.4873440671945,-0.002987883614674407,0.00017794786090206228,0.9999955204329988,43.886312214380844,-2.8975044594191393,-4161.995494680684,95.60530321430257,-89.8486328125,6067.556640625,True
1598625936.0190265,0,5,0.5,0.5,-0.02485814208984375,-0.14,-0.011,-0.56,0.0015931488867271912,10,1,100,0.0202212629761598,-10,-1,-100,671.317957145744,-0.0028685346627675976,0.00017450935481336656,0.9999958705191606,44.5691081475614,-2.9353725175108956,-4244.558849036333,96.56488078331157,-89.84555053710938,6064.3994140625,True
1598625936.0633383,0,5,0.5,0.5,-0.025280908203125004,-0.14,-0.011,-0.56,0.0014629301652325875,10,1,100,0.0188241518547329,-10,-1,-100,675.203989335103,-0.0027482525119710737,0.00017022516940886406,0.9999962090585756,45.24976127275689,-2.9731460459455934,-4327.910006676221,97.52473531571808,-89.842529296875,6061.2412109375,True
1598625936.1068704,0,5,0.5,0.5,-0.02573788757324219,-0.14,-0.011,-0.56,0.0014661796313579635,10,1,100,0.017389838513138273,-10,-1,-100,679.1741894960869,-0.0026268259979425157,0.00016638781090362955,0.9999965360441371,45.92776484156551,-3.010818851232416,-4412.028273508374,98.48486516798138,-89.83950805664062,6058.0830078125,True
1598625936.151894,0,5,0.5,0.5,-0.02619483337402344,-0.14,-0.011,-0.56,0.0014315349252729897,10,1,100,0.016092251853665446,-10,-1,-100,683.1301075591473,-0.002505637920100466,0.00016261385315580144,0.9999968476627055,46.602469674696856,-3.048342222350485,-4496.874942154167,99.44526720050698,-89.83648681640625,6054.92578125,True
1598625936.1970994,0,5,0.5,0.5,-0.024536877441406254,-0.14,-0.011,-0.56,0.0018055107640571812,10,1,100,0.028098257256823155,-10,-1,-100,683.1301075591473,-0.002505637920100466,0.00016261385315580144,0.9999968476627055,46.602469674696856,-3.048342222350485,-4496.874942154167,99.44526720050698,-89.83648681640625,6054.92578125,True
1598625936.238851,0,5,0.5,0.5,-0.028775833129882817,-0.14,-0.011,-0.56,0.0009003569751272852,10,1,100,0.0016415964647577344,-10,-1,-100,691.1549800119828,-0.0022660614951428683,0.000154413830748726,0.9999974205575078,47.92955534265501,-3.122155319572003,-4667.603734542063,101.36687879344197,-89.83047485351562,6048.609375,True
1598625936.2842774,0,5,0.5,0.5,-0.02777310791015625,-0.14,-0.011,-0.56,0.001235409597045886,10,1,100,0.011955353669709281,-10,-1,-100,695.2505460132379,-0.002143137483607964,0.00015004021883989162,0.9999976922221666,48.58061787769904,-3.1583491015425156,-4753.371870092521,102.32808929692403,-89.8271484375,6045.4521484375,True
1598625936.3303595,0,5,0.5,0.5,-0.028272912597656248,-0.14,-0.011,-0.56,0.0012414794868083473,10,1,100,0.011959843728319264,-10,-1,-100,699.360516699031,-0.0020325090479472387,0.00014615411017053587,0.9999979237708175,49.22302796252139,-3.1940594913489315,-4839.39123825222,103.28956777997941,-89.82382202148438,6042.2939453125,True
1598625936.371883,0,5,0.5,0.5,-0.028687368774414062,-0.14,-0.011,-0.56,0.0011717007472701463,10,1,100,0.010344718449543502,-10,-1,-100,703.5404329498997,-0.0019183326684184365,0.00014202227695370937,0.9999981499130117,49.855935053535404,-3.2292067621399743,-4925.56873289234,104.25131566501281,-89.82061767578125,6039.13671875,True
1598625936.4158359,0,5,0.5,0.5,-0.029170184326171876,-0.14,-0.011,-0.56,0.0011260081144194548,10,1,100,0.009658884020917205,-10,-1,-100,707.7202888218453,-0.001809380632095396,0.00013788675432622866,0.9999983535631303,50.47950424735155,-3.2638142691644516,-5011.893111803662,105.2133324382321,-89.81741333007812,6035.97802734375,True
1598625936.460487,0,5,0.5,0.5,-0.02963177185058594,-0.14,-0.011,-0.56,0.0010892353881493226,10,1,100,0.009014706772459778,-10,-1,-100,711.9701518923976,-0.001705548535890818,0.00013382930997749576,0.999998536595883,51.093705533835355,-3.297870727157814,-5098.34633778381,106.17561871768301,-89.81423950195312,6032.82080078125,True
1598625936.511864,0,5,0.5,0.5,-0.030131912231445315,-0.14,-0.011,-0.56,0.0010778033103553027,10,1,100,0.00835249644317282,-10,-1,-100,716.2198313815752,-0.0016061928873721172,0.00013007377808491646,0.9999987016117674,51.698485453849884,-3.3313693210465734,-5184.901898894528,107.13817612281986,-89.81103515625,6029.6630859375,True
1598625936.5591977,0,5,0.5,0.5,-0.030636526489257812,-0.14,-0.011,-0.56,0.0010616000078684303,10,1,100,0.007822850924880304,-10,-1,-100,720.5393352612155,-0.0015120928473020927,0.00012654885669753093,0.9999988487796413,52.2939146391082,-3.364285420252362,-5271.537842984155,108.10100513478349,-89.80780029296875,6026.5048828125,True
1598625936.6381984,0,5,0.5,0.5,-0.031188372802734378,-0.14,-0.011,-0.56,0.0010166548363282134,10,1,100,0.0073418932608783245,-10,-1,-100,724.9289076399291,-0.0014231884077026346,0.00012297200747154766,0.9999989797058003,52.879950434795084,-3.3966253921231253,-5358.21813166175,109.06410659950731,-89.80447387695312,6023.34765625,True
1598625936.6860301,0,5,0.5,0.5,-0.034252761840820316,-0.14,-0.011,-0.56,0.0006645920720976354,10,1,100,-0.0014026011813771354,-10,-1,-100,733.7222734679235,-0.001263854830875712,0.00011655579381463421,0.9999991945425323,54.024494500024495,-3.4595657230292205,-5531.623941359089,110.99113100885684,-89.7974853515625,6017.03125,True
1598625936.7351027,0,5,0.5,0.5,-0.03166382751464844,-0.14,-0.011,-0.56,0.0011386633084855614,10,1,100,0.01046133408785906,-10,-1,-100,735.9724184036022,-0.001227988975379952,0.00011507448178400419,0.9999992394001808,54.305069688410924,-3.4749382512532074,-5574.971566977747,111.47305953080114,-89.795654296875,6015.45263671875,True
1598625936.779027,0,5,0.5,0.5,-0.03328294067382813,-0.14,-0.011,-0.56,0.0009504431118260039,10,1,100,0.0067981519042750495,-10,-1,-100,740.446340894443,-0.001163025698278282,0.00011205250483103975,0.9999993174074976,54.85961929310205,-3.505241635316987,-5661.627978555164,112.43712513099929,-89.79193115234375,6012.294921875,True
1598625936.8240254,0,5,0.5,0.5,-0.033629296875,-0.14,-0.011,-0.56,0.0009729652849786044,10,1,100,0.006991919658634526,-10,-1,-100,744.9755615759641,-0.0011066207093939678,0.00010954453436974014,0.9999993816951092,55.40544754485805,-3.5349438959631483,-5748.191988477198,113.40146941869467,-89.78851318359375,6009.13720703125,True
1598625936.8648615,0,5,0.5,0.5,-0.03540702819824219,-0.14,-0.011,-0.56,0.0008456361658040717,10,1,100,0.0043486531093405245,-10,-1,-100,751.8392165733967,-0.0010321554675406033,0.0001061403052086091,0.9999994616945183,56.20887195443387,-3.5784267587555587,-5877.81542796189,114.8485160045279,-89.78329467773438,6004.400390625,True
1598625936.9102275,0,5,0.5,0.5,-0.03513192138671875,-0.14,-0.011,-0.56,0.0009332220930058142,10,1,100,0.0074404224029045625,-10,-1,-100,756.452909431071,-0.0009933724023434704,0.00010387440710191045,0.9999995012105646,56.7352910093573,-3.6067146015629694,-5964.098316595692,115.81356943502298,-89.77957153320312,6001.2421875,True
1598625936.9539397,0,5,0.5,0.5,-0.03565206298828126,-0.14,-0.011,-0.56,0.0009481624419443889,10,1,100,0.007865139265061117,-10,-1,-100,761.1218393346062,-0.000962717958392729,0.00010198124140182992,0.9999995313868697,57.254707811809936,-3.63448112719135,-6050.242811147583,116.77891050299895,-89.77590942382812,5998.0849609375,True
1598625937.0018187,0,5,0.5,0.5,-0.036164196777343754,-0.14,-0.011,-0.56,0.000980918244406103,10,1,100,0.008191442412980247,-10,-1,-100,765.8605933042709,-0.0009384919748526817,0.00010058691448647744,0.9999995545574436,57.767589942556285,-3.661713978901716,-6136.224558618252,117.7445412217947,-89.77230834960938,5994.9267578125,True
1598625937.0448442,0,5,0.5,0.5,-0.03673230895996094,-0.14,-0.011,-0.56,0.0010029861522101607,10,1,100,0.008729552473824632,-10,-1,-100,770.543866355787,-0.0009219672639262417,9.954676814673793e-05,0.9999995700333102,58.274517483962455,-3.6884242366393947,-6222.033268978867,118.7104640604673,-89.7686767578125,5991.7685546875,True
1598625937.0939312,0,5,0.5,0.5,-0.03728376770019532,-0.14,-0.011,-0.56,0.0009656682974943317,10,1,100,0.009367854553141227,-10,-1,-100,775.3526883547893,-0.0009132840234263343,9.82864746936952e-05,0.9999995781259416,58.77606337852582,-3.7146507288698305,-6307.662286108856,119.67668174032329,-89.76504516601562,5988.611328125,True
1598625937.1389472,0,5,0.5,0.5,-0.03785692443847657,-0.14,-0.011,-0.56,0.0010420149849298247,10,1,100,0.009956870315476344,-10,-1,-100,780.1612665865105,-0.0009112084066151707,9.785725556104979e-05,0.9999995800615105,59.27273171581011,-3.7404095876696415,-6393.094516885016,120.64319757494579,-89.76138305664062,5985.453125,True
1598625937.2150443,0,5,0.5,0.5,-0.03849478149414063,-0.14,-0.011,-0.56,0.0010161419223261754,10,1,100,0.010760504595448132,-10,-1,-100,785.0398516200949,-0.000916947836081366,9.724884536066041e-05,0.9999995748745736,59.76509062662724,-3.765715292382905,-6478.317219349167,121.6100133986523,-89.75759887695312,5982.294921875,True
1598625937.2639441,0,5,0.5,0.5,-0.041950338745117194,-0.14,-0.011,-0.56,0.0010909657413405716,10,1,100,0.013690266832336139,-10,-1,-100,794.8258309201337,-0.0009490824660580696,9.739216683900398e-05,0.9999995448785157,60.739224812852505,-3.815050265489545,-6648.099987583918,123.54455894181365,-89.74969482421875,5975.9794921875,True
1598625937.341126,0,5,0.5,0.5,-0.040518527221679694,-0.14,-0.011,-0.56,0.0010885533376880125,10,1,100,0.01335357733996066,-10,-1,-100,799.7888278014725,-0.0009754294463173141,9.751385572974035e-05,0.9999995195141061,61.222157125176935,-3.8391203206486155,-6732.63744815073,124.51229470643348,-89.7454833984375,5972.822265625,True
1598625937.387321,0,5,0.5,0.5,-0.044018008422851564,-0.14,-0.011,-0.56,0.0011962794106970952,10,1,100,0.018542210628211632,-10,-1,-100,809.8951796492329,-0.0010466699048671604,9.861474691107417e-05,0.9999994473784682,62.18281355798006,-3.8861971417582146,-6900.971840430367,126.44870630420442,-89.7371826171875,5966.505859375,True
1598625937.4309897,0,5,0.5,0.5,-0.04215466918945313,-0.14,-0.011,-0.56,0.0012184869645968136,10,1,100,0.016387980827298983,-10,-1,-100,814.9424047557404,-0.0010918368558702452,9.982428534619102e-05,0.9999993989635154,62.66179906546668,-3.9092659753424908,-6984.767932451523,127.41738931624351,-89.7332763671875,5963.3486328125,True
1598625937.5118234,0,5,0.5,0.5,-0.04251748352050781,-0.14,-0.011,-0.56,0.0012318284163906211,10,1,100,0.01724815617162898,-10,-1,-100,820.0994606934255,-0.0011406279831364797,0.00010104883359601888,0.9999993443782537,63.15947872712061,-3.9331563158047174,-7068.32073448133,128.34284142172572,-89.72970581054688,5960.28857421875,True
1598625937.5577297,0,5,0.5,0.5,-0.0440935760498047,-0.14,-0.011,-0.56,0.0014182695581791273,10,1,100,0.02165006844799564,-10,-1,-100,827.8154559372924,-0.0012248392013229864,0.000103857826391945,0.999999244490956,63.809148032851795,-3.9622866456043537,-7176.737261206314,129.61764959835673,-89.72467041015625,5955.9541015625,True
1598625937.6330454,0,5,0.5,0.5,-0.043740093994140625,-0.14,-0.011,-0.56,0.0013035367434943935,10,1,100,0.020055645211941447,-10,-1,-100,833.0576474126428,-0.0012866397818679814,0.00010536545706210257,0.9999991667277489,64.22531975285912,-3.980286333751375,-7245.8230626016475,130.45166778354235,-89.72122192382812,5953.10107421875,True
1598625937.675068,0,5,0.5,0.5,-0.046817196655273445,-0.14,-0.011,-0.56,0.0016554656589707214,10,1,100,0.028743094330504468,-10,-1,-100,843.5410893110093,-0.0014214674175158754,0.00010993009445847118,0.9999989836723611,65.04533610363407,-4.014562209328861,-7373.7400278270425,131.96377665737745,-89.71414184570312,5947.74609375,True
1598625937.7199965,0,5,0.5,0.5,-0.045429098510742186,-0.14,-0.011,-0.56,0.0015106492568729554,10,1,100,0.023364333643701357,-10,-1,-100,848.8383914211299,-0.0014946781860483967,0.00011275266696358589,0.999998876611347,65.43596993003133,-4.0300693370122795,-7432.23727690047,132.66726262441279,-89.71054077148438,5945.18701171875,True
1598625937.7643096,0,5,0.5,0.5,-0.04583963928222656,-0.14,-0.011,-0.56,0.0014694660781022705,10,1,100,0.024119630269209016,-10,-1,-100,854.2053023525514,-0.001567569336055819,0.00011493070815086346,0.9999987647578914,65.81856405740872,-4.0447868627896195,-7486.529225600714,133.31213221301482,-89.7071533203125,5942.759765625,True
1598625937.8060606,0,5,0.5,0.5,-0.04621983642578126,-0.14,-0.011,-0.56,0.0015692428787396563,10,1,100,0.025464782580707186,-10,-1,-100,859.5313238467788,-0.0016454712011671187,0.00011780173299710093,0.999998639272713,66.1613073316149,-4.0567771310431775,-7533.158406302921,133.9015374432031,-89.7039794921875,5940.45703125,True
1598625937.8542552,0,5,0.5,0.5,-0.046650372314453126,-0.14,-0.011,-0.56,0.001606106608571663,10,1,100,0.026357782571065125,-10,-1,-100,864.8985753095476,-0.0017237761796032732,0.00012072832625019133,0.9999985070090626,66.49610697290362,-4.06805983670552,-7576.765651501791,134.45705454748426,-89.70089721679688,5938.23046875,True
1598625937.8988428,0,5,0.5,0.5,-0.04708821105957032,-0.14,-0.011,-0.56,0.0016586161301502013,10,1,100,0.0274294364348642,-10,-1,-100,870.2947588628158,-0.0018040245162767817,0.00012384512079415073,0.9999983650776287,66.82360523060731,-4.078693887490475,-7617.568357702796,134.98168105202566,-89.6978759765625,5936.07373046875,True
1598625937.9392455,0,5,0.5,0.5,-0.046486306762695315,-0.14,-0.011,-0.56,0.0015221131788939785,10,1,100,0.023965824098163578,-10,-1,-100,872.9784961580299,-0.0018448016605450478,0.00012541469775552717,0.9999982904875323,66.98012094447688,-4.083493181778599,-7636.600838498092,135.23667673408832,-89.69638061523438,5935.01171875,True
1598625937.9829068,0,5,0.5,0.5,-0.04872293701171876,-0.14,-0.011,-0.56,0.0018745965197780891,10,1,100,0.033531406598680286,-10,-1,-100,881.1837438471848,-0.00196814711915301,0.0001300227158989892,0.9999980547436133,67.46556222382834,-4.098577610908625,-7693.420591903438,135.97398633130172,-89.69204711914062,5931.888671875,True
1598625938.0279183,0,5,0.5,0.5,-0.04832429809570313,-0.14,-0.011,-0.56,0.001773469283092274,10,1,100,0.030532058364100837,-10,-1,-100,886.6354812430218,-0.0020522602619949654,0.00013326614489380818,0.9999978852317396,67.78500551995988,-4.108155462941894,-7728.546011877444,136.43003004885722,-89.689208984375,5929.8857421875,True
1598625938.1003184,0,5,0.5,0.5,-0.04876064453125,-0.14,-0.011,-0.56,0.0018149731390110944,10,1,100,0.03140625064715621,-10,-1,-100,892.0873739686795,-0.0021359217570966356,0.00013656528965335849,0.9999977095914616,68.09965773338129,-4.117284462052788,-7762.011581834443,136.87341928203915,-89.68637084960938,5927.91162109375,True
1598625938.144991,0,5,0.5,0.5,-0.04987991333007813,-0.14,-0.011,-0.56,0.002054883164323135,10,1,100,0.036889360569559985,-10,-1,-100,900.3067259205272,-0.002261052041051617,0.00014171714890797617,0.9999974337766658,68.56807395849823,-4.130471661607343,-7807.897831034128,137.47158723279793,-89.68255615234375,5925.1005859375,True
1598625938.185924,0,5,0.5,0.5,-0.05010691833496094,-0.14,-0.011,-0.56,0.00212514847697372,10,1,100,0.03805155204625431,-10,-1,-100,908.5820063708816,-0.002384608962959243,0.00014701053556858892,0.9999971460099255,69.01825063560081,-4.142252416860404,-7849.092995111141,138.03578949927564,-89.67922973632812,5922.36572265625,True
1598625938.2288175,0,5,0.5,0.5,-0.04956030578613281,-0.14,-0.011,-0.56,0.0019580340399102517,10,1,100,0.03443918741723777,-10,-1,-100,914.1035653179279,-0.0024632847309961066,0.000150272339588019,0.9999969548186424,69.31841438832483,-4.149966263822753,-7874.692097668589,138.38203821540907,-89.67739868164062,5920.609375,True
1598625938.2688086,0,5,0.5,0.5,-0.04952894897460938,-0.14,-0.011,-0.56,0.002025334449388093,10,1,100,0.03508081539018902,-10,-1,-100,919.6803049661685,-0.0025398268513337754,0.0001538173091178111,0.9999967628046605,69.60877948477264,-4.156984931568766,-7897.509566932255,138.69907184265256,-89.676025390625,5918.9189453125,True
1598625938.3098044,0,5,0.5,0.5,-0.049196539306640634,-0.14,-0.011,-0.56,0.001858965657438137,10,1,100,0.03170821158944247,-10,-1,-100,922.4485211573774,-0.0025779375119519905,0.00015549482369433095,0.999996665024211,69.74602146938068,-4.159982055636813,-7907.566906176725,138.85054599878222,-89.67544555664062,5918.0888671875,True
1598625938.351124,0,5,0.5,0.5,-0.0497970458984375,-0.14,-0.011,-0.56,0.0022445803072660923,10,1,100,0.03996081164714595,-10,-1,-100,930.808080852381,-0.002686830693645537,0.00016049381876465392,0.9999963775847179,70.16667425297935,-4.169394149967254,-7936.767994227561,139.2709615882284,-89.67416381835938,5915.67724609375,True
1598625938.399872,0,5,0.5,0.5,-0.049553964233398445,-0.14,-0.011,-0.56,0.0021010060497834585,10,1,100,0.03690475556587704,-10,-1,-100,936.3296295729233,-0.0027572396161032542,0.0001636998222169504,0.9999961854087583,70.44120172142524,-4.175225010430791,-7954.513889718395,139.53687761189815,-89.67352294921875,5914.10107421875,True
1598625938.437938,0,5,0.5,0.5,-0.049412481689453135,-0.14,-0.011,-0.56,0.0019409042325210606,10,1,100,0.03353421300650542,-10,-1,-100,939.1533381078625,-0.0027897769423836567,0.0001651240950853241,0.9999960949316976,70.57835876492885,-4.178116562299608,-7963.163627781348,139.66798233391611,-89.67324829101562,5913.3173828125,True
1598625938.4808233,0,5,0.5,0.5,-0.049685235595703134,-0.14,-0.011,-0.56,0.0022957337012936584,10,1,100,0.04089207612646302,-10,-1,-100,947.5825941801304,-0.0028854990584352455,0.00016961270070069988,0.9999958225546322,70.99429873923394,-4.1869556513013,-7987.602498047333,140.02294717987292,-89.67266845703125,5911.0517578125,True
1598625938.522969,0,5,0.5,0.5,-0.04957098388671875,-0.14,-0.011,-0.56,0.002203174543240538,10,1,100,0.03812158285389272,-10,-1,-100,953.1742785974639,-0.0029465753716438324,0.0001728187620452796,0.9999956439041394,71.26437290361902,-4.1923618418553055,-8002.22212649827,140.2475599236767,-89.67239379882812,5909.568359375,True
1598625938.571821,0,5,0.5,0.5,-0.04960344848632813,-0.14,-0.011,-0.56,0.0022011676907803925,10,1,100,0.03812707065507121,-10,-1,-100,958.7657007338712,-0.003001412224012764,0.00017568216145217626,0.9999954803200061,71.53842980539908,-4.197965801793065,-8016.532445439025,140.46001548217427,-89.67214965820312,5908.1123046875,True
1598625938.6120367,0,5,0.5,0.5,-0.04960635070800781,-0.14,-0.011,-0.56,0.0022020487891874427,10,1,100,0.038529571462578585,-10,-1,-100,964.3716550663812,-0.003054249951522804,0.00017826238452346986,0.9999953198789261,71.8056876940037,-4.203131997362328,-8029.255443336563,140.65777527557663,-89.67196655273438,5906.689453125,True
1598625938.6541045,0,5,0.5,0.5,-0.04966133728027344,-0.14,-0.011,-0.56,0.002244894102695822,10,1,100,0.03863826423610315,-10,-1,-100,970.0332197225653,-0.0031026636008470968,0.00018096913393930852,0.9999951703527136,72.07140488365884,-4.208184586353787,-8041.156493712216,140.84462122631788,-89.6717529296875,5905.291015625,True
1598625938.695857,0,5,0.5,0.5,-0.049697454833984384,-0.14,-0.011,-0.56,0.002227917337077654,10,1,100,0.03874628114837319,-10,-1,-100,975.6802560230717,-0.003147076727735408,0.00018324757481685914,0.9999950311518532,72.33590632826615,-4.213144886978069,-8052.298246789055,141.02057064587044,-89.67153930664062,5903.9169921875,True
1598625938.739041,0,5,0.5,0.5,-0.04977502136230469,-0.14,-0.011,-0.56,0.0022585639112220057,10,1,100,0.03879946820377,-10,-1,-100,981.2863413258456,-0.003187383770977115,0.0001855707351380365,0.9999949030611098,72.59797504101613,-4.217945984416626,-8062.575368790534,141.18607364502236,-89.6712646484375,5902.56640625,True
