Timestamp,Input Throttle,horizon,dT,dt,Input Roll,Roll P,Roll I,Roll D,Input Pitch,Pitch P,Pitch I,Pitch D,Input Yaw,Yaw P,Yaw I,Yaw D,Altitude,Direction X,Direction Y,Direction Z,Drag X,Drag Y,Drag Z,Vertical Velocity,Roll,Mass,Has Fuel
1598627266.1505523,0,5,0.5,0.5,-0.009976196289062501,-0.14,-0.011,-0.56,0.004263048750580592,10,1,100,0.12497360924792927,-10,-1,-100,478.8127596958075,-0.01172701709962958,0.0004138409869745436,0.9999311505326667,5.336261552351208,-0.43684690398011794,109.80754727204359,-14.045473786606516,-89.92141723632812,6440.1796875,True
1598627266.2026703,0,5,0.5,0.5,-0.009592666625976564,-0.14,-0.011,-0.56,0.004275386951496508,10,1,100,0.12316654954124173,-10,-1,-100,477.933397712186,-0.011769959616311243,0.00041471001409321286,0.9999306456281029,5.523561601298539,-0.4526377121595246,118.50182144571302,-14.628884359460173,-89.92355346679688,6440.1796875,True
1598627266.2412643,0,5,0.5,0.5,-0.008864990234375002,-0.14,-0.011,-0.56,0.004014879682631384,10,1,100,0.1173074807412422,-10,-1,-100,477.38744186994154,-0.011745034042734295,0.0004127547817440536,0.9999309395197375,5.96884823727369,-0.48638253607734677,124.50405069571413,-14.372104689581647,-89.92642211914062,6438.60107421875,True
1598627266.2852106,0,5,0.5,0.5,-0.006878054809570313,-0.14,-0.011,-0.56,0.004110778828986994,10,1,100,0.11736164181784109,-10,-1,-100,476.8316447439138,-0.011712189500140028,0.00041147387659191975,0.9999313252950733,5.808896410381803,-0.4678463721290954,111.17364678744069,-13.469251322866286,-89.93167114257812,6435.443359375,True
1598627266.3294578,0,5,0.5,0.5,-0.004552093505859375,-0.14,-0.011,-0.56,0.004014200400743405,10,1,100,0.11465514704592827,-10,-1,-100,476.28676734969486,-0.011647078882127723,0.0004090573644908637,0.9999320868066922,5.644030313002513,-0.44944213713142317,98.7052778353088,-12.565848931629148,-89.93930053710938,6432.28515625,True
1598627266.372342,0,5,0.5,0.5,-0.0020981109619140625,-0.14,-0.011,-0.56,0.003879803573470946,10,1,100,0.11085705482704147,-10,-1,-100,475.8120589510072,-0.01154277104659745,0.0004052668756378896,0.9999332978730758,5.461249384229536,-0.43014131025142144,86.86374910836876,-11.661902558039877,-89.94900512695312,6429.126953125,True
1598627266.4203904,0,5,0.5,0.5,0.000293914794921875,-0.14,-0.011,-0.56,0.003722286938654511,10,1,100,0.10684972212975447,-10,-1,-100,475.40717194322497,-0.011401022016097686,0.0004000205828408202,0.9999349262229627,5.266838255158609,-0.4104626603694053,75.7695374995533,-10.7574054999482,-89.96026611328125,6425.9697265625,True
1598627266.463473,0,5,0.5,0.5,0.0024889770507812506,-0.14,-0.011,-0.56,0.0036250556143122485,10,1,100,0.10262159392407602,-10,-1,-100,474.9879102020059,-0.01122335716648619,0.00039400364954688126,0.9999369385191437,5.059935791768185,-0.39034338312873224,65.40954303056441,-9.852350517789175,-89.97247314453125,6422.8115234375,True
1598627266.5093374,0,5,0.5,0.5,0.004424029541015626,-0.14,-0.011,-0.56,0.0034334889604625976,10,1,100,0.09807161927876562,-10,-1,-100,474.5978537645424,-0.011010277209003383,0.0003864340100178064,0.9999393103906541,4.840972138862339,-0.36982171435972955,55.78872070375905,-8.946730637431981,-89.98504638671875,6419.65380859375,True
1598627266.5557775,0,5,0.5,0.5,0.006012957763671876,-0.14,-0.011,-0.56,0.0032317465844344806,10,1,100,0.09329064145808195,-10,-1,-100,474.3182387155248,-0.010763095379095523,0.00037736719429110293,0.9999420050042209,4.610742337360467,-0.34895806875840835,46.91247140399377,-8.040586060909718,-89.99739837646484,6416.49609375,True
1598627266.6007152,0,5,0.5,0.5,0.007205316925048829,-0.14,-0.011,-0.56,0.0030866746581576735,10,1,100,0.08831355966668242,-10,-1,-100,473.98329516651575,-0.010483353794367385,0.0003674627377604096,0.999944980618613,4.370729684704812,-0.3278575556445103,38.78704989853583,-7.133864002397876,-90.00898742675781,6413.3388671875,True
1598627266.6464016,0,5,0.5,0.5,0.00809098129272461,-0.14,-0.011,-0.56,0.0028707526975031558,10,1,100,0.08193958500620252,-10,-1,-100,473.71817480097525,-0.010172228641614954,0.00035653792149856927,0.999948197980862,4.123264218566939,-0.30668261636808636,31.41820602438556,-6.226539111559891,-90.0193862915039,6410.1806640625,True
1598627266.6914272,0,5,0.5,0.5,0.00857344207763672,-0.14,-0.011,-0.56,0.0026196668842028174,10,1,100,0.07538371927775345,-10,-1,-100,473.52303118805867,-0.00983124129701293,0.00034437655576925193,0.9999516128790171,3.873245934242057,-0.28577696237611117,24.818114847745722,-5.318623150033566,-90.02824401855469,6407.0224609375,True
1598627266.7953777,0,5,0.5,0.5,0.006347341918945313,-0.14,-0.011,-0.56,0.0031369407641105964,10,1,100,0.08943409431001934,-10,-1,-100,473.3976269499399,-0.00965072329561871,0.0003380854205835567,0.9999533735320462,3.750061377244571,-0.2756209661763083,21.811495430110185,-4.864427982683482,-90.03199005126953,6405.4443359375,True
1598627266.8673098,0,5,0.5,0.5,0.006651021575927734,-0.14,-0.011,-0.56,0.002986388797734295,10,1,100,0.08660722984896341,-10,-1,-100,473.3093314623693,-0.009462791313982111,0.0003310642693167841,0.9999551719837232,3.6311680135320206,-0.26588212167597114,19.00688426957767,-4.4100861072519,-90.03526306152344,6403.865234375,True
1598627266.981525,0,5,0.5,0.5,0.010915821075439454,-0.14,-0.011,-0.56,0.0004660253153305912,10,1,100,0.01456483235564529,-10,-1,-100,473.04742904845625,-0.008638998887616989,0.0003018399120480245,0.9999626375974692,3.356736108722239,-0.24237906045983168,10.043094502565289,-2.591214844282701,-90.0438232421875,6397.54931640625,True
1598627267.0231807,0,5,0.5,0.5,0.0077538246154785165,-0.14,-0.011,-0.56,0.0007198072940737183,10,1,100,0.022262950953106042,-10,-1,-100,472.94657521729823,-0.007962719371042867,0.0002776734479409895,0.9999682584950756,5.339596102793355,-0.3819621660066573,7.41554900067223,-1.2254284498918846,-90.04600524902344,6392.81298828125,True
1598627267.0664463,0,5,0.5,0.5,0.005835808563232423,-0.14,-0.011,-0.56,0.0012910556741463324,10,1,100,0.03831907126293599,-10,-1,-100,472.9249226480024,-0.007497010270287623,0.00026100832687607224,0.9999718629599836,15.37544319065441,-1.0935875937177186,5.411839975192673,-0.31415804597587804,-90.04487609863281,6389.65478515625,True
1598627267.1093023,0,5,0.5,0.5,0.004213944244384766,-0.14,-0.011,-0.56,0.0010492144320299718,10,1,100,0.031421270938925494,-10,-1,-100,472.9394948602421,-0.00701431867292476,0.0002437805649093358,0.9999753696489684,1.2126412692253281,-0.0857885194324163,-0.8035260425798645,0.5977858208787571,-90.04154205322266,6386.4970703125,True
1598627267.1514134,0,5,0.5,0.5,0.002602352905273437,-0.14,-0.011,-0.56,0.0008253510938739965,10,1,100,0.024716955482644923,-10,-1,-100,472.99084148858674,-0.006518192497116041,0.0002262135268155288,0.9999787307708153,0.807609544489547,-0.05685462804837523,-1.338825477720785,1.5104165555317006,-90.03648376464844,6383.33935546875,True
1598627267.1943445,0,5,0.5,0.5,0.0010506507873535155,-0.14,-0.011,-0.56,0.0006377918501058045,10,1,100,0.018777436477252975,-10,-1,-100,473.07853475410957,-0.006017032076224533,0.00020867582057551665,0.9999818757254532,1.6476691873544562,-0.1154730318546071,-4.343380258379916,2.423685084578388,-90.03015899658203,6380.181640625,True
1598627267.2375817,0,5,0.5,0.5,-0.0004256942749023443,-0.14,-0.011,-0.56,0.00035144220172977003,10,1,100,0.01236032995564837,-10,-1,-100,473.2030322517967,-0.005507154654052341,0.00019027362438770975,0.9999848174065266,2.263801977930876,-0.15800353107123905,-8.149844845136174,3.337579538562269,-90.02295684814453,6377.02392578125,True
1598627267.2813458,0,5,0.5,0.5,-0.001771864318847656,-0.14,-0.011,-0.56,0.00016754668596330826,10,1,100,0.006033018905808027,-10,-1,-100,473.3637550678104,-0.0049903496916132205,0.00017202372707101824,0.9999875333311875,2.7805419987691993,-0.19334971336230922,-12.657414373436719,4.252097168977659,-90.01526641845703,6373.8662109375,True
1598627267.3274007,0,5,0.5,0.5,-0.0029482490539550783,-0.14,-0.011,-0.56,-6.338377871279474e-05,10,1,100,-0.00011716588918946752,-10,-1,-100,473.56137402844615,-0.004469017038173497,0.00015349022785760523,0.9999900021137524,3.2569488162552185,-0.22572093902398352,-17.895555071951623,5.1672331499357895,-90.00745391845703,6370.7080078125,True
1598627267.372289,0,5,0.5,0.5,-0.003914112091064454,-0.14,-0.011,-0.56,-0.000268866119628778,10,1,100,-0.006185480603671231,-10,-1,-100,473.82356907450594,-0.003944622406967046,0.0001349413847395626,0.9999922108421091,3.7161224581328507,-0.25677925113235295,-23.89315333220496,6.08298697033364,-89.99986267089844,6367.55078125,True
1598627267.4183335,0,5,0.5,0.5,-0.0046259651184082035,-0.14,-0.011,-0.56,-0.00047812972173187336,10,1,100,-0.011983531527757142,-10,-1,-100,474.0621132295346,-0.0034202069782940507,0.00011635469723547501,0.9999941443057605,4.167187401418951,-0.2871941460843885,-30.667466857223953,6.999329898150728,-89.99282836914062,6364.392578125,True
1598627267.4633024,0,5,0.5,0.5,-0.005143485260009766,-0.14,-0.011,-0.56,-0.0006727620319169215,10,1,100,-0.01759367361144662,-10,-1,-100,474.4256583378883,-0.0028972087441117168,9.785694687990634e-05,0.9999957982939283,4.613802922029848,-0.31725283006570737,-38.22850821000641,7.916284557243207,-89.98654174804688,6361.234375,True
1598627267.5113165,0,5,0.5,0.5,-0.0053627037048339845,-0.14,-0.011,-0.56,-0.0008585426644070962,10,1,100,-0.022910608210029805,-10,-1,-100,474.7340283532394,-0.0023780250445287763,7.951536489862514e-05,0.9999971693330907,5.057505214649492,-0.34709200798334355,-46.58371244057299,8.833871837985555,-89.98129272460938,6358.0771484375,True
1598627267.5564742,0,5,0.5,0.5,-0.005377103424072266,-0.14,-0.011,-0.56,-0.0010630303518560948,10,1,100,-0.0279803748009591,-10,-1,-100,475.09778815170284,-0.0018646046988319812,6.114721408608537e-05,0.9999982597536534,5.4986857316493145,-0.3767678580789662,-55.7374770938511,9.752063030197776,-89.9771728515625,6354.91943359375,True
1598627267.6035416,0,5,0.5,0.5,-0.005170199584960938,-0.14,-0.011,-0.56,-0.0012048125889584293,10,1,100,-0.03280765114002926,-10,-1,-100,475.545960517833,-0.0013586561578197958,4.332599605632186e-05,0.9999990760877246,5.937238811097782,-0.4062978734622581,-65.693166591334,10.670855487732538,-89.97427368164062,6351.76171875,True
1598627267.650177,0,5,0.5,0.5,-0.004768659973144532,-0.14,-0.011,-0.56,-0.0013853471525918282,10,1,100,-0.03732139117322533,-10,-1,-100,475.97939312749077,-0.000862359425997205,2.5649926842377953e-05,0.9999996278390817,6.372777308743095,-0.43568311000762766,-76.45306892385683,11.590245836587751,-89.97262573242188,6348.603515625,True
1598627267.6963634,0,5,0.5,0.5,-0.004229529571533204,-0.14,-0.011,-0.56,-0.0015297030346449925,10,1,100,-0.04157291198069939,-10,-1,-100,476.4974213006208,-0.00037721645577256497,8.434833987157584e-06,0.999999928818297,6.8048360889610935,-0.4649156341372997,-88.01939320402131,12.510216917635022,-89.97216796875,6345.4453125,True
1598627267.743246,0,5,0.5,0.5,-0.003559078979492188,-0.14,-0.011,-0.56,-0.001650373681280412,10,1,100,-0.04550334048172718,-10,-1,-100,477.01538911659736,9.489019607892432e-05,-8.146948313909703e-06,0.999999995464739,7.232810667754464,-0.4939769491029549,-100.39319743399939,13.430777527683276,-89.97283935546875,6342.2880859375,True
1598627267.7892034,0,5,0.5,0.5,-0.002785436248779297,-0.14,-0.011,-0.56,-0.0018153954000523788,10,1,100,-0.04918707408197808,-10,-1,-100,477.5886550717987,0.0005529436033210207,-2.455770178063882e-05,0.9999998468251338,7.656112456467433,-0.5228464300726923,-113.57559048410788,14.351937614264138,-89.97454833984375,6339.1298828125,True
1598627267.840739,0,5,0.5,0.5,-0.002026954650878907,-0.14,-0.011,-0.56,-0.001907197761913337,10,1,100,-0.05247462357948965,-10,-1,-100,478.1764782522805,0.000994677186571673,-4.01492737403665e-05,0.9999995045025425,8.074163572903663,-0.5515054008493695,-127.56720353994612,15.273681216936184,-89.97705078125,6335.97265625,True
1598627267.8812027,0,5,0.5,0.5,-0.0012317352294921877,-0.14,-0.011,-0.56,-0.0020314784974960424,10,1,100,-0.05552044227909855,-10,-1,-100,478.83403440355323,0.0014194521598927664,-5.5294081610434505e-05,0.999998991048556,8.486404941361904,-0.5799324732123663,-142.36841406504817,16.196004168985734,-89.980224609375,6332.814453125,True
1598627267.9282103,0,5,0.5,0.5,-0.00048082885742187524,-0.14,-0.011,-0.56,-0.002109586716184772,10,1,100,-0.05826037264882583,-10,-1,-100,479.4917743388796,0.0018261199943292931,-6.96161191359885e-05,0.999998330218287,8.892259149288787,-0.6081072032700453,-157.9784797851464,17.11890376455555,-89.98385620117188,6329.65625,True
1598627267.9762442,0,5,0.5,0.5,0.00021690063476562495,-0.14,-0.011,-0.56,-0.0022478070083791976,10,1,100,-0.06061479912220026,-10,-1,-100,480.2048730744282,0.0022129279674491385,-8.374045311915428e-05,0.9999975479656674,9.291230106153552,-0.636007269126019,-174.39685237427497,18.04237507222765,-89.98776245117188,6326.49853515625,True
1598627268.0258026,0,5,0.5,0.5,-0.000596295166015625,-0.14,-0.011,-0.56,-0.0015158878496817011,10,1,100,-0.04278299936441471,-10,-1,-100,480.5686710255686,0.002398290715203695,-8.977853182658431e-05,0.9999971200665833,9.487930621621814,-0.6498443530679088,-182.907743287613,18.504324561585943,-89.98971557617188,6324.919921875,True
1598627268.079373,0,5,0.5,0.5,0.002270437622070313,-0.14,-0.011,-0.56,-0.002997560890642734,10,1,100,-0.08243233830803127,-10,-1,-100,481.72973475197796,0.002923375480455228,-0.00010860024398215494,0.9999957210317388,10.066734506357923,-0.690914407720307,-209.65400759060483,19.891022261660215,-89.99535369873047,6320.18310546875,True
1598627268.121403,0,5,0.5,0.5,0.0015769203186035158,-0.14,-0.011,-0.56,-0.002420817207792759,10,1,100,-0.06669205826414837,-10,-1,-100,482.58269612363074,0.003253739056068345,-0.00012032965224309349,0.9999946993374165,10.44261370817848,-0.7178945191250322,-228.49138154176734,20.81616005644284,-89.99884033203125,6317.025390625,True
1598627268.1702628,0,5,0.5,0.5,0.0019123054504394533,-0.14,-0.011,-0.56,-0.002419966306917284,10,1,100,-0.06719000580257498,-10,-1,-100,483.3945202428149,0.0035548544674459067,-0.0001308523064913647,0.9999936729236787,10.81015853689285,-0.7445428114448649,-248.133561201514,21.741857050634074,-90.00206756591797,6313.8671875,True
1598627268.224011,0,5,0.5,0.5,0.001932377624511719,-0.14,-0.011,-0.56,-0.002489953632072145,10,1,100,-0.06843295705147406,-10,-1,-100,484.3171833223896,0.003836320697394392,-0.00014092797954531132,0.9999926313642571,11.168955237488772,-0.7708359775436775,-268.575977346231,22.668139310890055,-90.00463104248047,6310.7099609375,True
1598627268.2645082,0,5,0.5,0.5,0.0017761558532714845,-0.14,-0.011,-0.56,-0.0025125856682999045,10,1,100,-0.06900601283153744,-10,-1,-100,485.2543730302714,0.0040940073858014864,-0.00015017271807712298,0.999991608240629,11.51893060437783,-0.7967724299702696,-289.81742758024063,23.594973980908048,-90.00640869140625,6307.5517578125,True
1598627268.3112228,0,5,0.5,0.5,0.0014565879821777344,-0.14,-0.011,-0.56,-0.0024733329237064004,10,1,100,-0.06915406228513968,-10,-1,-100,486.2059665682027,0.00432639476685661,-0.00015810598723128673,0.9999906286114977,11.859882594724727,-0.8223385142301634,-311.85224665141595,24.522345710004625,-90.00732421875,6304.39453125,True
1598627268.3595808,0,5,0.5,0.5,0.0010145774841308595,-0.14,-0.011,-0.56,-0.002502173023456256,10,1,100,-0.06896062413387594,-10,-1,-100,487.2129803316202,0.004532868659549521,-0.00016547299944780618,0.9999897128072877,12.19178792479577,-0.8475305795997568,-334.677572855259,25.450263212742755,-90.00737762451172,6301.236328125,True
1598627268.4063222,0,5,0.5,0.5,0.00047514038085937505,-0.14,-0.011,-0.56,-0.0024721093109504695,10,1,100,-0.06854496131392984,-10,-1,-100,488.2754135080613,0.004713963066816605,-0.0001717968141511009,0.9999888744571409,12.514700365031555,-0.872345067072918,-358.2904548535725,26.378734445985238,-90.00660705566406,6298.07861328125,True
1598627268.4533818,0,5,0.5,0.5,-0.00018449554443359382,-0.14,-0.011,-0.56,-0.0024152386020957614,10,1,100,-0.06782072026666283,-10,-1,-100,489.35218943608925,0.0048693850247456295,-0.00017693583862358504,0.9999881288211325,12.828703774656146,-0.8967866474261948,-382.68664005044866,27.30774504185372,-90.00501251220703,6294.92041015625,True
1598627268.5012782,0,5,0.5,0.5,-0.0008640678405761721,-0.14,-0.011,-0.56,-0.0023849667935096934,10,1,100,-0.06683710909964617,-10,-1,-100,490.4990335890325,0.004999320833110685,-0.00018124775771551142,0.9999874868919401,13.133964496660095,-0.9208550715268439,-407.86151060220425,28.237291434998664,-90.00273895263672,6291.7626953125,True
1598627268.5479617,0,5,0.5,0.5,-0.001573924255371094,-0.14,-0.011,-0.56,-0.002370789539956465,10,1,100,-0.06552889829762405,-10,-1,-100,491.6456330624642,0.005103186896953347,-0.00018495564619778885,0.9999869615524513,13.430692542581728,-0.9445573986569749,-433.81046176388384,29.167364875277194,-89.99988555908203,6288.60498046875,True
1598627268.5932577,0,5,0.5,0.5,-0.002288848876953125,-0.14,-0.011,-0.56,-0.0022978987034131806,10,1,100,-0.06400838765518532,-10,-1,-100,492.8623615683755,0.005181806120591325,-0.00018759439593836062,0.9999865567564753,13.719208993575702,-0.9679011608839068,-460.5296134633611,30.0979680700406,-89.99657440185547,6285.447265625,True
1598627268.6382754,0,5,0.5,0.5,-0.0029952293395996096,-0.14,-0.011,-0.56,-0.0021969939957424806,10,1,100,-0.06220158436515587,-10,-1,-100,494.07884591212496,0.005235099869385107,-0.00018901479404760563,0.9999862789072486,13.999875960267273,-0.990902867420078,-488.0149445568746,31.029104608484175,-89.992919921875,6282.28955078125,True
1598627268.684426,0,5,0.5,0.5,-0.0036077087402343754,-0.14,-0.011,-0.56,-0.00213704279454632,10,1,100,-0.06021379529861223,-10,-1,-100,495.36539766623173,0.005263950426409114,-0.0001897081791473576,0.999986127322132,14.27307351909716,-1.0135684053448775,-516.2603997403756,31.96076063798587,-89.9891357421875,6279.13134765625,True
1598627268.7322385,0,5,0.5,0.5,-0.004218625640869141,-0.14,-0.011,-0.56,-0.0020599423753505167,10,1,100,-0.05794704643572546,-10,-1,-100,496.65185778972227,0.005268273552469226,-0.0001895932707002593,0.9999861045775427,14.539306441113881,-1.0359137519134465,-545.2626695995057,32.892938061596624,-89.98526000976562,6275.9736328125,True
1598627268.7781951,0,5,0.5,0.5,-0.004699042510986328,-0.14,-0.011,-0.56,-0.001975019434223083,10,1,100,-0.055503735341567835,-10,-1,-100,498.00826338259503,0.005248924233334561,-0.00018868094487208134,0.9999862065018166,14.79906122096585,-1.057953170233467,-575.0156896178233,33.825626188862955,-89.98150634765625,6272.8154296875,True
1598627268.8255184,0,5,0.5,0.5,-0.005124781036376954,-0.14,-0.011,-0.56,-0.001854577114070222,10,1,100,-0.052886657975048906,-10,-1,-100,499.3644552783808,0.0052067036676378955,-0.000186728832156311,0.9999864275925253,15.052927353162191,-1.0797087928169913,-605.515444579035,34.75882337585442,-89.97793579101562,6269.658203125,True
1598627268.8732803,0,5,0.5,0.5,-0.005443421936035157,-0.14,-0.011,-0.56,-0.0017576791366845398,10,1,100,-0.050059713382578364,-10,-1,-100,500.79071525111794,0.005142009261611114,-0.00018405397004509676,0.9999867628448338,15.30151084812191,-1.1011967598896322,-636.757416488545,35.69254470305871,-89.97467041015625,6266.50048828125,True
1598627268.9202752,0,5,0.5,0.5,-0.00567935791015625,-0.14,-0.011,-0.56,-0.0016325472481213258,10,1,100,-0.04708332803413971,-10,-1,-100,502.23147090990096,0.005055748983696603,-0.0001804735717244237,0.9999872033338746,15.545487027300972,-1.1224508563024016,-668.7377049137244,36.62678142632118,-89.97177124023438,6263.34228515625,True
1598627268.9672332,0,5,0.5,0.5,-0.005844097137451173,-0.14,-0.011,-0.56,-0.001531499790063509,10,1,100,-0.04395215801568969,-10,-1,-100,503.7275234767003,0.004948695945462092,-0.00017629683478410363,0.999987739588774,15.78552799239569,-1.1434900082764146,-701.4514780106006,37.56152490014577,-89.96926879882812,6260.18505859375,True
1598627269.014283,0,5,0.5,0.5,-0.005910821533203126,-0.14,-0.011,-0.56,-0.0013884322953229395,10,1,100,-0.04069471145551137,-10,-1,-100,505.29327831452247,0.004821807873690596,-0.0001712036884524724,0.9999883603613225,16.02240595161264,-1.164339923186639,-734.896731097728,38.49677261732023,-89.96722412109375,6257.0263671875,True
1598627269.0613937,0,5,0.5,0.5,-0.005912569427490235,-0.14,-0.011,-0.56,-0.0012541715793922474,10,1,100,-0.037344854362239145,-10,-1,-100,506.85927689343225,0.004676257633980636,-0.0001653655052404789,0.9999890525744721,16.256812658287114,-1.1850274336866333,-769.06707494335,39.432521244259604,-89.96563720703125,6253.869140625,True
1598627269.1102383,0,5,0.5,0.5,-0.005869696044921875,-0.14,-0.011,-0.56,-0.001150503718186488,10,1,100,-0.03387418620117412,-10,-1,-100,508.42524477117695,0.004512847295040636,-0.00015913583893743054,0.9999898043905631,16.48957550182128,-1.2055864068442241,-803.9612838453878,40.368768154356715,-89.9644775390625,6250.7109375,True
1598627269.1632707,0,5,0.5,0.5,-0.005785626220703125,-0.14,-0.011,-0.56,-0.0009958573307172847,10,1,100,-0.030323439449914058,-10,-1,-100,510.0756546702469,0.004332669518787677,-0.00015209379237140306,0.999990602377002,16.721488912728773,-1.2260377683173123,-839.5771069535778,41.30550509386672,-89.96371459960938,6247.552734375,True
1598627269.204257,0,5,0.5,0.5,-0.005664053344726564,-0.14,-0.011,-0.56,-0.0008495937215063682,10,1,100,-0.026727323233449535,-10,-1,-100,511.76674418337643,0.004137026193778601,-0.000144396457579257,0.9999914320452626,16.953320574285378,-1.2464160080752493,-875.9086814823406,42.242723464901644,-89.96331787109375,6244.3955078125,True
1598627269.2503943,0,5,0.5,0.5,-0.005572833251953126,-0.14,-0.011,-0.56,-0.000728717062382081,10,1,100,-0.02293954739574714,-10,-1,-100,513.4868253533496,0.003925762706480956,-0.0001363410897881043,0.9999922848693782,17.18592211787693,-1.2667517416144525,-912.956091414218,43.18042566475585,-89.96316528320312,6241.2373046875,True
1598627269.2973251,0,5,0.5,0.5,-0.005464834594726563,-0.14,-0.011,-0.56,-0.0005744861011531112,10,1,100,-0.01931044653863385,-10,-1,-100,515.262265550904,0.003701916038897389,-0.00012766351019868758,0.9999931397363029,17.4201143304566,-1.287073040971271,-950.7175491317533,44.11863575830932,-89.96322631835938,6238.080078125,True
1598627269.3432286,0,5,0.5,0.5,-0.005387020874023437,-0.14,-0.011,-0.56,-0.00043101139757009005,10,1,100,-0.01556938317062595,-10,-1,-100,517.0378882666118,0.003465777390138384,-0.00011852418174115184,0.999993987151473,17.656751403788352,-1.3074142044241817,-989.1925904874299,45.05732982958398,-89.96340942382812,6234.921875,True
1598627269.3881662,0,5,0.5,0.5,-0.005331048583984375,-0.14,-0.011,-0.56,-0.00032569822656060873,10,1,100,-0.01184668986913115,-10,-1,-100,518.8278543065535,0.00321878707204522,-0.00010931788139630946,0.999994813716244,17.89662684152271,-1.3278105010207377,-1028.378989704486,45.996497924309914,-89.96365356445312,6231.7646484375,True
1598627269.4345336,0,5,0.5,0.5,-0.00534852294921875,-0.14,-0.011,-0.56,-0.00012611457350646007,10,1,100,-0.008108049603579956,-10,-1,-100,520.7431260483572,0.002961932745829743,-9.919880759171333e-05,0.9999956085473605,18.140570632906186,-1.3482883254944975,-1068.2778935838123,46.93613475795592,-89.96383666992188,6228.6064453125,True
1598627269.4816265,0,5,0.5,0.5,-0.005414312744140625,-0.14,-0.011,-0.56,-9.435020507886534e-06,10,1,100,-0.004414029452272622,-10,-1,-100,522.6584585178643,0.002696652959894363,-8.900901549408654e-05,0.99999636006348,18.389365564601636,-1.3688828366531236,-1108.8892463627624,47.876253155951034,-89.96389770507812,6225.4482421875,True
1598627269.5291758,0,5,0.5,0.5,-0.005537600708007813,-0.14,-0.011,-0.56,0.00016909152671543983,10,1,100,-0.0007684005502369314,-10,-1,-100,524.5881952614291,0.0024242793962198717,-7.819732195144865e-05,0.9999970583729675,18.64381498234222,-1.3896230460022923,-1150.2144863486108,48.81682758206299,-89.96377563476562,6222.291015625,True
1598627269.5752842,0,5,0.5,0.5,-0.0057062744140625,-0.14,-0.011,-0.56,0.00028591057810195856,10,1,100,0.0028434714862392227,-10,-1,-100,526.573291492532,0.002145879118218515,-6.738576206670861e-05,0.9999976953283287,18.904633350573206,-1.4105424291938373,-1192.252391546835,49.757871018284305,-89.96343994140625,6219.1328125,True
1598627269.6221592,0,5,0.5,0.5,-0.005946673583984375,-0.14,-0.011,-0.56,0.00045443264056392824,10,1,100,0.0063685450475829165,-10,-1,-100,528.5728529880289,0.0018628936223658138,-5.610846167353678e-05,0.9999982632380878,19.172604078537766,-1.4316769421908058,-1235.00963317654,50.69940547539335,-89.96282958984375,6215.9755859375,True
1598627269.6731908,0,5,0.5,0.5,-0.006203994750976563,-0.14,-0.011,-0.56,0.00052720216080774,10,1,100,0.009820946063237884,-10,-1,-100,530.6278950386913,0.0015764938677177874,-4.528208870543489e-05,0.9999987563075354,19.448407154946942,-1.4530454511032145,-1278.4856594909575,51.641397563133765,-89.96197509765625,6212.8173828125,True
1598627269.7210536,0,5,0.5,0.5,-0.006560086059570313,-0.14,-0.011,-0.56,0.0007375657760983256,10,1,100,0.013181609433471391,-10,-1,-100,532.7526400958886,0.001287906725877514,-3.361763893076768e-05,0.9999991700827154,19.732710526332866,-1.474682005226443,-1322.683556502426,52.58384956609298,-89.96078491210938,6209.6591796875,True
1598627269.76874,0,5,0.5,0.5,-0.006942953491210938,-0.14,-0.011,-0.56,0.0008144737939480983,10,1,100,0.016469263485056576,-10,-1,-100,534.8775675955694,0.0009980650655361306,-2.2407814837760777e-05,0.9999995016818832,20.026150963946154,-1.4966108299698184,-1367.6066403076525,53.52676308313025,-89.95928955078125,6206.501953125,True
1598627269.8152711,0,5,0.5,0.5,-0.007348895263671875,-0.14,-0.011,-0.56,0.0009583837474552745,10,1,100,0.01962656366112962,-10,-1,-100,537.0168999909656,0.0007083279645099919,-1.100448035347192e-05,0.9999997490751665,20.329344828608697,-1.5188630379521544,-1413.259616893342,54.47013026338966,-89.95751953125,6203.34375,True
1598627269.8652685,0,5,0.5,0.5,-0.007795437622070313,-0.14,-0.011,-0.56,0.0011212798349825065,10,1,100,0.022658911602598614,-10,-1,-100,539.226118052029,0.0004198705726779916,7.453156994130769e-07,0.9999999118540694,20.642836197257143,-1.5414606324672493,-1459.6448691212104,55.41394738352008,-89.95547485351562,6200.1865234375,True
1598627269.9109442,0,5,0.5,0.5,-0.008240225219726564,-0.14,-0.011,-0.56,0.001192372460851734,10,1,100,0.025562796134215086,-10,-1,-100,541.4906336547574,0.00013378209936090277,1.197318762166903e-05,0.9999999909794963,20.967161794970835,-1.5644237669150756,-1506.769005304,56.358211240355615,-89.95321655273438,6197.0283203125,True
1598627269.958294,0,5,0.5,0.5,-0.007841751098632813,-0.14,-0.011,-0.56,0.0007267173676805413,10,1,100,0.012832309465314953,-10,-1,-100,542.6229833354009,-7.995587895114218e-06,1.7846050344696888e-05,0.9999999998087945,21.13348456043536,-1.5760471455165854,-1530.605703016743,56.83051007785648,-89.95199584960938,6195.44921875,True
1598627270.0058346,0,5,0.5,0.5,-0.009862899780273438,-0.14,-0.011,-0.56,0.0019693123748226976,10,1,100,0.04504604815898751,-10,-1,-100,546.1042604164686,-0.0004272777930268897,3.438419373434292e-05,0.9999999081257033,21.650138917419564,-1.6115477099215059,-1603.250630890577,58.2480657879771,-89.94815063476562,6190.71240234375,True
1598627270.0544178,0,5,0.5,0.5,-0.009713461303710938,-0.14,-0.011,-0.56,0.0015613743829074405,10,1,100,0.034178048815511126,-10,-1,-100,548.4531270256266,-0.000707051115306676,4.5607995511440805e-05,0.9999997489992841,22.00953049898873,-1.6357396029863522,-1652.6136182000325,59.19365151389055,-89.9453125,6187.5546875,True
1598627270.1006134,0,5,0.5,0.5,-0.010173464965820313,-0.14,-0.011,-0.56,0.0016377885783075666,10,1,100,0.035293260614552055,-10,-1,-100,550.8574138545664,-0.0009689352153400127,5.6403404578278074e-05,0.9999995289914912,22.381337985570827,-1.6603685366318597,-1702.7250526542887,60.13967119181776,-89.94241333007812,6184.396484375,True
1598627270.1462898,0,5,0.5,0.5,-0.010580444335937501,-0.14,-0.011,-0.56,0.001741396823390591,10,1,100,0.03826591189984031,-10,-1,-100,553.276288067922,-0.0012314613826568432,6.705702244320144e-05,0.9999992395028202,22.766153983081985,-1.6854785980196412,-1753.6148903508188,61.08611695244498,-89.93954467773438,6181.2392578125,True
1598627270.19318,0,5,0.5,0.5,-0.010942642211914065,-0.14,-0.011,-0.56,0.0018370280779736038,10,1,100,0.040054735213570766,-10,-1,-100,555.7649865888525,-0.0014838308782966253,7.750937817011494e-05,0.9999988961185012,23.164045052176643,-1.7110778414232322,-1805.2839611265802,62.032989643073414,-89.936767578125,6178.08154296875,True
1598627270.2416086,0,5,0.5,0.5,-0.011315130615234377,-0.14,-0.011,-0.56,0.001892025914600932,10,1,100,0.041776258300248253,-10,-1,-100,558.2536851974437,-0.0017263881409351552,8.741047551201121e-05,0.9999985059705817,23.575127984721156,-1.7371665523773736,-1857.7340836042933,62.980290047356206,-89.93405151367188,6174.92333984375,True
1598627270.2884347,0,5,0.5,0.5,-0.01165905456542969,-0.14,-0.011,-0.56,0.0019806785509973454,10,1,100,0.04345992179024098,-10,-1,-100,560.7976202247664,-0.0019597239994187787,9.711757134429361e-05,0.999998075023159,23.999590843346887,-1.763750806542272,-1910.9742298605765,63.928010400302085,-89.93142700195312,6171.765625,True
1598627270.3329954,0,5,0.5,0.5,-0.011969738769531252,-0.14,-0.011,-0.56,0.0020549746902057695,10,1,100,0.04494546971890512,-10,-1,-100,563.3706694802968,-0.002182926986515448,0.0001065193305921744,0.9999976117388498,24.43748049198498,-1.7908459379981092,-1965.0092201852717,64.87614682537844,-89.92892456054688,6168.607421875,True
1598627270.3772957,0,5,0.5,0.5,-0.012263836669921875,-0.14,-0.011,-0.56,0.0021210090634742073,10,1,100,0.04622707100667658,-10,-1,-100,565.9845511782914,-0.002395123534165621,0.00011557053874278569,0.9999971250092206,24.888866479929888,-1.8184536639416775,-2019.8482069578004,65.82469609492827,-89.92654418945312,6165.4501953125,True
1598627270.4241192,0,5,0.5,0.5,-0.011793298339843751,-0.14,-0.011,-0.56,0.00172100667474498,10,1,100,0.03645435951767052,-10,-1,-100,567.3263737577945,-0.0024968876497352445,0.00012006834502660195,0.9999968755629476,25.119558834677804,-1.8324432939620519,-2047.566674071925,66.29912417258707,-89.92535400390625,6163.87109375,True
1598627270.4693341,0,5,0.5,0.5,-0.01342050476074219,-0.14,-0.011,-0.56,0.0026501479461837458,10,1,100,0.05823227879879658,-10,-1,-100,571.3810765552334,-0.002785118937298012,0.00013251106930253106,0.9999961127691055,25.831990571591138,-1.8752217163389415,-2131.9631829832338,67.72301787176491,-89.922119140625,6159.13427734375,True
1598627270.515328,0,5,0.5,0.5,-0.013132977294921876,-0.14,-0.011,-0.56,0.002287186804708322,10,1,100,0.04961060554214068,-10,-1,-100,574.0793088923674,-0.002966625040799773,0.00014043378383490077,0.9999955896973843,26.323544286285525,-1.9043877064091659,-2189.25094000267,68.67278272759143,-89.91998291015625,6155.9765625,True
1598627270.561642,0,5,0.5,0.5,-0.0133958251953125,-0.14,-0.011,-0.56,0.002303762994443008,10,1,100,0.049355517492307814,-10,-1,-100,576.9029070592951,-0.003127257449052445,0.00014770073896343996,0.9999950992106607,26.828203449508685,-1.9340668528313347,-2247.3572792727327,69.62294582710051,-89.91793823242188,6152.818359375,True
1598627270.609153,0,5,0.5,0.5,-0.013602191162109378,-0.14,-0.011,-0.56,0.0023744875168208736,10,1,100,0.05040061773755855,-10,-1,-100,579.6854286604794,-0.0032808257112992333,0.00015486701443428785,0.9999946060848829,27.346066837218018,-1.9642801601631754,-2306.3146523643286,70.57350284837291,-89.91604614257812,6149.66064453125,True
1598627270.6634734,0,5,0.5,0.5,-0.013850207519531251,-0.14,-0.011,-0.56,0.002401669840695606,10,1,100,0.05051053614436668,-10,-1,-100,582.5235531470971,-0.0034195694221958034,0.00016154909508665525,0.9999941402062598,27.87675654510455,-1.9950112001088325,-2366.1239320748386,71.52444536302687,-89.91421508789062,6146.5029296875,True
1598627270.7031014,0,5,0.5,0.5,-0.014088638305664064,-0.14,-0.011,-0.56,0.002345772683529413,10,1,100,0.05055764566349762,-10,-1,-100,585.4312568820314,-0.003544368574508513,0.00016703915814464518,0.9999937047548487,28.41990890928886,-2.02625029766208,-2426.784078876591,72.47577396376553,-89.91244506835938,6143.345703125,True
1598627270.7505078,0,5,0.5,0.5,-0.014360208129882814,-0.14,-0.011,-0.56,0.0024368929791885544,10,1,100,0.05056239700737867,-10,-1,-100,588.3392049776157,-0.003656212833888464,0.00017278610117368946,0.9999933011039007,28.975259453416413,-2.0579927521019195,-2488.306069808876,73.4274893575776,-89.91067504882812,6140.1875,True
1598627270.7984955,0,5,0.5,0.5,-0.014673562622070315,-0.14,-0.011,-0.56,0.002438051144875908,10,1,100,0.050295517874959755,-10,-1,-100,591.3168554954464,-0.003753920996816912,0.00017795233404286075,0.9999929381801236,29.54239998146579,-2.0902212779911484,-2550.6924081433863,74.37958002394079,-89.90884399414062,6137.029296875,True
1598627270.845523,0,5,0.5,0.5,-0.014973361206054688,-0.14,-0.011,-0.56,0.002429215271090366,10,1,100,0.049978401485768834,-10,-1,-100,594.3499864836922,-0.003838435546840764,0.00018250364415910183,0.9999926165252285,30.120962838460375,-2.122930897987188,-2613.9505101334453,75.33204468942145,-89.906982421875,6133.8720703125,True
1598627270.8934355,0,5,0.5,0.5,-0.015298223876953124,-0.14,-0.011,-0.56,0.0024404578455748927,10,1,100,0.04949841053501483,-10,-1,-100,597.3422237711493,-0.003909591300025888,0.0001866825557551655,0.999992340093408,30.71048115548767,-2.1561056683127506,-2678.081387824034,76.28487970552474,-89.90505981445312,6130.7138671875,True
1598627270.939183,0,5,0.5,0.5,-0.015653799438476564,-0.14,-0.011,-0.56,0.002400405659760072,10,1,100,0.04889062612849521,-10,-1,-100,600.4597049531294,-0.0039674687595437404,0.00019005689714351722,0.9999921115038948,31.31055212782044,-2.1897215733518274,-2743.09390356546,77.23808176608176,-89.90304565429688,6127.5556640625,True
1598627270.9901989,0,5,0.5,0.5,-0.016042211914062503,-0.14,-0.011,-0.56,0.0024128692448844007,10,1,100,0.0481709958729144,-10,-1,-100,603.5770635366207,-0.004012467675125375,0.0001931854711542027,0.9999919313587134,31.92062555068143,-2.223773794703792,-2808.9883949584814,78.19164180418134,-89.90090942382812,6124.3984375,True
1598627271.037036,0,5,0.5,0.5,-0.01640498962402344,-0.14,-0.011,-0.56,0.0023924851219704027,10,1,100,0.04727075774716659,-10,-1,-100,606.7090097861364,-0.00404424103120704,0.00019579636305804468,0.9999918028555362,32.54019338140214,-2.258240996555132,-2875.7684294241517,79.14556032012295,-89.89871215820312,6121.240234375,True
1598627271.085468,0,5,0.5,0.5,-0.016819204711914067,-0.14,-0.011,-0.56,0.0023639823775720723,10,1,100,0.04631653389321655,-10,-1,-100,609.896436435869,-0.004063617516625231,0.0001978670619996484,0.9999917238964052,33.16873731576066,-2.2931005222672356,-2943.439734337739,80.09983589621724,-89.89639282226562,6118.0830078125,True
1598627271.1322064,0,5,0.5,0.5,-0.017272341918945316,-0.14,-0.011,-0.56,0.0023529328826375397,10,1,100,0.045248281107304444,-10,-1,-100,613.1536264054012,-0.00407080948549227,0.00019960997467664206,0.9999916942985031,33.80561412708017,-2.3283361122347213,-3011.9985058304187,81.05446135350331,-89.8939208984375,6114.9248046875,True
1598627271.181477,0,5,0.5,0.5,-0.017683459472656253,-0.14,-0.011,-0.56,0.0022979631665319025,10,1,100,0.04410060106716554,-10,-1,-100,616.4108159600291,-0.004066322147676229,0.0002006601152551396,0.9999917123455121,34.45031167797763,-2.3639142405003204,-3081.4497545107015,82.00943181180831,-89.89138793945312,6111.7666015625,True
1598627271.2273085,0,5,0.5,0.5,-0.018168048095703125,-0.14,-0.011,-0.56,0.002286833446541633,10,1,100,0.04282335517136403,-10,-1,-100,619.7378294375958,-0.004050156920087843,0.00020148304472921628,0.9999917777829501,35.10218802242735,-2.3998214462010266,-3151.7909407194825,82.96474338465852,-89.88870239257812,6108.609375,True
1598627271.2735083,0,5,0.5,0.5,-0.018632281494140628,-0.14,-0.011,-0.56,0.0022454863908087995,10,1,100,0.04151913071614051,-10,-1,-100,623.0793082036544,-0.004023246541699824,0.0002018291919775734,0.9999918863432052,35.76061394557746,-2.4360291248200845,-3223.020464985683,83.92039124874609,-89.88592529296875,6105.451171875,True
1598627271.3192422,0,5,0.5,0.5,-0.01908901062011719,-0.14,-0.011,-0.56,0.0021997116725111553,10,1,100,0.040112550531916674,-10,-1,-100,626.4762066291878,-0.003985750627358788,0.00020170603125706972,0.9999920365215983,36.424994462696084,-2.4725105754019103,-3295.141170373375,84.8763719701265,-89.88308715820312,6102.29345703125,True
1598627271.3675125,0,5,0.5,0.5,-0.019576721191406254,-0.14,-0.011,-0.56,0.00216801679441435,10,1,100,0.038690825442776106,-10,-1,-100,629.8876922742929,-0.003938604736165188,0.00020128847499473364,0.9999922234076033,37.09464527640683,-2.509244259017181,-3368.144329451046,85.8326807069967,-89.88015747070312,6099.1357421875,True
1598627271.4123158,0,5,0.5,0.5,-0.02005699462890625,-0.14,-0.011,-0.56,0.00211041839450012,10,1,100,0.03719542165859392,-10,-1,-100,633.3544148353394,-0.0038821238793728596,0.00020037197846680822,0.9999924444540845,37.768976028904575,-2.546206462969544,-3442.0323729825286,86.78931374530976,-89.87716674804688,6095.9775390625,True
1598627271.4592552,0,5,0.5,0.5,-0.02054688720703125,-0.14,-0.011,-0.56,0.0020490020776524997,10,1,100,0.035630966542485626,-10,-1,-100,636.8356631931383,-0.003816632912942641,0.00019897109230524013,0.999992696835188,38.44733033170297,-2.583371979440334,-3516.7981993161734,87.74626617605652,-89.87411499023438,6092.8203125,True
1598627271.504282,0,5,0.5,0.5,-0.021024969482421878,-0.14,-0.011,-0.56,0.00200280052973886,10,1,100,0.03407941184074847,-10,-1,-100,640.3723926093662,-0.003743168659592271,0.00019727228570355328,0.9999929748613391,39.12903948097131,-2.6207062162421315,-3592.434211365185,88.70353371151924,-89.87103271484375,6089.662109375,True
1598627271.5676947,0,5,0.5,0.5,-0.02148693542480469,-0.14,-0.011,-0.56,0.0019773454153684438,10,1,100,0.032496537324992726,-10,-1,-100,643.9788241776405,-0.003662266908559259,0.00019549516418715645,0.9999932747687512,39.81354034019084,-2.658188892064146,-3668.943327003886,89.66111298844729,-89.86795043945312,6086.50439453125,True
1598627271.610241,0,5,0.5,0.5,-0.02199246520996094,-0.14,-0.011,-0.56,0.001923288886129087,10,1,100,0.03091399802374454,-10,-1,-100,647.5997818056494,-0.0035746980054343247,0.0001933903324499038,0.9999935920466437,40.50014908052304,-2.6957904529625183,-3746.3112119585626,90.61900028429515,-89.86480712890625,6083.3466796875,True
1598627271.6571877,0,5,0.5,0.5,-0.022443191528320312,-0.14,-0.011,-0.56,0.0018507921579852802,10,1,100,0.02926447097963745,-10,-1,-100,651.2208000223618,-0.003480545221719827,0.00019082344210766383,0.9999939246772319,41.18828053824007,-2.7334815797876693,-3824.53173084671,91.57719060832004,-89.8616943359375,6080.1884765625,True
1598627271.703742,0,5,0.5,0.5,-0.0229543701171875,-0.14,-0.011,-0.56,0.001793835490434277,10,1,100,0.027724430458597366,-10,-1,-100,654.9116427093977,-0.0033814839380844255,0.00018798105997620699,0.9999942650983042,41.87733978845947,-2.7712383407690466,-3903.597044484952,92.53567862051796,-89.8585205078125,6077.03076171875,True
1598627271.7513359,0,5,0.5,0.5,-0.02341054382324219,-0.14,-0.011,-0.56,0.0017394700163110709,10,1,100,0.026124417962217497,-10,-1,-100,658.657905282802,-0.003277490542068792,0.00018491511916899253,0.999994611916557,42.56678060090073,-2.809035515350386,-3983.5019895725272,93.49446327304882,-89.85537719726562,6073.873046875,True
1598627271.798212,0,5,0.5,0.5,-0.023862847900390626,-0.14,-0.011,-0.56,0.001688262315905808,10,1,100,0.02454951841114001,-10,-1,-100,662.418571632239,-0.003169311782498994,0.00018167775213403026,0.9999949612153152,43.25599287610649,-2.8468454330307074,-4064.229840262555,94.45353867379548,-89.85226440429688,6070.71533203125,True
1598627271.8473177,0,5,0.5,0.5,-0.024332543945312504,-0.14,-0.011,-0.56,0.0016510241072325636,10,1,100,0.02302815220041937,-10,-1,-100,666.249245451414,-0.0030578790708334085,0.00017841436954987418,0.9999953087609467,43.94448654591976,-2.884636066251105,-4145.773846473387,95.4129010916608,-89.84915161132812,6067.5576171875,True
1598627271.8932114,0,5,0.5,0.5,-0.024759716796875005,-0.14,-0.011,-0.56,0.0015775832919805363,10,1,100,0.02154415873236716,-10,-1,-100,670.0797974718735,-0.0029438864156690666,0.00017480080897602738,0.9999956514792696,44.6317359105315,-2.9223961784132415,-4228.121506649103,96.37254700436438,-89.84609985351562,6064.3994140625,True
1598627271.9433348,0,5,0.5,0.5,-0.025221136474609378,-0.14,-0.011,-0.56,0.0015290291101454087,10,1,100,0.020123007221981726,-10,-1,-100,673.9658301323652,-0.002828190113119528,0.0001710975987735662,0.9999959860250919,45.31728440826807,-2.96009233411172,-4311.258853703833,97.33247307292004,-89.84304809570312,6061.2421875,True
1598627271.9921553,0,5,0.5,0.5,-0.025639831542968755,-0.14,-0.011,-0.56,0.0014756927964444124,10,1,100,0.018735085955770274,-10,-1,-100,677.8807931938209,-0.002711292774563319,0.00016727150800453032,0.9999963104490602,46.00067431372949,-2.9976983615208033,-4395.172063571703,98.29267513558158,-89.84005737304688,6058.083984375,True
1598627272.0381413,0,5,0.5,0.5,-0.025067214965820317,-0.14,-0.011,-0.56,0.0016522474224375723,10,1,100,0.023877531183528825,-10,-1,-100,679.8513975914102,-0.0026527100378418694,0.00016542555915779827,0.9999964678756817,46.34142699951085,-3.0164541516776833,-4437.41535943391,98.77287847676993,-89.83853149414062,6056.5048828125,True
1598627272.0852013,0,5,0.5,0.5,-0.027385342407226565,-0.14,-0.011,-0.56,0.0011984126959616744,10,1,100,0.010235430938117289,-10,-1,-100,685.821315570618,-0.002476351690292008,0.00015964898960646947,0.9999969210925133,47.35622450684454,-3.072342595306272,-4564.970493101662,100.21389450977564,-89.83404541015625,6051.7685546875,True
1598627272.1352558,0,5,0.5,0.5,-0.027128652954101565,-0.14,-0.011,-0.56,0.0013321439534605206,10,1,100,0.014638749705857134,-10,-1,-100,689.8615227284608,-0.00235705458705808,0.00015564397539419956,0.9999972100304213,48.02321524750873,-3.1090535886918986,-4650.38782408615,101.17490881953685,-89.83087158203125,6048.6103515625,True
1598627272.182666,0,5,0.5,0.5,-0.027606893920898438,-0.14,-0.011,-0.56,0.001287762931714567,10,1,100,0.0139960439195009,-10,-1,-100,693.957088688272,-0.0022437812502736905,0.00015163157088236685,0.9999974712235865,48.682145774427084,-3.145311850013996,-4736.084134841969,102.13619261949816,-89.82769775390625,6045.45263671875,True
1598627272.2313764,0,5,0.5,0.5,-0.028021047973632814,-0.14,-0.011,-0.56,0.001246455691786275,10,1,100,0.012629334896994237,-10,-1,-100,698.0671811908251,-0.002129415137254013,0.00014764145504416522,0.9999977218939922,49.33238924020359,-3.18106442726445,-4821.99567094883,103.09774499302333,-89.82461547851562,6042.29443359375,True
1598627272.2862031,0,5,0.5,0.5,-0.028507766723632817,-0.14,-0.011,-0.56,0.0012032141399353526,10,1,100,0.011769922461884755,-10,-1,-100,702.2470979100326,-0.0020186768081940512,0.0001436548571418143,0.9999979521515162,49.97375397862051,-3.21629398843257,-4908.097629838904,104.05956693986158,-89.82150268554688,6039.13671875,True
1598627272.3712063,0,5,0.5,0.5,-0.028977395629882816,-0.14,-0.011,-0.56,0.0011648906241654173,10,1,100,0.010925504664218147,-10,-1,-100,706.4268924948992,-0.0019113751063192124,0.0001397168479008524,0.9999981635605166,50.606200457368814,-3.2510188636020696,-4994.373472711141,105.02165788225868,-89.81838989257812,6035.9794921875,True
1598627272.4604418,0,5,0.5,0.5,-0.03183960266113282,-0.14,-0.011,-0.56,0.0006925263399950127,10,1,100,-0.0008510346203709912,-10,-1,-100,714.926618265803,-0.0017078109329044706,0.00013187779829992795,0.9999985329939558,51.84368266594546,-3.3188266657977445,-5167.328440352297,106.94664986862772,-89.81185913085938,6029.6630859375,True
1598627272.5562716,0,5,0.5,0.5,-0.03324018249511719,-0.14,-0.011,-0.56,0.0006745658663587549,10,1,100,-0.001104023454622488,-10,-1,-100,723.5802742727101,-0.0015215763999276595,0.00012462713345755437,0.9999988346359894,53.04444506369582,-3.3843946378886183,-5340.662155617327,108.87272742869051,-89.8046875,6023.34765625,True
1598627272.6041472,0,5,0.5,0.5,-0.034350494384765624,-0.14,-0.011,-0.56,0.0006953219615850122,10,1,100,0.0003342402794384927,-10,-1,-100,732.3738232583273,-0.0013665352345431055,0.00011826655761683165,0.9999990592967947,54.207977422121665,-3.4476090894531075,-5514.076594882835,110.79989981478946,-89.79742431640625,6017.0322265625,True
1598627272.6982024,0,5,0.5,0.5,-0.03261577453613281,-0.14,-0.011,-0.56,0.0010006363622423868,10,1,100,0.008460828220214097,-10,-1,-100,736.8330364036374,-0.0013006892996005803,0.00011530435135886685,0.9999991474557628,54.77588106184187,-3.478294407505652,-5600.686230984236,111.76389989684151,-89.79415893554688,6013.8740234375,True
1598627272.7532551,0,5,0.5,0.5,-0.03453164978027344,-0.14,-0.011,-0.56,0.0007716625138066489,10,1,100,0.0034596524107478946,-10,-1,-100,745.891599602066,-0.0011965932338742658,0.00011057542087293663,0.9999992779685938,55.88595655912602,-3.537879890072626,-5773.565862214621,113.69273978604322,-89.78887939453125,6007.55859375,True
1598627272.8362038,0,5,0.5,0.5,-0.03324832458496094,-0.14,-0.011,-0.56,0.001012516497912593,10,1,100,0.009181968171925656,-10,-1,-100,750.4354684978025,-0.0011551449160032484,0.00010851058716735731,0.9999993269326112,56.42938959485606,-3.5668248138338,-5859.819595242026,114.65758396306565,-89.78656005859375,6004.400390625,True
1598627272.9281752,0,5,0.5,0.5,-0.035544381713867194,-0.14,-0.011,-0.56,0.0008621150249300214,10,1,100,0.007122443139530685,-10,-1,-100,759.7179694281658,-0.0010998343173451463,0.00010530902803355896,0.9999993896370551,57.49622539057294,-3.6231238869189757,-6031.947587708307,116.58813181934165,-89.781494140625,5998.0849609375,True
1598627273.0181527,0,5,0.5,0.5,-0.03698802795410157,-0.14,-0.011,-0.56,0.0008967116531227497,10,1,100,0.00943789975662835,-10,-1,-100,769.1402404679684,-0.0010716415122958764,0.00010275514593444781,0.9999994205127567,58.53953227777762,-3.6774016215610428,-6203.45189454742,118.51984135071761,-89.77545166015625,5991.76953125,True
1598627273.113709,0,5,0.5,0.5,-0.038956170654296886,-0.14,-0.011,-0.56,0.000987178809484565,10,1,100,0.012436972554840893,-10,-1,-100,778.7022206983529,-0.001074237600075707,0.00010129666936500846,0.9999994178761122,59.56377999774394,-3.7297982164721244,-6374.263575439522,120.45273381994136,-89.76788330078125,5985.45361328125,True
1598627273.2044687,0,5,0.5,0.5,-0.040651504516601565,-0.14,-0.011,-0.56,0.0011326726587950534,10,1,100,0.01545351872057338,-10,-1,-100,788.4739177550655,-0.0011048794079350469,0.0001013319603754106,0.9999993844864745,60.572942340792096,-3.780470451718965,-6544.233300164872,122.3868315978209,-89.75949096679688,5979.13818359375,True
1598627273.295631,0,5,0.5,0.5,-0.04208348083496094,-0.14,-0.011,-0.56,0.001197600244007985,10,1,100,0.01847999550027425,-10,-1,-100,798.3297816473059,-0.001160982200075713,0.00010198918923909868,0.9999993208590376,61.5720459874812,-3.8295945400417803,-6713.32161465221,124.32215735653122,-89.75082397460938,5972.822265625,True
1598627273.3841703,0,5,0.5,0.5,-0.04306492614746094,-0.14,-0.011,-0.56,0.0013331536009569718,10,1,100,0.021396541661023734,-10,-1,-100,808.3810191487428,-0.0012389959114220673,0.00010384614473204302,0.9999992270522562,62.5660016827691,-3.877425242247296,-6881.52889311156,126.2587348994632,-89.74258422851562,5966.5068359375,True
1598627273.477163,0,5,0.5,0.5,-0.04373138427734376,-0.14,-0.011,-0.56,0.0014393443509877564,10,1,100,0.024128255147187708,-10,-1,-100,818.5717217976926,-0.0013350081175097942,0.00010651854835202275,0.9999991032031603,63.559229024222546,-3.9241579712459,-7048.856901711455,128.19658797025107,-89.73513793945312,5960.19091796875,True
1598627273.5701783,0,5,0.5,0.5,-0.04426559753417969,-0.14,-0.011,-0.56,0.0015554675722585652,10,1,100,0.026691977628011176,-10,-1,-100,828.9158304167213,-0.0014456271702488804,0.00011001435184470696,0.9999989490289112,64.51114980510646,-3.967088706928442,-7203.0612600291315,129.98048816414718,-89.728515625,5954.2236328125,True
1598627273.6602006,0,5,0.5,0.5,-0.044923132324218754,-0.14,-0.011,-0.56,0.0016628300371122652,10,1,100,0.028941631696950493,-10,-1,-100,839.399357831222,-0.0015665095843923633,0.00011417318651810274,0.9999987665053419,65.40915480248374,-4.005521020200374,-7342.860097209647,131.61968889675987,-89.72238159179688,5948.58349609375,True
1598627273.7463186,0,5,0.5,0.5,-0.045833682250976567,-0.14,-0.011,-0.56,0.001770714864468475,10,1,100,0.030953141186853536,-10,-1,-100,850.0228181034327,-0.0016943528504759953,0.00011893144577384158,0.9999985575108243,66.23448707865803,-4.038404946778299,-7464.216040899291,133.07683395658833,-89.71627807617188,5943.353515625,True
1598627273.7951834,0,5,0.5,0.5,-0.04695774536132813,-0.14,-0.011,-0.56,0.0018623890202828077,10,1,100,0.03262817758047891,-10,-1,-100,860.7162015738431,-0.0018253114160081889,0.00012408106391500128,0.9999983264196618,66.98091627135959,-4.065523600371442,-7565.199270395429,134.32546027359564,-89.70989990234375,5938.591796875,True
1598627273.8802361,0,5,0.5,0.5,-0.0457718505859375,-0.14,-0.011,-0.56,0.001642546950479743,10,1,100,0.026819575170269807,-10,-1,-100,866.0976062353002,-0.0018908996563094976,0.0001267469051943173,0.9999982042152434,67.36589835355103,-4.0795168476213854,-7614.64736139113,134.91342350003873,-89.70660400390625,5936.2939453125,True
1598627273.9674013,0,5,0.5,0.5,-0.048402514648437506,-0.14,-0.011,-0.56,0.0019853750373133704,10,1,100,0.034495836661628275,-10,-1,-100,876.930831314763,-0.002019564744555752,0.00013226520554740132,0.9999979519299816,68.03249126704098,-4.1006631993341145,-7693.006983433969,135.922241383007,-89.7003173828125,5932.0703125,True
1598627274.0195143,0,5,0.5,0.5,-0.049591949462890625,-0.14,-0.011,-0.56,0.0020391283433647805,10,1,100,0.03612636157694453,-10,-1,-100,887.8490715881344,-0.00215049657206024,0.00013774235543596107,0.9999976781930732,68.67485007090237,-4.119789783213274,-7762.8853630467775,136.84116328654466,-89.69369506835938,5928.0498046875,True
1598627274.0667634,0,5,0.5,0.5,-0.04836976928710938,-0.14,-0.011,-0.56,0.0017780764142804517,10,1,100,0.030002975729779384,-10,-1,-100,893.3557689344743,-0.0022129078010317957,0.000140315282892921,0.999997541672321,69.01367811585209,-4.130223587869792,-7798.074867980929,137.2754879979985,-89.69024658203125,5926.09619140625,True
1598627274.1084127,0,5,0.5,0.5,-0.048769656372070314,-0.14,-0.011,-0.56,0.0018383720083604222,10,1,100,0.030676518485899848,-10,-1,-100,898.8776703934418,-0.0022748121018788905,0.00014316760771483536,0.9999974023630946,69.32145832630457,-4.138682832836511,-7828.250519919741,137.68458725930262,-89.68701171875,5924.19921875,True
1598627274.1591585,0,5,0.5,0.5,-0.049005957031250005,-0.14,-0.011,-0.56,0.0018573011963451806,10,1,100,0.03138154877387808,-10,-1,-100,904.3988856716314,-0.002336556454184727,0.0001458969670228164,0.9999972596052508,69.63165431017596,-4.147170666430292,-7856.338936673345,138.04734738467957,-89.68417358398438,5922.4052734375,True
1598627274.2072864,0,5,0.5,0.5,-0.04935254516601562,-0.14,-0.011,-0.56,0.001902030602333949,10,1,100,0.03195572445134007,-10,-1,-100,909.9202482247492,-0.0023969969639518014,0.0001487490351584509,0.9999971161354814,69.92903645927204,-4.154798296751001,-7881.263749224132,138.37798716004696,-89.68148803710938,5920.68359375,True
1598627274.2537508,0,5,0.5,0.5,-0.049630715942382816,-0.14,-0.011,-0.56,0.0019180431712358184,10,1,100,0.03244102809882986,-10,-1,-100,915.4564860481769,-0.002455489851632046,0.00015145217983239585,0.999996973811334,70.21076286414636,-4.161422204302687,-7903.26566257481,138.68925680794578,-89.67901611328125,5919.005859375,True
1598627274.3026316,0,5,0.5,0.5,-0.04989631347656251,-0.14,-0.011,-0.56,0.0019627419181611414,10,1,100,0.033053144516874605,-10,-1,-100,920.9926651002606,-0.002513421734898821,0.0001542820463322903,0.9999968294490902,70.49011021836506,-4.167831353833183,-7923.949116718638,138.9832117288698,-89.67672729492188,5917.3662109375,True
1598627274.353647,0,5,0.5,0.5,-0.05008935546875,-0.14,-0.011,-0.56,0.001981030173095728,10,1,100,0.033559195519384966,-10,-1,-100,926.5697396718897,-0.002569942938905599,0.00015698877219472835,0.9999966853684147,70.76746831440501,-4.174058762105767,-7943.426673563925,139.26107788506516,-89.6746826171875,5915.763671875,True
1598627274.4513223,0,5,0.5,0.5,-0.05024345092773438,-0.14,-0.011,-0.56,0.001995446999879281,10,1,100,0.03403702250303242,-10,-1,-100,932.1613439407665,-0.0026249927955604674,0.00015955057803290458,0.9999965419722393,71.04304027439875,-4.1801207301406365,-7961.779441344809,139.52377633412897,-89.67288208007812,5914.1943359375,True
1598627274.503202,0,5,0.5,0.5,-0.05121621398925782,-0.14,-0.011,-0.56,0.0023126594415301665,10,1,100,0.04015670429326473,-10,-1,-100,943.3589876812184,-0.0027300042332131405,0.00016473342038003777,0.9999962599628994,71.58409315116732,-4.191502504176107,-7995.06599527498,140.01373465334498,-89.67010498046875,5911.1357421875,True
1598627274.5632522,0,5,0.5,0.5,-0.050399227905273444,-0.14,-0.011,-0.56,0.002063824989766594,10,1,100,0.035186968175136446,-10,-1,-100,948.9505348317325,-0.002779643903197443,0.00016715344730246033,0.999996122812232,71.85583645384172,-4.197199672862114,-8010.784458552403,140.24213399007024,-89.66909790039062,5909.6435546875,True
1598627274.620039,0,5,0.5,0.5,-0.050353652954101574,-0.14,-0.011,-0.56,0.002087692824435102,10,1,100,0.03525644173328658,-10,-1,-100,954.5565359888133,-0.0028248305015925947,0.00016954371473631592,0.9999959957857664,72.13114873695406,-4.2030660474819905,-8026.167899497822,140.4582747235886,-89.66839599609375,5908.17919921875,True
1598627274.6741865,0,5,0.5,0.5,-0.05021960754394532,-0.14,-0.011,-0.56,0.0020960961095497473,10,1,100,0.03570764041168652,-10,-1,-100,960.2035019228933,-0.002869454740209495,0.0001717665073300965,0.9999958683543452,72.39328521889588,-4.208129607669224,-8039.148604383581,140.65627860910024,-89.66806030273438,5906.75537109375,True
1598627274.7368171,0,5,0.5,0.5,-0.05015927734375001,-0.14,-0.011,-0.56,0.002137934621078287,10,1,100,0.035838604588958975,-10,-1,-100,965.809586289688,-0.0029106722290743077,0.0001741415789750517,0.9999957488219066,72.65304003746225,-4.213026904730612,-8051.230562964064,140.84317946857874,-89.66790771484375,5905.3564453125,True
1598627274.7824516,0,5,0.5,0.5,-0.0500917205810547,-0.14,-0.011,-0.56,0.002101047500394018,10,1,100,0.03599365797643864,-10,-1,-100,971.4710877193138,-0.002949030326314962,0.00017593972063519741,0.9999956361231529,72.91085499799665,-4.217788453327236,-8062.485487897638,141.01908369816704,-89.66790771484375,5903.982421875,True
1598627274.839233,0,5,0.5,0.5,-0.05004257202148438,-0.14,-0.011,-0.56,0.0021475365770633886,10,1,100,0.036157109480487684,-10,-1,-100,977.1324709457112,-0.002984885398059309,0.0001779723040364362,0.9999955293825165,73.16581600775363,-4.222361714730274,-8072.8525865263155,141.18453511549626,-89.66799926757812,5902.6318359375,True
1598627274.940751,0,5,0.5,0.5,-0.04999914855957032,-0.14,-0.011,-0.56,0.0021570028013145415,10,1,100,0.0362428996504822,-10,-1,-100,982.7385622863658,-0.003017779559784641,0.000179882054508751,0.9999954303140464,73.41904228143066,-4.2268212442230615,-8082.557558621464,141.34171517619427,-89.66815185546875,5901.2998046875,True
1598627274.9972,0,5,0.5,0.5,-0.04983768310546875,-0.14,-0.011,-0.56,0.002320288013289201,10,1,100,0.03933451288371169,-10,-1,-100,994.0764285124606,-0.0030753304109053144,0.00018307932958501003,0.9999952544011511,73.92232183932738,-4.235535240473993,-8100.482485037439,141.63675289718077,-89.66851806640625,5898.67919921875,True
1598627275.1032588,0,5,0.5,0.5,-0.04996409301757813,-0.14,-0.011,-0.56,0.0021677362839121186,10,1,100,0.03634525342717673,-10,-1,-100,999.7378818449797,-0.0031000148373447,0.0001845753906987354,0.9999951779083405,74.17758557233397,-4.240087574552313,-8109.445310148868,141.77837333402476,-89.66864013671875,5897.3828125,True
1598627275.2172894,0,5,0.5,0.5,-0.05001575622558595,-0.14,-0.011,-0.56,0.002289173075963735,10,1,100,0.03807838149139273,-10,-1,-100,1011.1307261926122,-0.0031377790964717558,0.00018701666726380424,0.9999950596713505,74.67645655699883,-4.2485160204796,-8124.679782354566,142.03132850067237,-89.66867065429688,5894.857421875,True
1598627275.287147,0,5,0.5,0.5,-0.050290771484375,-0.14,-0.011,-0.56,0.002252293023677766,10,1,100,0.03724451996284539,-10,-1,-100,1022.4683570096968,-0.003164158977361141,0.00018888047889591822,0.9999949761984461,75.17133992674479,-4.256717396056592,-8138.558177382498,142.266467923851,-89.66830444335938,5892.3720703125,True
1598627275.3391767,0,5,0.5,0.5,-0.05032155151367188,-0.14,-0.011,-0.56,0.0021253291900560894,10,1,100,0.03548563709149844,-10,-1,-100,1028.199742760742,-0.0031718012838172793,0.00018940088459073982,0.9999949518892188,75.41736552744138,-4.2607419708954595,-8144.738276921265,142.36955701899797,-89.66796875,5891.162109375,True
1598627275.3956993,0,5,0.5,0.5,-0.05043310546875,-0.14,-0.011,-0.56,0.0021701961135838074,10,1,100,0.03532723360279095,-10,-1,-100,1033.8755977764959,-0.003176993375441678,0.0001902638098273256,0.9999949352435616,75.66203552150583,-4.264693353225585,-8150.529534077387,142.46679439573802,-89.66754150390625,5889.9658203125,True
1598627275.5134475,0,5,0.5,0.5,-0.05053621520996094,-0.14,-0.011,-0.56,0.002113882342362641,10,1,100,0.035142987983069154,-10,-1,-100,1039.551700207172,-0.0031797589179798132,0.00019051952821085003,0.9999949264048957,75.89939373318667,-4.268235205869797,-8155.206809681472,142.55555141737807,-89.66705322265625,5888.7880859375,True
1598627275.616876,0,5,0.5,0.5,-0.05099003601074219,-0.14,-0.011,-0.56,0.002132290821376857,10,1,100,0.034659781167269484,-10,-1,-100,1051.014521532692,-0.0031776356340627522,0.00019090446023305985,0.9999949330807953,76.36961621292842,-4.275094579602549,-8163.639048159721,142.72077755053544,-89.666015625,5886.4609375,True
1598627275.6734958,0,5,0.5,0.5,-0.05113738098144531,-0.14,-0.011,-0.56,0.0020806803544765507,10,1,100,0.03373160099930487,-10,-1,-100,1062.4220469057327,-0.0031670595514223386,0.00019077160806361338,0.9999949666573283,76.83948512729111,-4.2819760410989955,-8171.7043194719145,142.87501282258324,-89.66497802734375,5884.1591796875,True
1598627275.7410948,0,5,0.5,0.5,-0.05090144653320313,-0.14,-0.011,-0.56,0.002050451337136569,10,1,100,0.03390300344723734,-10,-1,-100,1068.153570625931,-0.003158837522045564,0.00019036438838463752,0.9999949927409181,77.07660035086045,-4.2855522209035914,-8175.8664188288185,142.94811512671117,-89.66448974609375,5883.017578125,True
1598627275.8472054,0,5,0.5,0.5,-0.05088838500976563,-0.14,-0.011,-0.56,0.002048230659884758,10,1,100,0.03364445774790739,-10,-1,-100,1073.8294274968794,-0.0031488842999252598,0.00018996447130702855,0.9999950242082034,77.30865403295263,-4.288850958203555,-8179.228766088132,143.0131985188566,-89.66412353515625,5881.8935546875,True
1598627275.910175,0,5,0.5,0.5,-0.05094448852539063,-0.14,-0.011,-0.56,0.001983745068145598,10,1,100,0.031996548370469224,-10,-1,-100,1085.306900529191,-0.003124788054667345,0.00018900841845546256,0.9999950999757105,77.7598306582508,-4.294751869466845,-8184.243564299587,143.13030033060372,-89.66375732421875,5879.67626953125,True
1598627276.009158,0,5,0.5,0.5,-0.05080886840820313,-0.14,-0.011,-0.56,0.002019006825852797,10,1,100,0.032867873455643015,-10,-1,-100,1091.0384346250212,-0.0031107809931914367,0.0001884558109079619,0.9999951437512182,77.98566275475255,-4.297733792262402,-8186.773115074537,143.1864669568421,-89.66366577148438,5878.5732421875,True
1598627276.1161845,0,5,0.5,0.5,-0.05069901733398438,-0.14,-0.011,-0.56,0.0018614775616039537,10,1,100,0.030928806305912184,-10,-1,-100,1102.460239497479,-0.0030804439614914945,0.00018652004787738622,0.9999952380262978,78.43067490042601,-4.303350271563689,-8190.873070325876,143.2869090760633,-89.66375732421875,5876.39404296875,True
