Timestamp,Input Throttle,horizon,dT,dt,Input Roll,Roll P,Roll I,Roll D,Input Pitch,Pitch P,Pitch I,Pitch D,Input Yaw,Yaw P,Yaw I,Yaw D,Altitude,Direction X,Direction Y,Direction Z,Drag X,Drag Y,Drag Z,Vertical Velocity,Roll,Mass,Has Fuel
1598621185.8913918,0,5,0.5,0.5,-0.00992919921875,-0.14,-0.011,-0.56,0.004271589793541159,10,1,100,0.12496264535754616,-10,-1,-100,478.8109290692955,-0.011727119743312609,0.000412795959064551,0.9999311497608334,5.336264783992683,-0.43684697039926135,109.80755443824559,-14.045473028875701,-89.9217529296875,6440.1796875,True
1598621185.9335237,0,5,0.5,0.5,-0.010036633300781252,-0.14,-0.011,-0.56,0.0041988015439874266,10,1,100,0.12153518391234389,-10,-1,-100,478.2380842115963,-0.011755222238811577,0.00041306470776850975,0.9999308196708727,5.461166387564244,-0.44737178194011445,115.56652087967579,-14.434422513073276,-89.92318725585938,6440.1796875,True
1598621185.9728165,0,5,0.5,0.5,-0.009599887084960937,-0.14,-0.011,-0.56,0.004185469556643142,10,1,100,0.12016424221485487,-10,-1,-100,477.6686273108935,-0.011757620289980002,0.0004128123115164619,0.9999307915806535,5.585826973910449,-0.4578977502698947,121.47216073587785,-14.823336036384445,-89.92507934570312,6440.1796875,True
1598621186.0056024,0,5,0.5,0.5,-0.0079220458984375,-0.14,-0.011,-0.56,0.004037620479205344,10,1,100,0.11832336624749383,-10,-1,-100,477.1111744972877,-0.011732376354711669,0.0004108634939365144,0.99993108889376,5.881864890791654,-0.4764734040378446,117.57702618658075,-13.920747827881057,-89.92910766601562,6437.0224609375,True
1598621186.044386,0,5,0.5,0.5,-0.005684353637695313,-0.14,-0.011,-0.56,0.0040662268491078206,10,1,100,0.11682057277336563,-10,-1,-100,476.5458728753729,-0.011685099767107736,0.00040897838723209687,0.9999316432537334,5.729996184356069,-0.4588466385599329,104.88677310686053,-13.017618347065001,-89.93563842773438,6433.8642578125,True
1598621186.086408,0,5,0.5,0.5,-0.0032386718750000007,-0.14,-0.011,-0.56,0.0039531339163502,10,1,100,0.11337065065383897,-10,-1,-100,476.0406271404354,-0.011600135304774729,0.0004058647377600734,0.9999326337982603,5.553979918906769,-0.43980691517208764,92.68892887045278,-12.113944186847023,-89.9444580078125,6430.70654296875,True
1598621186.1304421,0,5,0.5,0.5,-0.0007619262695312493,-0.14,-0.011,-0.56,0.003782155254545166,10,1,100,0.10950823011355995,-10,-1,-100,475.5966318816645,-0.011477236392919664,0.00040111082791658803,0.9999340539029986,5.365584193991585,-0.42032343335978023,81.2243062899826,-11.209723395928972,-89.95513916015625,6427.548828125,True
1598621186.1647534,0,5,0.5,0.5,0.0015172180175781255,-0.14,-0.011,-0.56,0.0036731610109844927,10,1,100,0.10536689315996993,-10,-1,-100,475.15606732468586,-0.01131742774038886,0.00039543358872839833,0.9999358776749728,5.1649197918461685,-0.4004164247130708,70.49697346976427,-10.304948671511207,-89.96701049804688,6424.390625,True
1598621186.2036352,0,5,0.5,0.5,0.0037410614013671877,-0.14,-0.011,-0.56,0.0035280485208004798,10,1,100,0.1008214854339129,-10,-1,-100,474.77635673305485,-0.011120536688087256,0.00038859377265679993,0.999938089412864,4.9518951407183405,-0.3800832786466218,60.50570807761821,-9.399612627097776,-89.979736328125,6421.23291015625,True
1598621186.2434275,0,5,0.5,0.5,0.005585836791992188,-0.14,-0.011,-0.56,0.0033510379612085436,10,1,100,0.09620980385045397,-10,-1,-100,474.4646685877815,-0.010889510865519729,0.00038041330407482307,0.9999406351573217,4.72716965204751,-0.3593761029297085,51.25647404860098,-8.493707998686311,-89.99258422851562,6418.0751953125,True
1598621186.2834861,0,5,0.5,0.5,0.007013226318359375,-0.14,-0.011,-0.56,0.0031583698611141503,10,1,100,0.0912416173561228,-10,-1,-100,474.1493782622274,-0.010624422503359402,0.00037087915599573614,0.9999434904508963,4.491760856765883,-0.3383696888861795,42.754202905588436,-7.5872291297850945,-90.00491333007812,6414.9169921875,True
1598621186.3256657,0,5,0.5,0.5,0.00808843688964844,-0.14,-0.011,-0.56,0.0029472275209901115,10,1,100,0.08493720923775805,-10,-1,-100,473.83753627934493,-0.01032712273417393,0.00036033037901641023,0.9999466089237221,4.247552455916986,-0.31719549999348423,35.00562792909849,-6.6801689918904525,-90.01618194580078,6411.75927734375,True
1598621186.3649483,0,5,0.5,0.5,0.00874294662475586,-0.14,-0.011,-0.56,0.0027440088327473906,10,1,100,0.07847371194867668,-10,-1,-100,473.5901771131903,-0.009999389422745157,0.00034894107944095476,0.9999499439728446,3.9979311639323356,-0.2960911019696982,28.01933634424194,-5.772521645195395,-90.02598571777344,6408.6015625,True
1598621186.5077095,0,5,0.5,0.5,0.008976776885986328,-0.14,-0.011,-0.56,0.0024459998254638964,10,1,100,0.071855378633262,-10,-1,-100,473.4038520267932,-0.009642881773912718,0.0003359360626989412,0.9999534499055724,3.749847995373782,-0.2755448400138921,21.809939097513578,-4.864279922458366,-90.03400421142578,6405.443359375,True
1598621186.5794065,0,5,0.5,0.5,0.008794158935546876,-0.14,-0.011,-0.56,0.0022347170533385447,10,1,100,0.0651548104674616,-10,-1,-100,473.2363563472172,-0.00925976919581304,0.0003222606835789144,0.9999570754899892,3.520197915708551,-0.25675643085805533,16.408722255041443,-3.9554357498805683,-90.03999328613281,6402.2861328125,True
1598621186.6537037,0,5,0.5,0.5,0.009421644592285158,-0.14,-0.011,-0.56,0.00026990448175137497,10,1,100,0.010627904911708688,-10,-1,-100,473.0109833823517,-0.008417990738462212,0.00029204542254960045,0.999964525441477,3.4837949268599937,-0.25067391807639333,8.537388716282498,-2.1359278477571304,-90.04551696777344,6395.97021484375,True
1598621186.6944606,0,5,0.5,0.5,0.0060657073974609375,-0.14,-0.011,-0.56,0.0015016103528274788,10,1,100,0.04445861382300755,-10,-1,-100,472.95274009217974,-0.007963182353306278,0.000275877801637471,0.9999682553052605,5.337447701200642,-0.38169341390566774,7.41187806989826,-1.2252468490517598,-90.04498291015625,6392.81201171875,True
1598621186.7317069,0,5,0.5,0.5,0.004524978637695314,-0.14,-0.011,-0.56,0.0013359951192370575,10,1,100,0.039550777276383633,-10,-1,-100,472.9310570565285,-0.0075082980836857684,0.0002597882196176941,0.9999717785867597,15.370295314895369,-1.0928557936036936,5.406467300745968,-0.31393792221661293,-90.0422134399414,6389.654296875,True
1598621186.770445,0,5,0.5,0.5,0.004668584442138672,-0.14,-0.011,-0.56,0.001959990718364492,10,1,100,0.057987689564509184,-10,-1,-100,472.9338574014837,-0.007265838068156177,0.00025095732810915606,0.9999735719595727,7.357955120036109,-0.5217287174571807,-1.163985840587968,0.14196214461301446,-90.04008483886719,6388.0751953125,True
1598621186.8023627,0,5,0.5,0.5,0.002151197052001953,-0.14,-0.011,-0.56,0.0009179674754984035,10,1,100,0.02803604834110942,-10,-1,-100,472.96698475198355,-0.006776636496207397,0.000233581430388564,0.9999770110545111,0.5439980830707947,-0.038373634966941524,-0.6325268248881734,1.0542576356795883,-90.0346908569336,6384.91796875,True
1598621186.876509,0,5,0.5,0.5,0.0006092269897460946,-0.14,-0.011,-0.56,0.0006432215757207161,10,1,100,0.02114942531195449,-10,-1,-100,473.0364584568888,-0.006273041107233745,0.00021542095325703428,0.999980301080516,1.2602762532579608,-0.08848001037311114,-2.708472002482729,1.9672066649378355,-90.02810668945312,6381.759765625,True
1598621186.948577,0,5,0.5,0.5,-0.006503474426269532,-0.14,-0.011,-0.56,-0.001571789678354473,10,1,100,-0.04225296291533681,-10,-1,-100,473.28493481350597,-0.005242797571006074,0.00017891628828472256,0.9999862404366329,2.5299226103065537,-0.17615320842781584,-10.316052372134909,3.7949773614105746,-90.01264190673828,6375.4443359375,True
1598621187.0215025,0,5,0.5,0.5,-0.006696424865722657,-0.14,-0.011,-0.56,-0.0010612787673134187,10,1,100,-0.027405548599720567,-10,-1,-100,473.56759957643226,-0.004445811145634854,0.0001505361594018412,0.9999901060021155,3.2572232674084405,-0.22561801331173123,-17.89789851813106,5.167445297899767,-90.0,6370.70751953125,True
1598621187.0621538,0,5,0.5,0.5,-0.010518954467773439,-0.14,-0.011,-0.56,-0.002321547819890542,10,1,100,-0.06332936342411478,-10,-1,-100,474.0821328582242,-0.0033997466044184436,0.00011345941895764712,0.9999942144082565,4.1672597603777914,-0.28703421895509096,-30.671619368151323,6.9995669963257345,-89.98446655273438,6364.3916015625,True
1598621187.1025229,0,5,0.5,0.5,-0.005805379486083985,-0.14,-0.011,-0.56,-0.0006724162617132668,10,1,100,-0.016354048750667996,-10,-1,-100,474.407591801486,-0.002881502732316218,9.494764784975619e-05,0.9999958439548374,4.613565618952911,-0.31705037734211156,-38.23269681468476,7.916546238784954,-89.97885131835938,6361.234375,True
1598621187.1453955,0,5,0.5,0.5,-0.005206131744384767,-0.14,-0.011,-0.56,-0.0007378260024700472,10,1,100,-0.0190146031478695,-10,-1,-100,474.73634753283113,-0.0023919835053973597,7.773077923182021e-05,0.9999971361823172,5.0568054314775,-0.34683326280544774,-46.58583757095759,8.834132882573796,-89.97531127929688,6358.07666015625,True
1598621187.1873996,0,5,0.5,0.5,-0.004454500579833985,-0.14,-0.011,-0.56,-0.0009872794143531171,10,1,100,-0.025279406913889815,-10,-1,-100,475.12964881875087,-0.0018954914532646357,6.0006153692321214e-05,0.9999982017540892,5.497482398505155,-0.37644024177761587,-55.7349416113896,9.752319316466934,-89.97366333007812,6354.91845703125,True
1598621187.2282867,0,5,0.5,0.5,-0.003823723602294922,-0.14,-0.011,-0.56,-0.0010973486881594103,10,1,100,-0.02881427671234442,-10,-1,-100,475.52288949803915,-0.0014175159448853371,4.308847493812414e-05,0.999998994395459,5.935720480437184,-0.40590510218080383,-65.68424611411156,10.671106996570977,-89.97335815429688,6351.7607421875,True
1598621187.270835,0,5,0.5,0.5,-0.0031090591430664068,-0.14,-0.011,-0.56,-0.001236938993155895,10,1,100,-0.03300791386871319,-10,-1,-100,475.9805227483157,-0.0009504058559724409,2.6636763974958366e-05,0.9999995480094936,6.371255092890401,-0.4352341359829656,-76.43681297748044,11.59049674460761,-89.9742431640625,6348.6025390625,True
1598621187.314649,0,5,0.5,0.5,-0.0024167144775390625,-0.14,-0.011,-0.56,-0.0014279806824230648,10,1,100,-0.03721773098452416,-10,-1,-100,476.49919170176145,-0.0004932305579189662,1.0147848255228118e-05,0.9999998783103116,6.80362963345222,-0.4644169269951501,-87.99453725657135,12.510480600225325,-89.97604370117188,6345.4453125,True
1598621187.3594124,0,5,0.5,0.5,-0.0016737312316894533,-0.14,-0.011,-0.56,-0.0015485225483274161,10,1,100,-0.041135631731956446,-10,-1,-100,477.0212485352531,-4.771155829213975e-05,-5.734788832626815e-06,0.9999999988453598,7.232338189856942,-0.49344245969308775,-100.35909471600203,13.431052267356314,-89.9786376953125,6342.287109375,True
1598621187.4403534,0,5,0.5,0.5,-0.0009804664611816408,-0.14,-0.011,-0.56,-0.0016494398343192694,10,1,100,-0.04476884792415736,-10,-1,-100,477.5433058346389,0.0003846755617077639,-2.0889929019612093e-05,0.9999999257941589,7.656826125856397,-0.5222904908206193,-113.53156402945407,14.35221108287461,-89.98178100585938,6339.12890625,True
1598621187.5245845,0,5,0.5,0.5,0.0023736480712890627,-0.14,-0.011,-0.56,-0.0034001661065402454,10,1,100,-0.09247498380730064,-10,-1,-100,478.83809270407073,0.0012063310214337846,-5.040138055769455e-05,0.9999992711123181,8.490893145567913,-0.5793792089712093,-142.3020120738092,16.196279696717514,-89.9891357421875,6332.8134765625,True
1598621187.6084695,0,5,0.5,0.5,0.0037972442626953134,-0.14,-0.011,-0.56,-0.0034100827316576625,10,1,100,-0.09425133548949226,-10,-1,-100,480.20429204648826,0.0019643008708709374,-7.7137453511601e-05,0.9999980677840844,9.301661504230161,-0.6355267337019078,-174.307934899571,18.04265256719344,-89.9970703125,6326.498046875,True
1598621187.6905303,0,5,0.5,0.5,0.0029352539062500005,-0.14,-0.011,-0.56,-0.002668198501684066,10,1,100,-0.07326430566808034,-10,-1,-100,481.3670039795106,0.002457696783368887,-9.452530240405666e-05,0.9999969753911699,9.891959821696373,-0.6769184266466278,-200.42863533925427,19.428928052997506,-90.00216674804688,6321.7607421875,True
1598621187.772621,0,5,0.5,0.5,0.0026436706542968752,-0.14,-0.011,-0.56,-0.0035690383201004827,10,1,100,-0.09932737160255377,-10,-1,-100,483.43821757577825,0.0031383216673025217,-0.00011834964251893487,0.9999950684530773,10.837901742315786,-0.7443119264887946,-247.94269720422116,21.7422014533513,-90.00579071044922,6313.86669921875,True
1598621187.8543646,0,5,0.5,0.5,-0.0009650749206542968,-0.14,-0.011,-0.56,-0.0027953311858856566,10,1,100,-0.07729289628018021,-10,-1,-100,485.2482947909739,0.0035517305996090667,-0.0001327961773834614,0.999993683767514,11.560340092245866,-0.7967635503819943,-289.5107956010229,23.595326510361406,-90.00348663330078,6307.55078125,True
1598621187.9276242,0,5,0.5,0.5,-0.0028409912109375003,-0.14,-0.011,-0.56,-0.0022398646183815997,10,1,100,-0.06035132745141315,-10,-1,-100,486.73638323054183,0.0037685906195781584,-0.0001407044199820161,0.9999928889382206,12.082531563987688,-0.8352548185798733,-322.7464068902452,24.98661452549278,-89.99891662597656,6302.814453125,True
1598621188.0125866,0,5,0.5,0.5,-0.0065235092163085946,-0.14,-0.011,-0.56,-0.0021406584312332303,10,1,100,-0.059987823981915184,-10,-1,-100,488.80399584793486,0.003957716872950566,-0.00014682477255669872,0.9999921574290669,12.753575467080788,-0.885437367253166,-369.76406191664177,26.843570990515115,-89.98995971679688,6296.49853515625,True
1598621188.0906224,0,5,0.5,0.5,-0.007984492492675781,-0.14,-0.011,-0.56,-0.0017933491686905015,10,1,100,-0.05074085744013197,-10,-1,-100,491.0615792941535,0.00404112456861025,-0.00014907368020462933,0.999991823511202,13.399244662997438,-0.9344496872939392,-419.8604887357776,28.702682366573104,-89.98068237304688,6290.1826171875,True
1598621188.1736403,0,5,0.5,0.5,-0.007611958312988281,-0.14,-0.011,-0.56,-0.001500252499782392,10,1,100,-0.041264619300656655,-10,-1,-100,493.44791485741735,0.004026679986008797,-0.00014830887968680175,0.9999918818934315,14.023086121845417,-0.9824236149923583,-473.01971272507944,30.5639261436441,-89.97378540039062,6283.8671875,True
1598621188.2533104,0,5,0.5,0.5,-0.005357164001464844,-0.14,-0.011,-0.56,-0.0011256395315617338,10,1,100,-0.03232062425752456,-10,-1,-100,495.96312507486437,0.003928535509120547,-0.0001440784212405396,0.999992272895227,14.628791316303285,-1.029480011916635,-529.2111628955329,32.427277883581056,-89.97149658203125,6277.5517578125,True
1598621188.3332417,0,5,0.5,0.5,-0.0022282180786132814,-0.14,-0.011,-0.56,-0.0008190434128411868,10,1,100,-0.023563702384674215,-10,-1,-100,498.66794014372863,0.0037564831858803963,-0.00013733332294445913,0.9999929349618588,15.220816074558915,-1.0757742875559555,-588.4145025755091,34.29271352360839,-89.97415161132812,6271.23583984375,True
1598621188.4064438,0,5,0.5,0.5,-0.0007407943725585937,-0.14,-0.011,-0.56,-0.0007547849207448125,10,1,100,-0.02230253461748885,-10,-1,-100,500.79338299727533,0.0035862885012654406,-0.00013053821825406733,0.9999935607265474,15.658787079251637,-1.1101081353788496,-634.7879083473912,35.69314343788605,-89.97842407226562,6266.4990234375,True
1598621188.4879012,0,5,0.5,0.5,0.0015030990600585939,-0.14,-0.011,-0.56,-0.0002472885789891329,10,1,100,-0.00935655511658541,-10,-1,-100,503.7557958768448,0.0033124008037614546,-0.00011969870109707545,0.9999945068214806,16.238597626007245,-1.1555206603767891,-699.2413284044696,37.56216870084165,-89.98507690429688,6260.18359375,True
1598621188.5674171,0,5,0.5,0.5,0.0009844223022460936,-0.14,-0.011,-0.56,2.590456136343641e-05,10,1,100,-0.0015443316269157792,-10,-1,-100,506.8472972459858,0.0029916147706513865,-0.00010733813567961127,0.9999955193497563,16.81811289767422,-1.200688623212413,-766.688105714285,39.43321172110639,-89.98968505859375,6253.8681640625,True
1598621188.6514764,0,5,0.5,0.5,-0.001485686492919922,-0.14,-0.011,-0.56,0.0003438164052380298,10,1,100,0.005179138981570668,-10,-1,-100,510.0639817994088,0.0026390020140165853,-9.322116081654692e-05,0.9999965134830147,17.402131435298408,-1.245790507435632,-837.1236198438047,41.30624668664942,-89.9898681640625,6247.552734375,True
1598621188.7295897,0,5,0.5,0.5,-0.004145320129394532,-0.14,-0.011,-0.56,0.0001439873630881207,10,1,100,0.0007520376601417751,-10,-1,-100,512.6366891738726,0.0023595210914393854,-8.224015224836661e-05,0.9999972129445043,17.846056193733173,-1.2797022916067546,-891.9233289463049,42.71231521247966,-89.98623657226562,6242.8154296875,True
1598621188.8113997,0,5,0.5,0.5,-0.010649136352539064,-0.14,-0.011,-0.56,0.001136813607126969,10,1,100,0.026201279234393693,-10,-1,-100,517.016087916214,0.0018753717561743124,-6.328487339306193e-05,0.9999982394863508,18.602464820868956,-1.3365927035688305,-987.031368798852,45.058193584831216,-89.97406005859375,6234.9208984375,True
1598621188.8904014,0,5,0.5,0.5,-0.012841308593750001,-0.14,-0.011,-0.56,0.001028959852368983,10,1,100,0.022178338627532015,-10,-1,-100,520.7445827183546,0.0014737012251927852,-4.7109235748915404e-05,0.9999989129921186,19.226472836569727,-1.3826050107282128,-1066.5146584603747,46.937054387914095,-89.96121215820312,6228.60498046875,True
1598621188.971826,0,5,0.5,0.5,-0.011905694580078126,-0.14,-0.011,-0.56,0.0006845599542728674,10,1,100,0.014395570335532761,-10,-1,-100,523.5750415921211,0.001181632657267224,-3.562771373188844e-05,0.9999993012372206,19.70786323715767,-1.4175056598521472,-1128.1092205753412,48.34744141451703,-89.95230102539062,6223.86865234375,True
1598621189.053791,0,5,0.5,0.5,-0.012236944580078127,-0.14,-0.011,-0.56,0.0013011258015210526,10,1,100,0.027801527227946904,-10,-1,-100,527.5611051075393,0.000796829848611805,-1.9687259801384893e-05,0.9999996823372518,20.370558097186166,-1.464716671280873,-1212.9434332979315,50.22959317681916,-89.94473266601562,6217.552734375,True
1598621189.1348712,0,5,0.5,0.5,-0.009373928833007812,-0.14,-0.011,-0.56,0.0014243149990255484,10,1,100,0.03099094265715315,-10,-1,-100,531.6761966597987,0.00042086143289637524,-4.189119124921848e-06,0.9999999114290489,21.058389354409496,-1.512740427611989,-1300.8577899746604,52.113588899497856,-89.94281005859375,6211.2373046875,True
1598621189.2275074,0,5,0.5,0.5,-0.006174151611328126,-0.14,-0.011,-0.56,0.0015058771373936282,10,1,100,0.0329390574504728,-10,-1,-100,535.9199506355217,6.439421299124592e-05,1.0520533471736615e-05,0.999999997871352,21.773310499294023,-1.5616560397873733,-1391.842314579502,53.999401654523744,-89.94589233398438,6204.921875,True
1598621189.308506,0,5,0.5,0.5,-0.0035353759765625005,-0.14,-0.011,-0.56,0.001596890449622728,10,1,100,0.034546084764246435,-10,-1,-100,540.3526355782524,-0.0002710745131492918,2.4592103441939938e-05,0.9999999629569177,22.504253863707735,-1.6106070849362393,-1482.3302453815868,55.78280535820759,-89.95217895507812,6198.8505859375,True
1598621189.3924427,0,5,0.5,0.5,-0.003503204345703125,-0.14,-0.011,-0.56,0.001319950644121809,10,1,100,0.027172411290714134,-10,-1,-100,543.7582128196955,-0.0005057549823204772,3.473563172435368e-05,0.9999998715026587,23.040148967942645,-1.6457370176106987,-1546.9133433194881,57.004677188962276,-89.95730590820312,6194.572265625,True
1598621189.4736412,0,5,0.5,0.5,-0.0031842071533203136,-0.14,-0.011,-0.56,0.0020158633388228714,10,1,100,0.043016631870366626,-10,-1,-100,549.5431633600965,-0.0008599598052429667,5.015434214437223e-05,0.9999996289767688,23.860958834003675,-1.6979583462060515,-1644.8922451789967,58.838463379705786,-89.9619140625,6187.919921875,True
1598621189.5545702,0,5,0.5,0.5,-0.007525869750976564,-0.14,-0.011,-0.56,0.00177184596958657,10,1,100,0.03614600431881443,-10,-1,-100,554.3014720868086,-0.0011163230648681558,6.182267053045824e-05,0.9999993750001908,24.476974567631846,-1.735935803403783,-1716.5288515071422,60.14979614520551,-89.95944213867188,6182.96728515625,True
1598621189.6378548,0,5,0.5,0.5,-0.01022990417480469,-0.14,-0.011,-0.56,0.00146391172383392,10,1,100,0.029179797573700497,-10,-1,-100,557.9612231119536,-0.0012828915630661033,6.949987335389523e-05,0.999999174679162,24.924342840809057,-1.7629475438136506,-1766.307041465591,61.023674435274835,-89.95364379882812,6179.5107421875,True
1598621189.7184484,0,5,0.5,0.5,-0.018070965576171875,-0.14,-0.011,-0.56,0.0019671104341142,10,1,100,0.03922793673940537,-10,-1,-100,564.1294324803166,-0.0015227930417349722,8.093296897161599e-05,0.9999988372749273,25.59183850994918,-1.8017738234511604,-1839.0934489955364,62.31242720796406,-89.93783569335938,6174.14453125,True
1598621189.7994025,0,5,0.5,0.5,-0.019327148437500004,-0.14,-0.011,-0.56,0.0016960058794330555,10,1,100,0.03312618939013616,-10,-1,-100,569.2033489966998,-0.0016826907789251986,8.874570339542397e-05,0.9999985803369636,26.09168931039568,-1.8299437506137335,-1891.6459938049768,63.23018957099402,-89.92343139648438,6170.11865234375,True
1598621189.8742957,0,5,0.5,0.5,-0.017423480224609378,-0.14,-0.011,-0.56,0.0014920701564124393,10,1,100,0.028047890228423498,-10,-1,-100,572.9954981025076,-0.0017792820717769326,9.388116137403716e-05,0.9999984126695585,26.453438643209502,-1.849939193594625,-1927.9139235371993,63.8407687497353,-89.9146728515625,6167.28173828125,True
1598621189.9575129,0,5,0.5,0.5,-0.015734744262695315,-0.14,-0.011,-0.56,0.0015043795417791646,10,1,100,0.027661670118927978,-10,-1,-100,576.8491319259629,-0.0018612393261736508,9.855841902049627e-05,0.9999982630356957,26.79258927486476,-1.8682067096825397,-1961.0206605112137,64.39833284695402,-89.91012573242188,6164.5693359375,True
1598621190.037895,0,5,0.5,0.5,-0.011750311279296877,-0.14,-0.011,-0.56,0.0016888174000190802,10,1,100,0.031039439020097728,-10,-1,-100,583.3397336238995,-0.0019643782740366923,0.00010439377237568976,0.9999980651580964,27.298273005882677,-1.8942706912052645,-2008.5106672841007,65.21010278087641,-89.9122314453125,6160.3251953125,True
1598621190.1216006,0,5,0.5,0.5,-0.009035873413085939,-0.14,-0.011,-0.56,0.0014872965627156756,10,1,100,0.0258956739511384,-10,-1,-100,587.2578291693935,-0.002009535114660711,0.00010778129214228567,0.999997975073858,27.591441347120572,-1.9090834418435882,-2034.9630283436284,65.65281590491585,-89.9178466796875,6157.8828125,True
1598621190.1976526,0,5,0.5,0.5,-0.0030537414550781267,-0.14,-0.011,-0.56,0.001578495576406606,10,1,100,0.026689134197994634,-10,-1,-100,593.877528502373,-0.0020562196441980467,0.00011161431097392645,0.9999978797492626,28.049380991817294,-1.9315239052005106,-2074.500631952308,66.30973322841758,-89.93093872070312,6154.0029296875,True
1598621190.276335,0,5,0.5,0.5,-0.0036638000488281265,-0.14,-0.011,-0.56,0.0014441667417531734,10,1,100,0.02386626148878236,-10,-1,-100,599.2091423404636,-0.002071588133091988,0.00011380781261561453,0.9999978477828781,28.388622987952633,-1.9475431683277464,-2102.36921640052,66.77208102717837,-89.94058227539062,6151.04638671875,True
1598621190.3485389,0,5,0.5,0.5,-0.006374642944335937,-0.14,-0.011,-0.56,0.0013576163132286057,10,1,100,0.022324246746705044,-10,-1,-100,603.2558946687495,-0.0020704396904968237,0.00011495721614831559,0.9999978500298521,28.63352991961961,-1.9588865238242394,-2121.490291650378,67.07922847159492,-89.9444580078125,6148.92236328125,True
1598621190.4275799,0,5,0.5,0.5,-0.01007825927734375,-0.14,-0.011,-0.56,0.0013385935073318219,10,1,100,0.020776658460549928,-10,-1,-100,608.5910513312556,-0.0020544592886037835,0.00011578088971932955,0.9999978828936674,28.93474300374466,-1.9722739597454744,-2143.953401639881,67.44549174301595,-89.94229125976562,6146.19140625,True
1598621190.5049133,0,5,0.5,0.5,-0.015221972656250003,-0.14,-0.011,-0.56,0.0012474324239614351,10,1,100,0.019167926699934362,-10,-1,-100,614.0481145959347,-0.002024605391126753,0.00011565887310200652,0.9999979437959037,29.214228498472067,-1.984188874122906,-2163.6466640973426,67.76732928366886,-89.9332275390625,6143.5654296875,True
1598621190.5834646,0,5,0.5,0.5,-0.019166250610351564,-0.14,-0.011,-0.56,0.0011664440825356482,10,1,100,0.017770142437525168,-10,-1,-100,619.4477963887621,-0.0019843021616262856,0.00011478012225135988,0.9999980246832765,29.48002134677389,-1.995189570838746,-2181.4728083753625,68.05537538928213,-89.92034912109375,6141.01806640625,True
1598621190.6554596,0,5,0.5,0.5,-0.018644128417968753,-0.14,-0.011,-0.56,0.0011946615257675507,10,1,100,0.01788037673009282,-10,-1,-100,623.5591078159632,-0.0019483907998467474,0.00011421411239937484,0.9999980953624,29.670104774368834,-2.0028327853191357,-2193.6102874809194,68.24936842264552,-89.91079711914062,6139.16015625,True
1598621190.7372985,0,5,0.5,0.5,-0.018426223754882814,-0.14,-0.011,-0.56,0.00111945963960452,10,1,100,0.017098015264803448,-10,-1,-100,627.6706766836578,-0.0019084779951553821,0.00011299741997697422,0.9999981724699926,29.852820481697346,-2.0099968583774785,-2204.8579082505375,68.42877633680047,-89.90347290039062,6137.3359375,True
1598621190.8171675,0,5,0.5,0.5,-0.017151803588867188,-0.14,-0.011,-0.56,0.000996815345831008,10,1,100,0.012979386481428448,-10,-1,-100,634.4838133485755,-0.0018347086031607486,0.00011076326146689039,0.9999983107864938,30.132667164435045,-2.0203196383728104,-2220.8985759606285,68.69082826436045,-89.89944458007812,6134.3828125,True
1598621190.8993893,0,5,0.5,0.5,-0.012111547851562501,-0.14,-0.011,-0.56,0.0010266506662764481,10,1,100,0.013334200283223605,-10,-1,-100,640.0087648653425,-0.0017709889810645612,0.00010899764801714435,0.9999984258575318,30.346344061739032,-2.027937011504278,-2232.553301424227,68.88024114373866,-89.9034423828125,6132.068359375,True
1598621190.9776535,0,5,0.5,0.5,-0.009687817382812498,-0.14,-0.011,-0.56,0.0010165150633949472,10,1,100,0.014440546868666838,-10,-1,-100,644.184659910854,-0.0017233366082389622,0.00010729929725856626,0.9999985092977866,30.500710871055652,-2.0332844036665167,-2240.5016964948445,69.00647880663891,-89.91012573242188,6130.369140625,True
1598621191.050346,0,5,0.5,0.5,-0.005228900146484375,-0.14,-0.011,-0.56,0.0009074103556760888,10,1,100,0.01216992385784329,-10,-1,-100,649.7096136035398,-0.0016596768628772574,0.00010476740378397416,0.999998617247295,30.693337141318313,-2.039571509002424,-2249.7499929333,69.15734347674666,-89.921875,6128.1455078125,True
1598621191.1253874,0,5,0.5,0.5,-0.004117276000976562,-0.14,-0.011,-0.56,0.0009280791893310085,10,1,100,0.011655531795342247,-10,-1,-100,655.23481817008,-0.0015975025404077114,0.00010266179948469119,0.9999987187222734,30.875622872522147,-2.0452072000592416,-2257.938879141051,69.29318554421924,-89.93289184570312,6125.95703125,True
1598621191.2063017,0,5,0.5,0.5,-0.005984246826171876,-0.14,-0.011,-0.56,0.0008444493081574064,10,1,100,0.011285778498781835,-10,-1,-100,660.7631949492497,-0.0015380489783303833,9.999851976254995e-05,0.9999988122021127,31.04870936904608,-2.050261718070026,-2265.094207571367,69.41216151136825,-89.93905639648438,6123.80859375,True
1598621191.2836814,0,5,0.5,0.5,-0.01057215576171875,-0.14,-0.011,-0.56,0.0008380302754233839,10,1,100,0.011070216323152077,-10,-1,-100,666.352608522051,-0.0014825100933091538,9.753334914480023e-05,0.9999988963249254,31.213202361079883,-2.054773143947444,-2271.3559673457376,69.51784959170358,-89.93743896484375,6121.6923828125,True
1598621191.3563879,0,5,0.5,0.5,-0.014019671630859376,-0.14,-0.011,-0.56,0.000891396827647363,10,1,100,0.012352183811876617,-10,-1,-100,670.5286452927394,-0.0014441672616399117,9.57939131706614e-05,0.9999989526016749,31.331847641254914,-2.057856414074837,-2275.5459317988625,69.58907314134844,-89.93121337890625,6120.1240234375,True
1598621191.43143,0,5,0.5,0.5,-0.019493560791015625,-0.14,-0.011,-0.56,0.0008125701130920044,10,1,100,0.01102061432161186,-10,-1,-100,676.0570890110685,-0.0013976959964836359,9.351326143374165e-05,0.9999990188501043,31.483196188154427,-2.0615339671275845,-2280.4661892503877,69.67527939738306,-89.91839599609375,6118.0537109375,True
1598621191.5113564,0,5,0.5,0.5,-0.021642794799804688,-0.14,-0.011,-0.56,0.0007947620904168588,10,1,100,0.01098116106259539,-10,-1,-100,681.6466341872001,-0.0013555913574444746,9.129686951310022e-05,0.9999990770180507,31.627196488750855,-2.0647431864439842,-2284.650967169154,69.7515184458402,-89.90505981445312,6116.00732421875,True
1598621191.587302,0,5,0.5,0.5,-0.020581478881835938,-0.14,-0.011,-0.56,0.0008062566327635552,10,1,100,0.011178829986856539,-10,-1,-100,687.2362991032423,-0.0013196140273000756,8.940619137972696e-05,0.9999991253122934,31.766086023603993,-2.0676283146081107,-2288.319155486151,69.8200458046012,-89.89590454101562,6113.97998046875,True
1598621191.6603549,0,5,0.5,0.5,-0.016676071166992188,-0.14,-0.011,-0.56,0.0008591217647202418,10,1,100,0.012199721635437036,-10,-1,-100,691.4121588859707,-0.0012966564644975908,8.818740070361856e-05,0.9999991554521411,31.866822091992514,-2.0695740352604797,-2290.7182485859594,69.86634708352308,-89.8941650390625,6112.47119140625,True
1598621191.740258,0,5,0.5,0.5,-0.011973751831054688,-0.14,-0.011,-0.56,0.0007563219790305414,10,1,100,0.011644052460491574,-10,-1,-100,697.0051222170005,-0.0012711656262836158,8.616378408026231e-05,0.9999991883565471,31.99622546877657,-2.071849180432011,-2293.451111983093,69.92254899257225,-89.89950561523438,6110.47314453125,True
1598621191.8210828,0,5,0.5,0.5,-0.006922567749023439,-0.14,-0.011,-0.56,0.0008189868589551159,10,1,100,0.011932210169163595,-10,-1,-100,702.5946099882713,-0.0012510228170606163,8.491302743396031e-05,0.9999992138655354,32.120611070983095,-2.073795346966715,-2295.682440111072,69.9723557171272,-89.9110107421875,6108.4912109375,True
1598621191.8997312,0,5,0.5,0.5,-0.004042062377929688,-0.14,-0.011,-0.56,0.0007812446668848277,10,1,100,0.01236598035383505,-10,-1,-100,708.2486715479754,-0.0012370260413056451,8.345091453336498e-05,0.9999992314009638,32.24156120040645,-2.0755107506783594,-2297.560219400141,70.017249270469,-89.92434692382812,6106.521484375,True
1598621191.9835565,0,5,0.5,0.5,-0.004363351440429687,-0.14,-0.011,-0.56,0.0008392572182050731,10,1,100,0.012749469876082078,-10,-1,-100,713.8381595391547,-0.0012281156740025553,8.266657225841811e-05,0.9999992424487775,32.35907718925105,-2.0769936509238938,-2299.0812303408047,70.05745060725076,-89.9345703125,6104.5634765625,True
1598621192.054337,0,5,0.5,0.5,-0.00789306640625,-0.14,-0.011,-0.56,0.0008256172436065471,10,1,100,0.01325340943104156,-10,-1,-100,718.0175633574836,-0.0012248783663214942,8.184529037348357e-05,0.9999992464868842,32.44548192355459,-2.077989075052393,-2300.0249212351487,70.08471723826463,-89.93771362304688,6103.1015625,True
1598621192.1316638,0,5,0.5,0.5,-0.011938784790039065,-0.14,-0.011,-0.56,0.0008291193291291463,10,1,100,0.013531913922382063,-10,-1,-100,723.6104699644493,-0.0012247014290117956,8.114476949081336e-05,0.9999992467606843,32.55828864684408,-2.0791462446783013,-2301.028833622432,70.1179577275426,-89.9344482421875,6101.1611328125,True
1598621192.2082531,0,5,0.5,0.5,-0.01702799987792969,-0.14,-0.011,-0.56,0.0008318559746630461,10,1,100,0.013979551894289444,-10,-1,-100,729.2609960736008,-0.0012288095274136169,8.054612832385757e-05,0.9999992417694459,32.668664174961535,-2.0801325622162965,-2301.7572770879783,70.14764988201236,-89.924560546875,6099.22900390625,True
1598621192.2853189,0,5,0.5,0.5,-0.015863381958007815,-0.14,-0.011,-0.56,0.0008921153181587236,10,1,100,0.013947054806606945,-10,-1,-100,732.0270841747988,-0.0012324022674082226,8.056150959759473e-05,0.9999992373469564,32.72373449596664,-2.0806125024215456,-2302.0819638485564,70.16149336939785,-89.91830444335938,6098.265625,True
1598621192.3563893,0,5,0.5,0.5,-0.02291973571777344,-0.14,-0.011,-0.56,0.0008256358676270558,10,1,100,0.014936103884906085,-10,-1,-100,739.0943452593638,-0.001244771740015162,7.998089335062744e-05,0.9999992220728834,32.85829289959676,-2.0815971638605113,-2302.5717346130664,70.19300943250461,-89.9031982421875,6095.86572265625,True
1598621192.4334545,0,5,0.5,0.5,-0.020027801513671877,-0.14,-0.011,-0.56,0.0009024069189834986,10,1,100,0.015205439251505953,-10,-1,-100,744.6873775493586,-0.001258533256888092,8.015954750028766e-05,0.999999204833928,32.9645026392441,-2.0822776355090755,-2302.7845947320657,70.21614669672068,-89.89523315429688,6093.951171875,True
1598621192.5115776,0,5,0.5,0.5,-0.016356582641601565,-0.14,-0.011,-0.56,0.0009084050819442493,10,1,100,0.01556499383419372,-10,-1,-100,750.2804693800863,-0.0012743470622584713,8.038378716617044e-05,0.9999991847886738,33.06959397775664,-2.0828723235927833,-2302.8210846193683,70.23665241791514,-89.89410400390625,6092.04443359375,True
1598621192.5823374,0,5,0.5,0.5,-0.0121840576171875,-0.14,-0.011,-0.56,0.0009034470690973333,10,1,100,0.015423421626587597,-10,-1,-100,754.5174331152812,-0.001287433336675147,8.054782310646836e-05,0.9999991680133797,33.14762563035144,-2.0832586138231353,-2302.737851322347,70.25065847398928,-89.899169921875,6090.6171875,True
1598621192.6614852,0,5,0.5,0.5,-0.006403625488281252,-0.14,-0.011,-0.56,0.0009251328870745516,10,1,100,0.016150969120114666,-10,-1,-100,760.11034277,-0.0013059109174318121,8.089805885592072e-05,0.9999991440257235,33.25081759992108,-2.083706525908314,-2302.5065727267465,70.26799638096702,-89.9114990234375,6088.71875,True
1598621192.7433956,0,5,0.5,0.5,-0.003367221069335938,-0.14,-0.011,-0.56,0.0009344969155531689,10,1,100,0.016501235852088448,-10,-1,-100,765.7642882032087,-0.001325830338522973,8.130390330129888e-05,0.9999991177814054,33.353194038762076,-2.084087644518066,-2302.1354420445327,70.28340489384941,-89.92572021484375,6086.8251953125,True
1598621192.8235066,0,5,0.5,0.5,-0.003671755981445311,-0.14,-0.011,-0.56,0.0009539939706441169,10,1,100,0.016780190507375684,-10,-1,-100,771.3573782347376,-0.0013463860230498027,8.185133754243048e-05,0.9999990902721039,33.454887048352056,-2.0844130890735406,-2301.5893037399305,70.29541700434565,-89.93667602539062,6084.9404296875,True
1598621192.9037266,0,5,0.5,0.5,-0.007565109252929688,-0.14,-0.011,-0.56,0.000990108130566656,10,1,100,0.01699160425310615,-10,-1,-100,777.0112030407181,-0.001366884490620172,8.267731008169233e-05,0.9999990623951862,33.55554087205258,-2.084661283004325,-2300.8920952167223,70.30565951495048,-89.93988037109375,6083.06103515625,True
1598621192.9737375,0,5,0.5,0.5,-0.011874319458007813,-0.14,-0.011,-0.56,0.0009395407209826983,10,1,100,0.016646665548846386,-10,-1,-100,781.2516498771729,-0.001382254397407593,8.296709726608452e-05,0.9999990412441612,33.63122661530176,-2.0848550048733716,-2300.385079600221,70.31399985725953,-89.936279296875,6081.6494140625,True
1598621193.051738,0,5,0.5,0.5,-0.017983865356445312,-0.14,-0.011,-0.56,0.000968984951903342,10,1,100,0.017303477076147808,-10,-1,-100,786.8481007822556,-0.0014020585584898124,8.349601410668124e-05,0.9999990136296205,33.733498500355914,-2.0851898802904323,-2299.7878297000784,70.32540335716736,-89.92465209960938,6079.7685546875,True
1598621193.129544,0,5,0.5,0.5,-0.021826370239257813,-0.14,-0.011,-0.56,0.0009750557568563932,10,1,100,0.017513331266882634,-10,-1,-100,792.5020474462071,-0.0014218158736702543,8.402936900269773e-05,0.999998985688829,33.83596175818085,-2.0855287157668143,-2299.1582108713264,70.3360991829385,-89.90985107421875,6077.890625,True
1598621193.215118,0,5,0.5,0.5,-0.02231038513183594,-0.14,-0.011,-0.56,0.0009817375086510396,10,1,100,0.01760956463982971,-10,-1,-100,798.0949582271278,-0.0014404909689213975,8.457129985570763e-05,0.9999989589161898,33.93852279879354,-2.0858684232627964,-2298.492606847484,70.34614451833527,-89.89730834960938,6076.013671875,True
1598621193.2966459,0,5,0.5,0.5,-0.01895849304199219,-0.14,-0.011,-0.56,0.0010097063300873758,10,1,100,0.017701253320588806,-10,-1,-100,803.749026585836,-0.0014581364456002165,8.531421559663294e-05,0.9999989332792264,34.04103262849503,-2.0862049585176683,-2297.7785872821014,70.35538804653555,-89.89205932617188,6074.140625,True
1598621193.3755035,0,5,0.5,0.5,-0.01439775390625,-0.14,-0.011,-0.56,0.0009684176201261739,10,1,100,0.017313430056886826,-10,-1,-100,807.9895318732597,-0.0014704850407442687,8.560975942652642e-05,0.9999989151717686,34.11785208864013,-2.0864523063236757,-2297.212362771988,70.3618361689753,-89.89437866210938,6072.7373046875,True
1598621193.4573836,0,5,0.5,0.5,-0.008182321166992189,-0.14,-0.011,-0.56,0.0010028432010792867,10,1,100,0.017768817703539386,-10,-1,-100,813.5823211881798,-0.0014856845133865493,8.618679370207602e-05,0.9999988926560684,34.220086300343816,-2.086769415765383,-2296.416776386361,70.36995834715529,-89.90512084960938,6070.86767578125,True
1598621193.5353553,0,5,0.5,0.5,-0.006386358642578125,-0.14,-0.011,-0.56,0.0009724235790095285,10,1,100,0.017457865892886226,-10,-1,-100,817.8262448241003,-0.0014965119506045441,8.64300203566268e-05,0.9999988764902853,34.29668031540532,-2.087000988711004,-2295.7933122270233,70.37562203498472,-89.91629028320312,6069.46728515625,True
1598621193.613328,0,5,0.5,0.5,-0.00011194152832031193,-0.14,-0.011,-0.56,0.0010392286042035818,10,1,100,0.018155945127880404,-10,-1,-100,824.832780908444,-0.0015125460851098669,8.72537938015686e-05,0.9999988522948993,34.424443866139754,-2.0874004100871177,-2294.735277519445,70.3846434910236,-89.9342041015625,6067.134765625,True
1598621193.6935008,0,5,0.5,0.5,-0.0041008666992187505,-0.14,-0.011,-0.56,0.0010009213220138658,10,1,100,0.01785806921869605,-10,-1,-100,830.4867887118598,-0.001524263553611157,8.764951940773724e-05,0.9999988344684111,34.52691455697564,-2.0877366780874156,-2293.8867147445894,70.39152163622975,-89.94284057617188,6065.2705078125,True
1598621193.7693503,0,5,0.5,0.5,-0.009446731567382814,-0.14,-0.011,-0.56,0.000979849034132189,10,1,100,0.017793447466965092,-10,-1,-100,836.1406131823314,-0.0015341852553575112,8.781318351503345e-05,0.9999988192815265,34.629698178568354,-2.088093955372072,-2293.039417358125,70.39793829818497,-89.94210815429688,6063.408203125,True
1598621193.840643,0,5,0.5,0.5,-0.01219178466796875,-0.14,-0.011,-0.56,0.0009921614641302263,10,1,100,0.017318979368567293,-10,-1,-100,838.910121429828,-0.0015387535189069896,8.806949471596765e-05,0.9999988122399807,34.681307672663635,-2.0882865490621465,-2292.6244954138187,70.40099799824662,-89.93759155273438,6062.47802734375,True
1598621193.9174635,0,5,0.5,0.5,-0.02317059326171875,-0.14,-0.011,-0.56,0.0009774995415331121,10,1,100,0.017953924942650412,-10,-1,-100,845.9774497891776,-0.0015485544501159826,8.8165056983562e-05,0.9999987971022954,34.81037491362896,-2.0887776683343144,-2291.592544363957,70.40876237278803,-89.91827392578125,6060.15234375,True
1598621193.9943824,0,5,0.5,0.5,-0.025118115234375002,-0.14,-0.011,-0.56,0.0009782979796372042,10,1,100,0.01769008765022193,-10,-1,-100,851.5704217562452,-0.0015549506498507668,8.825543058415691e-05,0.9999987871689923,34.914083279812935,-2.089208439481329,-2290.7945034278396,70.41484363186174,-89.9000244140625,6058.29296875,True
1598621194.0734282,0,5,0.5,0.5,-0.02408119201660156,-0.14,-0.011,-0.56,0.0010035969991865857,10,1,100,0.01766457372175375,-10,-1,-100,857.2280304552987,-0.0015604293778227422,8.856423027993899e-05,0.9999987786075212,35.017464177217946,-2.089624786876026,-2289.961519774494,70.42035874684669,-89.88690185546875,6056.4365234375,True
1598621194.1448076,0,5,0.5,0.5,-0.0183831298828125,-0.14,-0.011,-0.56,0.0009763580376683607,10,1,100,0.01751788657879257,-10,-1,-100,861.4684142995393,-0.001563983526559234,8.859437579440854e-05,0.9999987730525298,35.09471126009284,-2.0899258452254297,-2289.3131896881173,70.42421707380848,-89.88455200195312,6055.044921875,True
1598621194.2214432,0,5,0.5,0.5,-0.011651995849609378,-0.14,-0.011,-0.56,0.000983837321028653,10,1,100,0.017553229950369925,-10,-1,-100,867.1256563557545,-0.0015674508756196436,8.868706100504909e-05,0.9999987676154195,35.19725071224583,-2.090307016647378,-2288.4108586492493,70.42887575292573,-89.89230346679688,6053.19140625,True
1598621194.2995036,0,5,0.5,0.5,-0.0043003723144531235,-0.14,-0.011,-0.56,0.0010156777702025276,10,1,100,0.017567855480056564,-10,-1,-100,872.7186912496109,-0.001570661637433319,8.905850594602756e-05,0.9999987625445359,35.29913901363407,-2.0906593364930415,-2287.4711498197257,70.43340692094857,-89.90902709960938,6051.3388671875,True
1598621194.3783808,0,5,0.5,0.5,-0.00010853271484375163,-0.14,-0.011,-0.56,0.0009659739290081033,10,1,100,0.017519850703857195,-10,-1,-100,878.3760562251555,-0.0015730766959468215,8.89419405309774e-05,0.9999987587587496,35.40094012131926,-2.0910143897307085,-2286.5369044034533,70.43797474470506,-89.92840576171875,6049.4873046875,True
1598621194.4514356,0,5,0.5,0.5,-0.005028240966796877,-0.14,-0.011,-0.56,0.0009822442319902787,10,1,100,0.01739410089688224,-10,-1,-100,881.2030603919411,-0.001574073995794927,8.898234913828848e-05,0.9999987571858263,35.45183046222799,-2.0911934909736165,-2286.074541965463,70.44030845112252,-89.9368896484375,6048.5615234375,True
1598621194.5293834,0,5,0.5,0.5,-0.0020312469482421866,-0.14,-0.011,-0.56,0.0009600651429004503,10,1,100,0.017505412495677414,-10,-1,-100,888.2130754020764,-0.0015759472734257212,8.88162444898178e-05,0.9999987542501569,35.579267017495,-2.0916598112166835,-2284.9459491539565,70.44617677286878,-89.94796752929688,6046.248046875,True
1598621194.610657,0,5,0.5,0.5,-0.00893337097167969,-0.14,-0.011,-0.56,0.0009713394208961372,10,1,100,0.017416549743762208,-10,-1,-100,892.4535204685526,-0.0015768044444198792,8.876682182664634e-05,0.99999875290332,35.65578805073786,-2.09194516134164,-2284.277591561658,70.44956300501019,-89.94696044921875,6044.8603515625,True
1598621194.6900396,0,5,0.5,0.5,-0.014660980224609377,-0.14,-0.011,-0.56,0.0009502041951531808,10,1,100,0.017466423311164513,-10,-1,-100,898.1108242396731,-0.001578002495095032,8.852911978327207e-05,0.9999987510345802,35.75784638777387,-2.0923361064966066,-2283.3960294024464,70.45396437439909,-89.93795776367188,6043.0126953125,True
1598621194.7702756,0,5,0.5,0.5,-0.02529911804199219,-0.14,-0.011,-0.56,0.0009375764566494184,10,1,100,0.017448463709523538,-10,-1,-100,905.117360553355,-0.0015789015920166358,8.819789842762515e-05,0.9999987496446652,35.88531855253177,-2.0928280555458394,-2282.299656778085,70.45927312869478,-89.91552734375,6040.7041015625,True
1598621194.8506298,0,5,0.5,0.5,-0.02630745544433594,-0.14,-0.011,-0.56,0.0009315460901627951,10,1,100,0.017437114792868455,-10,-1,-100,910.7746643052669,-0.0015795940073010785,8.78420188927555e-05,0.9999987485824928,35.98718436556885,-2.093220921981122,-2281.426768643087,70.46341811274314,-89.8961181640625,6038.857421875,True
1598621194.9253259,0,5,0.5,0.5,-0.022520462036132817,-0.14,-0.011,-0.56,0.0009411561911362632,10,1,100,0.017464221405691493,-10,-1,-100,915.0185880367644,-0.0015804524771039828,8.760651315298479e-05,0.9999987472467486,36.0632899015527,-2.0935037517173534,-2280.7578651352273,70.46638870822447,-89.885986328125,6037.47412109375,True
1598621195.002487,0,5,0.5,0.5,-0.018254968261718754,-0.14,-0.011,-0.56,0.00098445152886149,10,1,100,0.01743835777517845,-10,-1,-100,920.611560914549,-0.0015809828085105548,8.77869090621875e-05,0.9999987463926232,36.16421006774365,-2.093851349234646,-2279.8394053975344,70.47025395937797,-89.88397216796875,6035.6298828125,True
1598621195.0807948,0,5,0.5,0.5,-0.010001193237304687,-0.14,-0.011,-0.56,0.0009218385610084351,10,1,100,0.017500763735930194,-10,-1,-100,926.2689261601772,-0.0015820199531298262,8.738251486456478e-05,0.9999987447877942,36.2644191445499,-2.094167061101473,-2278.8861295089664,70.47401933811956,-89.8941650390625,6033.787109375,True
1598621195.156924,0,5,0.5,0.5,-0.002865441894531251,-0.14,-0.011,-0.56,0.000931250627733429,10,1,100,0.01753924452134094,-10,-1,-100,931.9264741027728,-0.001583302311454992,8.710197164702723e-05,0.9999987427827282,36.36417184325005,-2.0944620866085337,-2277.915964314038,70.4777571893352,-89.91253662109375,6031.9453125,True
1598621195.2295265,0,5,0.5,0.5,-0.0024257446289062522,-0.14,-0.011,-0.56,0.0009664071367548391,10,1,100,0.01750951145110971,-10,-1,-100,936.1667974392185,-0.0015841884950980331,8.71682096848095e-05,0.9999987413734657,36.43872310315105,-2.0946703123619064,-2277.1788055806246,70.48051649396797,-89.92788696289062,6030.564453125,True
1598621195.3043323,0,5,0.5,0.5,-0.0018246856689453118,-0.14,-0.011,-0.56,0.0009454345416905067,10,1,100,0.01755217169644962,-10,-1,-100,940.3498081383295,-0.0015853727420045215,8.703941534534807e-05,0.9999987395079102,36.513192818340904,-2.094875061214956,-2276.44322240857,70.48327510080412,-89.9410400390625,6029.18408203125,True
1598621195.3825483,0,5,0.5,0.5,-0.002127105712890625,-0.14,-0.011,-0.56,0.000917117854261714,10,1,100,0.017679869807800095,-10,-1,-100,947.4206755599007,-0.001587601653414898,8.666652045025272e-05,0.9999987360041533,36.63718997758563,-2.095210386076406,-2275.220717049648,70.48775577965819,-89.95114135742188,6026.884765625,True
1598621195.4893875,0,5,0.5,0.5,-0.008142404174804687,-0.14,-0.011,-0.56,0.0009553639021339059,10,1,100,0.017577028635691758,-10,-1,-100,950.2474353567231,-0.00158868320112426,8.667712580025541e-05,0.9999987342855802,36.68687006206258,-2.095350916182366,-2274.7421614115474,70.48956853289693,-89.95062255859375,6025.96533203125,True
1598621195.5666065,0,5,0.5,0.5,-0.023688775634765628,-0.14,-0.011,-0.56,0.0008802314620921631,10,1,100,0.017954523552947525,-10,-1,-100,960.0879335781792,-0.0015930884885568878,8.600542847622657e-05,0.9999987273352573,36.86087071496651,-2.095853719669709,-2273.0925770686267,70.49584525177022,-89.927978515625,6022.7490234375,True
1598621195.6444938,0,5,0.5,0.5,-0.028020172119140627,-0.14,-0.011,-0.56,0.0009436529377521199,10,1,100,0.01784359132974235,-10,-1,-100,965.7419419580838,-0.0015960719233787384,8.597334656942851e-05,0.9999987225806837,36.960396197691054,-2.096153086856609,-2272.1697171955857,70.49946561502045,-89.90365600585938,6020.91259765625,True
1598621195.7244189,0,5,0.5,0.5,-0.029024453735351563,-0.14,-0.011,-0.56,0.0009201243046208201,10,1,100,0.017897704108961715,-10,-1,-100,971.3993066699477,-0.0015992610912859808,8.57319833278033e-05,0.999998717506172,37.0598213477092,-2.096450813251901,-2271.2499772332753,70.50310693584953,-89.88275146484375,6019.0771484375,True
1598621195.7963362,0,5,0.5,0.5,-0.02227752380371094,-0.14,-0.011,-0.56,0.0009444891807730461,10,1,100,0.017848023079060204,-10,-1,-100,975.6432306743227,-0.0016016915903714765,8.573576519118714e-05,0.9999987136158865,37.134028923475476,-2.096658132108043,-2270.5426132931275,70.50580870282577,-89.87567138671875,6017.7001953125,True
1598621195.8717246,0,5,0.5,0.5,-0.01501065368652344,-0.14,-0.011,-0.56,0.0009371194953660454,10,1,100,0.017967201334690645,-10,-1,-100,981.239621545421,-0.0016049657475168757,8.567407078499154e-05,0.9999987083716173,37.232405563419654,-2.096906749143115,-2269.5711847067278,70.50938001014629,-89.88040161132812,6015.8662109375,True
1598621195.9514396,0,5,0.5,0.5,-0.0048786987304687505,-0.14,-0.011,-0.56,0.00096037631410014,10,1,100,0.01807017289038139,-10,-1,-100,986.8969259189907,-0.0016088574992513482,8.583096371701419e-05,0.9999987021044542,37.330051130970894,-2.0971207286706948,-2268.562925929332,70.5129409065015,-89.898681640625,6014.0322265625,True
1598621196.0276387,0,5,0.5,0.5,0.002279522705078125,-0.14,-0.011,-0.56,0.0009367408942899146,10,1,100,0.01814371752373885,-10,-1,-100,992.5544740404002,-0.001613040810960667,8.575988166415092e-05,0.9999986953714416,37.427351690965764,-2.097319969138157,-2267.5423344372316,70.51653184491171,-89.92355346679688,6012.2001953125,True
1598621196.1053317,0,5,0.5,0.5,0.0006512207031250019,-0.14,-0.011,-0.56,0.0009232275354475705,10,1,100,0.018065517769684118,-10,-1,-100,996.7983976689866,-0.0016161066853724022,8.557369319754543e-05,0.9999986904373049,37.5002047344309,-2.0974646839461935,-2266.770740049161,70.51910513849653,-89.94113159179688,6010.826171875,True
1598621196.1747682,0,5,0.5,0.5,-0.000412521362304687,-0.14,-0.011,-0.56,0.0009364700545134611,10,1,100,0.01812289852131764,-10,-1,-100,1000.9778077626834,-0.0016193875471766774,8.552614996681926e-05,0.9999986851337606,37.573089229082306,-2.0976107815398133,-2266.0044912734493,70.52166242317912,-89.95367431640625,6009.453125,True
1598621196.255497,0,5,0.5,0.5,-0.0051478942871093746,-0.14,-0.011,-0.56,0.0009575307246814011,10,1,100,0.01842068174423439,-10,-1,-100,1008.0520320812939,-0.0016250483727582054,8.567542618630713e-05,0.9999986759378773,37.69480788027239,-2.097875305415549,-2264.752441944559,70.52598605607287,-89.95693969726562,6007.1650390625,True
1598621196.3308322,0,5,0.5,0.5,-0.015386306762695312,-0.14,-0.011,-0.56,0.0009177797148871072,10,1,100,0.018381847296785683,-10,-1,-100,1013.7095801474061,-0.00162980847815403,8.545066966008794e-05,0.9999986682103671,37.7925787423637,-2.0981086159212268,-2263.7826171690804,70.52948035650964,-89.94491577148438,6005.3359375,True
1598621196.4083493,0,5,0.5,0.5,-0.023886962890625002,-0.14,-0.011,-0.56,0.0009402787591793582,10,1,100,0.018433218471943808,-10,-1,-100,1019.3668842555489,-0.0016345694755702197,8.54513866378329e-05,0.9999986604394476,37.89060554686845,-2.098359675270397,-2262.831977199498,70.53291881374787,-89.92312622070312,6003.5068359375,True
1598621196.478357,0,5,0.5,0.5,-0.024459417724609377,-0.14,-0.011,-0.56,0.0009250683335594483,10,1,100,0.018385048697013254,-10,-1,-100,1023.5497726107715,-0.0016384247502199403,8.531423634826694e-05,0.9999986541420037,37.96414913272551,-2.0985554461161176,-2262.122939182635,70.5354603109004,-89.90484619140625,6002.13671875,True
1598621196.556733,0,5,0.5,0.5,-0.027763360595703127,-0.14,-0.011,-0.56,0.0009388132392725052,10,1,100,0.018539693662494274,-10,-1,-100,1029.207198890159,-0.001643299805352301,8.531488772512526e-05,0.9999986461426433,38.06201918756706,-2.0988082558449697,-2261.1713111375634,70.53885367302922,-89.88546752929688,6000.3095703125,True
1598621196.6333284,0,5,0.5,0.5,-0.02228383483886719,-0.14,-0.011,-0.56,0.000941122483852637,10,1,100,0.018592401677438943,-10,-1,-100,1034.8646249860758,-0.001648173011776689,8.533685563433045e-05,0.9999986381207449,38.159375140969125,-2.099040421881094,-2260.19366895238,70.54221127263801,-89.87777709960938,5998.4833984375,True
1598621196.7008228,0,5,0.5,0.5,-0.013493997192382815,-0.14,-0.011,-0.56,0.0009408105690714927,10,1,100,0.018656742997266475,-10,-1,-100,1040.522051265114,-0.0016531488411934193,8.5354297431189e-05,0.9999986299058378,38.25624784825512,-2.0992517689759826,-2259.193304447548,70.54558416738357,-89.88418579101562,5996.658203125,True
1598621196.774509,0,5,0.5,0.5,-0.0076139465332031265,-0.14,-0.011,-0.56,0.0009413680676735603,10,1,100,0.018587822788104703,-10,-1,-100,1044.7660359699512,-0.0016570055102690289,8.537565511224813e-05,0.999998623520921,38.32851615421565,-2.0993911327946724,-2258.4235202094856,70.54809754787058,-89.89773559570312,5995.2900390625,True
1598621196.8491938,0,5,0.5,0.5,0.0006846801757812507,-0.14,-0.011,-0.56,0.0009551333320086167,10,1,100,0.018747256179666043,-10,-1,-100,1050.3623047146248,-0.001661920999625315,8.552055924948595e-05,0.9999986153514538,38.424515157208006,-2.099561689632382,-2257.378421006596,70.55136480293093,-89.92047119140625,5993.4658203125,True
1598621196.9154232,0,5,0.5,0.5,-0.0042941009521484386,-0.14,-0.011,-0.56,0.0009588010680587325,10,1,100,0.01854733138922607,-10,-1,-100,1053.1927270604065,-0.0016645304788413453,8.568568164192871e-05,0.9999986109971599,38.47252755132677,-2.099648904692358,-2256.8594169625967,70.55301978089578,-89.93157958984375,5992.5546875,True
1598621196.9896562,0,5,0.5,0.5,0.0037736358642578138,-0.14,-0.011,-0.56,0.0009310501590805013,10,1,100,0.018979671157004017,-10,-1,-100,1060.2635939780157,-0.0016707920551705681,8.558336688827902e-05,0.9999986005637186,38.592528291322786,-2.0998634888691865,-2255.56792596341,70.55720070539812,-89.9520263671875,5990.2763671875,True
1598621197.0573223,0,5,0.5,0.5,-0.004541705322265626,-0.14,-0.011,-0.56,0.0009239657175037935,10,1,100,0.018793524133683924,-10,-1,-100,1064.5073347394355,-0.0016747505664556678,8.542603315180744e-05,0.9999985939554781,38.66473408269757,-2.100007207595564,-2254.809801989097,70.55972408522908,-89.95651245117188,5988.91015625,True
1598621197.1345925,0,5,0.5,0.5,-0.009604632568359375,-0.14,-0.011,-0.56,0.0009356680519438951,10,1,100,0.018912613259039146,-10,-1,-100,1070.1648829401238,-0.0016793909850468952,8.53894097376599e-05,0.9999985861762845,38.76127702131247,-2.1002147573410492,-2253.8199866904897,70.56311032511354,-89.95285034179688,5987.0888671875,True
1598621197.2104955,0,5,0.5,0.5,-0.01828775634765625,-0.14,-0.011,-0.56,0.0009233006276004363,10,1,100,0.019030138414887352,-10,-1,-100,1075.7649361053482,-0.0016846372110834705,8.524374093703995e-05,0.9999985773644738,38.858094418483844,-2.100438134013247,-2252.856324983609,70.56666835122626,-89.93746948242188,5985.2685546875,True
1598621197.2824082,0,5,0.5,0.5,-0.020383828735351564,-0.14,-0.011,-0.56,0.0009399868181049657,10,1,100,0.018921184173937806,-10,-1,-100,1080.0086768922629,-0.001688374003052758,8.526307148234592e-05,0.9999985710606962,38.93097526121316,-2.1006239156463073,-2252.1546275852265,70.56941145319196,-89.922119140625,5983.9033203125,True
1598621197.3576896,0,5,0.5,0.5,-0.026060064697265628,-0.14,-0.011,-0.56,0.0009237803052428083,10,1,100,0.019079898343071812,-10,-1,-100,1085.666102926829,-0.0016931729662008736,8.513335987591608e-05,0.9999985629577762,39.02811778214908,-2.100873309440136,-2251.222221315887,70.57308295896449,-89.90167236328125,5982.083984375,True
1598621197.4336567,0,5,0.5,0.5,-0.024111172485351565,-0.14,-0.011,-0.56,0.000936269625588378,10,1,100,0.019159061055421974,-10,-1,-100,1091.3234070274048,-0.0016982144119437764,8.512916450571996e-05,0.9999985544093735,39.12493694547722,-2.1011080456384335,-2250.2754043810924,70.57671411933137,-89.8880615234375,5980.265625,True
1598621197.510459,0,5,0.5,0.5,-0.018172460937500003,-0.14,-0.011,-0.56,0.0009324288197271153,10,1,100,0.0191648225641191,-10,-1,-100,1096.9842510673916,-0.0017028089530884342,8.509063878218971e-05,0.9999985465995701,39.221369691066144,-2.1013260606654276,-2249.312009651931,70.58034597104309,-89.88565063476562,5978.4482421875,True
1598621197.579408,0,5,0.5,0.5,-0.01418673095703125,-0.14,-0.011,-0.56,0.0009287093108659899,10,1,100,0.018961904567421098,-10,-1,-100,1099.750219517271,-0.0017050994601201237,8.502206078599749e-05,0.9999985427024782,39.269411216863475,-2.1014273461104827,-2248.822288457545,70.58215383001584,-89.88943481445312,5977.53955078125,True
1598621197.6527777,0,5,0.5,0.5,-0.0014932098388671863,-0.14,-0.011,-0.56,0.0009665470891042634,10,1,100,0.019340824589581813,-10,-1,-100,1106.8247487201588,-0.0017105872135681254,8.530415013568295e-05,0.9999985333062178,39.388834678683544,-2.1016506057990614,-2247.5647496700994,70.58663866670211,-89.91064453125,5975.2685546875,True
1598621197.7213855,0,5,0.5,0.5,-0.0016871368408203115,-0.14,-0.011,-0.56,0.0009326810114261863,10,1,100,0.019176263194728135,-10,-1,-100,1111.068367568194,-0.0017140381978997055,8.525306841242016e-05,0.9999985274014009,39.46024692683313,-2.1017753117918283,-2246.8013476275155,70.58933405703019,-89.9273681640625,5973.9072265625,True
1598621197.7924984,0,5,0.5,0.5,0.003254611206054688,-0.14,-0.011,-0.56,0.0009271383050911686,10,1,100,0.019297391156521265,-10,-1,-100,1116.7294554187683,-0.0017182373049967803,8.515654251411369e-05,0.9999985202033687,39.555418582421844,-2.1019393098919883,-2245.787128386022,70.59294572176455,-89.94784545898438,5972.0927734375,True
1598621197.8635337,0,5,0.5,0.5,-0.002091226196289062,-0.14,-0.011,-0.56,0.0009215074374840388,10,1,100,0.019242184522187927,-10,-1,-100,1120.973196260864,-0.001721513263192417,8.50178469834409e-05,0.999998514580922,39.62683851996943,-2.102066204643177,-2245.0307603437373,70.59557291276738,-89.95660400390625,5970.732421875,True
1598621197.9374726,0,5,0.5,0.5,-0.00645782470703125,-0.14,-0.011,-0.56,0.0009309959690928951,10,1,100,0.01939210107947028,-10,-1,-100,1126.630500048981,-0.0017258159918199757,8.497835729995908e-05,0.9999985071678064,39.72240202066854,-2.1022542535645563,-2244.0479172851124,70.59910727915215,-89.95736694335938,5968.9189453125,True
1598621198.0153422,0,5,0.5,0.5,-0.01532265625,-0.14,-0.011,-0.56,0.0009327162013562482,10,1,100,0.019443839279278244,-10,-1,-100,1132.2304310566979,-0.001730160475315341,8.495833732067616e-05,0.9999984996622798,39.81825421096041,-2.102462203425464,-2243.086756074178,70.60260367717399,-89.94528198242188,5967.1064453125,True
1598621198.0853643,0,5,0.5,0.5,-0.018804867553710938,-0.14,-0.011,-0.56,0.0009113070739921515,10,1,100,0.019351135241238795,-10,-1,-100,1136.4744158496615,-0.0017332292540814395,8.474578593998324e-05,0.9999984943661187,39.89036272456876,-2.1026310799691528,-2242.382359425435,70.60522444510241,-89.93060302734375,5965.748046875,True
1598621198.1617613,0,5,0.5,0.5,-0.02610458679199219,-0.14,-0.011,-0.56,0.0009144600101259931,10,1,100,0.01948814713375954,-10,-1,-100,1142.1315975247417,-0.001737228200811826,8.458157280778453e-05,0.9999984874409239,39.98652742499064,-2.102862156901176,-2241.4501916094823,70.60872503673536,-89.90838623046875,5963.9365234375,True
1598621198.2383661,0,5,0.5,0.5,-0.026009597778320313,-0.14,-0.011,-0.56,0.0009400783498752116,10,1,100,0.0195489700517102,-10,-1,-100,1147.792685856577,-0.0017413810754673036,8.4665679950504e-05,0.9999984802106813,40.08246363847712,-2.1030893819821284,-2240.5107279938698,70.61219383688692,-89.89071655273438,5962.12646484375,True
1598621198.3133461,0,5,0.5,0.5,-0.021150509643554687,-0.14,-0.011,-0.56,0.0009274753561844861,10,1,100,0.019557985112794104,-10,-1,-100,1153.4534076950513,-0.001745203305598156,8.462795464563482e-05,0.9999984735506007,40.178005827601005,-2.1032985917571088,-2239.556297891782,70.6156758179817,-89.88351440429688,5960.3173828125,True
1598621198.3816094,0,5,0.5,0.5,-0.014389443969726563,-0.14,-0.011,-0.56,0.000918924614314642,10,1,100,0.019492212022592402,-10,-1,-100,1157.6972703904612,-0.0017480436650375718,8.45162831752464e-05,0.999998468598999,40.24924104897525,-2.1034350645749065,-2238.8209952157677,70.61827087876203,-89.88742065429688,5958.9609375,True
1598621198.4549448,0,5,0.5,0.5,-0.008719799804687501,-0.14,-0.011,-0.56,0.0009142165165965412,10,1,100,0.019533473430633705,-10,-1,-100,1161.8803420499898,-0.001750966862372444,8.43726790110564e-05,0.9999984634969685,40.3201180233805,-2.103557333419536,-2238.070323617238,70.62088571133327,-89.898681640625,5957.60498046875,True
1598621198.5234387,0,5,0.5,0.5,2.427978515624936e-05,-0.14,-0.011,-0.56,0.0009351763576983722,10,1,100,0.019668057570364127,-10,-1,-100,1167.541063992423,-0.0017548142351612654,8.443347413490157e-05,0.9999984567478034,40.41417500329322,-2.103702273741756,-2237.0490583953224,70.62430504306592,-89.92022705078125,5955.7978515625,True
1598621198.600374,0,5,0.5,0.5,-4.455261230468764e-05,-0.14,-0.011,-0.56,0.0009372316101374496,10,1,100,0.019607311707069572,-10,-1,-100,1171.7846826699097,-0.0017577263599119122,8.450808387727898e-05,0.999998451627015,40.48460180077151,-2.1038067523041035,-2236.283311492579,70.62693381178984,-89.93740844726562,5954.443359375,True
1598621198.6744719,0,5,0.5,0.5,0.004518682861328126,-0.14,-0.011,-0.56,0.0009232769651326735,10,1,100,0.01985933902776893,-10,-1,-100,1178.8593335306505,-0.0017626319825127493,8.444951392767517e-05,0.9999984429971749,40.60196320936013,-2.1039825709431956,-2235.0136247382516,70.63126299518429,-89.95770263671875,5952.185546875,True
1598621198.746366,0,5,0.5,0.5,-0.004666738891601563,-0.14,-0.011,-0.56,0.0009145370610057163,10,1,100,0.019702154670176428,-10,-1,-100,1183.1031963060377,-0.0017656292216347669,8.431729561176509e-05,0.9999984377208024,40.67265486237425,-2.1041038450081406,-2234.2736069043035,70.63390977000611,-89.9608154296875,5950.83203125,True
1598621198.8215082,0,5,0.5,0.5,-0.009533074951171876,-0.14,-0.011,-0.56,0.0009436287508297054,10,1,100,0.019715861844966175,-10,-1,-100,1187.3503552464535,-0.0017684463508380356,8.446214981543665e-05,0.9999984327305966,40.74360419876356,-2.104241012352244,-2233.5522865352436,70.63658159064254,-89.95632934570312,5949.478515625,True
1598621198.9243166,0,5,0.5,0.5,-0.023569717407226565,-0.14,-0.011,-0.56,0.0009120292721386597,10,1,100,0.019983652270945094,-10,-1,-100,1194.425006360747,-0.001773409820261946,8.430682531805996e-05,0.9999984239537425,40.862147497759125,-2.1044920320835105,-2232.3696558049223,70.64085515606197,-89.93264770507812,5947.22412109375,True
