Timestamp,Input Throttle,horizon,dT,dt,Input Roll,Roll P,Roll I,Roll D,Input Pitch,Pitch P,Pitch I,Pitch D,Input Yaw,Yaw P,Yaw I,Yaw D,Altitude,Direction X,Direction Y,Direction Z,Drag X,Drag Y,Drag Z,Vertical Velocity,Roll,Mass,Has Fuel
1598621437.4867787,0,5,0.5,0.5,-0.009848022460937501,-0.14,-0.011,-0.56,0.004249719253641378,10,1,100,0.12506132436387202,-10,-1,-100,478.55668703385163,-0.011729165733319703,0.00041295440167863674,0.9999311256980964,5.398989060180824,-0.4421076558226529,112.66765548642557,-14.240059244381124,-89.92196655273438,6440.1796875,True
1598621437.5341148,0,5,0.5,0.5,-0.008895651245117188,-0.14,-0.011,-0.56,0.0043238659463019895,10,1,100,0.12489963131161036,-10,-1,-100,477.3536552618025,-0.01178766625518408,0.0004143455515817982,0.9999304372015188,5.648311729326242,-0.46315873392007056,124.47857680505719,-15.017886318804518,-89.92498779296875,6440.1796875,True
1598621437.5813134,0,5,0.5,0.5,-0.008597915649414064,-0.14,-0.011,-0.56,0.004033731495872456,10,1,100,0.11751665541243544,-10,-1,-100,476.7960201218957,-0.0117630145248363,0.0004125959696247839,0.999930728227638,5.94535769039019,-0.4817591195087759,120.53921257484102,-14.115288205831991,-89.92794799804688,6437.0224609375,True
1598621437.6289206,0,5,0.5,0.5,-0.0066819335937500016,-0.14,-0.011,-0.56,0.004081998582456771,10,1,100,0.11767515638854839,-10,-1,-100,476.2273016596446,-0.011731351129280403,0.0004110691450240604,0.9999311008378725,5.795477289371496,-0.46421555962818734,107.69336591075789,-13.2121523989176,-89.93316650390625,6433.8642578125,True
1598621437.675952,0,5,0.5,0.5,-0.0044226867675781255,-0.14,-0.011,-0.56,0.003967271219320126,10,1,100,0.11494429055884703,-10,-1,-100,475.72202540305443,-0.011667075306569321,0.00040826444740850215,0.9999318540150282,5.621622298755559,-0.4452624645386518,95.33601282080565,-12.30849224057705,-89.940673828125,6430.70654296875,True
1598621437.7305102,0,5,0.5,0.5,-0.0020483703613281253,-0.14,-0.011,-0.56,0.0038775524473635935,10,1,100,0.11109635176467698,-10,-1,-100,475.2780921548838,-0.011563055046606274,0.0004045279476062003,0.999933063817338,5.4354573339412875,-0.42586697856692185,83.71045381780797,-11.40430424986659,-89.95016479492188,6427.548828125,True
1598621437.7880785,0,5,0.5,0.5,0.00027229919433593725,-0.14,-0.011,-0.56,0.0037303396967973954,10,1,100,0.10716380751258438,-10,-1,-100,474.8374366768403,-0.011422228903396656,0.0003994250791920457,0.9999346844401812,5.237080854329548,-0.40604622952987324,72.82111847042421,-10.499545251480116,-89.96115112304688,6424.390625,True
1598621437.8350582,0,5,0.5,0.5,0.0024298828125,-0.14,-0.011,-0.56,0.0035786552659045675,10,1,100,0.10283768717180117,-10,-1,-100,474.4611441188026,-0.011244492925650431,0.0003930440448263412,0.9999367014442584,5.026260173739399,-0.3857895854996235,62.66568745862071,-9.594206929301805,-89.97308349609375,6421.2333984375,True
1598621437.890846,0,5,0.5,0.5,0.004455328369140626,-0.14,-0.011,-0.56,0.0033911139837329027,10,1,100,0.09824395034844105,-10,-1,-100,474.0816769064404,-0.01103093125391818,0.0003851808709788435,0.9999390832402582,4.803611244658766,-0.3651487052270314,53.25092518702435,-8.688302538106347,-89.98556518554688,6418.0751953125,True
1598621437.9333954,0,5,0.5,0.5,0.006085415649414063,-0.14,-0.011,-0.56,0.003257852135876359,10,1,100,0.09349185898003341,-10,-1,-100,473.7698356701294,-0.010783555329672503,0.000376470895345169,0.99994178490756,4.570042629329346,-0.34419325383205845,44.58188571888194,-7.781825165476494,-89.9979019165039,6414.91796875,True
1598621437.9820247,0,5,0.5,0.5,0.007415047454833985,-0.14,-0.011,-0.56,0.0030719801480789052,10,1,100,0.08833671773527044,-10,-1,-100,473.5190592823783,-0.010501999973287976,0.00036652074406608333,0.9999447853052214,4.32721022191015,-0.32303581142545795,36.664878634181896,-6.8747677581134345,-90.00967407226562,6411.75927734375,True
1598621438.0317302,0,5,0.5,0.5,0.00835320053100586,-0.14,-0.011,-0.56,0.0028418500292992106,10,1,100,0.08201548489364499,-10,-1,-100,473.2683128921781,-0.010189690410523658,0.00035542527242129237,0.9999480205901772,4.078104834076578,-0.30188863955469103,29.50805561231361,-5.967129640048847,-90.02029418945312,6408.6015625,True
1598621438.0849667,0,5,0.5,0.5,0.008850035858154297,-0.14,-0.011,-0.56,0.002575415125735631,10,1,100,0.07543931947495411,-10,-1,-100,473.02073953463696,-0.009847442009517688,0.00034296990842014124,0.9999514539503962,3.8287920324082036,-0.28117717201228126,23.12500513159952,-5.058918105122813,-90.02935028076172,6405.4443359375,True
1598621438.2199671,0,5,0.5,0.5,0.006571136474609375,-0.14,-0.011,-0.56,0.003100655765721964,10,1,100,0.08952582558441596,-10,-1,-100,472.9597577879904,-0.009666107675521295,0.0003364850615655202,0.9999532254761764,3.707894398767005,-0.2712560957722545,20.231289793939478,-4.604595045351407,-90.0331802368164,6403.865234375,True
1598621438.2578628,0,5,0.5,0.5,0.006870207977294923,-0.14,-0.011,-0.56,0.0030132921383839704,10,1,100,0.08670590137850015,-10,-1,-100,472.8768033812521,-0.009477500100428757,0.0003298633351613907,0.9999550330800013,3.593565308010367,-0.26191345072082833,17.5433279675902,-4.1501022354996895,-90.03651428222656,6402.2861328125,True
1598621438.3019726,0,5,0.5,0.5,0.008729477691650393,-0.14,-0.011,-0.56,0.0021025793130183797,10,1,100,0.06146192364694862,-10,-1,-100,472.7379633358214,-0.009078538484790654,0.0003156356501199922,0.9999587394053401,3.4136402032916084,-0.24702824343156296,12.831283629287853,-3.2406733748885905,-90.04168701171875,6399.12841796875,True
1598621438.344283,0,5,0.5,0.5,0.008342023468017578,-0.14,-0.011,-0.56,0.001824927041946986,10,1,100,0.05404293502516174,-10,-1,-100,472.6355307427002,-0.008650659407250513,0.0003002580906157866,0.9999625372667212,3.449511541035358,-0.2479495318742492,9.201611040445238,-2.3306224426531106,-90.04512786865234,6395.970703125,True
1598621438.4189026,0,5,0.5,0.5,0.007217814636230469,-0.14,-0.011,-0.56,0.0025054561514821537,10,1,100,0.07249371437135867,-10,-1,-100,472.59810829290655,-0.008431932393994125,0.0002925552711428069,0.999964407830357,3.747033364026528,-0.2684725672837895,7.9917298658072955,-1.8753655584549056,-90.046142578125,6394.3916015625,True
1598621438.486274,0,5,0.5,0.5,0.007071739196777344,-0.14,-0.011,-0.56,0.0014467927725669502,10,1,100,0.0437556738679827,-10,-1,-100,472.55039334495086,-0.007974391614213679,0.00027601984888058124,0.9999681659390094,7.34276099587568,-0.5229043570117449,7.955983561510382,-0.9643852575843113,-90.046630859375,6391.23388671875,True
1598621438.5330272,0,5,0.5,0.5,0.004782649230957031,-0.14,-0.011,-0.56,0.00022313169978083192,10,1,100,0.008421665584050067,-10,-1,-100,472.54716548055876,-0.007240005866049981,0.0002499626925460462,0.9999737595725758,1.4382796563307623,-0.10156405734427727,-0.6407855557493475,0.40326485996530936,-90.04365539550781,6386.4970703125,True
1598621438.6638415,0,5,0.5,0.5,0.003529877471923829,-0.14,-0.011,-0.56,0.0008108191458026819,10,1,100,0.02597760725394367,-10,-1,-100,472.5906378671061,-0.006735203336958036,0.00023173198920830305,0.9999772914103076,0.6441980146137374,-0.04525904099849851,-0.9269896209531465,1.3158547355821553,-90.03941345214844,6383.33935546875,True
1598621438.7192764,0,5,0.5,0.5,-0.0028898933410644537,-0.14,-0.011,-0.56,-0.0014320085526813406,10,1,100,-0.037588064170830715,-10,-1,-100,472.7871724164579,-0.005701846567227709,0.00019489181505582526,0.9999837253490199,2.1618076584861363,-0.15053462855115404,-7.298565345295757,3.1429954372207916,-90.02680206298828,6377.02392578125,True
1598621438.8211236,0,5,0.5,0.5,-0.0013905776977539063,-0.14,-0.011,-0.56,0.00016887405220467966,10,1,100,0.0065284440808255975,-10,-1,-100,472.9402347218711,-0.00516757034598183,0.00017610016537741423,0.9999866325133807,2.6976209947071674,-0.18712280326339997,-11.666795262971217,4.0575003061899775,-90.01884460449219,6373.86572265625,True
1598621438.881131,0,5,0.5,0.5,-0.007819370269775392,-0.14,-0.011,-0.56,-0.0020515685661568776,10,1,100,-0.05307986548275335,-10,-1,-100,473.30941072280984,-0.004144225395783527,0.0001389827052692471,0.9999914030028842,3.649058995831607,-0.2514597523787541,-22.60277429815572,5.888379212234163,-90.00331115722656,6367.5498046875,True
1598621438.939848,0,5,0.5,0.5,-0.004050804138183595,-0.14,-0.011,-0.56,-0.0003764207478485337,10,1,100,-0.00858792377850584,-10,-1,-100,473.5738342223922,-0.0036234038949870817,0.00012064772384307669,0.9999934281725757,4.104649510083237,-0.28207490898160986,-29.220350489022817,6.804740679072376,-89.9963150024414,6364.392578125,True
1598621439.0788279,0,5,0.5,0.5,-0.004284079742431641,-0.14,-0.011,-0.56,-0.000510275458311879,10,1,100,-0.010512465935527779,-10,-1,-100,473.8992623650702,-0.0031377558712041517,0.00010295289391627165,0.9999950719322543,4.55530428387059,-0.3122834494270031,-36.62234763624057,7.721713555263125,-89.99044799804688,6361.234375,True
1598621439.1559825,0,5,0.5,0.5,-0.006715930938720704,-0.14,-0.011,-0.56,-0.002664096135102761,10,1,100,-0.0709612908175728,-10,-1,-100,474.62119642843027,-0.0021521236075770665,6.747984488126244e-05,0.9999976819025373,5.448269276888792,-0.37203300815956364,-53.805493491918796,9.557462025446904,-89.98236083984375,6354.9189453125,True
1598621439.2019756,0,5,0.5,0.5,-0.004071961975097656,-0.14,-0.011,-0.56,-0.001052402365753594,10,1,100,-0.025876029062850053,-10,-1,-100,475.01443719433155,-0.001671868052776899,5.009499661236879e-05,0.9999986011728744,5.891418477119062,-0.40168106199054854,-63.59600587071648,10.476250729692083,-89.97976684570312,6351.7607421875,True
1598621439.2788749,0,5,0.5,0.5,-0.003739091491699219,-0.14,-0.011,-0.56,-0.0011514080583880425,10,1,100,-0.029378515671690295,-10,-1,-100,475.4721615865128,-0.0012095768195520328,3.361095577536179e-05,0.9999992678968426,6.332173468252287,-0.43120026459055105,-74.19083313620791,11.395637731913924,-89.978271484375,6348.603515625,True
1598621439.5740597,0,5,0.5,0.5,-0.0032332321166992192,-0.14,-0.011,-0.56,-0.001372598654773001,10,1,100,-0.03485191828550196,-10,-1,-100,475.9297950556502,-0.0007457036881262862,1.6835012222860545e-05,0.9999997218212573,6.769917056008398,-0.46057201789396723,-85.58974654783307,12.315599826691589,-89.9779052734375,6345.4453125,True
1598621439.894697,0,5,0.5,0.5,-0.00023793029785156277,-0.14,-0.011,-0.56,-0.004884134845060072,10,1,100,-0.13329059075451283,-10,-1,-100,477.61788377922494,0.0005649922699991061,-3.0126967572638336e-05,0.9999998399380374,8.060667573077144,-0.5476910905302896,-124.63314323574751,15.079060394421466,-89.98199462890625,6335.97216796875,True
1598621440.0065148,0,5,0.5,0.5,0.008218196105957032,-0.14,-0.011,-0.56,-0.006144661675788186,10,1,100,-0.17341782894214722,-10,-1,-100,480.34335421340074,0.002114690583085269,-8.404095770536476e-05,0.9999977605079201,9.708943522496988,-0.6608612192147219,-188.03568879720652,18.77181165793876,-89.9974365234375,6323.3408203125,True
1598621440.0613174,0,5,0.5,0.5,0.0029670829772949223,-0.14,-0.011,-0.56,-0.0018959848060788825,10,1,100,-0.05396421912976759,-10,-1,-100,481.122981352848,0.002430459381096227,-9.417576558070313e-05,0.9999970419946861,10.103931363181006,-0.6884638926034164,-205.89964981607437,19.69642482462492,-90.00233459472656,6320.1826171875,True
1598621440.1627758,0,5,0.5,0.5,0.0033142173767089847,-0.14,-0.011,-0.56,-0.001860018061664996,10,1,100,-0.05310788659656056,-10,-1,-100,481.96373464062344,0.00270282978377969,-0.00010281655149001349,0.999996342063268,10.491029046320254,-0.7157389296756116,-224.5533069809403,20.62160082541224,-90.00677490234375,6317.0244140625,True
1598621440.3009055,0,5,0.5,0.5,0.003058475494384766,-0.14,-0.011,-0.56,-0.001927782948089858,10,1,100,-0.05615996152281856,-10,-1,-100,482.80448814632837,0.002971960780840126,-0.00011106803832346777,0.999995577546725,10.870254547616462,-0.7426829895140239,-243.98976735486164,21.547337035524215,-90.00995635986328,6313.8671875,True
1598621440.4048688,0,5,0.5,0.5,0.0033853706359863282,-0.14,-0.011,-0.56,-0.0025112899429032775,10,1,100,-0.07657006809135172,-10,-1,-100,484.6144127805019,0.0033961759609037086,-0.00012366334834112408,0.999994225331436,11.607332261029478,-0.7957305008141784,-285.2467836085464,23.400477585345957,-90.01294708251953,6307.5517578125,True
1598621440.632387,0,5,0.5,0.5,0.0015590759277343753,-0.14,-0.011,-0.56,-0.0018399915598160733,10,1,100,-0.05438328031716776,-10,-1,-100,485.58398022141773,0.0035741881158942858,-0.0001288049028361485,0.9999936042738519,11.965231565312923,-0.8218393546201177,-307.0679217242871,24.327872592899908,-90.0126953125,6304.3935546875,True
1598621440.8281193,0,5,0.5,0.5,-0.003954278564453125,-0.14,-0.011,-0.56,-0.0024648333207296204,10,1,100,-0.07908620758048551,-10,-1,-100,488.68561398307793,0.003955383675803634,-0.00013898098225109622,0.99999216778146,12.995952238385643,-0.898460326274333,-377.24934645076456,27.113322464044806,-90.00457000732422,6294.92041015625,True
1598621440.9216108,0,5,0.5,0.5,-0.007190087127685547,-0.14,-0.011,-0.56,-0.0018011648733235082,10,1,100,-0.05680209933469604,-10,-1,-100,490.9431676081149,0.0040942266082789735,-0.00014202672676202633,0.9999916085332361,13.64902725095043,-0.9481397722317111,-427.9194420961211,28.972971999135645,-89.993408203125,6288.6044921875,True
1598621441.0963144,0,5,0.5,0.5,-0.005686620330810547,-0.14,-0.011,-0.56,-0.0015028480716264268,10,1,100,-0.04604456511257836,-10,-1,-100,492.1667006089119,0.004117830050848366,-0.00014192394386331898,0.9999915116306071,13.966344348517847,-0.9725914798309828,-454.4116164048931,29.903604629970296,-89.98660278320312,6285.4462890625,True
1598621441.1889348,0,5,0.5,0.5,-0.010389577484130861,-0.14,-0.011,-0.56,-0.0013242029902815733,10,1,100,-0.042958805136264586,-10,-1,-100,494.6174587176647,0.0041068139681822565,-0.00014006213234673528,0.9999915571951745,14.584166569763001,-1.0207451334742035,-509.67027144464873,31.766453503684154,-89.97442626953125,6279.130859375,True
1598621441.2933779,0,5,0.5,0.5,-0.00686884994506836,-0.14,-0.011,-0.56,-0.0013098707460875811,10,1,100,-0.04016768813137449,-10,-1,-100,495.9090146467788,0.004068205718715717,-0.00013813934223464645,0.9999917152755577,14.88593140891648,-1.0444926914320376,-538.4349582302334,32.698663119593654,-89.9697265625,6275.9736328125,True
1598621441.3602107,0,5,0.5,0.5,-0.00661734848022461,-0.14,-0.011,-0.56,-0.0012558569239475006,10,1,100,-0.037913324487677695,-10,-1,-100,497.26145293121226,0.004010837172316501,-0.00013585113612735652,0.9999919473324003,15.183758034086171,-1.0680539611991315,-567.9580998817543,33.63139229260278,-89.96636962890625,6272.8154296875,True
1598621441.411076,0,5,0.5,0.5,-0.006016040802001953,-0.14,-0.011,-0.56,-0.0010745581308683053,10,1,100,-0.035545902988494964,-10,-1,-100,498.6139519865392,0.003935725227605352,-0.0001320848912104215,0.9999922462801972,15.47807212696468,-1.0914409949406096,-598.2332035472743,34.564638076685526,-89.964599609375,6269.65771484375,True
1598621441.4798937,0,5,0.5,0.5,-0.005541193389892578,-0.14,-0.011,-0.56,-0.0010638842625279744,10,1,100,-0.033093405284641206,-10,-1,-100,500.03075133496895,0.0038440253937930685,-0.00012853738944673172,0.9999926034461011,15.769471750439662,-1.114671353942019,-629.2590263672172,35.49839749472643,-89.96392822265625,6266.49951171875,True
1598621441.5351133,0,5,0.5,0.5,-0.005151760864257812,-0.14,-0.011,-0.56,-0.0009302548506225545,10,1,100,-0.030518412931816785,-10,-1,-100,501.51194292108994,0.003736460101108086,-0.0001240816937795797,0.999993011710405,16.058579671843262,-1.1377693593304925,-661.0346069512187,36.43266253914466,-89.96401977539062,6263.341796875,True
1598621441.5972447,0,5,0.5,0.5,-0.004765517425537109,-0.14,-0.011,-0.56,-0.0008559005196519262,10,1,100,-0.027855497636546326,-10,-1,-100,502.9931945585413,0.0036141558013100027,-0.00011935473257749172,0.9999934617947718,16.345906122370984,-1.160753357285649,-693.5544127879651,37.367439842520604,-89.9647216796875,6260.18408203125,True
1598621441.65503,0,5,0.5,0.5,-0.004399587249755859,-0.14,-0.011,-0.56,-0.0007274735970284915,10,1,100,-0.025088786642892977,-10,-1,-100,504.5355427286122,0.003477781821837246,-0.00011389856870652476,0.9999939460120325,16.63216950553461,-1.1836434688806783,-726.8205228928144,38.3027220975553,-89.96588134765625,6257.0263671875,True
1598621441.712928,0,5,0.5,0.5,-0.004087530517578126,-0.14,-0.011,-0.56,-0.000635693335304768,10,1,100,-0.02219985351021582,-10,-1,-100,506.08469611092005,0.003327976631886735,-0.00010812685591137964,0.9999944564246946,16.917909427787784,-1.2064597005416011,-760.8270933974211,39.23850131182692,-89.96731567382812,6253.86865234375,True
1598621441.772175,0,5,0.5,0.5,-0.0038299774169921873,-0.14,-0.011,-0.56,-0.0005044044042058907,10,1,100,-0.01926506483142093,-10,-1,-100,507.6913752075052,0.0031658067893757646,-0.00010171712660657669,0.9999949836479174,17.203821981236654,-1.2292328559164716,-795.5750975623465,40.174778472723396,-89.9688720703125,6250.7109375,True
1598621441.8388727,0,5,0.5,0.5,-0.0036315856933593757,-0.14,-0.011,-0.56,-0.0004218224961807064,10,1,100,-0.0162769413194205,-10,-1,-100,509.30141103221104,0.0029920803763125807,-9.517590699948756e-05,0.9999955191882454,17.490482970330653,-1.2519797230370961,-831.0597081164,41.11155506804777,-89.97042846679688,6247.552734375,True
1598621441.977627,0,5,0.5,0.5,-0.003503536987304688,-0.14,-0.011,-0.56,-0.00026597386919998333,10,1,100,-0.013303666675655981,-10,-1,-100,510.97577775269747,0.002808130898213527,-8.785334367989745e-05,0.9999960533335361,17.778613592382744,-1.2747299569771895,-867.2828268682537,42.04882505190859,-89.97186279296875,6244.39501953125,True
1598621442.0326974,0,5,0.5,0.5,-0.0028090484619140627,-0.14,-0.011,-0.56,0.0006551830895867628,10,1,100,0.012249806191523365,-10,-1,-100,514.4502435015747,0.002409745323713213,-7.286802830816761e-05,0.9999970939046399,18.361787841719,-1.320325265258965,-941.9354542138736,43.92482611277761,-89.9739990234375,6238.0791015625,True
1598621442.0979376,0,5,0.5,0.5,-0.0036124237060546874,-0.14,-0.011,-0.56,3.039832014289771e-05,10,1,100,-0.0040337541750588395,-10,-1,-100,516.1890631137649,0.0021970645246351325,-6.498213324501125e-05,0.9999975843394808,18.658071405158662,-1.3432093805528442,-980.3590632986179,44.863554851746215,-89.97454833984375,6234.92138671875,True
1598621442.1868541,0,5,0.5,0.5,-0.0039090972900390625,-0.14,-0.011,-0.56,0.00014342651318573316,10,1,100,-0.002025691837555691,-10,-1,-100,518.0533104327042,0.0019870438321350037,-5.6846611212630066e-05,0.9999980242106842,18.958512075312946,-1.366196587608264,-1019.5211363697778,45.802764391439986,-89.97454833984375,6231.763671875,True
1598621442.2945461,0,5,0.5,0.5,-0.005179153442382812,-0.14,-0.011,-0.56,0.0011866609950379442,10,1,100,0.026013742242058158,-10,-1,-100,521.7854056665674,0.0015429001487399043,-4.003190569202171e-05,0.9999988089275794,19.57447124722068,-1.412587234058268,-1100.0950843106807,47.68261074564133,-89.97271728515625,6225.4482421875,True
1598621442.3593755,0,5,0.5,0.5,-0.007028106689453126,-0.14,-0.011,-0.56,0.001437749719697156,10,1,100,0.03217072227792174,-10,-1,-100,525.7071373766521,0.0010851547634659344,-2.2539593892828147e-05,0.9999994109653795,20.213181287609846,-1.4596251975441725,-1183.6285160528444,49.56434106731688,-89.96859741210938,6219.13232421875,True
1598621442.413854,0,5,0.5,0.5,-0.006703408813476563,-0.14,-0.011,-0.56,0.0006529943746237841,10,1,100,0.011245960203986011,-10,-1,-100,527.7001687234733,0.0008615467966506902,-1.3859645520305256e-05,0.9999996287724449,20.542449562136582,-1.4834335044097529,-1226.5025302500646,50.505904822101115,-89.96575927734375,6215.974609375,True
1598621442.4624295,0,5,0.5,0.5,-0.0073145050048828136,-0.14,-0.011,-0.56,0.0007240875201745776,10,1,100,0.013812114669983184,-10,-1,-100,529.7577142332448,0.0006373165453324817,-5.41342651590107e-06,0.9999997968991373,20.879344513196042,-1.5074878785520367,-1270.1413910025954,51.447929504414354,-89.96261596679688,6212.81640625,True
1598621442.521926,0,5,0.5,0.5,-0.007823825073242188,-0.14,-0.011,-0.56,0.0008259863891141619,10,1,100,0.016218415680582132,-10,-1,-100,531.8796522676712,0.00041404145320735107,3.0979319062848868e-06,0.9999999142800352,21.224253130602712,-1.531809417836474,-1314.5562205807594,52.390409615072954,-89.95938110351562,6209.6591796875,True
1598621442.6123395,0,5,0.5,0.5,-0.008329870605468751,-0.14,-0.011,-0.56,0.000898189185912102,10,1,100,0.01845543197097417,-10,-1,-100,534.0015288932482,0.00019322918985018503,1.1396633116878065e-05,0.9999999812662985,21.57716180487199,-1.5563966401871325,-1359.733524922145,53.33334602055803,-89.95608520507812,6206.5009765625,True
1598621442.7344542,0,5,0.5,0.5,-0.011114202880859375,-0.14,-0.011,-0.56,0.0019437238699014413,10,1,100,0.04437067466413591,-10,-1,-100,538.3097971614916,-0.00024055793660647052,2.8348883580850983e-05,0.9999999706641095,22.30803919099337,-1.6063747611095323,-1452.3519414015107,55.220569254341044,-89.94949340820312,6200.185546875,True
1598621442.8324883,0,5,0.5,0.5,-0.010886734008789064,-0.14,-0.011,-0.56,0.0016221396553965865,10,1,100,0.03648316168204112,-10,-1,-100,541.7162451347103,-0.0005604336709709138,4.0730889118727e-05,0.9999998421275351,22.879494548297725,-1.6446198723137124,-1523.7976729283464,56.63715525003456,-89.944580078125,6195.44873046875,True
1598621442.9271793,0,5,0.5,0.5,-0.013080960083007815,-0.14,-0.011,-0.56,0.002557372367880565,10,1,100,0.05955020492751577,-10,-1,-100,547.4988431193633,-0.0010582300235386461,6.038610161444419e-05,0.9999994382512102,23.880151920467174,-1.7099975194618695,-1646.71958054595,59.00032351470844,-89.93756103515625,6187.55419921875,True
1598621443.0211148,0,5,0.5,0.5,-0.011669009399414062,-0.14,-0.011,-0.56,0.0022248121547619125,10,1,100,0.05010139907770815,-10,-1,-100,552.3189524998888,-0.0014219145685581756,7.51172308232362e-05,0.9999989862576668,24.72654312344716,-1.7639410200337766,-1748.6588885093684,60.892798489511335,-89.93402099609375,6181.23828125,True
1598621443.127135,0,5,0.5,0.5,-0.010585659790039063,-0.14,-0.011,-0.56,0.0021342048924371053,10,1,100,0.04768758328131269,-10,-1,-100,557.2678451779066,-0.0017274940491535226,8.756549695369807e-05,0.9999985040471778,25.613948259585502,-1.819380870798887,-1853.8602698637571,62.78696806247828,-89.93280029296875,6174.9228515625,True
1598621443.2280061,0,5,0.5,0.5,-0.009369192504882815,-0.14,-0.011,-0.56,0.0021477820173369994,10,1,100,0.04577650837005982,-10,-1,-100,562.4098532572389,-0.001984947083048909,9.888953329625726e-05,0.9999980251010188,26.541902212262958,-1.8763663309029814,-1962.458242234474,64.68280167889421,-89.93362426757812,6168.607421875,True
1598621443.3248687,0,5,0.5,0.5,-0.009121408081054688,-0.14,-0.011,-0.56,0.0020245581569436136,10,1,100,0.04291137388533193,-10,-1,-100,567.6771658200305,-0.0021901576168685383,0.0001079535047611993,0.9999975957749369,27.507457586770894,-1.9347902239868082,-2074.44049705382,66.5802675576639,-89.9346923828125,6162.29150390625,True
1598621443.4310946,0,5,0.5,0.5,-0.010116885375976563,-0.14,-0.011,-0.56,0.001932640315993213,10,1,100,0.040100716808077,-10,-1,-100,573.0768634282285,-0.0023483869428990484,0.00011524712285679614,0.9999972358946134,28.507970278868992,-1.9945455590364707,-2189.8124419078094,68.47933467093118,-89.93417358398438,6155.9755859375,True
1598621443.528058,0,5,0.5,0.5,-0.012292947387695315,-0.14,-0.011,-0.56,0.0018126774399767741,10,1,100,0.037254503101977046,-10,-1,-100,578.6629614009289,-0.00246364283879112,0.0001206774217532141,0.9999969579458342,29.540745446042834,-2.055539194954304,-2308.5849967072427,70.37997129793345,-89.93069458007812,6149.66015625,True
1598621443.6199508,0,5,0.5,0.5,-0.015161416625976563,-0.14,-0.011,-0.56,0.0018331359637205448,10,1,100,0.034387104273051035,-10,-1,-100,584.3812005106593,-0.0025397375872554958,0.0001256931532477675,0.9999967669618832,30.602778735355,-2.1176431948946033,-2430.7493414639835,72.2821481512389,-89.92385864257812,6143.3447265625,True
1598621443.7161205,0,5,0.5,0.5,-0.017841519165039066,-0.14,-0.011,-0.56,0.001694145436266527,10,1,100,0.03163250744032539,-10,-1,-100,590.2892577603925,-0.00258138832667369,0.00012888545297493325,0.9999966599058453,31.691074424939377,-2.1807743317915245,-2556.2904261194512,74.18583186784082,-89.91461181640625,6137.0283203125,True
1598621443.817171,0,5,0.5,0.5,-0.019644415283203126,-0.14,-0.011,-0.56,0.0016458830474814735,10,1,100,0.028957198478128554,-10,-1,-100,596.3262213963317,-0.002592803617042925,0.00013125739776577065,0.9999966300647712,32.802658636906216,-2.244792756728848,-2685.1890050150455,76.09099274808847,-89.90469360351562,6130.712890625,True
1598621443.9203784,0,5,0.5,0.5,-0.02009417419433594,-0.14,-0.011,-0.56,0.0015498888485805645,10,1,100,0.026465539984662778,-10,-1,-100,602.4951420942089,-0.002578682103850657,0.00013245873985048089,0.9999966664210884,33.93458309392613,-2.3095777263677695,-2817.4138131786995,77.99760016909872,-89.89617919921875,6124.3974609375,True
1598621444.0274677,0,5,0.5,0.5,-0.019302291870117186,-0.14,-0.011,-0.56,0.0014555226688378318,10,1,100,0.024106578705251534,-10,-1,-100,608.8504638340091,-0.0025430170328809365,0.00013262747407688714,0.9999967577319057,35.084047741344584,-2.3750169056192423,-2952.9283353098153,79.90562331394027,-89.89056396484375,6118.08203125,True
1598621444.1239378,0,5,0.5,0.5,-0.01787182312011719,-0.14,-0.011,-0.56,0.0014383480041389916,10,1,100,0.02197510102984595,-10,-1,-100,615.3383536105976,-0.002490197987255392,0.00013257245347340004,0.9999968906644305,36.248456262248645,-2.440995835147966,-3091.692182025399,81.81503111471774,-89.88818359375,6111.76611328125,True
1598621444.2188995,0,5,0.5,0.5,-0.01663061828613281,-0.14,-0.011,-0.56,0.0013709011026258357,10,1,100,0.020090030986437867,-10,-1,-100,621.9549659994664,-0.0024243503054392763,0.00013186836567781972,0.9999970525638218,37.42544588936729,-2.5074143385881014,-3233.65952629611,83.72579553962598,-89.88812255859375,6105.45068359375,True
1598621444.3089654,0,5,0.5,0.5,-0.016390142822265627,-0.14,-0.011,-0.56,0.0012894980363764748,10,1,100,0.018482767069756878,-10,-1,-100,628.7610923831817,-0.002349477828888989,0.0001304582772319511,0.9999972314634523,38.61295543866244,-2.5741710137361005,-3378.7846094861693,85.63788690554544,-89.88848876953125,6099.13525390625,True
1598621444.3959563,0,5,0.5,0.5,-0.017671435546875003,-0.14,-0.011,-0.56,0.0012711053529216095,10,1,100,0.01711542909801017,-10,-1,-100,635.6997255851747,-0.002268836759361921,0.00012898871354750742,0.9999974178675018,39.80919576193699,-2.6411788073412743,-3527.0163640866467,87.55127649568362,-89.88702392578125,6092.8193359375,True
1598621444.483827,0,5,0.5,0.5,-0.02027823181152344,-0.14,-0.011,-0.56,0.0012023510491742328,10,1,100,0.016076571730811194,-10,-1,-100,642.7636025992688,-0.002186154856620539,0.00012701521508150002,0.9999976022941646,41.01272507075575,-2.7083370453029536,-3678.2995254465236,89.46593438772584,-89.8822021484375,6086.50341796875,True
1598621444.5691967,0,5,0.5,0.5,-0.02365554809570313,-0.14,-0.011,-0.56,0.0011835348712463524,10,1,100,0.015261386782468153,-10,-1,-100,650.0206555677578,-0.0021038309800363187,0.00012504430777366866,0.9999977791270982,42.22241242421566,-2.7755904854484066,-3832.579300210173,91.38183454322576,-89.87359619140625,6080.1875,True
1598621444.6571295,0,5,0.5,0.5,-0.02677419128417969,-0.14,-0.011,-0.56,0.001164704385576898,10,1,100,0.01476699514046869,-10,-1,-100,657.4665358314523,-0.0020248929014935954,0.00012308197748362156,0.9999979423276651,43.40550157719969,-2.840845640857624,-3982.2233366686005,93.16475463393111,-89.86233520507812,6074.1806640625,True
1598621444.7460392,0,5,0.5,0.5,-0.02877139282226563,-0.14,-0.011,-0.56,0.0011615041828958914,10,1,100,0.014494493224276185,-10,-1,-100,664.9802989175078,-0.0019511596266940788,0.00012127422399147079,0.9999980891325111,44.4948265524545,-2.899746241534104,-4118.791811616681,94.76286738994808,-89.85055541992188,6068.599609375,True
1598621444.837953,0,5,0.5,0.5,-0.027596203613281252,-0.14,-0.011,-0.56,0.0012295849903046392,10,1,100,0.016247193368645555,-10,-1,-100,670.6941205323674,-0.0019006463272709206,0.00012025880376938989,0.9999981865390352,45.25492691208932,-2.940075839546134,-4212.637864150377,95.83909526099255,-89.8428955078125,6064.6962890625,True
1598621444.923005,0,5,0.5,0.5,-0.028983551025390627,-0.14,-0.011,-0.56,0.0011106103200867938,10,1,100,0.01305705720885842,-10,-1,-100,680.3872977676801,-0.0018263403043214208,0.00011826519741650055,0.9999983252458154,46.39217561538105,-2.998586495235476,-4351.582078330629,97.44283359686912,-89.83486938476562,6058.62744140625,True
1598621445.010092,0,5,0.5,0.5,-0.02606690979003906,-0.14,-0.011,-0.56,0.0011837071060947567,10,1,100,0.014814568143644923,-10,-1,-100,688.2234435393475,-0.0017754182708004432,0.00011713040085636481,0.9999984170839638,47.221567475994114,-3.0399477233783454,-4450.971005778997,98.58387466264492,-89.83270263671875,6054.099609375,True
1598621445.0948436,0,5,0.5,0.5,-0.024166879272460938,-0.14,-0.011,-0.56,0.0011956789638157288,10,1,100,0.015472490942914086,-10,-1,-100,696.1814211069141,-0.0017357564291533242,0.00011622164091972027,0.9999984868199295,47.980373882555746,-3.0765397174655003,-4538.910573988791,99.58027233453468,-89.83377075195312,6049.90283203125,True
1598621445.180812,0,5,0.5,0.5,-0.022709942626953125,-0.14,-0.011,-0.56,0.0012100601967985818,10,1,100,0.01607478887949071,-10,-1,-100,704.2073329793056,-0.0017058016396941725,0.00011554045829966763,0.9999985384445162,48.65770951744566,-3.1076846654421786,-4614.859683668794,100.45335955303885,-89.8367919921875,6045.9892578125,True
1598621445.265976,0,5,0.5,0.5,-0.02296334228515625,-0.14,-0.011,-0.56,0.0012393498012282975,10,1,100,0.01684169737681109,-10,-1,-100,712.2977769933641,-0.001686127068515306,0.00011520103215710109,0.9999985718510956,49.27499677521737,-3.134782210761238,-4681.4428434326055,101.22508357371841,-89.83892822265625,6042.30859375,True
1598621445.3519995,0,5,0.5,0.5,-0.02481068115234375,-0.14,-0.011,-0.56,0.0012644539662067023,10,1,100,0.01765500933460979,-10,-1,-100,720.3883609380573,-0.0016761645758698216,0.00011513321687401737,0.9999985886073324,49.84098013924727,-3.158399735771205,-4739.797419663958,101.90789405570948,-89.83807373046875,6038.8310546875,True
1598621445.448974,0,5,0.5,0.5,-0.02769186401367188,-0.14,-0.011,-0.56,0.001293648286270477,10,1,100,0.018492388982678458,-10,-1,-100,728.6042041159235,-0.0016751839341570516,0.00011534777134289147,0.9999985902258455,50.362743936440886,-3.1790158399350585,-4790.880058195416,102.51235528545331,-89.83334350585938,6035.533203125,True
1598621445.5557954,0,5,0.5,0.5,-0.030620053100585937,-0.14,-0.011,-0.56,0.0013218454763793907,10,1,100,0.01933325255307056,-10,-1,-100,736.8237222653115,-0.0016823263350998065,0.00011580797398506785,0.9999985781822969,50.84622565741662,-3.197019540072311,-4835.514637203723,103.04750674446315,-89.825439453125,6032.39453125,True
1598621445.6538267,0,5,0.5,0.5,-0.03247216186523438,-0.14,-0.011,-0.56,0.0013466294100811307,10,1,100,0.02021195305269912,-10,-1,-100,745.1076441599289,-0.001697119037377474,0.00011645826124206088,0.9999985531111765,51.29655897177391,-3.2127492673002616,-4874.4352540332275,103.52130739743916,-89.8165283203125,6029.39599609375,True
1598621445.8678715,0,5,0.5,0.5,-0.03258222351074219,-0.14,-0.011,-0.56,0.0013400398266639405,10,1,100,0.021058011411034316,-10,-1,-100,753.3916368798818,-0.0017184893341505067,0.00011699390431985227,0.9999985165523171,51.71800621567036,-3.2264926670489626,-4908.280218957321,103.94080275444287,-89.80929565429688,6026.5224609375,True
1598621446.0740194,0,5,0.5,0.5,-0.029957440185546875,-0.14,-0.011,-0.56,0.0015294992449012127,10,1,100,0.025298255642129817,-10,-1,-100,770.0850125186844,-0.0017766301487660595,0.00011920617901041014,0.9999984146863442,52.49465071046909,-3.249385655126834,-4963.941070241111,104.65134934762818,-89.80731201171875,6021.0693359375,True
1598621446.1899812,0,5,0.5,0.5,-0.024775350952148438,-0.14,-0.011,-0.56,0.0014783123710051457,10,1,100,0.023475702398111614,-10,-1,-100,778.4946225679014,-0.0018129619599759924,0.00012075114716495859,0.9999983492926836,52.8568278702265,-3.2590037099719966,-4987.482387518902,104.97008916024075,-89.81317138671875,6018.4267578125,True
1598621446.2946208,0,5,0.5,0.5,-0.02145577087402344,-0.14,-0.011,-0.56,0.0014881060428037509,10,1,100,0.024010094281447895,-10,-1,-100,786.9073182762368,-0.0018508148566615563,0.0001222414054615276,0.999998279769223,53.2189952685952,-3.2684736730785335,-5009.380651724275,105.25400441688252,-89.8226318359375,6015.8642578125,True
1598621446.399276,0,5,0.5,0.5,-0.021468023681640625,-0.14,-0.011,-0.56,0.001449974904310842,10,1,100,0.023446593224080225,-10,-1,-100,793.2017407489475,-0.001879999245465537,0.00012324406650434405,0.9999982252052936,53.46468797137395,-3.2738972273167013,-5021.543286256984,105.42495394485485,-89.8302001953125,6014.0390625,True
1598621446.4951434,0,5,0.5,0.5,-0.02099248657226563,-0.14,-0.011,-0.56,0.0015307314271149506,10,1,100,0.025880339325248317,-10,-1,-100,803.7940474078059,-0.001928497111110892,0.00012488272347039212,0.9999981326498555,53.853738841121405,-3.2815630728726863,-5038.281237005106,105.67603254500085,-89.83694458007812,6011.07421875,True
1598621446.589279,0,5,0.5,0.5,-0.026523233032226565,-0.14,-0.011,-0.56,0.0015208891332879717,10,1,100,0.025397952452070514,-10,-1,-100,812.2070597825805,-0.0019679804082663294,0.00012627413468536028,0.9999980555520873,54.15498065132723,-3.2869853640699276,-5049.569732560094,105.85332977405973,-89.83444213867188,6008.7568359375,True
1598621446.681931,0,5,0.5,0.5,-0.03204724731445313,-0.14,-0.011,-0.56,0.0015257692393894063,10,1,100,0.02568820079529225,-10,-1,-100,820.6845169219887,-0.002006247648952928,0.0001275732904655159,0.9999979793456718,54.44851345248454,-3.2918581527782917,-5059.047732746421,106.00791383908175,-89.82455444335938,6006.49169921875,True
1598621446.772882,0,5,0.5,0.5,-0.03681643676757813,-0.14,-0.011,-0.56,0.0015301471201465597,10,1,100,0.025983001881388888,-10,-1,-100,829.2227749894373,-0.0020434150924372634,0.0001287830259824291,0.9999979039326494,54.73259943593179,-3.296091222437458,-5066.724302790889,106.14353032541304,-89.80984497070312,6004.2705078125,True
1598621446.86405,0,5,0.5,0.5,-0.03840158386230469,-0.14,-0.011,-0.56,0.0015604637055183352,10,1,100,0.02617623515521912,-10,-1,-100,837.7001232551411,-0.002078632081042082,0.00013014659536300508,0.9999978311729159,55.01010216885034,-3.2998776126970277,-5073.024664676389,106.2636596601152,-89.79583740234375,6002.08544921875,True
1598621446.9611588,0,5,0.5,0.5,-0.03626247863769532,-0.14,-0.011,-0.56,0.001563971446905523,10,1,100,0.026354611734504534,-10,-1,-100,846.1775957666105,-0.0021119223004548164,0.00013140564850875683,0.9999977612558703,55.28187150665242,-3.3032730219582653,-5078.128447179627,106.37034686287711,-89.7877197265625,5999.931640625,True
1598621447.0511858,0,5,0.5,0.5,-0.03109944458007813,-0.14,-0.011,-0.56,0.001550962360632209,10,1,100,0.026473942984130264,-10,-1,-100,854.7160445431946,-0.0021429132994936232,0.0001324188762713293,0.9999976951912599,55.54846287037997,-3.306326082059556,-5082.164407106605,106.46502911585995,-89.78863525390625,5997.806640625,True
1598621447.142829,0,5,0.5,0.5,-0.02486083374023438,-0.14,-0.011,-0.56,0.0015644918060133267,10,1,100,0.026571058066969307,-10,-1,-100,863.258036012412,-0.002171636814690414,0.00013345097583416813,0.9999976330893898,55.81041348945351,-3.30907154368429,-5085.25964284487,106.54917969412256,-89.79830932617188,5995.70556640625,True
1598621447.235595,0,5,0.5,0.5,-0.02277513122558594,-0.14,-0.011,-0.56,0.0015416659727844945,10,1,100,0.025906804179179156,-10,-1,-100,869.616935650236,-0.0021913843614760273,0.00013417019529042386,0.9999975899135652,56.0046355193541,-3.310982722856308,-5087.06835537505,106.60588061803838,-89.80905151367188,5994.1455078125,True
1598621447.3308015,0,5,0.5,0.5,-0.01637283325195313,-0.14,-0.011,-0.56,0.0015659480763485997,10,1,100,0.027249669882596018,-10,-1,-100,880.2770816796692,-0.0022212349381259978,0.00013503393320139467,0.9999975239375279,56.322997210782205,-3.3138261970586185,-5089.128287361397,106.69065153558485,-89.82681274414062,5991.568359375,True
1598621447.427142,0,5,0.5,0.5,-0.02017050476074219,-0.14,-0.011,-0.56,0.0015460344723473678,10,1,100,0.026664411086085846,-10,-1,-100,888.8154785940424,-0.0022427410772098235,0.00013562739865981415,0.9999974758556488,56.5749358519449,-3.31591855404644,-5090.1855420233205,106.7513306887218,-89.83560180664062,5989.5234375,True
1598621447.5140781,0,5,0.5,0.5,-0.02545701599121094,-0.14,-0.011,-0.56,0.0015262600977116215,10,1,100,0.02660479345398628,-10,-1,-100,897.3574121452402,-0.0022614644579341246,0.0001359773777842438,0.9999974336410361,56.82467045487793,-3.3178653631089765,-5090.717079624342,106.80467771405077,-89.8350830078125,5987.49609375,True
1598621447.5891876,0,5,0.5,0.5,-0.032941662597656254,-0.14,-0.011,-0.56,0.0015149716670315111,10,1,100,0.026546376120999436,-10,-1,-100,905.899349064799,-0.0022776878427930016,0.00013618409739745257,0.9999973967926029,57.07158898880437,-3.319642527476853,-5090.726918555197,106.85179679985565,-89.823974609375,5985.484375,True
1598621447.6938274,0,5,0.5,0.5,-0.03240397033691406,-0.14,-0.011,-0.56,0.001528966750471089,10,1,100,0.025712225629983838,-10,-1,-100,910.2007732782513,-0.002284606424388348,0.00013649142434351858,0.9999973809683588,57.19494049356976,-3.3205241408933617,-5090.641238981162,106.87342957568401,-89.81585693359375,5984.4833984375,True
1598621447.8041265,0,5,0.5,0.5,-0.03951527709960938,-0.14,-0.011,-0.56,0.0015128419430197578,10,1,100,0.026474388981332656,-10,-1,-100,918.7428327742964,-0.0022976055369127875,0.00013661721568278368,0.9999973511687585,57.4370596659903,-3.3220281789382287,-5089.831612560329,106.91081067081859,-89.7991943359375,5982.4951171875,True
1598621447.9017956,0,5,0.5,0.5,-0.03919542236328125,-0.14,-0.011,-0.56,0.0015138266869100239,10,1,100,0.02645444292444203,-10,-1,-100,927.2846522621112,-0.0023090425173670263,0.0001367346412808273,0.9999973248095672,57.67767203749127,-3.3234453879061596,-5088.798810556057,106.94584241612012,-89.78631591796875,5980.5126953125,True
1598621447.995056,0,5,0.5,0.5,-0.035744818115234375,-0.14,-0.011,-0.56,0.0015222770891838914,10,1,100,0.026419594786240067,-10,-1,-100,935.8876278415555,-0.0023189437708718507,0.00013691336912447297,0.9999973018736185,57.91700530558636,-3.32480028248168,-5087.549227031873,106.97797290345044,-89.78094482421875,5978.5380859375,True
1598621448.0905802,0,5,0.5,0.5,-0.028985699462890632,-0.14,-0.011,-0.56,0.0015118068915813392,10,1,100,0.026378615643432315,-10,-1,-100,944.4328028461896,-0.0023274123450585495,0.00013697657946517024,0.9999972821909031,58.154274150730316,-3.3260472884937924,-5086.013291811047,107.00698007960656,-89.78631591796875,5976.57177734375,True
1598621448.20497,0,5,0.5,0.5,-0.021987783813476568,-0.14,-0.011,-0.56,0.0015087144403913946,10,1,100,0.026331166849537742,-10,-1,-100,952.9747440445935,-0.002334538082074354,0.0001370027251244128,0.9999972655773598,58.389593095489985,-3.3271902281491017,-5084.221443312717,107.03316439914444,-89.80062866210938,5974.61279296875,True
1598621448.3113759,0,5,0.5,0.5,-0.017429788208007814,-0.14,-0.011,-0.56,0.0015093392025040556,10,1,100,0.026295470180325083,-10,-1,-100,961.5165019789711,-0.0023405613698953354,0.00013702959853399024,0.9999972514939043,58.6231076114953,-3.3282415362115367,-5082.204665206977,107.05680979312987,-89.818603515625,5972.66015625,True
1598621448.410885,0,5,0.5,0.5,-0.0171867431640625,-0.14,-0.011,-0.56,0.0014771387470374204,10,1,100,0.02622297437124809,-10,-1,-100,970.1229581234511,-0.002345269554712101,0.00013675948325178887,0.9999972404999723,58.85508303210491,-3.329210239678967,-5080.002437899971,107.07819755897552,-89.83334350585938,5970.7138671875,True
1598621448.5020347,0,5,0.5,0.5,-0.021491595458984377,-0.14,-0.011,-0.56,0.001462265735652476,10,1,100,0.026246951816830837,-10,-1,-100,978.664717422449,-0.002349674491798547,0.0001363776855421136,0.9999972302116189,59.08576830089921,-3.3301166637664172,-5077.651663656403,107.09759158750852,-89.8389892578125,5968.7734375,True
1598621448.604057,0,5,0.5,0.5,-0.028771844482421878,-0.14,-0.011,-0.56,0.0014537535881407383,10,1,100,0.026210375309957026,-10,-1,-100,987.2677561105229,-0.002353266275420223,0.00013595284963979496,0.9999972218234707,59.31499002864694,-3.3309488744371665,-5075.129470824091,107.11468171067581,-89.83309936523438,5966.8388671875,True
1598621448.700142,0,5,0.5,0.5,-0.03616598205566406,-0.14,-0.011,-0.56,0.0014774591939190223,10,1,100,0.026223690917033554,-10,-1,-100,995.8130559271667,-0.0023565838765655087,0.0001357823509154512,0.9999972140339121,59.54344795927867,-3.331750930510528,-5072.54731280487,107.13076276288588,-89.81781005859375,5964.908203125,True
1598621448.804822,0,5,0.5,0.5,-0.04073963928222657,-0.14,-0.011,-0.56,0.0014503982300372589,10,1,100,0.026230853524906207,-10,-1,-100,1004.4195132314926,-0.0023595995581762678,0.00013538198792478452,0.9999972069769208,59.77067852847812,-3.332503263042859,-5069.8556109625315,107.1455147137489,-89.79904174804688,5962.98046875,True
1598621448.8930154,0,5,0.5,0.5,-0.04054754638671875,-0.14,-0.011,-0.56,0.0014535078270379283,10,1,100,0.026284126336993646,-10,-1,-100,1012.9613954246743,-0.002362769027003877,0.0001350474135676009,0.9999971995384391,59.99649280209654,-3.3331908310874616,-5067.04426727701,107.15907094120362,-89.7843017578125,5961.0576171875,True
1598621448.98588,0,5,0.5,0.5,-0.03556380004882813,-0.14,-0.011,-0.56,0.0014723449336853823,10,1,100,0.02631660811078853,-10,-1,-100,1021.5065126904519,-0.002365896808872896,0.00013491603532851378,0.9999971921610347,60.22075053062472,-3.3338080447887584,-5064.107418061316,107.1715588663016,-89.77963256835938,5959.1376953125,True
1598621449.0739925,0,5,0.5,0.5,-0.02754583435058594,-0.14,-0.011,-0.56,0.0014668292027646833,10,1,100,0.026395364016540843,-10,-1,-100,1030.1096136041451,-0.002369413525135206,0.00013474827331533363,0.9999971838572596,60.44336578992032,-3.3343545051549395,-5061.042953621558,107.18310213734804,-89.787353515625,5957.220703125,True
1598621449.1638944,0,5,0.5,0.5,-0.019649185180664063,-0.14,-0.011,-0.56,0.0014350211010673607,10,1,100,0.02645542822516827,-10,-1,-100,1038.6548534635222,-0.002373118395288395,0.0001343086235662395,0.9999971751311478,60.66436060783157,-3.334825874330763,-5057.857380501504,107.19381145599166,-89.8048095703125,5955.306640625,True
1598621449.2609115,0,5,0.5,0.5,-0.015043145751953124,-0.14,-0.011,-0.56,0.001475213359825157,10,1,100,0.026551759480708648,-10,-1,-100,1047.2613727243152,-0.002377327124738739,0.00013427677532991405,0.9999971651387266,60.884046793878866,-3.335239293040232,-5054.579778406505,107.2037848264381,-89.82534790039062,5953.39599609375,True
1598621449.3650253,0,5,0.5,0.5,-0.015642416381835937,-0.14,-0.011,-0.56,0.0014321246217318508,10,1,100,0.026656581560276123,-10,-1,-100,1055.8676475454122,-0.002382072747003444,0.00013385860915350093,0.9999971539016003,61.102782643884616,-3.335609429429478,-5051.242196735758,107.21310884956688,-89.84091186523438,5951.4873046875,True
1598621449.4658294,0,5,0.5,0.5,-0.02135918884277344,-0.14,-0.011,-0.56,0.001442687790153639,10,1,100,0.026759800216277344,-10,-1,-100,1064.4128877561307,-0.0023872918430329223,0.00013357712404614007,0.9999971414933186,61.320826626247666,-3.3359505081075307,-5047.867764872836,107.22185918357047,-89.84518432617188,5949.5810546875,True
1598621449.5551257,0,5,0.5,0.5,-0.03004683227539063,-0.14,-0.011,-0.56,0.001436320028056162,10,1,100,0.02686347699055748,-10,-1,-100,1073.0194073058665,-0.0023929447943247814,0.00013326588571264947,0.9999971280235833,61.53829593528162,-3.336273331156329,-5044.466813864218,107.23010299558693,-89.836181640625,5947.6767578125,True
1598621449.6431212,0,5,0.5,0.5,-0.03831065368652344,-0.14,-0.011,-0.56,0.0014597806524121583,10,1,100,0.02698913510394333,-10,-1,-100,1081.560985363205,-0.002399190116058248,0.00013319866287082811,0.9999971130682844,61.7552804567157,-3.3365837836292314,-5041.047335440282,107.23789981119582,-89.81716918945312,5945.77490234375,True
1598621449.7294624,0,5,0.5,0.5,-0.04287434692382813,-0.14,-0.011,-0.56,0.0014531057337609412,10,1,100,0.027097033937919793,-10,-1,-100,1090.16738334205,-0.002405809846816192,0.00013307921892511093,0.9999970971802381,61.97155015956113,-3.3368735870912785,-5037.590924245399,107.24530109245808,-89.79544067382812,5943.875,True
1598621449.8587384,0,5,0.5,0.5,-0.04166920166015625,-0.14,-0.011,-0.56,0.0014421774012327586,10,1,100,0.027238099063493275,-10,-1,-100,1098.7129898568382,-0.0024130681847480454,0.0001328733784687479,0.9999970797190365,62.186812321413555,-3.337121777260889,-5034.0739042856385,107.25235372976228,-89.77978515625,5941.97705078125,True
1598621449.9438348,0,5,0.5,0.5,-0.0322448486328125,-0.14,-0.011,-0.56,0.0014461217465892243,10,1,100,0.027789163882154293,-10,-1,-100,1111.62405158428,-0.0024246306274396086,0.00013272408486174832,0.9999970517709729,62.50755111970361,-3.3374157312438877,-5028.67126445434,107.26255329388049,-89.78073120117188,5939.1328125,True
1598621450.0345461,0,5,0.5,0.5,-0.019742419433593752,-0.14,-0.011,-0.56,0.0014416559424268156,10,1,100,0.027575191451709467,-10,-1,-100,1120.1695363349281,-0.0024331433406837434,0.00013254975786342388,0.9999970311176156,62.71993172427113,-3.3375494381269344,-5024.982178456333,107.26908098853818,-89.79934692382812,5937.23828125,True
1598621450.1222389,0,5,0.5,0.5,-0.010949319458007815,-0.14,-0.011,-0.56,0.0014430642533128618,10,1,100,0.02764263449348022,-10,-1,-100,1128.7755670541665,-0.002441437353271283,0.00013240608025068563,0.9999970109216727,62.93132854437582,-3.337644932557015,-5021.232225001085,107.27528269035605,-89.8267822265625,5935.345703125,True
1598621450.2057655,0,5,0.5,0.5,-0.008686380004882813,-0.14,-0.011,-0.56,0.001467965996341562,10,1,100,0.027781583709381878,-10,-1,-100,1137.3210522328736,-0.0024501784312608954,0.00013250357330601682,0.9999969895296976,63.141953476438324,-3.3377045687793325,-5017.4397516360295,107.28117985526751,-89.8519287109375,5933.455078125,True
1598621450.2930968,0,5,0.5,0.5,-0.014322424316406252,-0.14,-0.011,-0.56,0.0014922211668965573,10,1,100,0.027901626709835224,-10,-1,-100,1145.9308682038682,-0.002459149937340553,0.00013281431690865777,0.9999969674663733,63.35240690301525,-3.337761116828809,-5013.65652089863,107.28689247761194,-89.86395263671875,5931.5654296875,True
1598621450.3769073,0,5,0.5,0.5,-0.02566609802246094,-0.14,-0.011,-0.56,0.0014302918269565989,10,1,100,0.027992864537331023,-10,-1,-100,1154.5370217349846,-0.0024680652165808064,0.00013253476645000886,0.9999969455396464,63.5629054003909,-3.3378282295369726,-5009.899756047912,107.29245098500645,-89.85733032226562,5929.67724609375,True
1598621450.4629815,0,5,0.5,0.5,-0.038457302856445316,-0.14,-0.011,-0.56,0.001444618882231717,10,1,100,0.028137963433314928,-10,-1,-100,1163.0823848339496,-0.0024774156664231196,0.00013241182322428014,0.9999969224346267,63.773610825022224,-3.337923771967681,-5006.181742034304,107.29787566173685,-89.833740234375,5927.79052734375,True
1598621450.5462892,0,5,0.5,0.5,-0.04748769836425781,-0.14,-0.011,-0.56,0.0014691774304339553,10,1,100,0.02823285987335323,-10,-1,-100,1171.6887826963793,-0.0024867019785782085,0.00013252409260499108,0.9999968993705104,63.98419876338326,-3.3380236869743274,-5002.476617972132,107.30318143728142,-89.80197143554688,5925.9052734375,True
1598621450.6323159,0,5,0.5,0.5,-0.049046774291992196,-0.14,-0.011,-0.56,0.0014219010614594358,10,1,100,0.02837129931003856,-10,-1,-100,1180.2376857704949,-0.0024963230646322288,0.00013219698375156524,0.9999968754426758,64.194255041195,-3.3381176362734606,-4998.7518081747385,107.30838272809136,-89.77435302734375,5924.021484375,True
1598621450.7169633,0,5,0.5,0.5,-0.042234033203125,-0.14,-0.011,-0.56,0.001432267560722476,10,1,100,0.028503506669029316,-10,-1,-100,1188.843961182516,-0.002506189106837785,0.0001319946550009999,0.9999968507918271,64.40330964126218,-3.338178623458475,-4994.971277570404,107.31349208276524,-89.76202392578125,5922.13818359375,True
1598621450.8037376,0,5,0.5,0.5,-0.029453277587890632,-0.14,-0.011,-0.56,0.0014710166664091782,10,1,100,0.02856984089940101,-10,-1,-100,1197.4502375100274,-0.00251567661918977,0.00013216378320988117,0.999996826946907,64.61123956018847,-3.3381955398198055,-4991.12604470237,107.3185203282669,-89.77044677734375,5920.2568359375,True
1598621450.8825462,0,5,0.5,0.5,-0.021257192993164066,-0.14,-0.011,-0.56,0.0014539728163430934,10,1,100,0.028411770231175595,-10,-1,-100,1203.877203692682,-0.0025227818552606613,0.00013216310140067418,0.9999968090472215,64.76635808605522,-3.3381746706120063,-4988.193214015797,107.32222783233371,-89.78890991210938,5918.8466796875,True
1598621450.9710581,0,5,0.5,0.5,-0.008045407104492187,-0.14,-0.011,-0.56,0.001492276803976331,10,1,100,0.028790310932217435,-10,-1,-100,1212.4834797491785,-0.0025326009503213276,0.00013251105114939066,0.9999967841814531,64.97234396790286,-3.338119690152963,-4984.2402415988445,107.32713809392891,-89.82257080078125,5916.966796875,True
1598621451.0588841,0,5,0.5,0.5,-0.004896963500976563,-0.14,-0.011,-0.56,0.0014577754404231,10,1,100,0.028915262586618168,-10,-1,-100,1221.0322607725393,-0.0025425804485100763,0.00013251362491510473,0.9999967588571484,65.17780023921604,-3.3380432316094817,-4980.270012552843,107.3319584503153,-89.85400390625,5915.0888671875,True
1598621451.1480281,0,5,0.5,0.5,-0.011858792114257813,-0.14,-0.011,-0.56,0.0014498503575653258,10,1,100,0.02873644095171908,-10,-1,-100,1227.4589828351745,-0.0025499430665305387,0.00013244390935649312,0.9999967401191708,65.33191350182048,-3.3379910105889756,-4977.310294433066,107.33554960421867,-89.86920166015625,5913.6806640625,True
1598621451.2438686,0,5,0.5,0.5,-0.021431875610351564,-0.14,-0.011,-0.56,0.0014366298239686076,10,1,100,0.029365844507357457,-10,-1,-100,1238.2482308206381,-0.002562275666937499,0.00013226068164101437,0.9999967086198429,65.58926625349768,-3.3379466233857773,-4972.447107897108,107.34152304127542,-89.86767578125,5911.3359375,True
1598621451.333198,0,5,0.5,0.5,-0.03737813720703125,-0.14,-0.011,-0.56,0.001452935149518621,10,1,100,0.029191555199131445,-10,-1,-100,1246.7972556059249,-0.0025718170277323565,0.00013224259039086017,0.9999966841290391,65.79566279781893,-3.3379488552994556,-4968.625758147173,107.34634022099553,-89.84365844726562,5909.4599609375,True
1598621451.4213471,0,5,0.5,0.5,-0.04871915588378907,-0.14,-0.011,-0.56,0.001458387119494062,10,1,100,0.029312454606579025,-10,-1,-100,1255.4036536569474,-0.0025815042581941966,0.00013227586101125438,0.99999665916385,66.00226599184491,-3.3379796796320034,-4964.840998634802,107.35105370350539,-89.8082275390625,5907.5869140625,True
1598621451.5075927,0,5,0.5,0.5,-0.05245494995117188,-0.14,-0.011,-0.56,0.0014626860577483327,10,1,100,0.029378911785149363,-10,-1,-100,1264.0131033491343,-0.0025908288036195853,0.0001323454139517368,0.9999966350397393,66.20858693971542,-3.338019125564226,-4961.05794086706,107.35569236304711,-89.7745361328125,5905.71435546875,True
1598621451.5940073,0,5,0.5,0.5,-0.046191320800781255,-0.14,-0.011,-0.56,0.001461148867119831,10,1,100,0.029441856706198068,-10,-1,-100,1272.5618844082346,-0.0025997919753440292,0.00013239453450082517,0.999996611770946,66.41401086786416,-3.3380317491316784,-4957.23266784491,107.36029498562182,-89.75653076171875,5903.8427734375,True
1598621451.6838236,0,5,0.5,0.5,-0.03233322753906251,-0.14,-0.011,-0.56,0.0014501659356671024,10,1,100,0.029548181564902024,-10,-1,-100,1281.1682824526215,-0.0026088218093830995,0.0001323389811872445,0.9999965882617604,66.61810240743428,-3.33799998523266,-4953.334900564177,107.36487003113547,-89.76193237304688,5901.97216796875,True
1598621451.7890162,0,5,0.5,0.5,-0.01609869689941406,-0.14,-0.011,-0.56,0.0014561292877563008,10,1,100,0.02960542332731727,-10,-1,-100,1289.7780986011494,-0.002617466451631308,0.00013234253119572993,0.9999965656715172,66.82085899664692,-3.3379152428651446,-4949.365951612464,107.36942282632869,-89.78945922851562,5900.10302734375,True
1598621451.8867567,0,5,0.5,0.5,-0.011197579956054686,-0.14,-0.011,-0.56,0.001455491946293743,10,1,100,0.02946276097406191,-10,-1,-100,1296.2050648927689,-0.0026239422099215664,0.00013233980134487973,0.9999965487007723,66.97217816566997,-3.3378221851226706,-4946.352320465086,107.37280957899787,-89.8184814453125,5898.7021484375,True
1598621451.975964,0,5,0.5,0.5,0.004802560424804689,-0.14,-0.011,-0.56,0.001473883186005733,10,1,100,0.02998581400853772,-10,-1,-100,1306.936573071871,-0.0026345012529901267,0.00013250466843221992,0.9999965209167785,67.22373807775767,-3.3376468446784866,-4941.320686518492,107.37847352892231,-89.86456298828125,5896.3681640625,True
1598621452.0668375,0,5,0.5,0.5,-0.006080599975585936,-0.14,-0.011,-0.56,0.001449175780741216,10,1,100,0.0298531495337442,-10,-1,-100,1315.5463895599823,-0.002642810778004804,0.0001324299429696544,0.9999964990006223,67.4251264405017,-3.3375220747529473,-4937.342376122965,107.38306757388241,-89.8858642578125,5894.501953125,True
1598621452.1559217,0,5,0.5,0.5,-0.020661270141601563,-0.14,-0.011,-0.56,0.001469193846578835,10,1,100,0.029953009380958795,-10,-1,-100,1324.0919964794302,-0.0026511882832551213,0.00013254400584437938,0.9999964768101802,67.62697178942473,-3.337432677942398,-4933.424146665493,107.38758464649959,-89.88204956054688,5892.63671875,True
1598621452.2460577,0,5,0.5,0.5,-0.040320141601562505,-0.14,-0.011,-0.56,0.0014097242042770805,10,1,100,0.03001391559965453,-10,-1,-100,1332.7015681797639,-0.002659277060365082,0.0001321068086875649,0.9999964553903715,67.82962070194802,-3.3373986313991373,-4929.592498357055,107.39204837691739,-89.85089111328125,5890.7724609375,True
1598621452.3338907,0,5,0.5,0.5,-0.054885549926757815,-0.14,-0.011,-0.56,0.0014658907579045847,10,1,100,0.03009562003158532,-10,-1,-100,1341.3113843057072,-0.002667293752543842,0.00013222008519771388,0.9999964340245853,68.03263097831432,-3.33739891494367,-4925.815824653133,107.39649268872425,-89.80514526367188,5888.91015625,True
1598621452.4225435,0,5,0.5,0.5,-0.05909304199218751,-0.14,-0.011,-0.56,0.0014271485815439524,10,1,100,0.03016496078381978,-10,-1,-100,1349.860164975631,-0.002675134034549983,0.0001319709129453104,0.9999964131143547,68.23524371453533,-3.3374009288832553,-4922.039759474357,107.40092325111463,-89.76254272460938,5887.04833984375,True
1598621452.5072865,0,5,0.5,0.5,-0.05060830993652344,-0.14,-0.011,-0.56,0.0014351948996314434,10,1,100,0.03026158921029742,-10,-1,-100,1358.469981319853,-0.002683063362768153,0.00013181788151756302,0.9999963918910094,68.43666185984075,-3.3373650113038855,-4918.206633035756,107.40534203302961,-89.7406005859375,5885.1875,True
1598621452.59183,0,5,0.5,0.5,-0.032506326293945315,-0.14,-0.011,-0.56,0.0014737295274113273,10,1,100,0.030308883887075946,-10,-1,-100,1367.0796755169285,-0.002690626093312272,0.0001320296010657764,0.9999963715431225,68.63633188974553,-3.337262407699664,-4914.278174603792,107.40975095331467,-89.74893188476562,5883.32763671875,True
1598621452.6781573,0,5,0.5,0.5,-0.01165820007324219,-0.14,-0.011,-0.56,0.001427386117254826,10,1,100,0.030412075907635235,-10,-1,-100,1375.6893688905984,-0.002698365044644802,0.00013180105090829442,0.9999963507206256,68.83419785923711,-3.3370883755101177,-4910.251929779274,107.41415301225008,-89.785400390625,5881.46875,True
1598621452.765192,0,5,0.5,0.5,0.003547296142578125,-0.14,-0.011,-0.56,0.001490508200670469,10,1,100,0.030497473587588857,-10,-1,-100,1384.241812185268,-0.002706103253316668,0.0001321676074146234,0.9999963297617177,69.0307207360171,-3.336858694398884,-4906.161790838274,107.41854988563584,-89.8363037109375,5879.6123046875,True
1598621452.8581662,0,5,0.5,0.5,-0.007699578857421877,-0.14,-0.011,-0.56,0.0014396769395654144,10,1,100,0.030143925920880298,-10,-1,-100,1388.5464759288589,-0.0027098492269179274,0.0001320388947684495,0.9999963196346764,69.12882348930295,-3.3367378713886424,-4904.117485079741,107.42074640321748,-89.86093139648438,5878.68359375,True
1598621452.9618957,0,5,0.5,0.5,0.008048989868164061,-0.14,-0.011,-0.56,0.0014459575665094692,10,1,100,0.031058687805359444,-10,-1,-100,1401.4612001549685,-0.0027215021764380393,0.00013197940331111351,0.9999962879967811,69.42321584720408,-3.336394278120489,-4898.037851330368,107.42732862881077,-89.90313720703125,5875.900390625,True
1598621453.0518484,0,5,0.5,0.5,-0.018857058715820316,-0.14,-0.011,-0.56,0.0014416688286666816,10,1,100,0.030795085163428836,-10,-1,-100,1410.070772348321,-0.0027296278416220144,0.00013188674122374504,0.999996265861895,69.62048061934532,-3.336231478000369,-4894.100626080571,107.43188782563601,-89.8984375,5874.044921875,True
1598621453.1410491,0,5,0.5,0.5,-0.03932120971679688,-0.14,-0.011,-0.56,0.0014391482937303741,10,1,100,0.030850827051076907,-10,-1,-100,1418.6199188956525,-0.0027374502457148224,0.00013178018652182602,0.9999962444930155,69.81857122566223,-3.3361137849267273,-4890.2457227322275,107.4363198062566,-89.86541748046875,5872.19140625,True
1598621453.2289226,0,5,0.5,0.5,-0.05930889282226563,-0.14,-0.011,-0.56,0.001371351720847726,10,1,100,0.030920803654295476,-10,-1,-100,1427.2326645600842,-0.002745126606569044,0.00013106728305948079,0.9999962235435098,70.01727185592298,-3.3360414537732597,-4886.45966758167,107.44067021582276,-89.8104248046875,5870.33935546875,True
1598621453.3201082,0,5,0.5,0.5,-0.06578440856933594,-0.14,-0.011,-0.56,0.0014400148515500487,10,1,100,0.03105452822532883,-10,-1,-100,1435.8426025342196,-0.0027532500372149807,0.00013104444728385918,0.9999962012135775,70.21572582374596,-3.3359728029787186,-4882.6849092521425,107.44500316832878,-89.75717163085938,5868.48828125,True
1598621453.4171252,0,5,0.5,0.5,-0.05726675720214844,-0.14,-0.011,-0.56,0.0014256621817342681,10,1,100,0.031065607588619197,-10,-1,-100,1444.4524187139468,-0.0027606646811024127,0.00013089405091284284,0.9999961807913398,70.4128628728463,-3.3358665452710525,-4878.847413748802,107.44932782043657,-89.72674560546875,5866.6376953125,True
1598621453.5068014,0,5,0.5,0.5,-0.03612049865722657,-0.14,-0.011,-0.56,0.001447317386823686,10,1,100,0.031169664622953886,-10,-1,-100,1453.0044953302713,-0.0027682806928409987,0.0001309550322860088,0.9999961597290188,70.60787611310127,-3.335675339050779,-4874.892590470845,107.45364879370479,-89.73263549804688,5864.7890625,True
1598621453.5986593,0,5,0.5,0.5,-0.010576290893554687,-0.14,-0.011,-0.56,0.00143245939656947,10,1,100,0.031274285305492464,-10,-1,-100,1461.614311380661,-0.0027760848418995833,0.00013087637414001206,0.9999961381047056,70.80059814780522,-3.335395128204589,-4870.810373629943,107.45796809788708,-89.77386474609375,5862.9404296875,True
1598621453.697463,0,5,0.5,0.5,0.009175424194335941,-0.14,-0.011,-0.56,0.0014769383176667997,10,1,100,0.03135014174058122,-10,-1,-100,1470.2275453922339,-0.0027837984724561446,0.0001312100611779619,0.999996116617452,70.99167240498574,-3.33504378704533,-4866.646155197095,107.4622868110606,-89.8350830078125,5861.09375,True
1598621453.7968545,0,5,0.5,0.5,0.00605945739746094,-0.14,-0.011,-0.56,0.0014275939167280017,10,1,100,0.031222904623459335,-10,-1,-100,1476.6546334496234,-0.0027895835307890564,0.00013106569806414239,0.9999961005151508,71.13449988082942,-3.334763131845427,-4863.510243883813,107.46551155911507,-89.87960815429688,5859.708984375,True
1598621453.8929973,0,5,0.5,0.5,0.011181320190429691,-0.14,-0.011,-0.56,0.0014217380771836812,10,1,100,0.03174022436328097,-10,-1,-100,1487.3895602038829,-0.0027994730957229264,0.00013088210868908928,0.9999960729024189,71.37304949350164,-3.3343275606173,-4858.358369341077,107.47092582101295,-89.92251586914062,5857.40234375,True
1598621453.9888542,0,5,0.5,0.5,-0.016841796875000002,-0.14,-0.011,-0.56,0.0014607256224529832,10,1,100,0.031625042172579484,-10,-1,-100,1495.999254145543,-0.0028073456158207175,0.00013107063902750922,0.9999960508077423,71.56534253143197,-3.33405704183737,-4854.372305101108,107.47533269467125,-89.91677856445312,5855.55859375,True
