Timestamp,Input Throttle,horizon,dT,dt,Input Roll,Roll P,Roll I,Roll D,Input Pitch,Pitch P,Pitch I,Pitch D,Input Yaw,Yaw P,Yaw I,Yaw D,Altitude,Direction X,Direction Y,Direction Z,Drag X,Drag Y,Drag Z,Vertical Velocity,Roll,Mass,Has Fuel
1599304765.6049893,1.0,5,0.5,0.5,0.017166748046875003,-0.14,-0.011,-0.56,0.005872168042364663,10,1,100,0.18481753396210288,-10,-1,-100,468.5870104167843,-0.012326957437499052,0.00042959420654350815,0.9999239278910931,7.183642162572248,-0.5950200326350401,211.67120037053053,-19.87544910522313,-89.96112060546875,6440.1796875,True
1599304765.6807957,0.9999999891492184,5,0.5,0.5,-0.0024737976074218748,-0.14,-0.011,-0.56,0.004481404019944802,10,1,100,0.13034063805497104,-10,-1,-100,467.74640529532917,-0.012380033509646603,0.0004308896841240115,0.999923271608567,7.304750112088965,-0.6055992102320782,219.6481383179925,-20.263767923043556,-89.96542358398438,6440.1796875,True
1599304765.7386408,1.0,5,0.5,0.5,-0.001546255493164062,-0.14,-0.011,-0.56,0.00428329630434394,10,1,100,0.1249300878896416,-10,-1,-100,466.1352727841586,-0.012367843088723521,0.0004298746938879849,0.9999234229005141,7.756740238906272,-0.6355328944415464,222.4358834280767,-19.74913042372686,-89.97024536132812,6437.0224609375,True
1599304765.7705555,1.0,5,0.5,0.5,-0.006351324462890625,-0.14,-0.011,-0.56,0.004236555016800783,10,1,100,0.12062217393480137,-10,-1,-100,465.3597965358058,-0.012306354540032424,0.0004281362595194884,0.999924182294477,7.654710967304841,-0.6194933638304931,204.8776184500474,-18.845720474930655,-89.96728515625,6433.8642578125,True
1599304765.8074572,0.9999999924184778,5,0.5,0.5,-0.007827130126953125,-0.14,-0.011,-0.56,0.004099164586119811,10,1,100,0.11739824087334189,-10,-1,-100,464.64751833258197,-0.012209959781990855,0.0004249176459423741,0.9999253653783949,7.527103542010453,-0.6019672957402623,187.70279522042964,-17.941803921025166,-89.96286010742188,6430.70654296875,True
1599304765.8722842,1.0,5,0.5,0.5,-0.009406069946289064,-0.14,-0.011,-0.56,0.0036276659929017126,10,1,100,0.10199147530871976,-10,-1,-100,463.60933735908475,-0.011971166715200146,0.00041731899398306715,0.9999282559325614,7.3084336878412515,-0.5746478465907453,163.2941450925295,-16.584971643728224,-89.95712280273438,6425.9697265625,True
1599304765.905196,0.9999992127930846,5,0.5,0.5,-0.0075861694335937506,-0.14,-0.011,-0.56,0.0036941467057040028,10,1,100,0.10405496457875746,-10,-1,-100,463.0260118433507,-0.011761958223558753,0.00041063611777827886,0.9999307414599905,7.143956631785886,-0.5557292093789545,147.92794677409753,-15.679767566510392,-89.9552001953125,6422.8115234375,True
1599304765.9420972,0.999999575114104,5,0.5,0.5,-0.00647333984375,-0.14,-0.011,-0.56,0.0034959287382051946,10,1,100,0.0988183146383588,-10,-1,-100,462.3829935939284,-0.011513470087859717,0.0004023854886895928,0.999933636844193,6.964242689906721,-0.5362375263376749,133.29004398539888,-14.774036717793575,-89.955322265625,6419.65380859375,True
1599304766.004929,0.9999999521746826,5,0.5,0.5,-0.005971337890625,-0.14,-0.011,-0.56,0.003881032955136454,10,1,100,0.10995893554589602,-10,-1,-100,462.121054498828,-0.011378383363576515,0.0003980200592277173,0.9999351848855325,6.868680949774252,-0.526279435153919,126.24611258914702,-14.32097126369735,-89.95620727539062,6418.0751953125,True
1599304766.0388389,1.0,5,0.5,0.5,0.0021366180419921874,-0.14,-0.011,-0.56,0.0014316759234093406,10,1,100,0.03570101615363423,-10,-1,-100,460.83509808499366,-0.0105701612712407,0.0003714227684655588,0.9999440653035684,6.334835965162085,-0.474442457333713,93.8039300971283,-12.053614923507375,-89.96856689453125,6410.1806640625,True
1599304766.0757406,1.0,5,0.5,0.5,-0.004819345092773438,-0.14,-0.011,-0.56,0.004128547276471746,10,1,100,0.11758024151433982,-10,-1,-100,460.83509808499366,-0.0105701612712407,0.0003714227684655588,0.9999440653035684,6.334835965162085,-0.474442457333713,93.8039300971283,-12.053614923507375,-89.96856689453125,6410.1806640625,True
1599304766.105661,1.0,5,0.5,0.5,0.0008071319580078124,-0.14,-0.011,-0.56,0.0026910364760687772,10,1,100,0.0750254882302406,-10,-1,-100,460.38488647760823,-0.01018489696517276,0.00035840737158742087,0.999948068360535,6.096040905920115,-0.45280952585145284,82.13471462507876,-11.145709429758558,-89.97659301757812,6407.0224609375,True
1599304766.1385715,1.0,5,0.5,0.5,0.0023275970458984377,-0.14,-0.011,-0.56,0.002550329912074216,10,1,100,0.07089187033863226,-10,-1,-100,459.93955771718174,-0.009799073921136806,0.0003453619350369236,0.9999519282822659,5.8436245580558985,-0.43070822627299526,71.21896763514695,-10.237243664305105,-89.98516845703125,6403.86474609375,True
1599304766.171484,1.0,5,0.5,0.5,0.0006606628417968751,-0.14,-0.011,-0.56,0.0030057242803592046,10,1,100,0.08466983990285687,-10,-1,-100,459.7466477632988,-0.009575915212749423,0.0003377192258471088,0.9999540928430477,5.712691757574309,-0.4195054119688178,66.04619372677291,-9.782798499102212,-89.9896240234375,6402.2861328125,True
1599304766.207388,1.0,5,0.5,0.5,0.0048391357421875,-0.14,-0.011,-0.56,0.0021401776851505796,10,1,100,0.05733342839093243,-10,-1,-100,459.3655584019143,-0.009127013045313655,0.00032298490029417364,0.9999582957871918,5.441998195453314,-0.39682825444312136,56.271775635265435,-8.873479790945202,-89.9991226196289,6399.1279296875,True
1599304766.2393024,0.9999999997708003,5,0.5,0.5,0.006150081634521486,-0.14,-0.011,-0.56,0.0018256798664706747,10,1,100,0.05054951190666009,-10,-1,-100,459.0487381736748,-0.00866005087663928,0.0003068236539359136,0.999962453984178,5.160580216119622,-0.37384946310635947,47.261052871537,-7.963584966577757,-90.00853729248047,6395.97021484375,True
1599304766.2722144,1.0,5,0.5,0.5,0.010146914672851563,-0.14,-0.011,-0.56,0.0006143778638843726,10,1,100,0.014516022173711937,-10,-1,-100,458.60346153832506,-0.007910972740125373,0.00028122022571402646,0.9999686682219047,4.723563423216353,-0.3391420215700988,35.190906165798424,-6.597648645362816,-90.02169799804688,6391.2333984375,True
1599304766.3061252,1.0,5,0.5,0.5,0.002850067138671875,-0.14,-0.011,-0.56,0.003161779096866664,10,1,100,0.08903873727675922,-10,-1,-100,458.60346153832506,-0.007910972740125373,0.00028122022571402646,0.9999686682219047,4.723563423216353,-0.3391420215700988,35.190906165798424,-6.597648645362816,-90.02169799804688,6391.2333984375,True
1599304766.3430254,1.0,5,0.5,0.5,0.005620071411132813,-0.14,-0.011,-0.56,0.0021458361277362304,10,1,100,0.060279069720156356,-10,-1,-100,458.53915276471525,-0.007652796214472378,0.0002720945307791821,0.9999706799074991,4.575794096875524,-0.32762984163163855,31.556848399016648,-6.142041741289882,-90.02555084228516,6389.654296875,True
1599304766.4407613,0.9999999789031877,5,0.5,0.5,0.009920745086669923,-0.14,-0.011,-0.56,-1.6721580186340734e-05,10,1,100,-0.002836681441243938,-10,-1,-100,458.1676072096452,-0.006847697623456111,0.0002442533067013444,0.9999765244132383,4.1399029337827224,-0.2941828640557903,21.847272262648655,-4.774325360909091,-90.03466796875,6384.91796875,True
1599304766.5095804,1.0,5,0.5,0.5,0.006602190399169922,-0.14,-0.011,-0.56,0.0016592669603155107,10,1,100,0.046055459344899526,-10,-1,-100,458.08123454719316,-0.006563647878449704,0.00023429497105493074,0.9999784315835988,4.004262172578297,-0.2838896953567114,19.020498430953932,-4.318118713861487,-90.03711700439453,6383.3388671875,True
1599304766.5514684,0.9999996886486499,5,0.5,0.5,0.009023176574707033,-0.14,-0.011,-0.56,-0.002746717527321075,10,1,100,-0.08050608955182309,-10,-1,-100,457.7863059369847,-0.005158503587012575,0.00018531219585004994,0.9999866776613241,3.935724949748141,-0.27628987064163635,8.627353513946483,-2.03479428703499,-90.04242706298828,6375.4443359375,True
1599304766.6053226,1.0,5,0.5,0.5,0.005000440216064454,-0.14,-0.011,-0.56,-0.00013812561438346512,10,1,100,-0.005724912445997654,-10,-1,-100,457.73224546259735,-0.004565498017011925,0.000164654231395716,0.9999895645039705,6.436150842654092,-0.45037038937424645,7.714764610253695,-1.1203811347393455,-90.04082489013672,6372.2861328125,True
1599304766.6726716,1.0,5,0.5,0.5,0.0034221054077148445,-0.14,-0.011,-0.56,-0.00017911765371541764,10,1,100,-0.006527895826962074,-10,-1,-100,457.7148070373805,-0.004023859991642681,0.00014566588853752305,0.9999918936332517,14.93680418246777,-1.0422534365650824,3.2613197169150334,-0.20533411220571018,-90.03720092773438,6369.12841796875,True
1599304766.7145605,0.9999999491521117,5,0.5,0.5,0.003778852844238282,-0.14,-0.011,-0.56,0.0005643736879608154,10,1,100,0.015106198189212577,-10,-1,-100,457.7198975669453,-0.003733182691655052,0.00013533736480650393,0.9999930224910514,3.2910014899147684,-0.22934129809391532,-0.8809592195095345,0.25243808398153567,-90.03473663330078,6367.5498046875,True
1599304766.7744002,1.0,5,0.5,0.5,-0.001365534973144531,-0.14,-0.011,-0.56,-0.0016971359298837225,10,1,100,-0.04952300450480631,-10,-1,-100,457.7899792640237,-0.002886295876587635,0.00010555920810288862,0.9999958290679848,0.9802475289406164,-0.06808961824009192,-1.6789835749606088,1.626752041464437,-90.02536010742188,6362.8125,True
1599304766.8442209,1.0,5,0.5,0.5,-0.0013299400329589849,-0.14,-0.011,-0.56,-0.0009024759397979177,10,1,100,-0.026580350301055135,-10,-1,-100,457.8824373424286,-0.0023302172238332227,8.589530596023023e-05,0.9999972813511475,1.8326454574965425,-0.1270868640314242,-4.890206703921322,2.5437684904318574,-90.01788330078125,6359.6552734375,True
1599304766.909049,1.0,5,0.5,0.5,-0.009115355682373047,-0.14,-0.011,-0.56,-0.0031991397876889975,10,1,100,-0.0920885207082065,-10,-1,-100,458.17761530855205,-0.0012342357680971917,4.731783714039805e-05,0.9999992372112545,2.9741297969509937,-0.20578672723767658,-13.593654676229876,4.379672741093947,-90.00078582763672,6353.33935546875,True
1599304766.9788597,1.0,5,0.5,0.5,-0.011200889587402344,-0.14,-0.011,-0.56,-0.0034861672632116453,10,1,100,-0.09958078223954896,-10,-1,-100,458.63096893543843,-0.00017584728257225785,9.850708789048034e-06,0.9999999844903483,3.896721016586116,-0.26940062054295494,-25.230791333366206,6.2180555530066925,-89.98416137695312,6347.02392578125,True
1599304767.0407054,0.9999999202688012,5,0.5,0.5,-0.007255939483642579,-0.14,-0.011,-0.56,-0.0017118473257373933,10,1,100,-0.04917686858849619,-10,-1,-100,458.9070241814479,0.0003213094447754749,-7.84173226060412e-06,0.9999999483493726,4.333325946492482,-0.2996103294107688,-32.207737081862014,7.13817033515002,-89.9765625,6343.8662109375,True
1599304767.0756135,0.999999999061027,5,0.5,0.5,-0.00943045120239258,-0.14,-0.011,-0.56,-0.003587663859151484,10,1,100,-0.10098073448068998,-10,-1,-100,459.58791982999537,0.0012376970622313287,-4.074946984681422e-05,0.9999992332224376,5.180117075830394,-0.3585477449307914,-48.5272205610223,8.980231068929484,-89.96746826171875,6337.55029296875,True
1599304767.1105185,0.9999999997483413,5,0.5,0.5,-0.004884262084960938,-0.14,-0.011,-0.56,-0.0011377297606975075,10,1,100,-0.033260610996298706,-10,-1,-100,459.7856098029297,0.0014480470964779286,-4.814342635660385e-05,0.9999989504203577,5.387251752109243,-0.37305179783442255,-53.102656185837,9.441125057567668,-89.966796875,6335.9716796875,True
1599304767.1748595,1.0,5,0.5,0.5,-0.0034806388854980476,-0.14,-0.011,-0.56,-0.002800771447530001,10,1,100,-0.07792195149293168,-10,-1,-100,460.39735700248275,0.0020392806315046915,-6.977153340742922e-05,0.9999979182310527,5.998789336998173,-0.4161156220401853,-68.02446779958088,10.824710756787555,-89.9683837890625,6331.234375,True
1599304767.246186,0.9999999999985045,5,0.5,0.5,-0.00026198425292968744,-0.14,-0.011,-0.56,-0.0028171932722368858,10,1,100,-0.07876994183519376,-10,-1,-100,461.1330363752786,0.0025784703222327524,-8.936962389205747e-05,0.9999966717463953,6.595594955263366,-0.4585416787675892,-84.74209722009573,12.209642556990119,-89.974365234375,6326.498046875,True
1599304767.309018,0.9681630135463918,5,0.5,0.5,0.007000439453125,-0.14,-0.011,-0.56,-0.003952423928066267,10,1,100,-0.10970675396178417,-10,-1,-100,462.47570579196326,0.0033438843964873795,-0.00011729267982886882,0.9999944023241182,7.557050840001392,-0.5279013897760733,-116.61310026696766,14.520822881498066,-89.9896240234375,6318.603515625,True
1599304767.3793483,0.9179471574485739,5,0.5,0.5,0.005738504791259766,-0.14,-0.011,-0.56,-0.0027517032292724694,10,1,100,-0.07613527303362588,-10,-1,-100,463.40901701396797,0.0037280863945645627,-0.00013153196974181246,0.9999930420113811,8.112522141006442,-0.5686502209294606,-138.13543289613017,15.90928962980407,-90.0000991821289,6313.86669921875,True
1599304767.441696,0.8838206152816772,5,0.5,0.5,0.004026300048828126,-0.14,-0.011,-0.56,-0.00220835675237105,10,1,100,-0.06126070040703997,-10,-1,-100,464.07998661266174,0.003936124475964719,-0.00013932172789279858,0.999992243726703,8.48490110118158,-0.5962054299968821,-153.48029878894252,16.814688010227997,-90.00607299804688,6310.7587890625,True
1599304767.479595,0.8195409180513867,5,0.5,0.5,0.005394381713867188,-0.14,-0.011,-0.56,-0.002879987817255958,10,1,100,-0.07836351537172254,-10,-1,-100,465.48150849703234,0.004275033466280341,-0.00015230432040732784,0.9999908504042705,9.156370170930337,-0.6466224557741233,-184.35599118614041,18.518956472857983,-90.01282501220703,6304.802734375,True
1599304767.6122406,0.7594138226530249,5,0.5,0.5,0.0018988662719726563,-0.14,-0.011,-0.56,-0.0025272876112008543,10,1,100,-0.0696883784991494,-10,-1,-100,467.07604995183647,0.004499259241148989,-0.00016071883704044646,0.9999898653665129,9.750761148198512,-0.6921303276632478,-215.5692183232176,20.113931229715185,-90.01321411132812,6299.11328125,True
1599304767.683052,0.7203515687077027,5,0.5,0.5,-0.0008772506713867188,-0.14,-0.011,-0.56,-0.002148303678952672,10,1,100,-0.058221485894003305,-10,-1,-100,468.2749675742816,0.004594606279597594,-0.00016476802591754402,0.9999894311664664,10.145490666258736,-0.7227370543582745,-237.68433684826024,21.150213564925334,-90.00951385498047,6295.2314453125,True
1599304767.743889,0.6581777342608328,5,0.5,0.5,-0.008232361602783204,-0.14,-0.011,-0.56,-0.0019462860761429294,10,1,100,-0.051973232037337405,-10,-1,-100,470.5310552198207,0.004620598282367707,-0.00016646992278603783,0.9999893111225128,10.723795742753811,-0.7684433645031953,-274.31713519706403,22.79971782501717,-89.9959945678711,6288.95166015625,True
1599304767.8137012,0.6360594346541286,5,0.5,0.5,-0.00534591064453125,-0.14,-0.011,-0.56,-0.0017020449620221015,10,1,100,-0.04632854980281393,-10,-1,-100,471.4590900593903,0.004589836718008382,-0.0001656824366718072,0.9999894529184955,10.932634962858065,-0.7850978678608032,-288.22521376764297,23.386583229455187,-89.9892578125,6286.615234375,True
1599304767.9094446,0.6149041312600766,5,0.5,0.5,-0.006205603027343751,-0.14,-0.011,-0.56,-0.0015317354378226499,10,1,100,-0.04375640459178082,-10,-1,-100,472.39230321499053,0.004535632348834575,-0.00016331141815677052,0.99998970063125,11.10613388696963,-0.7992047025668273,-301.2058519827208,23.947907750615922,-89.98260498046875,6284.33984375,True
1599304767.9782636,0.5709342171974483,5,0.5,0.5,-0.010304339599609375,-0.14,-0.011,-0.56,-0.0009653439295676853,10,1,100,-0.02502852180107417,-10,-1,-100,474.84580148092937,0.004313832759018027,-0.00015592189680919264,0.9999906832242437,11.499447543145822,-0.8311378467704482,-330.38185212398884,25.117345385952426,-89.97140502929688,6279.2138671875,True
1599304768.0430887,0.537393190293268,5,0.5,0.5,-0.007133157348632813,-0.14,-0.011,-0.56,-0.0007060401385939578,10,1,100,-0.01881563502209528,-10,-1,-100,476.9001693346072,0.0040541383771606435,-0.00014678634087261783,0.9999917711740377,11.766882160549791,-0.8531331370596769,-352.57279463177457,26.004742213550742,-89.96697998046875,6275.22998046875,True
1599304768.1109068,0.5134823234941549,5,0.5,0.5,-0.0049577484130859375,-0.14,-0.011,-0.56,-0.0006654195105459966,10,1,100,-0.01889871783751786,-10,-1,-100,478.4905765025178,0.0038181621883571605,-0.00013808519916525585,0.9999927012583548,11.946971988382524,-0.8679954681438248,-368.5339321306013,26.639305091273698,-89.96658325195312,6272.3173828125,True
1599304768.178726,0.4807652514532469,5,0.5,0.5,0.0007603889465332037,-0.14,-0.011,-0.56,0.00027379611685831706,10,1,100,0.007260373820394177,-10,-1,-100,481.2106987903826,0.0033657465691058915,-0.00012163078897359353,0.9999943284619088,12.227067863266528,-0.8906860801356423,-392.08187828430806,27.50759720965881,-89.9744873046875,6267.916015625,True
1599304768.2425542,0.46867400823139865,5,0.5,0.5,0.00016595230102539084,-0.14,-0.011,-0.56,-0.0006162138556043613,10,1,100,-0.016130526357548136,-10,-1,-100,482.332128525828,0.0031676227149559032,-0.00011477931667530595,0.9999949764834042,12.314852663952884,-0.8978384352727982,-400.4167066448459,27.828505422834446,-89.98001098632812,6266.21875,True
1599304768.3093762,0.447684315436576,5,0.5,0.5,0.005901951599121095,-0.14,-0.011,-0.56,0.00041214218579564504,10,1,100,0.00944602935687372,-10,-1,-100,484.58376742491964,0.002756002714462374,-9.92361278493463e-05,0.9999961972933842,12.495380258955782,-0.9121496831712179,-415.9752995222164,28.385576881061994,-89.99267578125,6263.0283203125,True
1599304768.3522625,0.43840964181566217,5,0.5,0.5,0.002813868713378907,-0.14,-0.011,-0.56,-0.0002491972728172799,10,1,100,-0.007784443646061845,-10,-1,-100,485.71457026712596,0.0025400281563373855,-9.117402645785603e-05,0.9999967699669143,12.560944991371189,-0.9173427315669307,-422.42241911914067,28.631735715499545,-89.99842834472656,6261.509765625,True
1599304768.4091127,0.42539673053184135,5,0.5,0.5,0.0046858299255371095,-0.14,-0.011,-0.56,0.0003057396373966261,10,1,100,0.006979652098842309,-10,-1,-100,487.43827286560554,0.002211336395018504,-7.886686600861089e-05,0.9999975518826862,12.660924139718444,-0.9250777520687041,-431.73478330683474,28.977121335530473,-90.00572204589844,6259.2900390625,True
1599304768.4477556,0.417766731125125,5,0.5,0.5,0.0026254547119140626,-0.14,-0.011,-0.56,-8.493668021202633e-06,10,1,100,-0.0014767287038265423,-10,-1,-100,488.62369068851694,0.0019915921301050096,-7.061484388289324e-05,0.9999980142851941,12.726854163520152,-0.9300496283998985,-437.4430372736245,29.179638110396095,-90.00859832763672,6257.8759765625,True
1599304768.5085924,0.4067768905311441,5,0.5,0.5,0.0019812934875488284,-0.14,-0.011,-0.56,0.0005867446384248048,10,1,100,0.014200462443909243,-10,-1,-100,490.4116445860127,0.0016516667375568743,-5.77881733398125e-05,0.9999986343278251,12.813219674729377,-0.9364366828984731,-445.3185269643757,29.47130138761915,-90.00994873046875,6255.78466796875,True
1599304768.5435,0.396989116210788,5,0.5,0.5,-0.00036304855346679685,-0.14,-0.011,-0.56,0.0007564589052074692,10,1,100,0.01793753607176508,-10,-1,-100,492.14001506671775,0.0013112920437246779,-4.468063700700302e-05,0.999999139258038,12.894396845160657,-0.9422403779791467,-452.41129325222226,29.731095017389098,-90.00763702392578,6253.76953125,True
1599304768.6124587,0.3877652773991825,5,0.5,0.5,-0.002783062744140625,-0.14,-0.011,-0.56,0.0009011259870628786,10,1,100,0.021936063734531153,-10,-1,-100,493.92800438858103,0.0009682398348659836,-3.155066801467449e-05,0.9999995307579786,12.971566440874271,-0.9475704548569007,-459.0192980097471,29.97590564860113,-90.00227355957031,6251.791015625,True
1599304768.6752982,0.3798496166135957,5,0.5,0.5,-0.004835609436035156,-0.14,-0.011,-0.56,0.001033266404176469,10,1,100,0.025061187180452246,-10,-1,-100,495.77530897874385,0.0006307693396154285,-1.8517815750486772e-05,0.9999998008935455,13.047439396316328,-0.9526163456489242,-464.9154156377852,30.18598659517611,-89.9949951171875,6249.89501953125,True
1599304768.7097232,0.37496253264843604,5,0.5,0.5,-0.004381382751464844,-0.14,-0.011,-0.56,0.000676210577244748,10,1,100,0.01590360862176831,-10,-1,-100,496.97042405838147,0.00041012632432908857,-1.0024427921890645e-05,0.999999915847951,13.094525118881888,-0.9556299487477361,-468.49185195829403,30.315682174068538,-89.98977661132812,6248.65625,True
1599304768.7455935,0.3670393847446786,5,0.5,0.5,-0.006782777404785157,-0.14,-0.011,-0.56,0.0012416880974318424,10,1,100,0.02959953043132085,-10,-1,-100,498.8179731265409,8.77203123862808e-05,2.7360781412142347e-06,0.9999999961488304,13.157887130698533,-0.9594901804266063,-473.3524733201116,30.501196203169805,-89.98214721679688,6246.8193359375,True
1599304768.7755122,0.36422005188325585,5,0.5,0.5,-0.004174226379394531,-0.14,-0.011,-0.56,0.0004270943900287398,10,1,100,0.00938538790021579,-10,-1,-100,499.41565788560547,-1.8811218731162465e-05,6.824308681448175e-06,0.9999999997997834,13.182373778668875,-0.9609882357907847,-474.9852625812485,30.557810365686272,-89.97976684570312,6246.2197265625,True
1599304768.8094525,0.36156133650079,5,0.5,0.5,-0.004436228942871094,-0.14,-0.011,-0.56,0.0004894568938800956,10,1,100,0.010604923800923531,-10,-1,-100,500.01319108868483,-0.0001242221970869144,1.1011395174372451e-05,0.9999999922237974,13.204325293983484,-0.9622857437362969,-476.46325937992,30.61119292255895,-89.97750854492188,6245.62744140625,True
1599304768.842179,0.3565034661385218,5,0.5,0.5,-0.005864880371093751,-0.14,-0.011,-0.56,0.0009209685147786547,10,1,100,0.022382139969238435,-10,-1,-100,501.2677833434427,-0.0003246939149828023,1.8647774520079395e-05,0.9999999471130596,13.246992667519,-0.9647442535038439,-479.254075963158,30.71274839936141,-89.97369384765625,6244.4560546875,True
1599304768.8790853,0.3495779260268853,5,0.5,0.5,-0.006904139709472658,-0.14,-0.011,-0.56,0.0015124996563218023,10,1,100,0.03606329179180666,-10,-1,-100,503.1200219804887,-0.000629009556629683,3.0878843720633694e-05,0.9999998016967176,13.30569387016394,-0.9679367086012741,-482.94506899180175,30.851803481293786,-89.96920776367188,6242.73046875,True
1599304768.9090002,0.3495779260268853,5,0.5,0.5,-0.004435262298583985,-0.14,-0.011,-0.56,0.000299542105026725,10,1,100,0.005893787795792053,-10,-1,-100,503.1200219804887,-0.000629009556629683,3.0878843720633694e-05,0.9999998016967176,13.30569387016394,-0.9679367086012741,-482.94506899180175,30.851803481293786,-89.96920776367188,6242.73046875,True
1599304768.9419186,0.34324779802700667,5,0.5,0.5,-0.006509496307373047,-0.14,-0.011,-0.56,0.001547705848103969,10,1,100,0.03746403418472134,-10,-1,-100,504.9772364672972,-0.000913938454443416,4.214518046037187e-05,0.9999995814700552,13.363394033987195,-0.9709314336294506,-486.2990440720402,30.978892167146356,-89.96630859375,6241.033203125,True
1599304768.975797,0.33959401477805334,5,0.5,0.5,-0.005486842346191407,-0.14,-0.011,-0.56,0.0012625599862525305,10,1,100,0.02990480610547948,-10,-1,-100,506.1723209746415,-0.0011022215331008218,4.971613710015043e-05,0.9999993913178135,13.401618997581073,-0.9728478295491566,-488.28984045815804,31.052244194854516,-89.96551513671875,6239.9296875,True
1599304769.0107312,0.33959401477805334,5,0.5,0.5,-0.0050829406738281254,-0.14,-0.011,-0.56,0.000513591002786157,10,1,100,0.011283544376535585,-10,-1,-100,506.1723209746415,-0.0011022215331008218,4.971613710015043e-05,0.9999993913178135,13.401618997581073,-0.9728478295491566,-488.28984045815804,31.052244194854516,-89.96551513671875,6239.9296875,True
1599304769.0421655,0.3345255656715841,5,0.5,0.5,-0.0047949340820312505,-0.14,-0.011,-0.56,0.0016615373667217114,10,1,100,0.039979802089025546,-10,-1,-100,508.08416286774445,-0.001361521156966443,6.0089982269700345e-05,0.9999990713242355,13.45668820170127,-0.975469296136561,-490.9782994679099,31.15398771359094,-89.96597290039062,6238.2939453125,True
1599304769.0750778,0.3345255656715841,5,0.5,0.5,-0.005077465820312501,-0.14,-0.011,-0.56,0.0006311642907858789,10,1,100,0.014227004450592976,-10,-1,-100,508.08416286774445,-0.001361521156966443,6.0089982269700345e-05,0.9999990713242355,13.45668820170127,-0.975469296136561,-490.9782994679099,31.15398771359094,-89.96597290039062,6238.2939453125,True
1599304769.1089914,0.33152403263950486,5,0.5,0.5,-0.004240765380859376,-0.14,-0.011,-0.56,0.0014297267556222688,10,1,100,0.03348418218405645,-10,-1,-100,509.3435596327763,-0.001535268916843972,6.729750112809618e-05,0.9999988192095025,13.49216917262493,-0.9770748739633853,-492.5545798898419,31.21423185170885,-89.96719360351562,6237.2216796875,True
1599304769.145858,0.3300216447820688,5,0.5,0.5,-0.004318682861328126,-0.14,-0.011,-0.56,0.0010532597840074852,10,1,100,0.024839082305635998,-10,-1,-100,509.9413269200595,-0.0016132510108396191,7.037238835518831e-05,0.9999986962336016,13.509469428574443,-0.9778300243521132,-493.3105452221878,31.244384737438075,-89.96807861328125,6236.68505859375,True
1599304769.1757784,0.32735109901280524,5,0.5,0.5,-0.0033292999267578133,-0.14,-0.011,-0.56,0.0014712033224678427,10,1,100,0.034615342314769745,-10,-1,-100,511.1959876541514,-0.0017716652519971026,7.691326255383821e-05,0.9999984276420564,13.545299133253165,-0.9794037409099275,-494.7353907182884,31.29798830521139,-89.97021484375,6235.62890625,True
1599304769.2087204,0.32477557877869956,5,0.5,0.5,-0.002649533081054688,-0.14,-0.011,-0.56,0.001510060034319961,10,1,100,0.035168442483774924,-10,-1,-100,512.4556636251509,-0.0019193909533703035,8.315978603487214e-05,0.9999981545097062,13.580851673168679,-0.980920230432199,-496.0808411591824,31.349669400722135,-89.972900390625,6234.5771484375,True
1599304769.24263,0.3223460337263251,5,0.5,0.5,-0.00199178466796875,-0.14,-0.011,-0.56,0.0015385860334410967,10,1,100,0.03643029485339787,-10,-1,-100,513.7103347835364,-0.0020639853567091123,8.9050242880264e-05,0.9999978660149739,13.615794939011392,-0.9823584961637484,-497.3219847915091,31.398424549713532,-89.97598266601562,6233.533203125,True
1599304769.278534,0.3211548720680079,5,0.5,0.5,-0.002514117431640625,-0.14,-0.011,-0.56,0.0012745313476860787,10,1,100,0.029489658251813967,-10,-1,-100,514.3128008862259,-0.0021310335944571945,9.195182341542951e-05,0.9999977251177531,13.633197994794756,-0.9830600399919812,-497.9191776252916,31.42233054076673,-89.97769165039062,6233.01171875,True
1599304769.3094513,0.3180124517811732,5,0.5,0.5,0.00013023986816406265,-0.14,-0.011,-0.56,0.0018909158599563446,10,1,100,0.04379853663305239,-10,-1,-100,516.2293160781264,-0.0023209608002939695,0.00010014784070171415,0.9999973015520459,13.686807957839134,-0.9852280455895421,-499.5826931781161,31.485378614277412,-89.98281860351562,6231.46923828125,True
1599304769.3413677,0.31707227810330646,5,0.5,0.5,-0.0015255310058593752,-0.14,-0.011,-0.56,0.0013367544963843354,10,1,100,0.03138563188705313,-10,-1,-100,516.8268340105424,-0.002379669363120869,0.00010251508792622596,0.9999971633281661,13.704902882202397,-0.9859539665931486,-500.0976298044202,31.504237949533593,-89.98452758789062,6230.96044921875,True
1599304769.3762383,0.31432538793872966,5,0.5,0.5,0.0009563201904296877,-0.14,-0.011,-0.56,0.0018677677263194796,10,1,100,0.04352695292059493,-10,-1,-100,518.7435444691218,-0.0025422551134229574,0.0001094465248108052,0.9999967624749575,13.757012558160358,-0.9879397078278366,-501.49726918600027,31.55934098412906,-89.98941040039062,6229.4375,True
1599304769.412145,0.3135252638897337,5,0.5,0.5,-0.0007268829345703127,-0.14,-0.011,-0.56,0.0014518094420204373,10,1,100,0.032942194546262064,-10,-1,-100,519.3411821078043,-0.0025927618703341423,0.00011192152253721222,0.9999966325240582,13.775584067184509,-0.9886787752012556,-501.960185154914,31.575382613130564,-89.99087524414062,6228.935546875,True
1599304769.476741,0.31198491904367165,5,0.5,0.5,0.0002959930419921873,-0.14,-0.011,-0.56,0.0016847425112807095,10,1,100,0.038010590963505085,-10,-1,-100,520.6603083858499,-0.0026836341252161854,0.0001162419742451597,0.9999963922913347,13.810020692333415,-0.9899489278998534,-502.7513757647052,31.606266820922652,-89.99346923828125,6227.93408203125,True
1599304769.510645,0.30999485111106306,5,0.5,0.5,0.000896337890625,-0.14,-0.011,-0.56,0.0018237781482007395,10,1,100,0.042398261070888815,-10,-1,-100,522.5173819729825,-0.00280508920771392,0.00012138912297609671,0.9999960583618404,13.862259338851963,-0.9918685358001365,-503.82500929087365,31.646158943704414,-89.9963607788086,6226.447265625,True
1599304769.5465176,0.30999485111106306,5,0.5,0.5,-0.0006918144226074218,-0.14,-0.011,-0.56,0.0013141649485691289,10,1,100,0.030371936640802774,-10,-1,-100,522.5173819729825,-0.00280508920771392,0.00012138912297609671,0.9999960583618404,13.862259338851963,-0.9918685358001365,-503.82500929087365,31.646158943704414,-89.9963607788086,6226.447265625,True
1599304769.610345,0.30868131965320694,5,0.5,0.5,0.0002448440551757813,-0.14,-0.011,-0.56,0.001663368098074478,10,1,100,0.03790328848909421,-10,-1,-100,523.776943336241,-0.0028726165663750087,0.0001245232644621251,0.9999958662754657,13.896999117735618,-0.9931235394682367,-504.5095018275343,31.67249152395979,-89.9976577758789,6225.45703125,True
1599304769.6422956,0.30587885060532083,5,0.5,0.5,-0.00035811080932617186,-0.14,-0.011,-0.56,0.002070408862195747,10,1,100,0.04515410236335514,-10,-1,-100,526.9530874623451,-0.002999054995275639,0.00013103525141559222,0.9999954942392982,13.985481398813054,-0.996344253085681,-506.06810152149075,31.728178703390896,-89.99779510498047,6223.0068359375,True
1599304769.678197,0.30587885060532083,5,0.5,0.5,-0.0004110214233398438,-0.14,-0.011,-0.56,0.0014234086677025679,10,1,100,0.03260376643714877,-10,-1,-100,526.9530874623451,-0.002999054995275639,0.00013103525141559222,0.9999954942392982,13.985481398813054,-0.996344253085681,-506.06810152149075,31.728178703390896,-89.99779510498047,6223.0068359375,True
1599304769.7091146,0.30483091512918087,5,0.5,0.5,-0.0010992042541503907,-0.14,-0.011,-0.56,0.001624361094085021,10,1,100,0.036199693753705645,-10,-1,-100,528.2126449299976,-0.0030309561332435937,0.00013282656126634165,0.9999953978204215,14.021700519781717,-0.9976795165505656,-506.6828963977977,31.749172922491326,-89.99678039550781,6222.0302734375,True
1599304769.7440214,0.303916113944916,5,0.5,0.5,-0.0016424705505371094,-0.14,-0.011,-0.56,0.0015619577055876184,10,1,100,0.03525234875439141,-10,-1,-100,529.5317074120976,-0.0030506994901907418,0.00013385801330744235,0.9999953376464575,14.058292113998144,-0.999039367884124,-507.2648906810385,31.767487397170093,-89.99517059326172,6221.0595703125,True
1599304769.7769349,0.3035042195869378,5,0.5,0.5,-0.0014502517700195313,-0.14,-0.011,-0.56,0.0015391523276266261,10,1,100,0.03432879116981238,-10,-1,-100,530.1293507277733,-0.003059641991076458,0.00013455988179481468,0.9999953102312654,14.075685836594602,-0.9996557521428221,-507.508268114906,31.775734669315142,-89.994140625,6220.57666015625,True
1599304769.8128362,0.3026774281249971,5,0.5,0.5,-0.002598612976074219,-0.14,-0.011,-0.56,0.0015863645672071062,10,1,100,0.03428636581870903,-10,-1,-100,531.3887904997682,-0.003066915500619212,0.0001356043159095357,0.9999952878092884,14.11096069400526,-1.0009232241384352,-508.0108918711727,31.792284180918,-89.99166870117188,6219.611328125,True
1599304769.842761,0.30229746097573296,5,0.5,0.5,-0.002174766540527344,-0.14,-0.011,-0.56,0.0015070116305267265,10,1,100,0.03356796778094877,-10,-1,-100,532.0460036110599,-0.0030665658420145447,0.00013581088132275833,0.999995288853573,14.129107782599249,-1.0015945740792371,-508.2702728364174,31.799884994309238,-89.99029541015625,6219.1298828125,True
1599304769.8756373,0.3015960265008735,5,0.5,0.5,-0.003459996032714844,-0.14,-0.011,-0.56,0.0015026125882569524,10,1,100,0.03278672463277028,-10,-1,-100,533.3056218622951,-0.003058797640375226,0.00013594088685316496,0.9999953126275495,14.164515053476363,-1.0028786751687182,-508.74048728773965,31.813916612781128,-89.98736572265625,6218.169921875,True
1599304769.9105403,0.3009457696426336,5,0.5,0.5,-0.003986858367919922,-0.14,-0.011,-0.56,0.0014871259023520283,10,1,100,0.031706935654940455,-10,-1,-100,534.6246276197489,-0.003041688731420428,0.00013590505676905617,0.9999953648189959,14.2000518012135,-1.004177377071628,-509.20252534634665,31.8269157730585,-89.98428344726562,6217.212890625,True
1599304769.9454818,0.30003056499936154,5,0.5,0.5,-0.0056065887451171885,-0.14,-0.011,-0.56,0.0013636469600393534,10,1,100,0.02876027369039731,-10,-1,-100,536.486470962991,-0.0029991322513077587,0.00013473675182266661,0.9999954935157191,14.252583381005651,-1.006087285606806,-509.85910713963904,31.845211181512493,-89.97952270507812,6215.7802734375,True
1599304769.9754047,0.30003056499936154,5,0.5,0.5,-0.002960521697998047,-0.14,-0.011,-0.56,0.0014814988034143627,10,1,100,0.03302857327015751,-10,-1,-100,536.486470962991,-0.0029991322513077587,0.00013473675182266661,0.9999954935157191,14.252583381005651,-1.006087285606806,-509.85910713963904,31.845211181512493,-89.97952270507812,6215.7802734375,True
1599304770.0103097,0.29949256146290426,5,0.5,0.5,-0.0050527648925781255,-0.14,-0.011,-0.56,0.0013750932393418775,10,1,100,0.028685447720829434,-10,-1,-100,537.8056592801586,-0.002959649221535656,0.00013376606351254668,0.9999956112819326,14.287876080266063,-1.0073921514308681,-510.29447609348387,31.855953580776568,-89.9765625,6214.8291015625,True
1599304770.0427873,0.2987726519614601,5,0.5,0.5,-0.005853708648681641,-0.14,-0.011,-0.56,0.0012211978112394912,10,1,100,0.024465093141256118,-10,-1,-100,539.7223102304852,-0.0028854245217228417,0.00013148208769141873,0.9999958285101944,14.339552915544804,-1.009283898789066,-510.89542478481786,31.87032216838069,-89.97308349609375,6213.40625,True
1599304770.078688,0.2987726519614601,5,0.5,0.5,-0.00393153305053711,-0.14,-0.011,-0.56,0.0014494609459947943,10,1,100,0.03187300996138548,-10,-1,-100,539.7223102304852,-0.0028854245217228417,0.00013148208769141873,0.9999958285101944,14.339552915544804,-1.009283898789066,-510.89542478481786,31.87032216838069,-89.97308349609375,6213.40625,True
1599304770.1096003,0.2983265449346771,5,0.5,0.5,-0.005152117919921876,-0.14,-0.011,-0.56,0.00124245016925904,10,1,100,0.025399305451776523,-10,-1,-100,540.9818700735923,-0.002826722912515913,0.0001296023314716537,0.9999959964123915,14.373707242611351,-1.010541802453943,-511.2903172423826,31.87922152685338,-89.97137451171875,6212.45947265625,True
1599304770.1435237,0.2979188500634031,5,0.5,0.5,-0.0049464477539062504,-0.14,-0.011,-0.56,0.0012346620229845098,10,1,100,0.024118407686509365,-10,-1,-100,542.2414287121501,-0.0027619250327149676,0.00012782716771511993,0.9999961777078595,14.407518322647077,-1.0117920529068245,-511.67570546065525,31.887349363385493,-89.9703369140625,6211.51513671875,True
1599304770.1764336,0.2973365827260492,5,0.5,0.5,-0.004794741821289063,-0.14,-0.011,-0.56,0.0009833734274693122,10,1,100,0.018064295173066822,-10,-1,-100,544.158082757378,-0.0026482577468354526,0.0001239360108392187,0.9999964856792105,14.457079744093521,-1.0136172434734207,-512.2334162457681,31.89895121419973,-89.96975708007812,6210.099609375,True
1599304770.2123363,0.2973365827260492,5,0.5,0.5,-0.004492626953125,-0.14,-0.011,-0.56,0.00137130162801108,10,1,100,0.02938919295150041,-10,-1,-100,544.158082757378,-0.0026482577468354526,0.0001239360108392187,0.9999964856792105,14.457079744093521,-1.0136172434734207,-512.2334162457681,31.89895121419973,-89.96975708007812,6210.099609375,True
1599304770.243375,0.2968182016971738,5,0.5,0.5,-0.004042025756835939,-0.14,-0.011,-0.56,0.0008541613654922638,10,1,100,0.015608803817014348,-10,-1,-100,546.0795557679376,-0.0025233547000615246,0.00011924564924906033,0.9999968092256759,14.506058095118842,-1.0154440848971436,-512.7917798048165,31.90926913033485,-89.97042846679688,6208.6884765625,True
1599304770.2752912,0.2968182016971738,5,0.5,0.5,-0.004433242797851563,-0.14,-0.011,-0.56,0.0013215315837561022,10,1,100,0.02804727509127126,-10,-1,-100,546.0795557679376,-0.0025233547000615246,0.00011924564924906033,0.9999968092256759,14.506058095118842,-1.0154440848971436,-512.7917798048165,31.90926913033485,-89.97042846679688,6208.6884765625,True
1599304770.310192,0.2963637425122308,5,0.5,0.5,-0.0032042327880859377,-0.14,-0.011,-0.56,0.0008101847396186478,10,1,100,0.012547581982654273,-10,-1,-100,547.9963307725266,-0.002382880924120685,0.00011461112439560493,0.999997154367347,14.553581697182821,-1.0172148080596632,-513.3244726483109,31.918301899942787,-89.97219848632812,6207.27978515625,True
1599304770.3454936,0.2963637425122308,5,0.5,0.5,-0.004203500366210937,-0.14,-0.011,-0.56,0.0012716246622214815,10,1,100,0.026533334444019535,-10,-1,-100,547.9963307725266,-0.002382880924120685,0.00011461112439560493,0.999997154367347,14.553581697182821,-1.0172148080596632,-513.3244726483109,31.918301899942787,-89.97219848632812,6207.27978515625,True
1599304770.3764427,0.2960910491653853,5,0.5,0.5,-0.0030333740234375003,-0.14,-0.011,-0.56,0.0008754870418399729,10,1,100,0.015477581011926941,-10,-1,-100,549.2605891940184,-0.0022828984095538568,0.00011102728688224298,0.9999973880204854,14.584491231295747,-1.0183684916225308,-513.6703063762864,31.923716759685753,-89.973876953125,6206.3427734375,True
1599304770.4103515,0.29582996340124235,5,0.5,0.5,-0.002605255126953125,-0.14,-0.011,-0.56,0.0008380066694810861,10,1,100,0.014384273912680812,-10,-1,-100,550.5200879261829,-0.0021826138100564745,0.00010744711739484149,0.9999976123231861,14.61481113205558,-1.0195040044099721,-514.014628047248,31.92889763157923,-89.975830078125,6205.40625,True
1599304770.4437034,0.2954544968943509,5,0.5,0.5,-0.00128204345703125,-0.14,-0.011,-0.56,0.0005086534705945284,10,1,100,0.006199976920213773,-10,-1,-100,552.4368032250786,-0.0020176822112288506,0.00010122014784395923,0.999997959354406,14.658719017180067,-1.0211384694312287,-514.5153249451625,31.936344002640116,-89.97927856445312,6204.001953125,True
1599304770.4806044,0.2954544968943509,5,0.5,0.5,-0.0032045013427734375,-0.14,-0.011,-0.56,0.0011285122073199855,10,1,100,0.022612232732847452,-10,-1,-100,552.4368032250786,-0.0020176822112288506,0.00010122014784395923,0.999997959354406,14.658719017180067,-1.0211384694312287,-514.5153249451625,31.936344002640116,-89.97927856445312,6204.001953125,True
1599304770.5104985,0.29501661464279255,5,0.5,0.5,0.00015921630859374973,-0.14,-0.011,-0.56,0.00018273800134514968,10,1,100,-0.0020615649821885615,-10,-1,-100,555.0154313613893,-0.001794051543657147,9.264638871679814e-05,0.999998386396551,14.715078694540345,-1.0232493352538463,-515.1752729776601,31.945009598798404,-89.98406982421875,6202.1337890625,True
1599304770.543439,0.29501661464279255,5,0.5,0.5,-0.0025081451416015628,-0.14,-0.011,-0.56,0.0010369849518490164,10,1,100,0.020216081154663976,-10,-1,-100,555.0154313613893,-0.001794051543657147,9.264638871679814e-05,0.999998386396551,14.715078694540345,-1.0232493352538463,-515.1752729776601,31.945009598798404,-89.98406982421875,6202.1337890625,True
1599304770.5773175,0.2947137825795621,5,0.5,0.5,-0.0002279968261718749,-0.14,-0.011,-0.56,0.00030603492137539433,10,1,100,0.0007417262923988185,-10,-1,-100,556.9369686791906,-0.0016177885050939894,8.602983355078559e-05,0.9999986876787492,14.75486034146856,-1.024721456692421,-515.6433040686434,31.950995208267965,-89.9873046875,6200.734375,True
1599304770.6128368,0.2946257104814727,5,0.5,0.5,-0.0013373626708984376,-0.14,-0.011,-0.56,0.0007143933152405015,10,1,100,0.011577816799407382,-10,-1,-100,557.5940612629056,-0.0015568825348229855,8.375732863109177e-05,0.9999987845500027,14.76785321594661,-1.0252062302592504,-515.799308380679,31.952731541980754,-89.98828125,6200.2685546875,True
1599304770.6437268,0.2946257104814727,5,0.5,0.5,-0.001864599609375,-0.14,-0.011,-0.56,0.0009380949751480864,10,1,100,0.01757176660998392,-10,-1,-100,557.5940612629056,-0.0015568825348229855,8.375732863109177e-05,0.9999987845500027,14.76785321594661,-1.0252062302592504,-515.799308380679,31.952731541980754,-89.98828125,6200.2685546875,True
1599304770.677681,0.2942880150601069,5,0.5,0.5,0.00041749572753906256,-0.14,-0.011,-0.56,-0.0001294447167812377,10,1,100,-0.009114651561350393,-10,-1,-100,560.1178810154088,-0.001315029640892035,7.408047124606566e-05,0.9999991326041875,14.817215984986214,-1.0270225991846775,-516.395482790532,31.959386521742395,-89.99151611328125,6198.40625,True
1599304770.709585,0.2942880150601069,5,0.5,0.5,-0.0013727783203125001,-0.14,-0.011,-0.56,0.0008341879564064199,10,1,100,0.014963852703421784,-10,-1,-100,560.1178810154088,-0.001315029640892035,7.408047124606566e-05,0.9999991326041875,14.817215984986214,-1.0270225991846775,-516.395482790532,31.959386521742395,-89.99151611328125,6198.40625,True
1599304770.745472,0.2942086268562771,5,0.5,0.5,-0.000926129150390625,-0.14,-0.011,-0.56,0.0005487588428386854,10,1,100,0.007950710471425633,-10,-1,-100,560.7750968071632,-0.0012521536831181263,7.151924913693732e-05,0.9999992134977661,14.828950401642983,-1.0274497780981253,-516.5389424155853,31.960948189516756,-89.99212646484375,6197.94140625,True
1599304770.7773843,0.2939051178355104,5,0.5,0.5,-0.00022460937499999998,-0.14,-0.011,-0.56,-0.0002732235081284696,10,1,100,-0.013116030172208712,-10,-1,-100,563.2942788638175,-0.0010043237703151137,6.175096027280825e-05,0.9999994937601636,14.873947779453916,-1.0290845875453938,-517.1107457386515,31.96691670919511,-89.99359130859375,6196.08154296875,True
1599304770.810372,0.2938326105305733,5,0.5,0.5,-0.0009437286376953126,-0.14,-0.011,-0.56,0.00044884774586989703,10,1,100,0.0047725281716473455,-10,-1,-100,563.9561945867026,-0.0009425683422028061,5.947086287592256e-05,0.9999995540139689,14.884605817514348,-1.0294676022048348,-517.2495587971496,31.96833933303527,-89.99371337890625,6195.6171875,True
1599304770.8420386,0.2938326105305733,5,0.5,0.5,-0.0009962097167968752,-0.14,-0.011,-0.56,0.0006726825570616621,10,1,100,0.010840559595975498,-10,-1,-100,563.9561945867026,-0.0009425683422028061,5.947086287592256e-05,0.9999995540139689,14.884605817514348,-1.0294676022048348,-517.2495587971496,31.96833933303527,-89.99371337890625,6195.6171875,True
1599304770.8789742,0.29369046450206565,5,0.5,0.5,-0.001071051025390625,-0.14,-0.011,-0.56,7.45486010499595e-05,10,1,100,-0.0024272640555869553,-10,-1,-100,565.2156331186416,-0.0008227258391899241,5.4063441026580606e-05,0.9999996600996113,14.905254839296411,-1.0302057443775618,-517.5243331009668,31.97113050219915,-89.99359130859375,6194.6875,True
1599304770.9108882,0.2934434160955456,5,0.5,0.5,-0.002145782470703125,-0.14,-0.011,-0.56,-0.00047499657654849795,10,1,100,-0.017733302682278247,-10,-1,-100,567.7942638046807,-0.0005755153268487171,4.418681313782032e-05,0.9999998334148033,14.943468258231388,-1.0315364997850003,-518.0382531216354,31.975961223736594,-89.991943359375,6192.83203125,True
1599304770.943087,0.2934434160955456,5,0.5,0.5,-0.001217828369140625,-0.14,-0.011,-0.56,0.0005084819102862338,10,1,100,0.006883521234017924,-10,-1,-100,567.7942638046807,-0.0005755153268487171,4.418681313782032e-05,0.9999998334148033,14.943468258231388,-1.0315364997850003,-518.0382531216354,31.975961223736594,-89.991943359375,6192.83203125,True
1599304770.9769964,0.2933800289512795,5,0.5,0.5,-0.0017051330566406253,-0.14,-0.011,-0.56,0.0002336384321538039,10,1,100,0.0003665747878726054,-10,-1,-100,568.4562403630698,-0.0005171625111637363,4.1724209259792114e-05,0.9999998654010047,14.952417735481008,-1.0318422199571116,-518.1633741244323,31.977200670092383,-89.99124145507812,6192.3681640625,True
1599304771.0128977,0.2932073460133354,5,0.5,0.5,-0.003103244018554688,-0.14,-0.011,-0.56,-0.00032324268323926557,10,1,100,-0.013019674976821733,-10,-1,-100,570.372833614354,-0.00034336651724713174,3.4461134793803385e-05,0.9999999404559308,14.977853250982326,-1.032694521767683,-518.5249139888554,31.980571417337313,-89.98867797851562,6190.9775390625,True
1599304771.0438173,0.2932073460133354,5,0.5,0.5,-0.0016708190917968753,-0.14,-0.011,-0.56,0.00039910282971438116,10,1,100,0.004262758102474229,-10,-1,-100,570.372833614354,-0.00034336651724713174,3.4461134793803385e-05,0.9999999404559308,14.977853250982326,-1.032694521767683,-518.5249139888554,31.980571417337313,-89.98867797851562,6190.9775390625,True
1599304771.0767243,0.29299700911812776,5,0.5,0.5,-0.004664663696289062,-0.14,-0.011,-0.56,-0.0006062839478562197,10,1,100,-0.019988010637976346,-10,-1,-100,572.8967162773479,-0.00012378831335544004,2.535727257629998e-05,0.9999999920167312,15.008049883288493,-1.0336468959815621,-518.9624629048274,31.9846671359987,-89.98440551757812,6189.12451171875,True
1599304771.110641,0.2929475568475443,5,0.5,0.5,-0.0030709838867187503,-0.14,-0.011,-0.56,5.339117056662405e-05,10,1,100,-0.004238376317758551,-10,-1,-100,573.5539323424455,-6.83760448829391e-05,2.3120046161105133e-05,0.9999999973950898,15.014882048615139,-1.0338485737076288,-519.0616099189274,31.985626639019983,-89.9832763671875,6188.6611328125,True
1599304771.1465454,0.2929475568475443,5,0.5,0.5,-0.0024500061035156256,-0.14,-0.011,-0.56,0.0002732507206749384,10,1,100,0.0012092557569483259,-10,-1,-100,573.5539323424455,-6.83760448829391e-05,2.3120046161105133e-05,0.9999999973950898,15.014882048615139,-1.0338485737076288,-519.0616099189274,31.985626639019983,-89.9832763671875,6188.6611328125,True
1599304771.1764307,0.2928461678180031,5,0.5,0.5,-0.004042297363281251,-0.14,-0.011,-0.56,-0.00020312294279645223,10,1,100,-0.009972073309842594,-10,-1,-100,574.8134326932486,3.2477680908505734e-05,1.882242269019687e-05,0.9999999992954582,15.027928555165381,-1.0342232404509972,-519.2571379098669,31.987598375412563,-89.98101806640625,6187.7353515625,True
1599304771.210368,0.2927568841900478,5,0.5,0.5,-0.00426561279296875,-0.14,-0.011,-0.56,-0.00029093419879069275,10,1,100,-0.010899771089098271,-10,-1,-100,576.1325632323278,0.00013171009687295147,1.4154161244137832e-05,0.9999999912260551,15.039992108353891,-1.0345474801252474,-519.4377367733605,31.989324138785985,-89.97891235351562,6186.810546875,True
1599304771.2432833,0.29261901643572646,5,0.5,0.5,-0.005281515502929688,-0.14,-0.011,-0.56,-0.0004832216986245182,10,1,100,-0.01651126700018402,-10,-1,-100,578.0540407315129,0.00027206731427226085,8.19850018539706e-06,0.99999996295608,15.056254843054775,-1.034937658518907,-519.6873870788904,31.991995238900067,-89.97579956054688,6185.4228515625,True
1599304771.2781847,0.2925325480478095,5,0.5,0.5,-0.004773760986328125,-0.14,-0.011,-0.56,-0.0003082898446118555,10,1,100,-0.011935483954455215,-10,-1,-100,579.3136017465731,0.0003572962272730794,4.407269089340949e-06,0.999999936159989,15.06602159905154,-1.0351427764533636,-519.8409615263649,31.99366749015423,-89.97406005859375,6184.498046875,True
1599304771.310104,0.2925325480478095,5,0.5,0.5,-0.0038193115234375005,-0.14,-0.011,-0.56,6.685531058890767e-05,10,1,100,-0.0035058738097855416,-10,-1,-100,579.3136017465731,0.0003572962272730794,4.407269089340949e-06,0.999999936159989,15.06602159905154,-1.0351427764533636,-519.8409615263649,31.99366749015423,-89.97406005859375,6184.498046875,True
1599304771.343982,0.292450142820069,5,0.5,0.5,-0.004714065551757813,-0.14,-0.011,-0.56,-0.0003018585671413689,10,1,100,-0.012192918526533581,-10,-1,-100,580.5731018381193,0.0004354743985722099,1.089249237402481e-06,0.9999999051804264,15.074788157401377,-1.0352941516910856,-519.9779954641597,31.995257444715154,-89.97280883789062,6183.57421875,True
1599304771.3769267,0.29233265613343523,5,0.5,0.5,-0.004607620239257813,-0.14,-0.011,-0.56,-0.0005440949215321346,10,1,100,-0.016428417191509684,-10,-1,-100,582.4946395115694,0.0005443419595113665,-4.098943044679086e-06,0.9999998518375038,15.086027874326962,-1.0354112699334608,-520.1480758842958,31.99751918449941,-89.97198486328125,6182.18798828125,True
1599304771.41283,0.29233265613343523,5,0.5,0.5,-0.004164556884765625,-0.14,-0.011,-0.56,-2.9131701107826136e-05,10,1,100,-0.005630431945269878,-10,-1,-100,582.4946395115694,0.0005443419595113665,-4.098943044679086e-06,0.9999998518375038,15.086027874326962,-1.0354112699334608,-520.1480758842958,31.99751918449941,-89.97198486328125,6182.18798828125,True
1599304771.4437459,0.29229263139498285,5,0.5,0.5,-0.004220944213867188,-0.14,-0.011,-0.56,-0.0002327030857674443,10,1,100,-0.009191497495531897,-10,-1,-100,583.1565550640225,0.000576107891538415,-5.922813618292907e-06,0.999999834032295,15.089332461868564,-1.0354250314720312,-520.1976607694571,31.998289116304328,-89.971923828125,6181.7265625,True
1599304771.4766262,0.2922156291476644,5,0.5,0.5,-0.004028353881835938,-0.14,-0.011,-0.56,-0.0003399328792803441,10,1,100,-0.012497599994820714,-10,-1,-100,584.4161168361316,0.0006344555943416108,-8.529291480986926e-06,0.9999997986966549,15.095392581455087,-1.0354219572444976,-520.2877759910458,31.999771052067995,-89.97216796875,6180.802734375,True
1599304771.5095398,0.2921428130367795,5,0.5,0.5,-0.003707321166992188,-0.14,-0.011,-0.56,-0.00037305338732194387,10,1,100,-0.012845500666243702,-10,-1,-100,585.7350650286535,0.0006900227560490663,-1.1171140213230493e-05,0.9999997618718725,15.100667966133502,-1.0353739605479149,-520.3625677990618,32.00116565888064,-89.97283935546875,6179.87939453125,True
1599304771.546476,0.2920298049330184,5,0.5,0.5,-0.002853280639648438,-0.14,-0.011,-0.56,-0.0005440607969706036,10,1,100,-0.014925799310244096,-10,-1,-100,587.6565420894185,0.0007588523952057199,-1.5100166818527527e-05,0.9999997119574722,15.107255623239679,-1.0352224140184345,-520.4520997326509,32.00333695691014,-89.974609375,6178.4951171875,True
1599304771.5783818,0.2920298049330184,5,0.5,0.5,-0.0038492248535156254,-0.14,-0.011,-0.56,-0.00015408356924716675,10,1,100,-0.008105549624412015,-10,-1,-100,587.6565420894185,0.0007588523952057199,-1.5100166818527527e-05,0.9999997119574722,15.107255623239679,-1.0352224140184345,-520.4520997326509,32.00333695691014,-89.974609375,6178.4951171875,True
1599304771.6103044,0.2919586005419511,5,0.5,0.5,-0.002739694213867188,-0.14,-0.011,-0.56,-0.00036834123578128843,10,1,100,-0.01230819715288129,-10,-1,-100,588.9161644111155,0.0007966157499364101,-1.702678318065234e-05,0.9999996825566674,15.110894300435342,-1.0350764731854154,-520.4970201401296,32.00470239329692,-89.9761962890625,6177.572265625,True
1599304771.644212,0.29189006409085727,5,0.5,0.5,-0.002429727172851563,-0.14,-0.011,-0.56,-0.00037434032160771704,10,1,100,-0.011894819759019268,-10,-1,-100,590.175664426526,0.0008267887147267799,-1.8813304242578797e-05,0.9999996580331819,15.113825509922934,-1.0348854909821337,-520.5249587382795,32.00601395574432,-89.9779052734375,6176.650390625,True
1599304771.6790864,0.29185630255640427,5,0.5,0.5,-0.002741659545898438,-0.14,-0.011,-0.56,-0.00028844068225730636,10,1,100,-0.010478201570083279,-10,-1,-100,590.8376411979552,0.0008409135241936491,-1.963539887447919e-05,0.9999996462393853,15.115046316939454,-1.034773760860264,-520.5328680129854,32.006658292064586,-89.97882080078125,6176.18896484375,True
1599304771.7100368,0.2917522096850933,5,0.5,0.5,-0.0011328735351562502,-0.14,-0.011,-0.56,-0.0004300690495636125,10,1,100,-0.012311692300643029,-10,-1,-100,592.7542962922016,0.0008700537765998721,-2.1651447653435164e-05,0.9999996212687488,15.11800013394058,-1.0343912741846764,-520.541157166308,32.00865047869119,-89.98184204101562,6174.8056640625,True
1599304771.7439435,0.2917195482095733,5,0.5,0.5,-0.0021089691162109376,-0.14,-0.011,-0.56,-0.00029458888371593586,10,1,100,-0.010134540550790237,-10,-1,-100,593.4163949523354,0.0008764565248640598,-2.2236624576953757e-05,0.9999996156646723,15.118724969060233,-1.034245934891374,-520.5363611056398,32.009272025866956,-89.98284912109375,6174.3447265625,True
1599304771.7778537,0.29161874303586793,5,0.5,0.5,-0.0005888397216796877,-0.14,-0.011,-0.56,-0.00036560516830007865,10,1,100,-0.010575406398163997,-10,-1,-100,595.33774995571,0.0008859831541118532,-2.339771738406989e-05,0.9999996072431215,15.120316021090405,-1.033765398825687,-520.506549733851,32.01119833825457,-89.98580932617188,6172.9619140625,True
1599304771.8137586,0.29161874303586793,5,0.5,0.5,-0.0022312805175781253,-0.14,-0.011,-0.56,-0.00025124337796504306,10,1,100,-0.009653730999642006,-10,-1,-100,595.33774995571,0.0008859831541118532,-2.339771738406989e-05,0.9999996072431215,15.120316021090405,-1.033765398825687,-520.506549733851,32.01119833825457,-89.98580932617188,6172.9619140625,True
1599304771.8446748,0.2915873192002012,5,0.5,0.5,-0.0015967681884765624,-0.14,-0.011,-0.56,-0.0002982524432629057,10,1,100,-0.009697910178759712,-10,-1,-100,595.9353954201797,0.0008861561215949503,-2.3811555772320384e-05,0.999999607080092,15.120669143521829,-1.0335921558997159,-520.4904115210809,32.01179838683375,-89.9866943359375,6172.501953125,True
1599304771.877588,0.2915237227930606,5,0.5,0.5,-0.0009449310302734375,-0.14,-0.011,-0.56,-0.0002903712585690959,10,1,100,-0.009195000011048426,-10,-1,-100,597.2544657995459,0.0008815631510862579,-2.4104634068459753e-05,0.9999996111326129,15.121065755492873,-1.0332211400528324,-520.4474464020161,32.01300819790444,-89.98831176757812,6171.5810546875,True
1599304771.9095044,0.2914319251435294,5,0.5,0.5,-0.0004470703125,-0.14,-0.011,-0.56,-0.00028703098317613455,10,1,100,-0.007624932589462053,-10,-1,-100,599.1760034745093,0.0008630028279222246,-2.4332516863877775e-05,0.9999996273169544,15.121192667094498,-1.0326242971395745,-520.3625440919964,32.01475295585524,-89.99029541015625,6170.19921875,True
1599304771.9464135,0.29140068674121455,5,0.5,0.5,-0.0011347717285156251,-0.14,-0.011,-0.56,-0.00025433397717588473,10,1,100,-0.008479793445434387,-10,-1,-100,599.7783487503184,0.0008538065869794732,-2.4234044486941568e-05,0.999999635213445,15.121128727409081,-1.032414685409038,-520.3293099154629,32.015349289895646,-89.99087524414062,6169.73876953125,True
1599304771.9783688,0.2913373867363253,5,0.5,0.5,-0.0009092742919921877,-0.14,-0.011,-0.56,-0.00022683538231810352,10,1,100,-0.006929845471684744,-10,-1,-100,601.097419571015,0.0008313039401455724,-2.388798486255947e-05,0.9999996541815018,15.120889862100684,-1.0319821257684214,-520.2559337445323,32.01655294197117,-89.99163818359375,6168.818359375,True
1599304772.0122685,0.2913086907171859,5,0.5,0.5,-0.0011718780517578126,-0.14,-0.011,-0.56,-0.0002576546611694056,10,1,100,-0.007725092670267544,-10,-1,-100,601.6998253701022,0.0008180724037151255,-2.384894712029669e-05,0.9999996650943289,15.120760693007584,-1.03176246227409,-520.2159964749108,32.01709813465835,-89.99185180664062,6168.3583984375,True
1599304772.0448139,0.2912493948269001,5,0.5,0.5,-0.0012344482421875,-0.14,-0.011,-0.56,-0.00017782879347636121,10,1,100,-0.005607650633604464,-10,-1,-100,603.0188960082596,0.0007868150258273081,-2.308393805898847e-05,0.9999996901945756,15.120308614158281,-1.0313024893356788,-520.1253352878431,32.01822139157576,-89.99191284179688,6167.4384765625,True
1599304772.0806777,0.29121907705173977,5,0.5,0.5,-0.001321636962890625,-0.14,-0.011,-0.56,-0.0001834138093904124,10,1,100,-0.006827135160203598,-10,-1,-100,603.616541619529,0.0007695611223081686,-2.243794588392187e-05,0.9999997036360648,15.120084299696568,-1.03106930245873,-520.0776863929573,32.018799509545474,-89.9918212890625,6166.9775390625,True
1599304772.1115925,0.2911596893520122,5,0.5,0.5,-0.0016663818359375002,-0.14,-0.011,-0.56,-0.00016837508915395474,10,1,100,-0.004235640181043793,-10,-1,-100,604.9403726377059,0.0007304138878461852,-2.1713781612341737e-05,0.9999997330119964,15.11964738107528,-1.030596618085888,-519.9761980107376,32.0199242003776,-89.99124145507812,6166.0576171875,True
1599304772.1445673,0.2911008065468559,5,0.5,0.5,-0.0019979309082031253,-0.14,-0.011,-0.56,-0.00010974467576196163,10,1,100,-0.0034014855983581713,-10,-1,-100,606.1998727503233,0.0006873836960074816,-2.0523977548952342e-05,0.9999997635411825,15.119242072648513,-1.0301151522857352,-519.8666784284956,32.021042048649804,-89.99029541015625,6165.1376953125,True
1599304772.1784558,0.29107094283810175,5,0.5,0.5,-0.0018904571533203127,-0.14,-0.011,-0.56,-0.00015942249713534384,10,1,100,-0.005044356302812893,-10,-1,-100,606.8570883873617,0.0006633810729747071,-1.9896566540024655e-05,0.9999997797648151,15.119043425669242,-1.0298704325600074,-519.8084395071484,32.021607942733475,-89.98968505859375,6164.677734375,True
1599304772.2143614,0.2910106907516107,5,0.5,0.5,-0.0025707611083984378,-0.14,-0.011,-0.56,-4.129720160799837e-05,10,1,100,-0.0018242614721731493,-10,-1,-100,608.1212273881538,0.0006124894399832965,-1.825588565368934e-05,0.9999998122616867,15.118760159798649,-1.029379319077741,-519.6880207082213,32.02275290838086,-89.98822021484375,6163.75830078125,True
1599304772.2448757,0.29092350594919625,5,0.5,0.5,-0.0035877075195312504,-0.14,-0.011,-0.56,0.00011252072734805897,10,1,100,0.0023512221761934817,-10,-1,-100,610.0380653098691,0.0005285099892887746,-1.5371329810524688e-05,0.999999860220447,15.11862516265713,-1.0286399752017743,-519.494065495863,32.02440543210852,-89.985595703125,6162.3798828125,True
1599304772.2777374,0.29089425056804535,5,0.5,0.5,-0.002806744384765625,-0.14,-0.011,-0.56,-8.287611443270153e-05,10,1,100,-0.0026493694134138383,-10,-1,-100,610.7000420354307,0.000497929042052579,-1.4533487775703148e-05,0.9999998759277156,15.11868143807518,-1.0283938526257808,-519.4265889295448,32.02495887459533,-89.984619140625,6161.919921875,True
1599304772.3116472,0.2908642594087751,5,0.5,0.5,-0.0029503448486328126,-0.14,-0.011,-0.56,-4.544351022778604e-05,10,1,100,-0.002303714502402333,-10,-1,-100,611.2976874009473,0.0004673093885967756,-1.3440335484649096e-05,0.9999998907206404,15.118773322995912,-1.0281458203728082,-519.3572719296512,32.025530448223165,-89.983642578125,6161.46044921875,True
1599304772.346628,0.2908082565738569,5,0.5,0.5,-0.0037367279052734383,-0.14,-0.011,-0.56,7.714652403172396e-05,10,1,100,0.0015521633648397804,-10,-1,-100,612.6214574477635,0.0004047508089816158,-1.134160368076615e-05,0.9999999180240718,15.119246286016732,-1.0276595850789292,-519.2166301265802,32.02658726038046,-89.98175048828125,6160.54150390625,True
1599304772.378543,0.2907805337025075,5,0.5,0.5,-0.0033291381835937497,-0.14,-0.011,-0.56,1.3160376935478696e-05,10,1,100,-0.0009136517496171528,-10,-1,-100,613.2190422068816,0.00037067162091265494,-1.0026728235783456e-05,0.9999999312510048,15.119563774004217,-1.0274172224978593,-519.1436656495913,32.02711321305098,-89.9808349609375,6160.08251953125,True
1599304772.411452,0.2907240296639313,5,0.5,0.5,-0.004046279907226563,-0.14,-0.011,-0.56,0.0001363700651011455,10,1,100,0.0033219786766292385,-10,-1,-100,614.5429951086408,0.00030156312188855483,-7.723169038677858e-06,0.999999954500017,15.120402757501886,-1.0269351833485394,-518.9939134753298,32.02817984241742,-89.97909545898438,6159.16357421875,True
1599304772.4449239,0.2906680006849192,5,0.5,0.5,-0.0041969970703125,-0.14,-0.011,-0.56,0.0002086309436903098,10,1,100,0.004215486135013388,-10,-1,-100,615.8024346556049,0.00023103987133626212,-4.985484305812407e-06,0.999999973297861,15.121652660228898,-1.0264665813143443,-518.8427215352472,32.02924014184143,-89.97750854492188,6158.2451171875,True
1599304772.480846,0.29063952238732416,5,0.5,0.5,-0.003836126708984375,-0.14,-0.011,-0.56,8.750750287968443e-05,10,1,100,0.0012778953900496638,-10,-1,-100,616.4597114491044,0.00019408717216703889,-3.6130097354008908e-06,0.9999999811585577,15.122378249844358,-1.0262331108411216,-518.764739019428,32.02977847298623,-89.97677612304688,6157.7861328125,True
1599304772.5117652,0.29058183533671916,5,0.5,0.5,-0.004316696166992188,-0.14,-0.011,-0.56,0.00021234198488389154,10,1,100,0.005898702539766725,-10,-1,-100,617.7239722607192,0.0001189349229465358,-1.2458202602735849e-06,0.999999992926466,15.12415642553976,-1.025778197306145,-518.6080022210517,32.03087185390693,-89.97552490234375,6156.86767578125,True
1599304772.545722,0.29052627552695376,5,0.5,0.5,-0.004293820190429688,-0.14,-0.011,-0.56,0.00031140190057910955,10,1,100,0.006838154698163713,-10,-1,-100,618.9834722254891,4.256917326067688e-05,1.789759635907992e-06,0.9999999990923311,15.126389966195552,-1.02533813635407,-518.4494178466767,32.031923037592485,-89.97457885742188,6155.9501953125,True
1599304772.5786283,0.2904980137827087,5,0.5,0.5,-0.004014025878906251,-0.14,-0.011,-0.56,0.00017394132243232858,10,1,100,0.003617863642864797,-10,-1,-100,619.6406271230662,2.939247018724955e-06,3.2815127899299646e-06,0.9999999999902964,15.127647011174771,-1.0251223549576054,-518.3686813257397,32.032456825103665,-89.9742431640625,6155.49072265625,True
