Timestamp,Input Throttle,horizon,dT,dt,Input Roll,Roll P,Roll I,Roll D,Input Pitch,Pitch P,Pitch I,Pitch D,Input Yaw,Yaw P,Yaw I,Yaw D,Altitude,Direction X,Direction Y,Direction Z,Drag X,Drag Y,Drag Z,Vertical Velocity,Roll,Mass,Has Fuel
1598624445.7881112,0,5,0.5,0.5,-0.0094805908203125,-0.14,-0.011,-0.56,0.00434624919360326,10,1,100,0.12652611588839063,-10,-1,-100,478.4743521711789,-0.011741574137184817,0.00041510530546814864,0.9999309791802463,5.398777116602539,-0.442112704359525,112.66957119032563,-14.239950333605128,-89.92227172851562,6440.1796875,True
1598624445.8358653,0,5,0.5,0.5,-0.009408010864257813,-0.14,-0.011,-0.56,0.00429513136461033,10,1,100,0.1234176263739532,-10,-1,-100,477.5985293928534,-0.011785462569806513,0.0004160377398261671,0.9999304624745736,5.585851892091471,-0.457900655296244,121.47291337317853,-14.823334074770106,-89.92449951171875,6440.1796875,True
1598624445.8848877,0,5,0.5,0.5,-0.00873056335449219,-0.14,-0.011,-0.56,0.00407717519742132,10,1,100,0.11747392293074621,-10,-1,-100,477.00850689888466,-0.011760613420369985,0.0004145257715955327,0.9999307556727921,6.03114799288033,-0.49163294350414966,127.54810320513849,-14.566540593405348,-89.9273681640625,6438.60107421875,True
1598624445.9299183,0,5,0.5,0.5,-0.0068066741943359375,-0.14,-0.011,-0.56,0.004094912629262758,10,1,100,0.11760921338822175,-10,-1,-100,476.4786800586153,-0.011728561731022583,0.00041293566279206403,0.9999311327905838,5.8727366604819435,-0.4731569761739772,114.05265439985193,-13.663678269989623,-89.93252563476562,6435.443359375,True
1598624445.9809973,0,5,0.5,0.5,-0.00451395263671875,-0.14,-0.011,-0.56,0.004047018988159647,10,1,100,0.1148586842464683,-10,-1,-100,475.94518573000096,-0.011663756692389893,0.00041067931653998054,0.9999318917417924,5.709326387292344,-0.45480633548047417,101.42015704819038,-12.760274066830855,-89.94003295898438,6432.28515625,True
1598624446.0271547,0,5,0.5,0.5,-0.0020976165771484376,-0.14,-0.011,-0.56,0.00389884083087048,10,1,100,0.11105002640747458,-10,-1,-100,475.4754209127277,-0.011559615443558059,0.0004069076736840577,0.9999331026208413,5.527978623792459,-0.4355590011483095,89.41324414643543,-11.856327135487792,-89.9495849609375,6429.126953125,True
1598624446.0778763,0,5,0.5,0.5,0.0002523223876953135,-0.14,-0.011,-0.56,0.0037608873248699687,10,1,100,0.107105957423522,-10,-1,-100,475.0120623980183,-0.011418577667089952,0.0004018548686025922,0.9999347251679608,5.3349224819068946,-0.41592701701586837,78.15346885798989,-10.951825228337254,-89.96066284179688,6425.9697265625,True
1598624446.1248932,0,5,0.5,0.5,0.0024221862792968753,-0.14,-0.011,-0.56,0.003650242758073136,10,1,100,0.1028156240615993,-10,-1,-100,474.61214866896626,-0.011240977950949567,0.00039589022713165,0.9999367398418934,5.129242636263253,-0.39584642350947014,67.62713848231114,-10.046767918135046,-89.97268676757812,6422.8115234375,True
1598624446.2132854,0,5,0.5,0.5,0.004353201293945313,-0.14,-0.011,-0.56,0.003465503786029043,10,1,100,0.0982786660625831,-10,-1,-100,474.21870487194974,-0.011028059519966387,0.0003884284803875457,0.9999391136596967,4.911367286558549,-0.37535596895787376,57.83974774568174,-9.141147491483592,-89.985107421875,6419.65380859375,True
1598624446.2659628,0,5,0.5,0.5,0.01409191589355469,-0.14,-0.011,-0.56,0.002212452662218035,10,1,100,0.06249986470547109,-10,-1,-100,473.5649005577434,-0.010499209970807964,0.0003699005836033621,0.999944813358991,4.442458251738979,-0.33339065402661583,40.50229898294921,-7.328188487520686,-90.00897979736328,6413.337890625,True
1598624446.3148475,0,5,0.5,0.5,0.008386309051513673,-0.14,-0.011,-0.56,0.00286688848963033,10,1,100,0.08194841659227332,-10,-1,-100,473.30451055953745,-0.010185697934206865,0.0003586701844273039,0.9999480601077697,4.194876903755458,-0.3121587034402477,32.96449471729133,-6.420837563266352,-90.01991271972656,6410.1806640625,True
1598624446.3616548,0,5,0.5,0.5,0.005671753692626954,-0.14,-0.011,-0.56,0.003342259121627843,10,1,100,0.09539088789325989,-10,-1,-100,473.17764192982577,-0.010024305709308451,0.00035283358648635643,0.9999496931363631,4.0692225705485585,-0.3015794796139047,29.48188357616879,-5.966940967240035,-90.02462768554688,6408.6015625,True
1598624446.5126927,0,5,0.5,0.5,0.010249820709228518,-0.14,-0.011,-0.56,0.0018509112260655996,10,1,100,0.052059235843749926,-10,-1,-100,472.91742657346185,-0.00948526244700571,0.00033402733853796543,0.9999549580966377,3.6969925713110943,-0.27084688379001803,20.205112693432255,-4.604366573727029,-90.03478240966797,6403.86474609375,True
1598624446.5573404,0,5,0.5,0.5,0.007757502746582033,-0.14,-0.011,-0.56,0.0021579450603011413,10,1,100,0.061905805868633736,-10,-1,-100,472.7604896805715,-0.009086805891477947,0.0003197951465625309,0.9999586629905031,3.4785149991994513,-0.25302069279089506,15.042335029695584,-3.6952310439105807,-90.03917694091797,6400.70703125,True
1598624446.600349,0,5,0.5,0.5,0.00706946029663086,-0.14,-0.011,-0.56,0.001990722275266956,10,1,100,0.05673493157683155,-10,-1,-100,472.6397469238145,-0.008679966307290456,0.00030542125628112463,0.9999622817400465,3.3629151706999885,-0.24296897619158572,10.815928418293,-2.785482955303941,-90.04154205322266,6397.548828125,True
1598624446.6831558,0,5,0.5,0.5,0.006038236999511719,-0.14,-0.011,-0.56,0.0016827991768477062,10,1,100,0.04885182201582091,-10,-1,-100,472.5556550907204,-0.008241160044188185,0.00028965047154899746,0.9999659991138351,3.700089233738207,-0.26564405457245704,7.910189968895641,-1.8751220936747812,-90.04180145263672,6394.3916015625,True
1598624446.8479524,0,5,0.5,0.5,0.004878231048583985,-0.14,-0.011,-0.56,0.001484256510324523,10,1,100,0.04222056743555553,-10,-1,-100,472.5079101616284,-0.007784977904637681,0.0002736150586442484,0.9999696591666289,7.116372783982834,-0.5078999193321516,7.729831021399959,-0.9641391948411173,-90.04020690917969,6391.2333984375,True
1598624446.893521,0,5,0.5,0.5,0.00028845291137695375,-0.14,-0.011,-0.56,-0.000685634453488365,10,1,100,-0.01857808656036089,-10,-1,-100,472.5219182119472,-0.006820855104867484,0.00023942771070523062,0.9999767090337703,0.7054060975336042,-0.04981050606098818,-0.6686884353846726,0.8597575776089069,-90.0322494506836,6384.91796875,True
1598624446.9770954,0,5,0.5,0.5,0.0005643905639648433,-0.14,-0.011,-0.56,0.0007535157633117916,10,1,100,0.021832573861865136,-10,-1,-100,472.583579341881,-0.006315767766047617,0.0002215737259283308,0.9999800307919199,1.0741983954457495,-0.07549680893910736,-2.0795657958091534,1.7726990995239573,-90.02618408203125,6381.759765625,True
1598624447.063961,0,5,0.5,0.5,-0.003107466125488282,-0.14,-0.011,-0.56,-0.00039611703366928186,10,1,100,-0.010152605014721261,-10,-1,-100,472.7447518816916,-0.005570107006200514,0.00019504330957173866,0.999984467812399,2.1512883023065292,-0.15025164927986243,-7.290623909713709,3.1432947584738122,-90.01602172851562,6377.02294921875,True
1598624447.1121073,0,5,0.5,0.5,-0.009745532989501954,-0.14,-0.011,-0.56,-0.0027501125694679705,10,1,100,-0.0769375346976637,-10,-1,-100,473.1636344391154,-0.004289578866462406,0.00014968375098942284,0.9999907885115358,3.4001029591834864,-0.23544698555800395,-19.561107972368752,5.4307274934054215,-89.99839782714844,6369.12841796875,True
1598624447.2980247,0,5,0.5,0.5,-0.011104343414306642,-0.14,-0.011,-0.56,-0.004795863934554707,10,1,100,-0.13429927092846242,-10,-1,-100,474.17873279796913,-0.0026093521546639046,9.004003662601803e-05,0.9999965915812539,4.975627793907333,-0.34168324208254214,-44.76764764683328,8.639595933162537,-89.98239135742188,6358.07666015625,True
1598624447.349527,0,5,0.5,0.5,-0.0011831520080566407,-0.14,-0.011,-0.56,-0.0013382278821302196,10,1,100,-0.037365079299001125,-10,-1,-100,474.74955010286067,-0.0019698341165282286,6.749043636301838e-05,0.9999980575974107,5.638347771939224,-0.38624868258020656,-58.530521780381946,10.017101866764795,-89.98382568359375,6353.33935546875,True
1598624447.398149,0,5,0.5,0.5,0.0007987594604492187,-0.14,-0.011,-0.56,-0.0005547558589535672,10,1,100,-0.014673810580673657,-10,-1,-100,475.17471259168815,-0.0016015705505082979,5.43555789729655e-05,0.9999987160077971,6.077384998994306,-0.4157813987801023,-68.69901289139538,10.936186544500051,-89.98788452148438,6350.181640625,True
1598624447.447394,0,5,0.5,0.5,0.002271878814697266,-0.14,-0.011,-0.56,-0.0007454687129719089,10,1,100,-0.020192113800606024,-10,-1,-100,475.66329078096896,-0.0012234238569825845,4.0922355006923014e-05,0.9999992507794329,6.51411161669728,-0.445179009811889,-79.66198930803806,11.85586813003627,-89.99331665039062,6347.02392578125,True
1598624447.4969227,0,5,0.5,0.5,0.003086140441894531,-0.14,-0.011,-0.56,-0.0008312845693078533,10,1,100,-0.02186669076496507,-10,-1,-100,476.1645343916025,-0.0008712093836016789,2.8170642617715988e-05,0.9999996201002402,6.94878086468376,-0.4744717345155098,-91.42479618967529,12.77614620593159,-89.9989013671875,6343.8662109375,True
1598624447.5929413,0,5,0.5,0.5,0.003505716705322266,-0.14,-0.011,-0.56,-0.0009083516988374588,10,1,100,-0.024174657404149025,-10,-1,-100,476.72287609043997,-0.0005367328480451711,1.611527547628708e-05,0.9999998558290635,7.381222044050292,-0.5036605092827817,-103.99090583548329,13.697013688692772,-90.00403594970703,6340.70849609375,True
1598624447.6449094,0,5,0.5,0.5,0.0061020370483398445,-0.14,-0.011,-0.56,-0.002243135842916082,10,1,100,-0.062206138846384956,-10,-1,-100,477.91576277976856,0.00010648815642962391,-6.74445979557399e-06,0.9999999943073924,8.23797608784349,-0.5616883514964642,-131.53979204832174,15.540505763511533,-90.01190948486328,6334.392578125,True
1598624447.7045631,0,5,0.5,0.5,0.0034221923828125,-0.14,-0.011,-0.56,-0.0011763569152579646,10,1,100,-0.03240812830905985,-10,-1,-100,478.5502467523329,0.0004140459344662119,-1.76042541817368e-05,0.9999999141280234,8.661455918311248,-0.5904971602259714,-146.52396267833063,16.463122170099453,-90.01441192626953,6331.234375,True
1598624447.795139,0,5,0.5,0.5,0.0027929405212402344,-0.14,-0.011,-0.56,-0.0012027849020974576,10,1,100,-0.033334103005401725,-10,-1,-100,479.24808519287035,0.0006959438538293874,-2.7499614431234687e-05,0.9999997574529323,9.08107434400072,-0.6191484805177835,-162.31411089081135,17.386313690070793,-90.01553344726562,6328.0771484375,True
1598624447.89318,0,5,0.5,0.5,0.0007117149353027346,-0.14,-0.011,-0.56,-0.002340002460174985,10,1,100,-0.06476349587108858,-10,-1,-100,480.7202701988863,0.0012322400330657638,-4.663142616420758e-05,0.9999992397047165,9.907281843692665,-0.6758995696677872,-196.3053283993507,19.234413153372817,-90.01345825195312,6321.7607421875,True
1598624447.989983,0,5,0.5,0.5,-0.0025743309020996095,-0.14,-0.011,-0.56,-0.0022743555961104132,10,1,100,-0.06395089036976026,-10,-1,-100,482.3320123022422,0.0017073748560871866,-6.324872426891081e-05,0.9999985404342846,10.714941959977907,-0.7318831028955106,-233.51681648269033,21.08477838547755,-90.007080078125,6315.4453125,True
1598624448.0859125,0,5,0.5,0.5,-0.0055336235046386725,-0.14,-0.011,-0.56,-0.002122727947414432,10,1,100,-0.06001428201712039,-10,-1,-100,484.1340619198745,0.0020996039583456166,-7.683757232059125e-05,0.999997792877167,11.501916406777088,-0.7870000472701706,-273.9349378243957,22.9373793694026,-89.99771118164062,6309.1298828125,True
1598624448.1829157,0,5,0.5,0.5,-0.00723587875366211,-0.14,-0.011,-0.56,-0.001955857466813909,10,1,100,-0.055005458086375705,-10,-1,-100,486.02482534304727,0.002406941617323898,-8.754285889967452e-05,0.9999970994799429,12.266758922528604,-0.8411549516767794,-317.5208902292939,24.792189507785388,-89.98776245117188,6302.814453125,True
1598624448.2779722,0,5,0.5,0.5,-0.0070693870544433594,-0.14,-0.011,-0.56,-0.0017008702608051196,10,1,100,-0.048374668545789284,-10,-1,-100,488.1060482347384,0.002622415482237157,-9.482787351887701e-05,0.9999965569664293,13.010106351040347,-0.8943456348253264,-364.24985774085417,26.649184670917787,-89.98004150390625,6296.49853515625,True
1598624448.3738601,0,5,0.5,0.5,-0.005131475067138672,-0.14,-0.011,-0.56,-0.0014295533371619224,10,1,100,-0.04130637752324095,-10,-1,-100,490.32694933749735,0.0027505474052812984,-9.886068729546312e-05,0.9999962123505948,13.733471366596616,-0.9466017602208195,-414.09668654982283,28.508339235251363,-89.97665405273438,6290.1826171875,True
1598624448.4678934,0,5,0.5,0.5,-0.0021908592224121094,-0.14,-0.011,-0.56,-0.0011657254211183891,10,1,100,-0.0341292410726347,-10,-1,-100,492.74468838016037,0.0027984917705078404,-0.00010001296301022457,0.9999960792129226,14.439183391230266,-0.998004838851572,-467.0395663726978,30.369625983734075,-89.97817993164062,6283.8671875,True
1598624448.5599372,0,5,0.5,0.5,0.0005577987670898434,-0.14,-0.011,-0.56,-0.000901588231587841,10,1,100,-0.02701914951008237,-10,-1,-100,495.238384584547,0.0027744083386737183,-9.855366808383317e-05,0.9999961464653475,15.130222124747608,-1.048663244581248,-523.0620174753253,32.23302230045182,-89.98336791992188,6277.5517578125,True
1598624448.6512365,0,5,0.5,0.5,0.0019149528503417973,-0.14,-0.011,-0.56,-0.0006310130228485106,10,1,100,-0.020151857846224863,-10,-1,-100,497.9350833853241,0.0026876590035328626,-9.468379879103957e-05,0.9999963837554908,15.809924067130721,-1.0986980488656763,-582.1495531477509,34.09850251699143,-89.989501953125,6271.23583984375,True
1598624448.7428193,0,5,0.5,0.5,0.0012295928955078127,-0.14,-0.011,-0.56,-0.0003521015871250523,10,1,100,-0.013549875972768159,-10,-1,-100,500.76532606361434,0.0025467110335833268,-8.856010497773276e-05,0.9999967532047387,16.481994022512875,-1.1482477868574552,-644.2942232188619,35.96604085739324,-89.99346923828125,6264.919921875,True
1598624448.8338308,0,5,0.5,0.5,-0.0014436035156250003,-0.14,-0.011,-0.56,-0.00011457391547782536,10,1,100,-0.007381064427003679,-10,-1,-100,503.68416050623637,0.0023608138948679317,-8.07782585956186e-05,0.9999972100124214,17.15021076526992,-1.1974561770292824,-709.4909194738885,37.83561298346823,-89.99285888671875,6258.6044921875,True
1598624448.9280887,0,5,0.5,0.5,-0.005290115356445313,-0.14,-0.011,-0.56,0.00011146232605032595,10,1,100,-0.0016043021544546142,-10,-1,-100,506.85061435971875,0.0021382744991382155,-7.16179352957758e-05,0.9999977113238997,17.818338710621948,-1.2464688869975382,-777.7358246912113,39.707193283413595,-89.98690795898438,6252.2890625,True
1598624449.0179305,0,5,0.5,0.5,-0.009029345703125,-0.14,-0.011,-0.56,0.00029444400976139855,10,1,100,0.003686970407384825,-10,-1,-100,510.0994655370014,0.001887471752782614,-6.161929043397543e-05,0.9999982168251329,18.490103609658256,-1.295434032146487,-849.0296825374523,41.58075662589256,-89.97683715820312,6245.9736328125,True
1598624449.1094065,0,5,0.5,0.5,-0.01135943603515625,-0.14,-0.011,-0.56,0.0005073850326714564,10,1,100,0.00849328532941997,-10,-1,-100,513.5452463719994,0.001615968331536805,-5.060762060759878e-05,0.9999986930417559,19.168971941088717,-1.3444870362096784,-923.3710298486822,43.45627774947354,-89.96548461914062,6239.65771484375,True
1598624449.2001514,0,5,0.5,0.5,-0.011542022705078127,-0.14,-0.011,-0.56,0.0006863584186874508,10,1,100,0.012784670240032676,-10,-1,-100,517.0670158200664,0.001330853516022124,-3.900355838192194e-05,0.999999113653428,19.8582591061043,-1.3937597495312952,-1000.7634939227953,45.33373015426679,-89.9561767578125,6233.341796875,True
1598624449.2951622,0,5,0.5,0.5,-0.009602941894531251,-0.14,-0.011,-0.56,0.0008682169848809453,10,1,100,0.016536900856295493,-10,-1,-100,520.7918490726734,0.0010387211890120385,-2.6851900588763e-05,0.9999994601684877,20.560981150421934,-1.4433845450589953,-1081.2114747478347,47.21308850959454,-89.9515380859375,6227.0263671875,True
1598624449.3878798,0,5,0.5,0.5,-0.006392044067382813,-0.14,-0.011,-0.56,0.0009571489772421765,10,1,100,0.0197898140221726,-10,-1,-100,524.7135203798534,0.0007451306140551409,-1.5061928834158864e-05,0.9999997222767145,21.27991695257052,-1.4934607333215826,-1164.7250974368083,49.094325870733265,-89.95245361328125,6220.7109375,True
1598624449.4831183,0,5,0.5,0.5,-0.0033014465332031257,-0.14,-0.011,-0.56,0.0011318956009726893,10,1,100,0.0225053408048963,-10,-1,-100,528.7111808818299,0.00045541017621179375,-2.832395236219593e-06,0.9999998962967691,22.017518689535823,-1.5441095247920398,-1251.3175033613545,50.97741549696639,-89.9576416015625,6214.39501953125,True
1598624449.5729349,0,5,0.5,0.5,-0.001748934936523438,-0.14,-0.011,-0.56,0.0012744052966711223,10,1,100,0.024759345188135235,-10,-1,-100,532.8484286192106,0.00017364519119972594,9.49388592930403e-06,0.9999999848786068,22.77594394302334,-1.5954220934049594,-1341.0075637923278,52.86233118777704,-89.96405029296875,6208.0791015625,True
1598624449.665286,0,5,0.5,0.5,-0.0025246124267578125,-0.14,-0.011,-0.56,0.001287606538538096,10,1,100,0.026495612234722313,-10,-1,-100,537.188828631537,-9.600357395082443e-05,2.072490038337041e-05,0.9999999951768962,23.55409076305831,-1.6472795856941687,-1433.05539314455,54.72674760567592,-89.96810913085938,6201.81640625,True
1598624449.7569668,0,5,0.5,0.5,-0.005679949951171875,-0.14,-0.011,-0.56,0.0014357963537236142,10,1,100,0.027808326920919405,-10,-1,-100,541.6612036986044,-0.0003506701170462673,3.218274365660719e-05,0.9999999379973681,24.327932847962067,-1.6979456419759096,-1522.6206932379644,56.44961956014801,-89.96688842773438,6195.88916015625,True
1598624449.8541915,0,5,0.5,0.5,-0.01023732604980469,-0.14,-0.011,-0.56,0.0014485740984424922,10,1,100,0.028703521639314628,-10,-1,-100,546.2671459765406,-0.000587858304562159,4.261243430949204e-05,0.9999998263033821,25.048850333910632,-1.7440913784138925,-1605.2110838571912,57.99405772673655,-89.95944213867188,6190.38525390625,True
1598624449.9462454,0,5,0.5,0.5,-0.01464253845214844,-0.14,-0.011,-0.56,0.0015216643523197743,10,1,100,0.02924297318393776,-10,-1,-100,550.9494068735512,-0.0008059097319789069,5.265458232953968e-05,0.9999996738684462,25.716045041950856,-1.7857707362353539,-1680.5139181788227,59.370493204337365,-89.94723510742188,6185.2783203125,True
1598624450.0390897,0,5,0.5,0.5,-0.017324026489257814,-0.14,-0.011,-0.56,0.0015433427597935107,10,1,100,0.029417354113430307,-10,-1,-100,555.7648119641235,-0.0010032750549124631,6.187699889501376e-05,0.999999494805073,26.332832978254103,-1.8233211818050186,-1748.7700012814278,60.594779599928195,-89.93368530273438,6180.5302734375,True
1598624450.1297858,0,5,0.5,0.5,-0.01733337097167969,-0.14,-0.011,-0.56,0.0015554569947945473,10,1,100,0.0293052395234076,-10,-1,-100,560.7136038879398,-0.0011792977218641721,7.02688846186336e-05,0.99999930215934,26.903458254247205,-1.8571484765785282,-1810.4187395873855,61.68311965216845,-89.92288208007812,6176.1025390625,True
1598624450.2218337,0,5,0.5,0.5,-0.014695434570312502,-0.14,-0.011,-0.56,0.0015679370083186259,10,1,100,0.028921178086387236,-10,-1,-100,565.669009554782,-0.0013335449049038258,7.791198772396095e-05,0.9999991077934565,27.432011772669682,-1.8876291213996548,-1865.9553899914752,62.65045577481168,-89.91806030273438,6171.9599609375,True
1598624450.3139236,0,5,0.5,0.5,-0.010472616577148437,-0.14,-0.011,-0.56,0.001547465636300439,10,1,100,0.028299247541139473,-10,-1,-100,570.6941371867433,-0.001465959097170426,8.45789199938089e-05,0.9999989219045848,27.92231471087083,-1.9151206172726147,-1915.8829021783245,63.51002168378917,-89.9202880859375,6168.07080078125,True
1598624450.4075687,0,5,0.5,0.5,-0.006329531860351562,-0.14,-0.011,-0.56,0.0015454251126518666,10,1,100,0.027584336116668367,-10,-1,-100,575.8462355347583,-0.0015778263592710292,9.053063470702187e-05,0.9999987511333123,28.377681989733876,-1.9399253073189695,-1960.6853943304545,64.27375569001185,-89.92803955078125,6164.40673828125,True
1598624450.498872,0,5,0.5,0.5,-0.003931063842773437,-0.14,-0.011,-0.56,0.001510601628820276,10,1,100,0.026637183085775305,-10,-1,-100,581.011349686305,-0.0016690649913221108,9.553983183879807e-05,0.9999986025461213,28.80120224777142,-1.9623198910614579,-2000.8316288475207,64.95226634752316,-89.93771362304688,6160.943359375,True
1598624450.593892,0,5,0.5,0.5,-0.0043787353515624995,-0.14,-0.011,-0.56,0.0014672802920841206,10,1,100,0.025606153275604858,-10,-1,-100,586.2397104537813,-0.001740961012928343,9.962159349198458e-05,0.9999984795639889,29.195696017635406,-1.9825573426263143,-2036.7636386433999,65.55501408998583,-89.94485473632812,6157.6572265625,True
1598624450.6862853,0,5,0.5,0.5,-0.0076342956542968755,-0.14,-0.011,-0.56,0.0014979564128600774,10,1,100,0.02451403975464122,-10,-1,-100,591.5316822348395,-0.001794897311980723,0.0001035394354627459,0.9999983838103065,29.563774503933296,-2.000860083328837,-2068.8969417795743,66.09044191423604,-89.94595336914062,6154.5302734375,True
1598624450.780933,0,5,0.5,0.5,-0.012545019531250002,-0.14,-0.011,-0.56,0.0013811562670062293,10,1,100,0.02340366748477643,-10,-1,-100,596.8300732044736,-0.0018325230839432666,0.00010597442075403381,0.9999983153128654,29.907685099020032,-2.0174243464016355,-2097.604686336101,66.56604005076512,-89.93984985351562,6151.54296875,True
1598624450.8730712,0,5,0.5,0.5,-0.017351727294921876,-0.14,-0.011,-0.56,0.0013545105947246582,10,1,100,0.02225867704575773,-10,-1,-100,602.19195109664,-0.0018551878137550624,0.00010788820855587714,0.9999982733176642,30.22947512515491,-2.0324127607287648,-2123.2302110409128,66.98851267476932,-89.92813110351562,6148.6806640625,True
1598624450.9682484,0,5,0.5,0.5,-0.02018829345703125,-0.14,-0.011,-0.56,0.0013811914123293093,10,1,100,0.02112462732921896,-10,-1,-100,607.5538986141328,-0.0018645286815410914,0.0001098203561482985,0.9999982557346213,30.530985446044404,-2.0459788740538207,-2146.0852526606936,67.36384560136227,-89.91473388671875,6145.9287109375,True
1598624451.057948,0,5,0.5,0.5,-0.01994851989746094,-0.14,-0.011,-0.56,0.0012619330311437447,10,1,100,0.020063863164917865,-10,-1,-100,612.9856169426348,-0.0018625941111014455,0.00011044910198767345,0.9999982592705714,30.813803528081817,-2.058259861632187,-2166.4426995754307,67.6972579036752,-89.90438842773438,6143.275390625,True
1598624451.1509202,0,5,0.5,0.5,-0.016653433227539066,-0.14,-0.011,-0.56,0.0012275348364704118,10,1,100,0.01900804168847291,-10,-1,-100,618.4174025632674,-0.0018506158551075066,0.00011067145078337578,0.9999982814849168,31.079315457485777,-2.0693599020613247,-2184.544872791728,67.99339300777086,-89.90084838867188,6140.7099609375,True
1598624451.2445366,0,5,0.5,0.5,-0.011506961059570314,-0.14,-0.011,-0.56,0.0011990222894340337,10,1,100,0.018082797884420073,-10,-1,-100,623.855420568143,-0.0018308451596668967,0.00011058459974908409,0.9999983178871089,31.328962086935487,-2.0793882318189025,-2200.6273745966455,68.25655139965978,-89.9053955078125,6138.22119140625,True
1598624451.33777,0,5,0.5,0.5,-0.006507473754882814,-0.14,-0.011,-0.56,0.0011532266848022867,10,1,100,0.017187900114348696,-10,-1,-100,629.2935047494248,-0.0018044046512997874,0.0001100656790578437,0.9999983660033654,31.56408272631769,-2.0884454820096323,-2214.900539461303,68.49045586620439,-89.91619873046875,6135.8017578125,True
1598624451.4302518,0,5,0.5,0.5,-0.0036194976806640635,-0.14,-0.011,-0.56,0.0011262375073376448,10,1,100,0.01643282400114022,-10,-1,-100,634.7953756222269,-0.0017732975169441304,0.00010933081768490039,0.999998421730099,31.785871127436433,-2.096619622816933,-2227.549238637334,68.69836883810089,-89.92898559570312,6133.443359375,True
1598624451.5237703,0,5,0.5,0.5,-0.004017892456054688,-0.14,-0.011,-0.56,0.001071886216524192,10,1,100,0.015738017224707412,-10,-1,-100,640.297006555018,-0.0017386071218117602,0.00010815612198769681,0.9999984827726137,31.995617597004482,-2.1040008013655265,-2238.752661658914,68.8831719030783,-89.93865966796875,6131.1396484375,True
1598624451.6183493,0,5,0.5,0.5,-0.0077118408203124995,-0.14,-0.011,-0.56,0.0010265937821184801,10,1,100,0.015165470149576506,-10,-1,-100,645.8049276386155,-0.001701867565454885,0.00010666870874246371,0.9999985461332312,32.1943111806795,-2.110660247746623,-2248.657613381641,69.04742223594805,-89.94113159179688,6128.88427734375,True
1598624451.7109938,0,5,0.5,0.5,-0.013395245361328127,-0.14,-0.011,-0.56,0.001016554226171822,10,1,100,0.01468053267758899,-10,-1,-100,651.3701033471152,-0.0016641440187910447,0.00010522240139884608,0.9999986097754991,32.38301808095833,-2.1166728725830546,-2257.407413240971,69.19342897989901,-89.93499755859375,6126.67236328125,True
1598624451.8038628,0,5,0.5,0.5,-0.018894967651367188,-0.14,-0.011,-0.56,0.0009810991767711125,10,1,100,0.014294724210439466,-10,-1,-100,656.8782139912946,-0.0016264956076363325,0.00010358594156405558,0.9999986718901135,32.56245934126374,-2.122087398209801,-2265.1125714430354,69.32326337616277,-89.9222412109375,6124.498046875,True
1598624451.89623,0,5,0.5,0.5,-0.022054522705078128,-0.14,-0.011,-0.56,0.0009589515821372448,10,1,100,0.014006155559179091,-10,-1,-100,662.4497428511968,-0.001589854329944335,0.00010190082018756708,0.999998730988911,32.733441162820576,-2.126957015025967,-2271.8809335244528,69.43874844242387,-89.90753173828125,6122.3583984375,True
1598624451.9880102,0,5,0.5,0.5,-0.021643743896484376,-0.14,-0.011,-0.56,0.0009478858006025776,10,1,100,0.013788963441880311,-10,-1,-100,668.0149266644148,-0.0015548193076594364,0.00010027549322768123,0.9999987862401363,32.896548283638495,-2.1313225174348247,-2277.7983872632376,69.5415157127787,-89.8963623046875,6120.2490234375,True
1598624452.084053,0,5,0.5,0.5,-0.01770481872558594,-0.14,-0.011,-0.56,0.0009751019831238934,10,1,100,0.014567813558842565,-10,-1,-100,672.2093972779112,-0.0015303295382850417,9.905459184048786e-05,0.9999988241391548,33.01448108671652,-2.134312931365658,-2281.7543003327446,69.61108805984482,-89.89306640625,6118.6845703125,True
1598624452.1778479,0,5,0.5,0.5,-0.011488403320312502,-0.14,-0.011,-0.56,0.0008862682106496481,10,1,100,0.012848172649260685,-10,-1,-100,679.1579954249319,-0.001492724181781959,9.71476625195852e-05,0.9999988811677984,33.20173457504603,-2.138709335895606,-2287.428514443954,69.71510445180796,-89.89932250976562,6116.10595703125,True
1598624452.2724628,0,5,0.5,0.5,-0.005641812133789063,-0.14,-0.011,-0.56,0.0008804376460861546,10,1,100,0.01359562328423632,-10,-1,-100,684.735943370848,-0.0014656398825315577,9.537330067475965e-05,0.9999989214012525,33.34515340700212,-2.1418123274381635,-2291.3270107458684,69.78940524784346,-89.91268920898438,6114.064453125,True
1598624452.3638124,0,5,0.5,0.5,-0.0022576110839843747,-0.14,-0.011,-0.56,0.0009239269116829798,10,1,100,0.013737210191305155,-10,-1,-100,690.3074183299905,-0.0014426129139761535,9.41689581197831e-05,0.9999989549995477,33.483600916870195,-2.1445945177536117,-2294.6676317014662,69.85471010778824,-89.92822265625,6112.044921875,True
1598624452.4590456,0,5,0.5,0.5,-0.0028395050048828138,-0.14,-0.011,-0.56,0.0008755118447009377,10,1,100,0.013845950521228268,-10,-1,-100,695.9425563171972,-0.0014229684770186942,9.264774778775413e-05,0.9999989832880374,33.616482832285605,-2.1470159858617537,-2297.442857409485,69.91236026745813,-89.9398193359375,6110.0439453125,True
1598624452.5520077,0,5,0.5,0.5,-0.007260226440429687,-0.14,-0.011,-0.56,0.0009062987762385959,10,1,100,0.014061587207770862,-10,-1,-100,701.5139752378454,-0.0014073571757030213,9.155880902188828e-05,0.9999990054808877,33.745131719505316,-2.1491637136619732,-2299.779453154452,69.96375433739101,-89.94277954101562,6108.05810546875,True
1598624452.6439905,0,5,0.5,0.5,-0.013936270141601564,-0.14,-0.011,-0.56,0.000893080342409256,10,1,100,0.014284052189326671,-10,-1,-100,707.0920479606139,-0.001395455229239055,9.046243338148948e-05,0.9999990222601477,33.87020188198888,-2.1510747128746877,-2301.7389225426064,70.0096658745864,-89.93560791015625,6106.0859375,True
1598624452.7348864,0,5,0.5,0.5,-0.020301565551757814,-0.14,-0.011,-0.56,0.0009449479067712536,10,1,100,0.014536538273641167,-10,-1,-100,712.7269455920905,-0.0013871748684833555,8.995066971897906e-05,0.999999033826914,33.99205999239168,-2.1527761815055806,-2303.3594499484025,70.0507331010784,-89.9207763671875,6104.12548828125,True
1598624452.8279,0,5,0.5,0.5,-0.023896316528320312,-0.14,-0.011,-0.56,0.0008979192436002832,10,1,100,0.014800220698481269,-10,-1,-100,718.3050196565455,-0.0013822619450577687,8.907029242591084e-05,0.9999990407087389,34.11101006206133,-2.1542898678800717,-2304.6725824659948,70.08751444363386,-89.90377807617188,6102.17578125,True
1598624452.9223995,0,5,0.5,0.5,-0.023182672119140626,-0.14,-0.011,-0.56,0.0009005202373120008,10,1,100,0.0150821079780133,-10,-1,-100,723.9463885773439,-0.0013805469830165142,8.830525894573866e-05,0.9999990431456467,34.22728317555394,-2.1556269958445533,-2305.704351201028,70.12051794246354,-89.89120483398438,6100.23583984375,True
1598624453.0152762,0,5,0.5,0.5,-0.018326284790039064,-0.14,-0.011,-0.56,0.0009142319276723412,10,1,100,0.015353375691082619,-10,-1,-100,729.5243423802312,-0.0013816124261202248,8.77453077254779e-05,0.9999990417234733,34.34106627804967,-2.1567961317505797,-2306.4781093501833,70.15024170471507,-89.88809204101562,6098.3046875,True
1598624453.1057754,0,5,0.5,0.5,-0.011077117919921876,-0.14,-0.011,-0.56,0.0009205843450921269,10,1,100,0.01561538918097008,-10,-1,-100,735.1594863393111,-0.0013850981489518157,8.730429157825255e-05,0.9999990369400754,34.45256235361552,-2.1578121485720754,-2307.013454694617,70.17701384208677,-89.89596557617188,6096.3798828125,True
1598624453.1978126,0,5,0.5,0.5,-0.004210693359375,-0.14,-0.011,-0.56,0.0009590607940371164,10,1,100,0.015933678845555674,-10,-1,-100,740.7945092265727,-0.0013912583721429766,8.726210222658517e-05,0.9999990283922618,34.562104693573225,-2.1586957413465084,-2307.336233207816,70.20106278939339,-89.91207885742188,6094.46337890625,True
1598624453.2879493,0,5,0.5,0.5,-0.00039605712890625026,-0.14,-0.011,-0.56,0.0009610729013842174,10,1,100,0.016168862540254732,-10,-1,-100,746.3786290140124,-0.001399064228187104,8.724941397226862e-05,0.9999990175029299,34.67002390028072,-2.1594638893449285,-2307.477081167792,70.22277078090795,-89.930419921875,6092.552734375,True
1598624453.3812048,0,5,0.5,0.5,-0.00126522216796875,-0.14,-0.011,-0.56,0.000956991887742607,10,1,100,0.01642791656085227,-10,-1,-100,752.0135915698484,-0.0014085550872197329,8.720706956628213e-05,0.9999990041832508,34.77683985877118,-2.1601565449607025,-2307.479699413036,70.24252379001238,-89.94384765625,6090.6474609375,True
1598624453.4720633,0,5,0.5,0.5,-0.0066013671875,-0.14,-0.011,-0.56,0.0009576732653370401,10,1,100,0.016665459281083567,-10,-1,-100,757.6552071325714,-0.0014193557232422245,8.717971506462696e-05,0.9999989889140029,34.88291991052361,-2.1607922817129976,-2307.374098999083,70.26057628954837,-89.94696044921875,6088.7470703125,True
1598624453.5639443,0,5,0.5,0.5,-0.014492276000976564,-0.14,-0.011,-0.56,0.0009508088243687723,10,1,100,0.016912415656729404,-10,-1,-100,763.2395724111702,-0.001431408633452598,8.70964243215537e-05,0.9999989717412396,34.988509545018324,-2.161388260570438,-2307.181935404998,70.27715828248526,-89.93817138671875,6086.8505859375,True
1598624453.6558735,0,5,0.5,0.5,-0.02189363098144531,-0.14,-0.011,-0.56,0.0009701297873254756,10,1,100,0.01710405794648298,-10,-1,-100,768.8744129936676,-0.0014440753422741395,8.71994105902389e-05,0.9999989535207867,35.093640027029515,-2.1619504907180827,-2306.8942913179085,70.29195368726845,-89.92056274414062,6084.958984375,True
1598624453.7529018,0,5,0.5,0.5,-0.025961248779296876,-0.14,-0.011,-0.56,0.0009946628791313713,10,1,100,0.017301270346516434,-10,-1,-100,774.5157824631315,-0.0014573316444087625,8.751856372285061e-05,0.9999989342619218,35.197730286939375,-2.16244205934869,-2306.4240383876822,70.30331492575836,-89.90066528320312,6083.07666015625,True
1598624453.842159,0,5,0.5,0.5,-0.024883740234375007,-0.14,-0.011,-0.56,0.0010288174185687582,10,1,100,0.017455267413631292,-10,-1,-100,780.1002739205724,-0.0014707145563236904,8.812060940984029e-05,0.9999989146161369,35.30066819432066,-2.1628596747912985,-2305.8770182373964,70.3150396321647,-89.88629150390625,6081.193359375,True
1598624453.933764,0,5,0.5,0.5,-0.01895469665527344,-0.14,-0.011,-0.56,0.0009737732606052426,10,1,100,0.01756610703665628,-10,-1,-100,785.7415239748079,-0.001483806502298118,8.816769009792249e-05,0.9999988952717509,35.40405055831787,-2.16330272163412,-2305.338569395579,70.32647712300466,-89.88327026367188,6079.3125,True
1598624454.0249476,0,5,0.5,0.5,-0.010346719360351562,-0.14,-0.011,-0.56,0.0010271356883025432,10,1,100,0.01773914769413134,-10,-1,-100,791.3766715627862,-0.0014971884645463003,8.869521971854318e-05,0.9999988752792974,35.50679937217569,-2.1637063267587964,-2304.723365135,70.33711926981,-89.89315795898438,6077.43408203125,True
1598624454.1178079,0,5,0.5,0.5,-0.0023218536376953137,-0.14,-0.011,-0.56,0.0010378853448001547,10,1,100,0.017831532820353917,-10,-1,-100,797.0180448077153,-0.001510091849268858,8.927125177077638e-05,0.9999988558259706,35.60907041755981,-2.164079735861496,-2304.044826501895,70.3470282427855,-89.91253662109375,6075.55810546875,True
1598624454.2079012,0,5,0.5,0.5,0.0019724731445312504,-0.14,-0.011,-0.56,0.0009745920034144916,10,1,100,0.01792246883884113,-10,-1,-100,802.6023496252019,-0.0015225408596600434,8.921769676062399e-05,0.9999988369540903,35.71101984963929,-2.164430039885009,-2303.312118844911,70.35613711218879,-89.93417358398438,6073.6845703125,True
1598624454.3008401,0,5,0.5,0.5,0.0006692291259765629,-0.14,-0.011,-0.56,0.0010111481748086679,10,1,100,0.017983362642648795,-10,-1,-100,808.243783757207,-0.0015342994703853063,8.949954987062492e-05,0.9999988189567853,35.81290041152367,-2.1647740379515343,-2302.546624953776,70.36457334817933,-89.94961547851562,6071.81396484375,True
1598624454.395008,0,5,0.5,0.5,-0.005857019042968751,-0.14,-0.011,-0.56,0.0010145988425908188,10,1,100,0.018072196266883046,-10,-1,-100,813.8850351044675,-0.001545682381825706,8.978506560473228e-05,0.9999988014015899,35.91501470492894,-2.1651304415629338,-2301.7723544534606,70.37244643184532,-89.95263671875,6069.9453125,True
1598624454.4885018,0,5,0.5,0.5,-0.015254461669921877,-0.14,-0.011,-0.56,0.001026705893344216,10,1,100,0.01810107911838777,-10,-1,-100,819.5264693193603,-0.001556178212095582,9.015232096027885e-05,0.9999987850902277,36.01741959516241,-2.1655029463327815,-2300.9962177636435,70.37982533617651,-89.94161987304688,6068.078125,True
1598624454.5768616,0,5,0.5,0.5,-0.023949398803710942,-0.14,-0.011,-0.56,0.0010298854153224,10,1,100,0.018151556820501524,-10,-1,-100,825.1678428302985,-0.0015660653372886462,9.051231612272402e-05,0.9999987696226831,36.120105809814945,-2.1658970921008294,-2300.220339193528,70.38676734581992,-89.92037963867188,6066.21337890625,True
1598624454.665011,0,5,0.5,0.5,-0.028439956665039064,-0.14,-0.011,-0.56,0.0009907860328916517,10,1,100,0.018177362946992515,-10,-1,-100,830.7522706274176,-0.0015751773340731549,9.048112378872874e-05,0.9999987553139916,36.22284349470366,-2.1662990465169716,-2299.4329557869705,70.39332199312487,-89.89697265625,6064.35009765625,True
1598624454.7529695,0,5,0.5,0.5,-0.026850390625,-0.14,-0.011,-0.56,0.0010252012658884424,10,1,100,0.01818069017272904,-10,-1,-100,836.3936441241531,-0.0015833840825751635,9.076293963955307e-05,0.999998742327677,36.325372291024685,-2.1666979042382883,-2298.620153619473,70.39952258502535,-89.88052368164062,6062.48876953125,True
1598624454.8410041,0,5,0.5,0.5,-0.01958927917480469,-0.14,-0.011,-0.56,0.0010208804451293783,10,1,100,0.01822038305814013,-10,-1,-100,842.0351395272883,-0.0015911031806023163,9.097745356046576e-05,0.9999987300560794,36.42749119520637,-2.1670756666191884,-2297.772307549057,70.40542558679824,-89.87774658203125,6060.62841796875,True
1598624454.9290183,0,5,0.5,0.5,-0.009302996826171877,-0.14,-0.011,-0.56,0.0010368514492077776,10,1,100,0.018194412776730753,-10,-1,-100,847.676513808663,-0.0015977869065430025,9.131510283158772e-05,0.9999987193684567,36.52911686783325,-2.1674301998782286,-2296.8944809770423,70.41132048157382,-89.89022827148438,6058.76953125,True
1598624455.017126,0,5,0.5,0.5,0.00011028442382812406,-0.14,-0.011,-0.56,0.0010183740517052445,10,1,100,0.018224656033054995,-10,-1,-100,853.3241738860961,-0.0016040465065993042,9.145169866157278e-05,0.9999987093348629,36.63038595729763,-2.1677687902308045,-2295.987820676752,70.41690450140209,-89.91366577148438,6056.91162109375,True
1598624455.1041374,0,5,0.5,0.5,0.004866775512695312,-0.14,-0.011,-0.56,0.001027287843730415,10,1,100,0.018216046103545047,-10,-1,-100,858.9656082920264,-0.001609573366693733,9.165492893734186e-05,0.9999987004356311,36.7313666935836,-2.168098401359276,-2295.055602925966,70.42210343639225,-89.939208984375,6055.0556640625,True
1598624455.1958585,0,5,0.5,0.5,0.0029368896484374997,-0.14,-0.011,-0.56,0.0010201715343486845,10,1,100,0.018213391539066974,-10,-1,-100,864.5497924583033,-0.00161449453209611,9.177277434622827e-05,0.999998692491727,36.83235265523471,-2.168433144424768,-2294.124423964614,70.4271412297377,-89.95687866210938,6053.201171875,True
1598624455.283913,0,5,0.5,0.5,-0.005112982177734376,-0.14,-0.011,-0.56,0.0010027418085826066,10,1,100,0.01822696428798236,-10,-1,-100,870.19128826214,-0.0016190188028504917,9.171938791600102e-05,0.9999986851819705,36.93360047171147,-2.1687840855852984,-2293.2086825630245,70.43194935943207,-89.95950317382812,6051.34716796875,True
1598624455.371972,0,5,0.5,0.5,-0.016380453491210936,-0.14,-0.011,-0.56,0.0009724590993883036,10,1,100,0.018240545188717608,-10,-1,-100,875.839009329211,-0.0016231885695238639,9.139379896647234e-05,0.9999986784521475,37.0352127011538,-2.1691599091137257,-2292.317069695706,70.4365773910735,-89.94549560546875,6049.4951171875,True
1598624455.460006,0,5,0.5,0.5,-0.02651901245117188,-0.14,-0.011,-0.56,0.001027517995999985,10,1,100,0.01822731247177642,-10,-1,-100,881.4805057072081,-0.0016267980505661657,9.159721581972865e-05,0.9999986725681452,37.1371599972702,-2.1695628460858303,-2291.4584940433133,70.44137961452856,-89.9197998046875,6047.6435546875,True
1598624455.5531468,0,5,0.5,0.5,-0.03150561218261719,-0.14,-0.011,-0.56,0.0009608243487325125,10,1,100,0.018231481143823367,-10,-1,-100,887.1220012385165,-0.0016300620824293418,9.117484807507827e-05,0.9999986672914891,37.239192538708465,-2.1699766152455746,-2290.6093022113996,70.44606212118443,-89.89212036132812,6045.79296875,True
1598624455.6429994,0,5,0.5,0.5,-0.029169641113281256,-0.14,-0.011,-0.56,0.001025492467262681,10,1,100,0.018257242935750102,-10,-1,-100,892.7696007452905,-0.0016332136870057848,9.137813872631913e-05,0.9999986621306491,37.340851619123846,-2.1703746604176533,-2289.7385270005025,70.45051448191005,-89.87332153320312,6043.943359375,True
1598624455.7330232,0,5,0.5,0.5,-0.021021435546875,-0.14,-0.011,-0.56,0.0009696784952674741,10,1,100,0.018187396791261627,-10,-1,-100,896.9706776981475,-0.0016353985174849919,9.105498939195735e-05,0.9999986585894393,37.416645869298804,-2.1706532285070623,-2289.0592882991155,70.45371394541938,-89.86993408203125,6042.5576171875,True
1598624455.826929,0,5,0.5,0.5,-0.007127441406250001,-0.14,-0.011,-0.56,0.0010277914337657298,10,1,100,0.018344654238383395,-10,-1,-100,904.0016888285754,-0.001638774071679121,9.128944622358396e-05,0.9999986530419823,37.54194986339767,-2.1710687088133755,-2287.8725037751487,70.45890894567343,-89.8870849609375,6040.24853515625,True
1598624455.9259434,0,5,0.5,0.5,0.003473348999023438,-0.14,-0.011,-0.56,0.001017709583863665,10,1,100,0.01832309616889889,-10,-1,-100,909.6429408373078,-0.0016416095138010736,9.141095894105121e-05,0.9999986483802069,37.6414531658706,-2.1713659177912166,-2286.8875110103377,70.46301589983025,-89.91595458984375,6038.40283203125,True
1598624456.0178313,0,5,0.5,0.5,0.008820715332031251,-0.14,-0.011,-0.56,0.0010041701131721955,10,1,100,0.018325862350918355,-10,-1,-100,915.2844978215871,-0.0016441781873782967,9.1398375986754e-05,0.9999986441612935,37.7405719331132,-2.1716446403806455,-2285.884732191462,70.4669786224585,-89.94668579101562,6036.55810546875,True
1598624456.1107748,0,5,0.5,0.5,0.005739950561523438,-0.14,-0.011,-0.56,0.0009671398304216045,10,1,100,0.01835795196426502,-10,-1,-100,920.9322190179955,-0.0016467736100055743,9.10505312332517e-05,0.9999986399223142,37.83974147082181,-2.1719307360755398,-2284.891703467851,70.47083477467997,-89.96685791015625,6034.7138671875,True
1598624456.2011697,0,5,0.5,0.5,-0.0045414306640625,-0.14,-0.011,-0.56,0.0010242212384697826,10,1,100,0.018398399765400152,-10,-1,-100,926.5736542058876,-0.0016494714477880465,9.125388720606303e-05,0.9999986354574045,37.93925060447081,-2.1722382408654006,-2283.927135174403,70.4746253528366,-89.96829223632812,6032.87158203125,True
1598624456.2935765,0,5,0.5,0.5,-0.01834462890625,-0.14,-0.011,-0.56,0.0009774532781832836,10,1,100,0.01842570662220988,-10,-1,-100,932.2215586963575,-0.0016521445875204391,9.101401617938691e-05,0.9999986310664184,38.03922179247194,-2.172577347595979,-2282.998322358709,70.47835975776128,-89.94970703125,6031.02978515625,True
1598624456.423122,0,5,0.5,0.5,-0.030298614501953126,-0.14,-0.011,-0.56,0.0009803250339769827,10,1,100,0.018445962515381602,-10,-1,-100,937.8692190994043,-0.001654732535380542,9.082240373761233e-05,0.9999986268048208,38.139513374212825,-2.172941733943553,-2282.096140529331,70.48204413896161,-89.91775512695312,6029.1884765625,True
1598624456.511246,0,5,0.5,0.5,-0.04577571716308594,-0.14,-0.011,-0.56,0.0009483684889188995,10,1,100,0.01867528559514046,-10,-1,-100,946.3344844484236,-0.0016591445755377032,9.035840093736388e-05,0.9999986195363656,38.28972867745367,-2.173488110956775,-2280.74641526035,70.48758108736088,-89.87008666992188,6026.42919921875,True
1598624456.5969772,0,5,0.5,0.5,-0.031880276489257814,-0.14,-0.011,-0.56,0.0010231927546619664,10,1,100,0.01857146039317919,-10,-1,-100,951.9251994232181,-0.0016621852170326486,9.061754303220018e-05,0.9999986144634226,38.389346548637974,-2.1738271241012153,-2279.8254961957236,70.49124974023216,-89.85183715820312,6024.59033203125,True
1598624456.686241,0,5,0.5,0.5,-0.016429055786132817,-0.14,-0.011,-0.56,0.00096877777440863,10,1,100,0.018614360832124584,-10,-1,-100,957.5665729574393,-0.001665313102809351,9.035913656674296e-05,0.9999986092827811,38.488046886226584,-2.1741233284027763,-2278.8554479169516,70.49480761461867,-89.85934448242188,6022.7529296875,True
1598624456.774958,0,5,0.5,0.5,0.0033023376464843754,-0.14,-0.011,-0.56,0.0009820868025217041,10,1,100,0.0186715472683581,-10,-1,-100,963.2142939558253,-0.0016686493169490902,9.024584535628726e-05,0.9999986037315974,38.585513874889976,-2.174350636331965,-2277.8151635047047,70.49817148969852,-89.8935546875,6020.916015625,True
1598624456.8759444,0,5,0.5,0.5,0.01672925415039063,-0.14,-0.011,-0.56,0.000993953433251274,10,1,100,0.018695862233587233,-10,-1,-100,968.8620769423433,-0.0016718761247188725,9.025168053602117e-05,0.9999985983414466,38.68226599349057,-2.1745443847854564,-2276.7462112796716,70.50169014440303,-89.94009399414062,6019.080078125,True
1598624456.9737437,0,5,0.5,0.5,0.01938337097167969,-0.14,-0.011,-0.56,0.0009795549648474104,10,1,100,0.018766386742559066,-10,-1,-100,974.5032676506089,-0.001675423203126675,9.012714396702145e-05,0.9999985924161036,38.779023130071515,-2.1747368815249017,-2275.6891585468265,70.50530765140036,-89.9810791015625,6017.2451171875,True
1598624457.0742853,0,5,0.5,0.5,0.009452484130859376,-0.14,-0.011,-0.56,0.0009696020986887637,10,1,100,0.01880858786518077,-10,-1,-100,980.1512331410777,-0.001679003061870558,8.992460396832467e-05,0.9999985864301427,38.876234487606986,-2.174954153369528,-2274.664795979241,70.50884887941758,-89.99962615966797,6015.41015625,True
1598624457.1771808,0,5,0.5,0.5,-0.00950149154663086,-0.14,-0.011,-0.56,0.0009830084130219986,10,1,100,0.018890830892848865,-10,-1,-100,985.7988940359792,-0.001682975843296648,8.986337585187057e-05,0.9999985797574337,38.97425963119116,-2.175216020573147,-2273.697400972381,70.51244569205026,-89.98733520507812,6013.5771484375,True
1598624457.3309944,0,5,0.5,0.5,-0.030347243499755865,-0.14,-0.011,-0.56,0.0009535952965954781,10,1,100,0.018934519347343956,-10,-1,-100,991.4466761688236,-0.0016869541720016773,8.954158606153866e-05,0.9999985730829448,39.07317272158298,-2.1755318113992894,-2272.789284095377,70.51606071447873,-89.94769287109375,6011.744140625,True
1598624457.4361098,0,5,0.5,0.5,-0.06411899032592774,-0.14,-0.011,-0.56,0.0009755240103580059,10,1,100,0.019205816759472215,-10,-1,-100,999.9119414475281,-0.0016930055294942506,8.944974040463976e-05,0.9999985628644776,39.22214561040938,-2.1760512446485616,-2271.463968568099,70.52112565929764,-89.86773681640625,6008.9970703125,True
1598624457.5461237,0,5,0.5,0.5,-0.0519120475769043,-0.14,-0.011,-0.56,0.0009917699032746914,10,1,100,0.01906196647921841,-10,-1,-100,1005.5597242495278,-0.0016971642401269066,8.951518216427696e-05,0.9999985558092445,39.32117315932571,-2.1763931341814997,-2270.576326704841,70.52466442939514,-89.8212890625,6007.166015625,True
1598624457.6550741,0,5,0.5,0.5,-0.033987209320068365,-0.14,-0.011,-0.56,0.0009509642663656462,10,1,100,0.019125275389891012,-10,-1,-100,1011.1502552658785,-0.0017014858583767182,8.920448090002227e-05,0.9999985484931637,39.41920512618321,-2.176687949231636,-2269.6362644576757,70.52816099472996,-89.809814453125,6005.3369140625,True
1598624457.7573504,0,5,0.5,0.5,-0.0033827995300292936,-0.14,-0.011,-0.56,0.001012473759139837,10,1,100,0.01912576754321672,-10,-1,-100,1016.7981598124607,-0.0017053833485055588,8.948248701422172e-05,0.9999985418291965,39.51549205764102,-2.176891690565372,-2268.6007516982672,70.53159876770098,-89.84442138671875,6003.5078125,True
1598624457.9127626,0,5,0.5,0.5,0.023598465728759774,-0.14,-0.011,-0.56,0.0009655509560618872,10,1,100,0.01920598043806062,-10,-1,-100,1022.4458812586963,-0.0017096193019888164,8.930944586237852e-05,0.9999985346117589,39.61035791288037,-2.177021610118583,-2267.4906333648482,70.53502165504996,-89.91067504882812,6001.68017578125,True
1598624458.0151756,0,5,0.5,0.5,0.06113377761840821,-0.14,-0.011,-0.56,0.0010095487476521384,10,1,100,0.01950495167654167,-10,-1,-100,1030.9176163767697,-0.0017161508437006604,8.955296692015417e-05,0.9999985234021838,39.75174762151383,-2.177160776528085,-2265.7899195804225,70.54023101401948,-90.01727294921875,5998.939453125,True
1598624458.121991,0,5,0.5,0.5,0.033855698394775396,-0.14,-0.011,-0.56,0.0009550448381017128,10,1,100,0.01933136559675141,-10,-1,-100,1036.5650324939052,-0.0017204703038778964,8.927949480732441e-05,0.9999985160044516,39.846569283994214,-2.1772785359219924,-2264.6976629323926,70.54371948430344,-90.06346130371094,5997.11328125,True
1598624458.2259204,0,5,0.5,0.5,0.0018750907897949224,-0.14,-0.011,-0.56,0.0009665586154035848,10,1,100,0.01936703060412893,-10,-1,-100,1042.2129370301263,-0.0017246803612872236,8.913632508855046e-05,0.9999985087650717,39.94290708867682,-2.1774798299792213,-2263.696456506836,70.54714507513863,-90.05459594726562,5995.2880859375,True
1598624458.3337853,0,5,0.5,0.5,-0.04167772369384766,-0.14,-0.011,-0.56,0.0009707822487511231,10,1,100,0.019442937890197458,-10,-1,-100,1047.8607192747295,-0.0017291562276241289,8.90452840827152e-05,0.9999985010437155,40.04138078732005,-2.177799593360879,-2262.8205071787925,70.5505034903746,-89.98519897460938,5993.46435546875,True
1598624458.4410758,0,5,0.5,0.5,-0.07348427276611329,-0.14,-0.011,-0.56,0.0009255352833073226,10,1,100,0.019462970110105296,-10,-1,-100,1053.5082574258558,-0.0017333653259438164,8.855192720225691e-05,0.9999984938004671,40.14115139714308,-2.1782004410735234,-2262.0229671565016,70.55384344461939,-89.88424682617188,5991.64111328125,True
1598624458.5951462,0,5,0.5,0.5,-0.08275267181396485,-0.14,-0.011,-0.56,0.0009889239112218478,10,1,100,0.01950931861240968,-10,-1,-100,1059.1561620336724,-0.0017375709370245338,8.868058089093531e-05,0.9999984864903513,40.24092517346989,-2.1786122866666946,-2261.230380081525,70.55717122913461,-89.79034423828125,5989.81884765625,True
1598624458.7059531,0,5,0.5,0.5,-0.06485928802490235,-0.14,-0.011,-0.56,0.000998261049691747,10,1,100,0.01983480178594158,-10,-1,-100,1067.627775196568,-0.0017443126437595394,8.88831211026545e-05,0.9999984747354327,40.38747902860306,-2.179087897395119,-2259.879636081349,70.56223366033382,-89.74090576171875,5987.0859375,True
1598624458.8089504,0,5,0.5,0.5,-0.0024416061401367206,-0.14,-0.011,-0.56,0.0009818635447255701,10,1,100,0.01966344497520095,-10,-1,-100,1073.2820270236116,-0.0017488408166904182,8.891875494185362e-05,0.9999984668234511,40.48218158983086,-2.179255188273872,-2258.819336012369,70.56562233771936,-89.7906494140625,5985.265625,True
1598624458.9161339,0,5,0.5,0.5,0.04844368438720704,-0.14,-0.011,-0.56,0.000987110317225154,10,1,100,0.019684117863232767,-10,-1,-100,1078.9298097487772,-0.001753102222920312,8.899910702381102e-05,0.9999984593546906,40.574409244664466,-2.179291328060358,-2257.633960973882,70.56922770528901,-89.90316772460938,5983.4453125,True
1598624459.0646498,0,5,0.5,0.5,0.08000488739013673,-0.14,-0.011,-0.56,0.0009927822983939517,10,1,100,0.019731451109816906,-10,-1,-100,1084.577592382091,-0.0017573631500306035,8.912415727257082e-05,0.9999984518646234,40.665303114394035,-2.1792489507919806,-2256.3837307821436,70.57288116124923,-90.03817749023438,5981.62646484375,True
1598624459.1734264,0,5,0.5,0.5,0.09384478607177736,-0.14,-0.011,-0.56,0.0009787446363254864,10,1,100,0.02000376991499737,-10,-1,-100,1092.9918321092846,-0.0017636689421342891,8.911039265135714e-05,0.9999984407643847,40.80337802280551,-2.179264119671914,-2254.6214443649037,70.57843988826522,-90.16575622558594,5978.8984375,True
1598624459.2792454,0,5,0.5,0.5,0.016796203613281248,-0.14,-0.011,-0.56,0.0009381273402250113,10,1,100,0.019867810908791618,-10,-1,-100,1098.646083873231,-0.0017681222911735568,8.872903355322111e-05,0.9999984329341333,40.89849926384346,-2.179428368464323,-2253.6251964029198,70.58215196912617,-90.15751647949219,5977.08056640625,True
1598624459.3962798,0,5,0.5,0.5,-0.05469075927734375,-0.14,-0.011,-0.56,0.0009633153212728294,10,1,100,0.019880781968849615,-10,-1,-100,1104.2939884029329,-0.0017722453890395133,8.861182552921771e-05,0.9999984256458733,40.99722125895767,-2.1797879165035634,-2252.8310920527974,70.58578834985319,-90.04865264892578,5975.2646484375,True
1598624459.4988697,0,5,0.5,0.5,-0.11840930252075196,-0.14,-0.011,-0.56,0.0009489579747483608,10,1,100,0.019932045777410853,-10,-1,-100,1109.941526488983,-0.00177641645351571,8.837522826586429e-05,0.9999984182659505,41.09893872347037,-2.180320422532117,-2252.2042627514584,70.58934403132774,-89.87054443359375,5973.44921875,True
1598624459.6013324,0,5,0.5,0.5,-0.13989772720336915,-0.14,-0.011,-0.56,0.0009486204357860529,10,1,100,0.019947466051329,-10,-1,-100,1115.595656432095,-0.0017803055507788798,8.815768045026462e-05,0.9999984113689228,41.20100498820774,-2.1808939382792323,-2251.6001521924572,70.59287100916247,-89.69754028320312,5971.6337890625,True
1598624459.7020082,0,5,0.5,0.5,-0.11205012588500977,-0.14,-0.011,-0.56,0.0009590963421603636,10,1,100,0.020022954641965428,-10,-1,-100,1121.243316943408,-0.001784484680728606,8.805550362744228e-05,0.9999984039290525,41.30071149238023,-2.1813648854617416,-2250.8714473341743,70.59637820745398,-89.59921264648438,5969.81982421875,True
1598624459.8068998,0,5,0.5,0.5,-0.04288414993286133,-0.14,-0.011,-0.56,0.0009891442155565923,10,1,100,0.020054408068333952,-10,-1,-100,1126.8912212450523,-0.001788527181155613,8.823634634417267e-05,0.9999983966911493,41.39604628157927,-2.1816216898671694,-2249.9097231371948,70.59987262213795,-89.61965942382812,5968.0068359375,True
1598624459.910912,0,5,0.5,0.5,0.041384944915771486,-0.14,-0.011,-0.56,0.0010052147388584136,10,1,100,0.020110521785665556,-10,-1,-100,1132.5452292630216,-0.001792672111212819,8.854743245736094e-05,0.9999983892417297,41.48656818076944,-2.1816296804179265,-2248.6935994095215,70.60335971365751,-89.756591796875,5966.19482421875,True
1598624460.0660918,0,5,0.5,0.5,0.10800641708374024,-0.14,-0.011,-0.56,0.000991109093649531,10,1,100,0.020168944158523574,-10,-1,-100,1138.1931334652472,-0.0017969314952957862,8.870234244243725e-05,0.9999983815832381,41.57368607419839,-2.1814501352712456,-2247.3012814690696,70.60684451009382,-89.96136474609375,5964.38330078125,True
1598624460.1727865,0,5,0.5,0.5,0.18378912277221682,-0.14,-0.011,-0.56,0.0009917006354867339,10,1,100,0.02044360168663025,-10,-1,-100,1146.670849796501,-0.0018032607044700213,8.884881714064607e-05,0.9999983701770316,41.704189789515006,-2.181143519923687,-2245.22232539975,70.61215973387034,-90.23335266113281,5961.66796875,True
1598624460.2781777,0,5,0.5,0.5,0.08718451004028321,-0.14,-0.011,-0.56,0.0009653550116079264,10,1,100,0.020297655697986566,-10,-1,-100,1152.3185102222487,-0.0018076460242276201,8.874272059478486e-05,0.9999983622689492,41.79440385515485,-2.181086120845169,-2244.02008349722,70.61573006872389,-90.31262969970703,5959.8583984375,True
1598624460.4329023,0,5,0.5,0.5,-0.013659178161621092,-0.14,-0.011,-0.56,0.0009487032595050021,10,1,100,0.02032288335742912,-10,-1,-100,1157.97263987537,-0.0018118220417457393,8.849522387220861e-05,0.9999983547333888,41.890193325896654,-2.1813121271103046,-2243.122005003417,70.61923997377282,-90.23175811767578,5958.0498046875,True
1598624460.5362186,0,5,0.5,0.5,-0.23854928359985353,-0.14,-0.011,-0.56,0.0008866805896225217,10,1,100,0.020584951593822197,-10,-1,-100,1166.4507219542284,-0.0018179611327743554,8.770659695246312e-05,0.9999983436610645,42.045286379806896,-2.1822673341649943,-2242.3912157929985,70.62439676639269,-89.84567260742188,5955.33837890625,True
1598624460.68619,0,5,0.5,0.5,-0.2563964630126953,-0.14,-0.011,-0.56,0.0009136452261476373,10,1,100,0.020426188967592778,-10,-1,-100,1172.0983824761352,-0.0018220572682494346,8.723561938344713e-05,0.9999983362472451,42.15241399363708,-2.183138784565232,-2242.109160078985,70.62790189579371,-89.51162719726562,5953.53173828125,True
1598624460.7957928,0,5,0.5,0.5,-0.24164967041015628,-0.14,-0.011,-0.56,0.0010197527522460047,10,1,100,0.020637328738093097,-10,-1,-100,1180.5764648221666,-0.0018276589885815697,8.777310783876541e-05,0.9999983259778504,42.305968673266996,-2.1841598422205295,-2241.312137862134,70.63313517225988,-89.26602172851562,5950.8232421875,True
1598624460.9020314,0,5,0.5,0.5,-0.01114655761718751,-0.14,-0.011,-0.56,0.0010223313828219918,10,1,100,0.02047342176830171,-10,-1,-100,1186.230472536059,-0.001831218349669223,8.828552541484691e-05,0.9999983194210986,42.39672272428744,-2.1842748439662807,-2240.1736547702594,70.63665952338174,-89.39950561523438,5949.0185546875,True
1598624461.0018826,0,5,0.5,0.5,0.17713046875000002,-0.14,-0.011,-0.56,0.0010369007961358659,10,1,100,0.020510640917803174,-10,-1,-100,1191.8781324448064,-0.0018347500032271568,8.888359967614949e-05,0.9999983128946424,42.47745928789906,-2.183871012267313,-2238.5135074182776,70.64010897807906,-89.77557373046875,5947.21484375,True
1598624461.1014054,0,5,0.5,0.5,0.31307223815917967,-0.14,-0.011,-0.56,0.0010253250740677347,10,1,100,0.020550527087947988,-10,-1,-100,1197.532262445544,-0.0018382811781701663,8.932148130095793e-05,0.9999983063705572,42.55097075337414,-2.1830619548830597,-2236.482736785283,70.6434862657137,-90.2703857421875,5945.412109375,True
1598624461.2039342,0,5,0.5,0.5,0.31818330993652344,-0.14,-0.011,-0.56,0.001001915516637685,10,1,100,0.02062263412563294,-10,-1,-100,1203.1862702963408,-0.0018421053929455315,8.950603766610734e-05,0.9999982993167492,42.625922652482394,-2.1822740079339926,-2234.539972554005,70.64684739139454,-90.6727294921875,5943.6103515625,True
1598624461.3059614,0,5,0.5,0.5,0.19293996276855468,-0.14,-0.011,-0.56,0.000955897601728931,10,1,100,0.020650695066486414,-10,-1,-100,1208.8406440094113,-0.0018457959841148498,8.925474086686934e-05,0.9999982925339305,42.71000857502517,-2.181911884429408,-2233.0862518274844,70.65019383844357,-90.81456756591797,5941.8095703125,True
1598624461.6696384,0,5,0.5,0.5,-0.020827744293212894,-0.14,-0.011,-0.56,0.000904226254410162,10,1,100,0.020738074185515723,-10,-1,-100,1214.4881857598666,-0.0018499067541875467,8.855618068854942e-05,0.9999982849999313,42.80828127540955,-2.1822546496401922,-2232.449601264592,70.65593727945043,-90.62174224853516,5940.00390625,True
1598624461.754253,0,5,0.5,0.5,-0.05742207717895509,-0.14,-0.011,-0.56,0.0008965229222717035,10,1,100,0.020553298350484722,-10,-1,-100,1217.3184853221755,-0.0018519256187261167,8.785126527055099e-05,0.999998281325352,42.86326993667517,-2.182730402578295,-2232.449363679455,70.65921097462167,-90.41471862792969,5939.1005859375,True
1598624461.8709161,0,5,0.5,0.5,-0.30176580352783205,-0.14,-0.011,-0.56,0.0008610302884281915,10,1,100,0.02079920283734983,-10,-1,-100,1222.972244636272,-0.0018559599876626991,8.688835818161291e-05,0.999998273929979,42.978747348393725,-2.1839878850567422,-2232.6833674542772,70.66392569533012,-89.89974975585938,5937.298828125,True
1598624461.9352324,0,5,0.5,0.5,-0.3625974319458008,-0.14,-0.011,-0.56,0.0008492848652984814,10,1,100,0.020864260427727804,-10,-1,-100,1228.6201492785476,-0.00186018448401313,8.59069553802817e-05,0.9999982661653372,43.09239429863133,-2.185207760100068,-2232.767417445294,70.66671331575697,-89.40078735351562,5935.501953125,True
1598624462.029813,0,5,0.5,0.5,-0.2226467239379883,-0.14,-0.011,-0.56,0.0009570182992657741,10,1,100,0.02066131257822037,-10,-1,-100,1231.4505708286306,-0.001862145293685487,8.599537374604977e-05,0.9999982625083411,43.14801377739269,-2.185780959435292,-2232.7447137374584,70.66801837908476,-89.20172119140625,5934.603515625,True
1598624462.1269164,0,5,0.5,0.5,-0.21775285491943364,-0.14,-0.011,-0.56,0.00092077044406128,10,1,100,0.020933296317440828,-10,-1,-100,1237.104578669765,-0.0018663690761940848,8.574784424406417e-05,0.9999982546553662,43.2496240576317,-2.1864705527696664,-2232.196787962728,70.67042434218432,-89.049560546875,5932.80810546875,True
1598624462.2239544,0,5,0.5,0.5,-0.03666928863525391,-0.14,-0.011,-0.56,0.000994653774735616,10,1,100,0.021004963444922854,-10,-1,-100,1242.7588309599087,-0.0018708284426094423,8.619679104945376e-05,0.999998246283988,43.33807834741854,-2.1865199286959496,-2230.9807622146295,70.67302096855671,-89.18707275390625,5931.013671875,True
1598624462.3249674,0,5,0.5,0.5,0.13418421478271486,-0.14,-0.011,-0.56,0.0010578782198234,10,1,100,0.021047122255865323,-10,-1,-100,1248.4062471966026,-0.0018752328754143514,8.718213474481206e-05,0.9999982379489166,43.416978149519245,-2.1860800870061334,-2229.2841711982,70.67571467530934,-89.54208374023438,5929.2197265625,True
1598624462.4360056,0,5,0.5,0.5,0.2664830581665039,-0.14,-0.011,-0.56,0.0010486788754870927,10,1,100,0.021127426321925956,-10,-1,-100,1254.0603771940805,-0.0018799333497491434,8.799621619804058e-05,0.999998229052065,43.48898024497728,-2.185262905101983,-2227.2454219707815,70.67845651540753,-90.0162353515625,5927.42626953125,True
1598624462.5339222,0,5,0.5,0.5,0.2910998123168945,-0.14,-0.011,-0.56,0.000975522913025518,10,1,100,0.021166180388638503,-10,-1,-100,1259.714629009366,-0.001884524428881065,8.807260860720498e-05,0.9999982204038629,43.56132871465319,-2.1844131590756275,-2225.2387687728974,70.68131418042722,-90.43175506591797,5925.63330078125,True
1598624462.6338665,0,5,0.5,0.5,0.18149918365478518,-0.14,-0.011,-0.56,0.0009891384656292607,10,1,100,0.021077522902362953,-10,-1,-100,1263.9282185650663,-0.0018878569523577923,8.82669086685336e-05,0.9999982141009454,43.62033119819067,-2.18398370950292,-2223.9857980355055,70.68357040195284,-90.60820007324219,5924.2890625,True
1598624462.733026,0,5,0.5,0.5,0.031117160797119146,-0.14,-0.011,-0.56,0.0009454706353842386,10,1,100,0.021383372253069112,-10,-1,-100,1271.0227684807032,-0.0018936324676174455,8.804682778753217e-05,0.9999982032003027,43.73431259618402,-2.1840239498672047,-2222.7323095211004,70.6883360699241,-90.5345458984375,5922.0478515625,True
1598624462.8369637,0,5,0.5,0.5,-0.17512050552368164,-0.14,-0.011,-0.56,0.0008746678504764779,10,1,100,0.021308532147598022,-10,-1,-100,1276.676653998904,-0.0018981646561229465,8.720291479426306e-05,0.9999981946816653,43.83986495310151,-2.1847905815796094,-2222.480690140863,70.69272684120195,-90.1808090209961,5920.25390625,True
