Timestamp,Input Throttle,horizon,dT,dt,Input Roll,Roll P,Roll I,Roll D,Input Pitch,Pitch P,Pitch I,Pitch D,Input Yaw,Yaw P,Yaw I,Yaw D,Altitude,Direction X,Direction Y,Direction Z,Drag X,Drag Y,Drag Z,Vertical Velocity,Roll,Mass,Has Fuel
1598633630.9017155,0,5,0.5,0.5,-0.006588134765625001,-0.14,-0.011,-0.56,0.004543902237627774,10,1,100,0.1374289538517105,-10,-1,-100,474.84935800300445,-0.011936405373404717,0.00041707967136301693,0.9999286715917838,6.14384782084451,-0.5052946627116311,149.8679724992342,-16.57297927348043,-89.93231201171875,6440.1796875,True
1598633631.0286798,0,5,0.5,0.5,-0.0061114440917968745,-0.14,-0.011,-0.56,0.0043975569639195106,10,1,100,0.1290311492159339,-10,-1,-100,473.47158317116555,-0.012013436781991502,0.0004187619648462264,0.9999277483774024,6.390233639583513,-0.526377177969868,163.44587850488531,-17.350339395299486,-89.93722534179688,6440.1796875,True
1598633631.0968142,0,5,0.5,0.5,-0.002715530395507813,-0.14,-0.011,-0.56,0.003991828242524012,10,1,100,0.11718269982703153,-10,-1,-100,472.12758221069816,-0.011964830852824019,0.00041622218694114296,0.9999283322227421,6.699633007237145,-0.5421122932612589,154.82947274197272,-16.19037619511942,-89.94610595703125,6435.443359375,True
1598633631.225852,0,5,0.5,0.5,-0.002834628295898438,-0.14,-0.011,-0.56,0.004037190385516436,10,1,100,0.11626252112522927,-10,-1,-100,471.5123617356876,-0.011901401264607356,0.0004139472972483245,0.9999290901336824,6.556383671399936,-0.5243520972831318,140.06476923689934,-15.286863112750549,-89.953125,6432.28515625,True
1598633631.3539827,0,5,0.5,0.5,0.005381021118164063,-0.14,-0.011,-0.56,0.0033698161351800628,10,1,100,0.09687048791644934,-10,-1,-100,470.3774867103202,-0.011656627335908202,0.0004054358613452058,0.9999319770168941,6.220084882336992,-0.48653066743196477,112.48478978910478,-13.478333072753525,-89.97055053710938,6425.9697265625,True
1598633631.4216962,0,5,0.5,0.5,0.010180780029296876,-0.14,-0.011,-0.56,0.0027305513599423644,10,1,100,0.07955389863027487,-10,-1,-100,469.3811865641037,-0.011266085109638377,0.00039151811632989595,0.9999364590012042,5.830057651619906,-0.4467629627988662,87.84072297781069,-11.66756323906267,-89.99139404296875,6419.654296875,True
1598633631.4896333,0,5,0.5,0.5,0.005911669921875,-0.14,-0.011,-0.56,0.0032190318256904785,10,1,100,0.09265871738347459,-10,-1,-100,468.94825145136565,-0.011019939542504317,0.00038295042680793357,0.9999392052927267,5.614807045086527,-0.4261556442345851,76.6248612386098,-10.761349715009452,-90.00198364257812,6416.49609375,True
1598633631.5577092,0,5,0.5,0.5,0.006216128540039063,-0.14,-0.011,-0.56,0.0030520624807843224,10,1,100,0.08862481564078714,-10,-1,-100,468.5585893401876,-0.010749480884228464,0.00037329557826445005,0.9999421529824267,5.386672039001958,-0.405110464751435,66.15364608047662,-9.854576105745329,-90.0108871459961,6413.3388671875,True
1598633631.6874728,0,5,0.5,0.5,0.006235581207275391,-0.14,-0.011,-0.56,0.0029060132912231843,10,1,100,0.08307203119792149,-10,-1,-100,468.16923239349853,-0.010443357262784156,0.0003628513637032143,0.9999454008234498,5.146408279308367,-0.38368008256747355,56.43181251104719,-8.947235321125921,-90.01802062988281,6410.1806640625,True
1598633631.7594476,0,5,0.5,0.5,0.00912329330444336,-0.14,-0.011,-0.56,0.0013153304402907587,10,1,100,0.0385278878921341,-10,-1,-100,467.55409051128663,-0.009750622342997823,0.0003385660051266113,0.9999524042358139,4.634379779583765,-0.3399778169015878,39.253844637728385,-7.130828429640525,-90.02782440185547,6403.86474609375,True
1598633631.8887563,0,5,0.5,0.5,0.005527648925781251,-0.14,-0.011,-0.56,0.002265874943552202,10,1,100,0.06614868872261317,-10,-1,-100,467.27724991878495,-0.009363097312248242,0.0003248219328092339,0.9999561124866598,4.367136673929385,-0.31800679886622285,31.809502559953316,-6.221748592107504,-90.03048706054688,6400.70751953125,True
1598633632.0994873,0,5,0.5,0.5,0.004438284301757813,-0.14,-0.011,-0.56,0.001272678499157881,10,1,100,0.03813924834909478,-10,-1,-100,466.97455281496514,-0.008758509924590416,0.0003033821336976277,0.9999615974942146,3.967346565570716,-0.2859330612720172,22.10498451882797,-4.857073519508468,-90.0309066772461,6395.970703125,True
1598633632.2208598,0,5,0.5,0.5,-0.0017285026550292971,-0.14,-0.011,-0.56,-0.0009486863503016868,10,1,100,-0.024896177872450617,-10,-1,-100,466.62533237040043,-0.0076387947218487075,0.0002638020720839429,0.9999707891851962,3.5669064775847414,-0.2532114352431885,10.24140781784984,-2.579497725886682,-90.02228546142578,6388.076171875,True
1598633632.3309786,0,5,0.5,0.5,-0.005687521362304688,-0.14,-0.011,-0.56,-0.0007018203655680014,10,1,100,-0.018895421799804205,-10,-1,-100,466.510128726135,-0.006679356898317554,0.00023020299785531497,0.9999776663496064,9.71551122153739,-0.6826078942594898,7.9937824375901165,-0.7546665272735282,-90.00961303710938,6381.759765625,True
1598633632.3974726,0,5,0.5,0.5,-0.0035703308105468757,-0.14,-0.011,-0.56,0.0007949589828181412,10,1,100,0.024191416817047187,-10,-1,-100,466.5073677669279,-0.006203586541048145,0.00021343251017770268,0.9999807347947216,6.3698740752801815,-0.4454857064524514,-1.0920333886416027,0.15870647641047647,-90.00241088867188,6378.6025390625,True
1598633632.6076906,0,5,0.5,0.5,-0.003982824707031251,-0.14,-0.011,-0.56,0.0006031339347728664,10,1,100,0.01773336875931962,-10,-1,-100,466.54104517772794,-0.005717315816455577,0.00019661729671688674,0.999983636686868,0.6039960413028326,-0.04206270683506146,-0.6939727735635269,1.0727424732052044,-89.99600982666016,6375.4443359375,True
1598633632.708566,0,5,0.5,0.5,-0.009755182647705078,-0.14,-0.011,-0.56,-0.0034661044714121565,10,1,100,-0.09885146986639137,-10,-1,-100,466.86186862096656,-0.004220433687767855,0.0001445148451686566,0.9999910834877213,2.6387974934576035,-0.1818760459352453,-10.568123613212684,3.818708516517672,-89.98263549804688,6365.97119140625,True
1598633632.8395052,0,5,0.5,0.5,-0.005341651153564454,-0.14,-0.011,-0.56,-0.00212536517844081,10,1,100,-0.062075384843622926,-10,-1,-100,467.2571400575107,-0.0032001411672175806,0.00010955427877149532,0.9999948735340447,3.6158132989066623,-0.24794386419574138,-21.212017431362213,5.6524563296760135,-89.978271484375,6359.6552734375,True
1598633633.034411,0,5,0.5,0.5,-0.0013742324829101565,-0.14,-0.011,-0.56,-0.0022769944079079414,10,1,100,-0.06512438026349063,-10,-1,-100,467.8041779411724,-0.002251747408097635,7.663326296027748e-05,0.9999974618772554,4.527616311502669,-0.30930323225304424,-34.92059282521204,7.48867677044655,-89.98049926757812,6353.33984375,True
1598633633.1684868,0,5,0.5,0.5,0.008594869995117188,-0.14,-0.011,-0.56,-0.003947551715771487,10,1,100,-0.11311920411127688,-10,-1,-100,468.9064768067328,-0.0009607016010584331,3.17783804247226e-05,0.9999995380211775,5.8580545772819095,-0.3988144835462527,-61.402588365223856,10.24757883087995,-89.99658203125,6343.8662109375,True
1598633633.3015034,0,5,0.5,0.5,0.010128496551513674,-0.14,-0.011,-0.56,-0.0022859221807924116,10,1,100,-0.0647639426743049,-10,-1,-100,469.79159349552356,-0.00023460771748793998,6.385835369211475e-06,0.9999999724592196,6.728342449283881,-0.45758090612774505,-83.0437618588842,12.089837645304904,-90.01168823242188,6337.55078125,True
1598633633.3724594,0,5,0.5,0.5,0.009573760223388673,-0.14,-0.011,-0.56,-0.002168506691076475,10,1,100,-0.059154105902835034,-10,-1,-100,470.858412511996,0.00036618048820390934,-1.534139559525374e-05,0.9999999328382437,7.584108605503075,-0.5156532916179533,-107.87280994731717,13.934439589971108,-90.02301025390625,6331.2353515625,True
1598633633.5053892,0,5,0.5,0.5,0.004757487487792969,-0.14,-0.011,-0.56,-0.0010264048895670666,10,1,100,-0.028446974735822524,-10,-1,-100,471.4572216080269,0.0006249006733029365,-2.4420931431688512e-05,0.9999998044513643,8.006587329611172,-0.5444405621948173,-121.48453280036382,14.857644304054087,-90.02519989013672,6328.0771484375,True
1598633633.6394494,0,5,0.5,0.5,0.001200665283203125,-0.14,-0.011,-0.56,-0.001984133324743709,10,1,100,-0.05332170817121337,-10,-1,-100,472.72368732164614,0.0010787223315372855,-4.111965614503902e-05,0.9999994173334829,8.840667792285146,-0.601524432477943,-151.10701734278248,16.705799345148563,-90.02186584472656,6321.76171875,True
1598633633.7716131,0,5,0.5,0.5,-0.0048175033569335945,-0.14,-0.011,-0.56,-0.0018980018503029533,10,1,100,-0.05190648329547035,-10,-1,-100,474.1462502221111,0.0014713689953982528,-5.527064461316866e-05,0.99999891600863,9.660157809819417,-0.6579770510122093,-183.94242967870804,18.55626063921449,-90.01058197021484,6315.44580078125,True
1598633633.9021003,0,5,0.5,0.5,-0.009261487579345706,-0.14,-0.011,-0.56,-0.001817227224689466,10,1,100,-0.04882401105025354,-10,-1,-100,475.75091128237545,0.0017933208007367553,-6.715658921062675e-05,0.9999983897439526,10.463538929037723,-0.7137292026359652,-219.98619007759248,20.40899025808885,-89.99519348144531,6309.1298828125,True
1598633634.0329132,0,5,0.5,0.5,-0.011080317687988282,-0.14,-0.011,-0.56,-0.001623161980751485,10,1,100,-0.04507995878564568,-10,-1,-100,477.4679379359586,0.0020451395698960566,-7.595796945803653e-05,0.9999979058150704,11.24965291264935,-0.7687051970039201,-259.21465324100626,22.263949513684114,-89.98028564453125,6302.81494140625,True
1598633634.1677117,0,5,0.5,0.5,-0.00935682830810547,-0.14,-0.011,-0.56,-0.001447178436441075,10,1,100,-0.03991912129995827,-10,-1,-100,479.34124424669426,0.0022214530435731143,-8.215894399410834e-05,0.9999975291950892,12.018811866388262,-0.8228983487740869,-301.61102236610355,24.121162826592105,-89.9708251953125,6296.49951171875,True
1598633634.3026369,0,5,0.5,0.5,-0.004772123718261719,-0.14,-0.011,-0.56,-0.00125701668986947,10,1,100,-0.03437563166918228,-10,-1,-100,481.37061680003535,0.0023264139373535752,-8.589316567373576e-05,0.9999972902066065,12.772032818700755,-0.8763253018983362,-347.15601149648336,25.980530915162667,-89.96981811523438,6290.18359375,True
1598633634.4334524,0,5,0.5,0.5,0.0009070449829101561,-0.14,-0.011,-0.56,-0.001036065703933932,10,1,100,-0.028466619809752285,-10,-1,-100,483.53853886190336,0.002363952677208766,-8.713151602977032e-05,0.9999972020640051,13.51104898348236,-0.9290298756597446,-395.83443735672233,27.842040801640746,-89.97714233398438,6283.86865234375,True
1598633634.5614605,0,5,0.5,0.5,0.005457194519042969,-0.14,-0.011,-0.56,-0.0008234219361607151,10,1,100,-0.022915135644386627,-10,-1,-100,485.86246599361766,0.002344588353502645,-8.621606401326842e-05,0.9999972477323341,14.238128172783215,-0.9810922246724412,-447.636574556727,29.705788535959964,-89.98953247070312,6277.552734375,True
1598633634.6905396,0,5,0.5,0.5,0.007017906188964845,-0.14,-0.011,-0.56,-0.0006170229020487036,10,1,100,-0.017083222526683754,-10,-1,-100,488.31682410032954,0.0022716223071806993,-8.342329650690069e-05,0.9999974163829861,14.956045326845125,-1.0326134404859513,-502.55738086176973,31.57161982727315,-90.001708984375,6271.2373046875,True
1598633634.8204029,0,5,0.5,0.5,0.0047364791870117195,-0.14,-0.011,-0.56,-0.00041962586094141584,10,1,100,-0.011599671068809696,-10,-1,-100,490.935092038475,0.002153706850162824,-7.90280057629441e-05,0.9999976776479923,15.667444985969418,-1.0836732911026907,-560.5817397509711,33.43942743470464,-90.00822448730469,6264.921875,True
1598633634.9575517,0,5,0.5,0.5,-0.0007092872619628907,-0.14,-0.011,-0.56,-0.00022295724352180968,10,1,100,-0.006277752411026953,-10,-1,-100,493.70982324832585,0.001996740077642312,-7.319474758795872e-05,0.9999980038338034,16.37556581992525,-1.1344024833556736,-621.7160674330682,35.30947165392291,-90.00568389892578,6258.60595703125,True
1598633635.0886226,0,5,0.5,0.5,-0.007534185791015625,-0.14,-0.011,-0.56,2.9671631839979094e-05,10,1,100,-0.0012552497763416472,-10,-1,-100,496.6147116223583,0.0018075493352664306,-6.556600029700765e-05,0.9999983642319122,17.083492832211647,-1.1849181853609474,-685.9541337260366,37.18156309121103,-89.99392700195312,6252.2900390625,True
1598633635.219632,0,5,0.5,0.5,-0.013230606842041017,-0.14,-0.011,-0.56,0.00017464050340114238,10,1,100,0.0034089138601194786,-10,-1,-100,499.70160605432466,0.0015928506451933751,-5.730351724041988e-05,0.9999987297707578,17.79424776817398,-1.235324836946743,-753.2914020271844,39.05567563972019,-89.97640991210938,6245.974609375,True
1598633635.3506718,0,5,0.5,0.5,-0.015789110565185546,-0.14,-0.011,-0.56,0.0003835940062169959,10,1,100,0.00764049106779021,-10,-1,-100,502.90107983199414,0.0013593833797440847,-4.790154904698706e-05,0.9999990748907064,18.510694529124255,-1.2857354328066009,-823.721772163256,40.9317831117371,-89.95877075195312,6239.6591796875,True
1598633635.4777727,0,5,0.5,0.5,-0.014266146087646486,-0.14,-0.011,-0.56,0.0005091274335490648,10,1,100,0.011451243872257513,-10,-1,-100,506.2824383949628,0.0011131206185588016,-3.823859809576665e-05,0.9999993797499567,19.23565313999222,-1.3362635021277378,-897.2455900620475,42.80985960478101,-89.94686889648438,6233.34375,True
1598633635.6093798,0,5,0.5,0.5,-0.009272356414794923,-0.14,-0.011,-0.56,0.0006929078355537828,10,1,100,0.01481960837849269,-10,-1,-100,509.79410641477443,0.0008596314605382375,-2.782329389088551e-05,0.9999996301297398,19.971661110332395,-1.387008935156386,-973.8595872963026,44.68986907060887,-89.94451904296875,6227.02734375,True
1598633635.7565894,0,5,0.5,0.5,-0.0028145896911621095,-0.14,-0.011,-0.56,0.0008258041544050596,10,1,100,0.017744989368378608,-10,-1,-100,513.4699897783576,0.0006039258374085938,-1.7199477962148185e-05,0.9999998174888637,20.721214267686314,-1.4380845094119103,-1053.5717964234072,46.5718056918279,-89.951904296875,6220.7119140625,True
1598633635.8726926,0,5,0.5,0.5,0.0025067695617675785,-0.14,-0.011,-0.56,0.0009595132144538264,10,1,100,0.020212631396322518,-10,-1,-100,517.2761830645613,0.0003506330950728824,-6.3895011520051215e-06,0.9999999385078017,21.486622211504155,-1.4895866773551252,-1136.3944425848813,48.455630686428464,-89.9654541015625,6214.396484375,True
1598633635.9426658,0,5,0.5,0.5,0.005359922027587892,-0.14,-0.011,-0.56,0.0010247896145180006,10,1,100,0.022290191331395447,-10,-1,-100,521.2643215706339,0.00010329274377469063,3.958602709743553e-06,0.9999999946574692,22.269896489791403,-1.54160809051451,-1222.3434988304487,50.34131880408282,-89.98040771484375,6208.0810546875,True
1598633636.0775862,0,5,0.5,0.5,0.000850406646728516,-0.14,-0.011,-0.56,0.0005367007713700413,10,1,100,0.01095493433818015,-10,-1,-100,523.3017868404277,-1.654312150043009e-05,8.849360465245768e-06,0.999999999824007,22.6687733409405,-1.5678387710362376,-1266.4952866084209,51.284852698331974,-89.9859619140625,6204.9228515625,True
1598633636.182824,0,5,0.5,0.5,-0.0003404640197753905,-0.14,-0.011,-0.56,0.001200399974523499,10,1,100,0.024622954736690073,-10,-1,-100,527.4895717161708,-0.0002477665935809362,1.924924448416268e-05,0.9999999691205904,23.48209568046218,-1.6207923828865864,-1357.1756417019035,53.173280173285264,-89.98873901367188,6198.607421875,True
1598633636.2808473,0,5,0.5,0.5,-0.003858248901367188,-0.14,-0.011,-0.56,0.0007543439087256742,10,1,100,0.01445786837196804,-10,-1,-100,529.6654646793613,-0.0003635194133646294,2.4564589364950446e-05,0.9999999336251064,23.896765206139296,-1.6475300608822527,-1403.70480297292,54.11816947115108,-89.9859619140625,6195.44921875,True
1598633636.4084544,0,5,0.5,0.5,-0.010643133544921878,-0.14,-0.011,-0.56,0.001285658687155343,10,1,100,0.026624649666195,-10,-1,-100,534.0784076538403,-0.0005773826533440219,3.414491852442544e-05,0.9999998327316841,24.742510249429014,-1.7015491907158748,-1499.120146343965,56.00927948522557,-89.97406005859375,6189.13330078125,True
1598633636.5993867,0,5,0.5,0.5,-0.016691250610351566,-0.14,-0.011,-0.56,0.001381550720943248,10,1,100,0.02842409978484388,-10,-1,-100,538.6476002850104,-0.0007861894786779708,4.3642919489506534e-05,0.9999996900006515,25.611079218582006,-1.7563334430408934,-1597.695870711877,57.90214216420935,-89.95590209960938,6182.818359375,True
1598633636.7970753,0,5,0.5,0.5,-0.027012399291992194,-0.14,-0.011,-0.56,0.001907336224041761,10,1,100,0.03882136008199552,-10,-1,-100,545.7998510275502,-0.0010685838927207375,5.697411178726083e-05,0.9999994274410434,26.958660485215468,-1.8400325940581557,-1751.493270292771,60.74466001521563,-89.9266357421875,6173.3447265625,True
1598633636.9325252,0,5,0.5,0.5,-0.024915515136718754,-0.14,-0.011,-0.56,0.001913242706586096,10,1,100,0.036764388859414236,-10,-1,-100,553.2820570233744,-0.0013046229811804414,6.906051579936503e-05,0.9999991465943969,28.361351942346037,-1.9256793879724456,-1912.490332445215,63.59094499336118,-89.90625,6163.87109375,True
1598633637.0629282,0,5,0.5,0.5,-0.014054290771484377,-0.14,-0.011,-0.56,0.001414068399890779,10,1,100,0.02679177408932565,-10,-1,-100,558.4836951829493,-0.0014265763323778045,7.542213137705665e-05,0.9999989795952144,29.32725624923502,-1.9838939860533518,-2023.8993502474038,65.49050784625612,-89.905517578125,6157.5556640625,True
1598633637.254553,0,5,0.5,0.5,-0.003975311279296874,-0.14,-0.011,-0.56,0.0013402107022250282,10,1,100,0.024791927388889093,-10,-1,-100,563.8157036338234,-0.0015174166796716327,8.044978318768838e-05,0.9999988454865598,30.316360923293146,-2.042965683805564,-2138.6114226696536,67.39170440276085,-89.91940307617188,6151.23974609375,True
1598633637.387424,0,5,0.5,0.5,0.011418978881835937,-0.14,-0.011,-0.56,0.0015740979002182118,10,1,100,0.026636360419064458,-10,-1,-100,572.0864819517592,-0.0016150681595087577,8.706767819334645e-05,0.9999986919861742,31.838680224655164,-2.1329777380553856,-2316.802023417338,70.24644969561518,-89.95257568359375,6141.7666015625,True
1598633637.5141842,0,5,0.5,0.5,0.0059495208740234385,-0.14,-0.011,-0.56,0.001271246410709041,10,1,100,0.02203018107467166,-10,-1,-100,577.8079546332592,-0.0016604057281359517,9.025519731614896e-05,0.999998617452453,32.87694528306454,-2.1937971573237407,-2439.6129592464504,72.151537468155,-89.97134399414062,6135.451171875,True
1598633637.583543,0,5,0.5,0.5,-0.0034446105957031247,-0.14,-0.011,-0.56,0.0013251898340717757,10,1,100,0.021232975851378275,-10,-1,-100,583.6776207328076,-0.0016928799588519742,9.35693314248571e-05,0.9999985627000797,33.933015365454025,-2.255240690712589,-2565.6368038120786,74.05811981573612,-89.97296142578125,6129.134765625,True
1598633637.715489,0,5,0.5,0.5,-0.009986013793945314,-0.14,-0.011,-0.56,0.0011457921498752896,10,1,100,0.019523215064196235,-10,-1,-100,586.659847502131,-0.0017055449674691842,9.488372886104126e-05,0.9999985410556568,34.46748063845267,-2.286183187581159,-2629.8526572247033,75.01196213722336,-89.96493530273438,6125.9775390625,True
1598633637.8495219,0,5,0.5,0.5,-0.02459105224609375,-0.14,-0.011,-0.56,0.0013113618933040879,10,1,100,0.020591612018369555,-10,-1,-100,592.7627894008765,-0.0017255512880190375,9.751988861647404e-05,0.9999985064801965,35.548527413785735,-2.34847557478663,-2760.658060472392,76.92075253007737,-89.93768310546875,6119.662109375,True
1598633638.0025988,0,5,0.5,0.5,-0.03468416748046875,-0.14,-0.011,-0.56,0.001297354918314748,10,1,100,0.020407963313635116,-10,-1,-100,599.0136799878674,-0.0017410255288079774,9.973144773960797e-05,0.9999984794407172,36.64503035302618,-2.411272100903754,-2894.591359320135,78.8309848974937,-89.90151977539062,6113.34619140625,True
1598633638.1224847,0,5,0.5,0.5,-0.03908053588867188,-0.14,-0.011,-0.56,0.001302120582244829,10,1,100,0.020176219941264263,-10,-1,-100,605.4031814233167,-0.0017521182297307969,0.00010173429067977583,0.9999984598647356,37.75635035721999,-2.474529414914672,-3031.6078886267546,80.7426221909202,-89.86639404296875,6107.0302734375,True
1598633638.1937351,0,5,0.5,0.5,-0.0367371337890625,-0.14,-0.011,-0.56,0.0013020522392687393,10,1,100,0.0199660338166082,-10,-1,-100,611.974505880964,-0.0017596703254937503,0.00010351374461751624,0.9999984464214182,38.88202068410696,-2.5382239568549916,-3171.678907875016,82.6556371261093,-89.84173583984375,6100.71484375,True
1598633638.3910453,0,5,0.5,0.5,-0.026887445068359377,-0.14,-0.011,-0.56,0.0012753914176908449,10,1,100,0.01955821001221791,-10,-1,-100,615.2948055696907,-0.0017624146985616932,0.00010485773779310107,0.9999984414484282,39.44999812019387,-2.570222092571382,-3242.8434334839603,83.61265245818421,-89.836181640625,6097.55712890625,True
1598633638.4584744,0,5,0.5,0.5,-0.015564788818359375,-0.14,-0.011,-0.56,0.0013809609174365634,10,1,100,0.01992597707802229,-10,-1,-100,625.5418366496451,-0.0017679476125251504,0.00010701251285367013,0.9999984314535505,41.17417643698958,-2.6667963348401442,-3460.812476196391,86.4856911754334,-89.8480224609375,6088.0830078125,True
1598633638.5898643,0,5,0.5,0.5,-0.014220578002929689,-0.14,-0.011,-0.56,0.0012299615743677002,10,1,100,0.01956271457095863,-10,-1,-100,629.0182636026293,-0.0017694473924887567,0.00010757453003568327,0.9999984287405885,41.75548508453119,-2.699167384382939,-3534.945266402234,87.44402399802239,-89.85952758789062,6084.92578125,True
1598633638.7864065,0,5,0.5,0.5,-0.004722711181640627,-0.14,-0.011,-0.56,0.001348568583603332,10,1,100,0.019671299791549485,-10,-1,-100,636.1272461776389,-0.0017716576224310612,0.0001091450576925261,0.9999984246570718,42.928143293769345,-2.7641898760492043,-3685.424657915588,89.36164929409865,-89.8824462890625,6078.60986328125,True
1598633638.919409,0,5,0.5,0.5,-0.0017186920166015612,-0.14,-0.011,-0.56,0.0014271335733874965,10,1,100,0.01999858664277898,-10,-1,-100,647.0504230528604,-0.001776541119304065,0.00011126986468735165,0.9999984157590793,44.7125246982466,-2.862402060284632,-3916.6563947605246,92.24043568800771,-89.90521240234375,6069.13671875,True
1598633639.115472,0,5,0.5,0.5,-0.014200442504882813,-0.14,-0.011,-0.56,0.0013842613060329819,10,1,100,0.02009234975333313,-10,-1,-100,654.5149344624951,-0.0017817569982296045,0.00011279566813100429,0.9999984063082983,45.91906455426443,-2.928319542099104,-4074.4389957715816,94.16115421855356,-89.90570068359375,6062.8203125,True
1598633639.2478757,0,5,0.5,0.5,-0.040515600585937506,-0.14,-0.011,-0.56,0.0014696551572736113,10,1,100,0.020842465413644245,-10,-1,-100,666.0014653254766,-0.001793248655954959,0.00011494278632808518,0.9999983855224037,47.755368836124035,-3.0278890870953594,-4316.53480585243,97.04445272794352,-89.86859130859375,6053.34716796875,True
1598633639.37474,0,5,0.5,0.5,-0.05243059082031251,-0.14,-0.011,-0.56,0.0013941897817059752,10,1,100,0.0209100328163593,-10,-1,-100,673.8731407367159,-0.0018042483235772948,0.00011619282409507873,0.9999983655922716,48.99747200882144,-3.0946987264091863,-4481.494952746898,98.9681008479343,-89.82199096679688,6047.03173828125,True
1598633639.5114214,0,5,0.5,0.5,-0.057589483642578126,-0.14,-0.011,-0.56,0.0013853879947796416,10,1,100,0.02131899039249641,-10,-1,-100,681.8833659780212,-0.0018179083422945107,0.00011723424093269214,0.9999983407313192,50.24444344998065,-3.1612226777956796,-4648.355848203057,100.89288146498511,-89.7774658203125,6040.7158203125,True
1598633639.6438885,0,5,0.5,0.5,-0.04980034179687501,-0.14,-0.011,-0.56,0.0014588080894601147,10,1,100,0.021791284475644823,-10,-1,-100,690.0673584406031,-0.00183456031450918,0.00011883434805466053,0.9999983101319971,51.485957075600304,-3.226788754740189,-4816.052394830708,102.81879077238256,-89.75311279296875,6034.400390625,True
1598633639.843568,0,5,0.5,0.5,-0.033632568359375,-0.14,-0.011,-0.56,0.001497631559785325,10,1,100,0.02236903878125522,-10,-1,-100,698.3896557993721,-0.00185488270112896,0.0001206280037108272,0.9999982724280327,52.72170077840878,-3.2913867545425415,-4984.421093806625,104.7458326633579,-89.75686645507812,6028.0849609375,True
1598633639.9784698,0,5,0.5,0.5,0.0004299652099609384,-0.14,-0.011,-0.56,0.001549438283545073,10,1,100,0.024367905656944175,-10,-1,-100,711.1509641180746,-0.0018914450532872347,0.00012271523337250578,0.9999982036866776,54.56459544431539,-3.3864250966318274,-5237.932738898155,107.63852715084492,-89.80865478515625,6018.611328125,True
1598633640.2016938,0,5,0.5,0.5,0.007359317016601561,-0.14,-0.011,-0.56,0.0015166435099062824,10,1,100,0.02387559756887557,-10,-1,-100,719.854730301653,-0.001920095756775259,0.0001243003053768438,0.999998148889146,55.786585154020024,-3.4485717027508196,-5407.4222606952935,109.56841933772931,-89.86004638671875,6012.2958984375,True
1598633640.422727,0,5,0.5,0.5,0.008701440429687499,-0.14,-0.011,-0.56,0.0016327783862933802,10,1,100,0.026196779429457008,-10,-1,-100,733.2049658935284,-0.0019671065510748517,0.00012678184627945094,0.9999980572072029,57.611986922218925,-3.5400704890267667,-5662.253997460188,112.46542108422813,-89.903076171875,6002.822265625,True
1598633640.6158798,0,5,0.5,0.5,-0.04331444091796875,-0.14,-0.011,-0.56,0.0016921640094798565,10,1,100,0.027331390736610686,-10,-1,-100,746.910791261238,-0.0020199806042043842,0.00012956162841207364,0.9999979514439733,59.43043320778826,-3.6296028022997944,-5917.643581550192,115.36504282932505,-89.8631591796875,5993.3486328125,True
1598633640.7504349,0,5,0.5,0.5,-0.11485178833007814,-0.14,-0.011,-0.56,0.0017094866897330967,10,1,100,0.028242430496764157,-10,-1,-100,760.9549339299556,-0.002076108796246354,0.000132229553113374,0.9999978361414645,61.24331958037774,-3.717286901380104,-6173.306965241338,118.26731573324552,-89.72909545898438,5983.875,True
1598633640.9532027,0,5,0.5,0.5,-0.12223660583496096,-0.14,-0.011,-0.56,0.0016656748813017013,10,1,100,0.026864765149293507,-10,-1,-100,770.5085522799054,-0.0021143426024002147,0.00013423898286974128,0.9999977557651093,62.44924740710207,-3.774730392672181,-6343.764371967689,120.20365543646611,-89.611572265625,5977.5595703125,True
1598633641.1515093,0,5,0.5,0.5,-0.11464090881347658,-0.14,-0.011,-0.56,0.0018346763835407646,10,1,100,0.02923997248240436,-10,-1,-100,785.1592612240929,-0.0021704014983443274,0.0001375845724899379,0.9999976352111145,64.251481124178,-3.8593162301279014,-6598.967180697717,123.11043603322067,-89.52880859375,5968.0859375,True
1598633641.3486037,0,5,0.5,0.5,0.0008330993652343743,-0.14,-0.011,-0.56,0.0019202738559282004,10,1,100,0.030098511999560686,-10,-1,-100,800.122164389817,-0.002228836169199699,0.000141384729395098,0.9999975061467349,66.04280711408155,-3.941920793539147,-6853.076628185785,126.01999391252895,-89.62802124023438,5958.6123046875,True
1598633641.6033397,0,5,0.5,0.5,0.13600318298339847,-0.14,-0.011,-0.56,0.0019303451923901422,10,1,100,0.030760079358943274,-10,-1,-100,815.4486529601272,-0.002287599275219965,0.00014490902010538627,0.9999973729420153,67.82397704351294,-4.022601123548975,-7105.831279814963,128.93239541226788,-89.90072631835938,5949.138671875,True
1598633641.7477407,0,5,0.5,0.5,0.24554483032226565,-0.14,-0.011,-0.56,0.0019922169009950644,10,1,100,0.03344232787145775,-10,-1,-100,836.399413446663,-0.0023649925044787828,0.00014865168658201062,0.9999971923526234,70.0553979630739,-4.119390382645003,-7409.585826096556,132.41064322279078,-90.275146484375,5937.423828125,True
1598633641.8676686,0,5,0.5,0.5,0.06858457336425783,-0.14,-0.011,-0.56,0.00173030295679581,10,1,100,0.029827551611844597,-10,-1,-100,847.0539808145259,-0.0024020246470781797,0.00014964759871997481,0.9999971039374019,71.0125536406573,-4.157459917895161,-7534.7874756841375,133.93175721625553,-90.3210678100586,5932.05859375,True
1598633642.0655391,0,5,0.5,0.5,-0.0738307456970215,-0.14,-0.011,-0.56,0.0016585269183659783,10,1,100,0.029926989110631116,-10,-1,-100,857.8447836473351,-0.0024361300452540625,0.00014987597998208246,0.9999970213993606,71.92514740078057,-4.192230801001136,-7643.678353238913,135.1910518539493,-90.15354919433594,5927.279296875,True
1598633642.2584789,0,5,0.5,0.5,-0.3928551216125489,-0.14,-0.011,-0.56,0.0017488552496614093,10,1,100,0.03209980040800699,-10,-1,-100,874.1759165786207,-0.0024864186605823924,0.00015088151534613402,0.9999968974736935,73.09794943570694,-4.231962846388816,-7770.279625245383,136.72647954805188,-89.56332397460938,5920.90185546875,True
1598633642.3906155,0,5,0.5,0.5,-0.5360273109436036,-0.14,-0.011,-0.56,0.0018129719859661321,10,1,100,0.03266677529498769,-10,-1,-100,890.689402494696,-0.0025368177988447827,0.00015235660903525412,0.9999967706662453,74.1853188345567,-4.265981214320909,-7876.715764165571,138.02754570463466,-88.88714599609375,5915.05078125,True
1598633642.5237234,0,5,0.5,0.5,-0.33089914321899416,-0.14,-0.011,-0.56,0.0019878935722615868,10,1,100,0.031231384221970252,-10,-1,-100,901.7510551910382,-0.002569116335515306,0.00015526707682748272,0.9999966877612094,74.83014737887446,-4.28381080172716,-7933.12417843238,138.7662592844318,-88.64077758789062,5911.4375,True
1598633642.6604877,0,5,0.5,0.5,-0.07234348526000978,-0.14,-0.011,-0.56,0.002061943944467473,10,1,100,0.031432303343200345,-10,-1,-100,912.8990130833117,-0.0025998569903730832,0.00015856519863709486,0.9999966077946003,75.45665841150826,-4.3005257402160595,-7983.027423417373,139.40681426065086,-88.81475830078125,5908.0439453125,True
1598633642.7994711,0,5,0.5,0.5,0.22090050277709966,-0.14,-0.011,-0.56,0.0021399323388806932,10,1,100,0.031726732332443636,-10,-1,-100,924.0728688368108,-0.00263003829070239,0.00016225036185343758,0.9999965282806784,76.02408701757747,-4.3138427285212355,-8022.588906885722,139.95892826614883,-89.37411499023438,5904.84814453125,True
1598633642.930713,0,5,0.5,0.5,0.40235906295776375,-0.14,-0.011,-0.56,0.0021596171303928983,10,1,100,0.032041239904478436,-10,-1,-100,935.2901929228101,-0.0026599171445726598,0.000165757039437166,0.9999964486763879,76.56094012947828,-4.325365044590575,-8055.793280008889,140.44433889555373,-90.08106994628906,5901.8017578125,True
1598633643.06382,0,5,0.5,0.5,0.406475122833252,-0.14,-0.011,-0.56,0.0020430189701736035,10,1,100,0.03238506948583134,-10,-1,-100,946.5512912805425,-0.0026898135706712287,0.00016786278822943275,0.9999963683559252,77.07943793388098,-4.3357347424874195,-8084.350000993513,140.87217862446266,-90.65180206298828,5898.88427734375,True
1598633643.2007685,0,5,0.5,0.5,0.22460233154296877,-0.14,-0.011,-0.56,0.001938526268546435,10,1,100,0.03272040694046837,-10,-1,-100,957.8381566953612,-0.002719675012807127,0.00016880630460022457,0.9999962874292365,77.58949293771231,-4.345458536338379,-8109.636527957657,141.2497115888191,-90.8473892211914,5896.080078125,True
1598633643.3944068,0,5,0.5,0.5,-0.07238676223754884,-0.14,-0.011,-0.56,0.0018466895377008763,10,1,100,0.03300003265770558,-10,-1,-100,969.1426048271824,-0.002749041391716165,0.00016881084500415004,0.9999962071299696,78.09690914907719,-4.354849022398655,-8132.432214192948,141.58038875774574,-90.57868957519531,5893.3798828125,True
1598633643.5274217,0,5,0.5,0.5,-0.6602225799560547,-0.14,-0.011,-0.56,0.0017440121652051552,10,1,100,0.03470034171124442,-10,-1,-100,986.1686883741058,-0.002790879985079609,0.00016786412085204467,0.9999960913976343,78.858944008373,-4.368706708194988,-8163.414199759488,142.00782642774908,-89.5235595703125,5889.484375,True
1598633643.6576452,0,5,0.5,0.5,-0.688118327331543,-0.14,-0.011,-0.56,0.0018336177421568907,10,1,100,0.03344899310606346,-10,-1,-100,997.5425206568325,-0.0028172166735994353,0.00016780170583071923,0.9999960175584709,79.35350533619346,-4.37712563900717,-8181.004028389114,142.2591552574015,-88.64059448242188,5886.962890625,True
1598633643.7930503,0,5,0.5,0.5,-0.5794720748901367,-0.14,-0.011,-0.56,0.0020092605241350306,10,1,100,0.033406958383878804,-10,-1,-100,1008.9420676407171,-0.002840476258403947,0.00016932633547432957,0.9999959515034136,79.83988679923435,-4.385126764037209,-8196.238683146239,142.47847924033687,-88.09088134765625,5884.513671875,True
1598633643.9305444,0,5,0.5,0.5,-0.2115619552612305,-0.14,-0.011,-0.56,0.0021605910817194263,10,1,100,0.03353543910488847,-10,-1,-100,1020.3592181692366,-0.002862513288908537,0.00017207266774070705,0.9999958881958805,80.29059775953596,-4.391268116691276,-8206.454916941037,142.66829499763853,-88.17794799804688,5882.130859375,True
1598633644.4995914,0,5,0.5,0.5,0.2153801040649414,-0.14,-0.011,-0.56,0.00225452120073888,10,1,100,0.03355906428864003,-10,-1,-100,1031.7766774204792,-0.0028824950028982755,0.00017540796580039686,0.9999958302186083,80.71320226160775,-4.395976708646312,-8212.777423511105,142.8354829738309,-88.85824584960938,5879.798828125,True
1598633644.613718,0,5,0.5,0.5,0.5482398300170899,-0.14,-0.011,-0.56,0.0022977207126339875,10,1,100,0.03372190762501059,-10,-1,-100,1043.219715056708,-0.0029018836477536563,0.0001788174661744674,0.9999957735388728,81.11467863976372,-4.399563715823779,-8216.09451859555,142.98313695166854,-89.8779296875,5877.51123046875,True
1598633644.6969943,0,5,0.5,0.5,0.6432709548950195,-0.14,-0.011,-0.56,0.0021908701518344076,10,1,100,0.03383007513958404,-10,-1,-100,1054.6627555004088,-0.0029202458974300783,0.00018093058223060711,0.999995719704851,81.50776164186503,-4.402641437184278,-8217.830677722051,143.11374658525747,-90.82864379882812,5875.26318359375,True
1598633644.8134694,0,5,0.5,0.5,0.3385717407226563,-0.14,-0.011,-0.56,0.002002629588763488,10,1,100,0.03299347559421152,-10,-1,-100,1060.3845172727015,-0.002929096738766296,0.0001811265248511863,0.9999956937834666,81.70776873872171,-4.404324861471968,-8218.805659179983,143.17336938805786,-91.15275573730469,5874.1513671875,True
1598633644.9465508,0,5,0.5,0.5,0.2703703483581543,-0.14,-0.011,-0.56,0.001893091916871021,10,1,100,0.03404087310825143,-10,-1,-100,1071.8452597409487,-0.0029464472235922246,0.0001802967995466706,0.9999956429614195,82.11043762025233,-4.407721995563691,-8220.306833483948,143.27551271886085,-91.31382751464844,5871.9677734375,True
1598633645.078283,0,5,0.5,0.5,-0.09485845184326175,-0.14,-0.011,-0.56,0.0017596933499883078,10,1,100,0.034213699478565646,-10,-1,-100,1083.3062588317553,-0.0029635853838815753,0.00017831934366640764,0.9999955926722297,82.53177997098432,-4.411992761702277,-8223.348137277006,143.3703056082807,-90.92019653320312,5869.8017578125,True
1598633645.2846901,0,5,0.5,0.5,-0.40189597167968755,-0.14,-0.011,-0.56,0.0016163368242847194,10,1,100,0.03430775344110311,-10,-1,-100,1094.7928876524093,-0.002979825525629357,0.00017520977127007936,0.9999955449607628,82.96530123818717,-4.416813981401408,-8227.203456954163,143.45625660604543,-90.16613006591797,5867.65576171875,True
1598633645.5543637,0,5,0.5,0.5,-0.8874026756286622,-0.14,-0.011,-0.56,0.001541121183572624,10,1,100,0.03520060748234316,-10,-1,-100,1112.0007978472859,-0.0030025343771017503,0.00017169243085747276,0.9999954776442859,83.61866885832907,-4.424096673712139,-8232.512521796118,143.56787867319372,-88.8682861328125,5864.4775390625,True
1598633645.7534978,0,5,0.5,0.5,-0.7838611991882325,-0.14,-0.011,-0.56,0.0018131158458468198,10,1,100,0.0358751681922955,-10,-1,-100,1134.9918873786228,-0.003029142686982127,0.00017096399038938966,0.9999953975223566,84.45331399625516,-4.432000566678928,-8235.03675597923,143.6948891168714,-87.97756958007812,5860.291015625,True
1598633645.899432,0,5,0.5,0.5,0.3001212135314942,-0.14,-0.011,-0.56,0.0024023699559330668,10,1,100,0.03503768059739003,-10,-1,-100,1152.2436296701198,-0.0030455470210755302,0.0001756571385510845,0.9999953468831303,85.02610311877119,-4.435402409934326,-8231.185817798143,143.77544456573642,-88.813720703125,5857.18701171875,True
1598633646.1508548,0,5,0.5,0.5,0.9136527473449708,-0.14,-0.011,-0.56,0.0022633706343834913,10,1,100,0.03444865750171443,-10,-1,-100,1163.7303922163555,-0.0030549389023523305,0.00017865674807416513,0.9999953177040727,85.36264751482992,-4.4353410394129344,-8223.90970117181,143.81901142380872,-90.35811614990234,5855.1416015625,True
1598633646.3495471,0,5,0.5,0.5,2.5304765548706056,-0.14,-0.011,-0.56,0.0017844235441541335,10,1,100,0.03545243695235661,-10,-1,-100,1186.76494338247,-0.0030724454767921197,0.00017702664792735903,0.999995264358966,86.04470638446456,-4.434872488821427,-8209.877345807476,143.89017544004048,-93.9010238647461,5851.08984375,True
1598633646.5527952,0,5,0.5,0.5,1.220971752166748,-0.14,-0.011,-0.56,0.0005309724855102082,10,1,100,0.0354151569640762,-10,-1,-100,1204.0164473297773,-0.003087866579272071,0.00016415135709554245,0.9999952190557316,86.66115448572366,-4.438532343376998,-8209.275505918253,143.93740198171443,-94.85830688476562,5848.068359375,True
1598633646.682691,0,5,0.5,0.5,-0.27090970535278325,-0.14,-0.011,-0.56,-0.0005690012971538271,10,1,100,0.0356567850781903,-10,-1,-100,1221.311657924205,-0.0031039300001259353,0.0001424620394288862,0.999995172649909,87.19074362708105,-4.4362701006198915,-8200.226365326898,143.97671128990876,-93.48654174804688,5845.06640625,True
1598633646.8756318,0,5,0.5,0.5,-1.0556823234558106,-0.14,-0.011,-0.56,-0.0001335554566711816,10,1,100,0.03518411671020735,-10,-1,-100,1232.8161186284851,-0.0031140771855010943,0.00012673822599578848,0.9999951432185584,87.58746874451073,-4.436268993324751,-8198.214635177212,143.99887130134158,-91.26435852050781,5843.07568359375,True
1598633647.0084717,0,5,0.5,0.5,-2.4711667320251465,-0.14,-0.011,-0.56,-0.00041472463553092367,10,1,100,0.03575451281905842,-10,-1,-100,1250.1112021030858,-0.0031283349277754224,0.00010993645631565734,0.9999951007052761,88.30030166127148,-4.441720622612923,-8206.013814818143,144.02712262218714,-87.46456909179688,5840.1025390625,True
1598633647.1487405,0,5,0.5,0.5,-1.618506130218506,-0.14,-0.011,-0.56,0.0008878581490899587,10,1,100,0.03536079715376779,-10,-1,-100,1261.6155461838935,-0.0031375675060277206,0.00010656594818241046,0.9999950721447801,88.7477536421569,-4.44400994009675,-8208.506014681545,144.04389703634035,-85.64825439453125,5838.1259765625,True
1598633647.2839282,0,5,0.5,0.5,-1.1716715942382814,-0.14,-0.011,-0.56,0.0016332183870431368,10,1,100,0.03552185590877578,-10,-1,-100,1273.14576556487,-0.0031472815276840658,0.0001103402555182037,0.999995041209712,89.15531487819774,-4.444604461390955,-8207.231884859753,144.05896055589253,-84.84063720703125,5836.154296875,True
1598633647.419535,0,5,0.5,0.5,-0.5902578918457032,-0.14,-0.011,-0.56,0.00238608036632111,10,1,100,0.035727510098998515,-10,-1,-100,1284.6757430741563,-0.0031578504516913295,0.00012067141852176028,0.9999950066970003,89.52266839502613,-4.4437360666578725,-8202.23326429212,144.07252195345347,-85.03146362304688,5834.18701171875,True
1598633647.555402,0,5,0.5,0.5,0.11211113281249996,-0.14,-0.011,-0.56,0.0029563918996179947,10,1,100,0.03592639272237101,-10,-1,-100,1296.205842578318,-0.00316914958121522,0.00013529375571120852,0.9999949690806108,89.85078936907944,-4.441611674466055,-8193.682540349311,144.08506018926664,-86.192138671875,5832.2236328125,True
1598633647.6943498,0,5,0.5,0.5,0.7871515869140626,-0.14,-0.011,-0.56,0.003369875512646453,10,1,100,0.03615323828444145,-10,-1,-100,1307.7103075606283,-0.003181371383564725,0.00015238242544082006,0.9999949278149947,90.14307707401358,-4.438417524214308,-8181.9596841363655,144.09677784476668,-88.08914184570312,5830.2626953125,True
1598633647.823839,0,5,0.5,0.5,1.1612133323669434,-0.14,-0.011,-0.56,0.003376675474023991,10,1,100,0.036480808061589654,-10,-1,-100,1319.2581076171482,-0.003195345081419065,0.0001680032833190203,0.9999948807592505,90.41745442188122,-4.434902211042154,-8168.707422432037,144.10777597198202,-90.14468383789062,5828.3056640625,True
1598633647.9574406,0,5,0.5,0.5,1.0628137802124025,-0.14,-0.011,-0.56,0.003249213954747367,10,1,100,0.036720212106023706,-10,-1,-100,1330.7883300201502,-0.0032101131165954777,0.00018105352518269516,0.9999948311833415,90.7034008429012,-4.432381478157671,-8156.581329182173,144.11813026040653,-91.65444946289062,5826.35107421875,True
1598633648.0917459,0,5,0.5,0.5,0.5759171920776368,-0.14,-0.011,-0.56,0.0028806931737866133,10,1,100,0.03698866338770172,-10,-1,-100,1342.3183079957962,-0.0032258679361008135,0.00018955182689722258,0.9999947789094521,91.02707831201798,-4.432050295111466,-8147.90052383947,144.1279353086343,-92.1717300415039,5824.39892578125,True
1598633648.2508013,0,5,0.5,0.5,-0.11478279342651371,-0.14,-0.011,-0.56,0.002538420353744954,10,1,100,0.03719891062989707,-10,-1,-100,1353.8484081446659,-0.0032419909851838266,0.00019412317573962485,0.9999947258914141,91.39843351365482,-4.434369125774791,-8143.50785026929,144.1372855824668,-91.60090637207031,5822.44921875,True
1598633648.4424405,0,5,0.5,0.5,-0.7892360466003419,-0.14,-0.011,-0.56,0.0023081431784352014,10,1,100,0.037347119656647436,-10,-1,-100,1365.3703301267233,-0.003257879372048221,0.00019612425950286204,0.9999946738644522,91.81125121749379,-4.439061266098811,-8142.796328094301,144.14612579200227,-90.18021392822266,5820.501953125,True
1598633648.6242912,0,5,0.5,0.5,-1.903447171020508,-0.14,-0.011,-0.56,0.002375544532162691,10,1,100,0.03828148705012222,-10,-1,-100,1382.6656641700538,-0.003280699841461739,0.0001984778135913392,0.9999945987929674,92.46347374466421,-4.448529709426844,-8144.589293177271,144.1587572342444,-87.44766235351562,5817.58447265625,True
1598633648.7507515,0,5,0.5,0.5,-1.76139091796875,-0.14,-0.011,-0.56,0.002931968891511234,10,1,100,0.03842009240026884,-10,-1,-100,1399.9786989272106,-0.003302575651079512,0.00020559225524275162,0.9999945253479608,93.09002773124743,-4.457943620726637,-8144.035157076315,144.1707463022016,-85.46173095703125,5814.6708984375,True
1598633648.8836064,0,5,0.5,0.5,-0.82512421875,-0.14,-0.011,-0.56,0.0031476235820737447,10,1,100,0.03769511010372623,-10,-1,-100,1411.5087991353357,-0.003315730826105831,0.00021393383393121797,0.999994480065467,93.46498965650282,-4.462886438999715,-8139.89693286271,144.17808193114064,-85.20953369140625,5812.73095703125,True
1598633649.084402,0,5,0.5,0.5,-0.17414281921386715,-0.14,-0.011,-0.56,0.0034755737549125886,10,1,100,0.03775691760375599,-10,-1,-100,1423.0565989543684,-0.0033281084348805606,0.00022441366847798645,0.9999944366509002,93.79838772733353,-4.46640250251988,-8132.171263169361,144.18498849515427,-85.93746948242188,5810.79296875,True
1598633649.2834876,0,5,0.5,0.5,1.295914569091797,-0.14,-0.011,-0.56,0.004256635727732133,10,1,100,0.03850085070525294,-10,-1,-100,1440.3516890156316,-0.003345979326640591,0.00024096033607998385,0.9999943731644005,94.2231811876147,-4.468831185088154,-8114.235575026468,144.19496971656446,-88.62030029296875,5807.890625,True
1598633649.4139056,0,5,0.5,0.5,2.3326656829833987,-0.14,-0.011,-0.56,0.0037277900674018453,10,1,100,0.03890103585682633,-10,-1,-100,1457.6389670692151,-0.0033657139951248534,0.000251114547978216,0.9999943044391738,94.58559861613665,-4.468327577771231,-8091.2325867139725,144.20513052880526,-92.2468032836914,5804.99072265625,True
1598633649.6064422,0,5,0.5,0.5,1.6436169303894044,-0.14,-0.011,-0.56,0.002552303417633825,10,1,100,0.038511366908171654,-10,-1,-100,1469.186890871264,-0.0033799572770194077,0.0002495838517381185,0.9999942567818609,94.9841783002348,-4.474850756126412,-8089.418842813314,144.21177077323821,-94.16034698486328,5803.0595703125,True
1598633649.801443,0,5,0.5,0.5,1.1331515243530275,-0.14,-0.011,-0.56,0.0008975815964779067,10,1,100,0.03954020453525006,-10,-1,-100,1486.4998027634574,-0.003402104380660239,0.00023308708375792568,0.999994185661194,95.55905180866851,-4.48225253125416,-8084.721517520957,144.22112600289805,-94.9580078125,5800.166015625,True
1598633649.9968407,0,5,0.5,0.5,-0.46641998367309573,-0.14,-0.011,-0.56,-0.0008218518374376372,10,1,100,0.039830045446738106,-10,-1,-100,1503.8125940527534,-0.0034247128136703775,0.00020241923141591753,0.9999941151669838,96.02740704352769,-4.482748489866954,-8071.10818818832,144.23061841654498,-93.30665588378906,5797.275390625,True
1598633650.1854343,0,5,0.5,0.5,-2.337725116729737,-0.14,-0.011,-0.56,-0.0015120783637892334,10,1,100,0.03981954513112207,-10,-1,-100,1521.12526132504,-0.0034450043664208244,0.00016825703717846262,0.9999940517995519,96.62303741970845,-4.487443990464915,-8068.271856183127,144.23966979837022,-89.30960083007812,5794.38818359375,True
1598633650.3175385,0,5,0.5,0.5,-3.316277395629883,-0.14,-0.011,-0.56,-0.000568125204385715,10,1,100,0.039646169694948635,-10,-1,-100,1538.438662018394,-0.0034617049785974972,0.00014580722315928505,0.9999939976514333,97.36593512597537,-4.49819107436214,-8077.660125011926,144.2480876493037,-84.71539306640625,5791.50439453125,True
1598633650.4486039,0,5,0.5,0.5,-2.268868463134766,-0.14,-0.011,-0.56,0.0014802637413541282,10,1,100,0.0390472555910228,-10,-1,-100,1549.9428846990922,-0.0034712781295068414,0.00014406790136715133,0.9999939647180814,97.82133142975029,-4.503639127362747,-8080.522321236724,144.25337474330018,-82.54061889648438,5789.583984375,True
1598633650.5854228,0,5,0.5,0.5,-1.8557645477294926,-0.14,-0.011,-0.56,0.0026254350444662373,10,1,100,0.03911041196373314,-10,-1,-100,1561.4908074891428,-0.0034804017769232234,0.00015295327917884494,0.9999939316859705,98.22737019781083,-4.507353532584927,-8079.278929875158,144.25845210666185,-81.39553833007812,5787.6650390625,True
1598633650.7865465,0,5,0.5,0.5,-1.309931866455078,-0.14,-0.011,-0.56,0.0038391786248848153,10,1,100,0.03926901376784767,-10,-1,-100,1573.0386081668548,-0.003489988135565687,0.0001721203647885102,0.9999938951600623,98.58673677337895,-4.509900926360618,-8074.22035648647,144.2633990972211,-81.26522827148438,5785.7470703125,True
1598633650.9203596,0,5,0.5,0.5,-0.09030631713867177,-0.14,-0.011,-0.56,0.006521407347222542,10,1,100,0.040008255647447505,-10,-1,-100,1590.351521174307,-0.0035052762244182113,0.000213976424912812,0.999993833607328,99.04164433091317,-4.512358233753752,-8059.899950318965,144.27088264032335,-82.91064453125,5782.873046875,True
1598633651.0554647,0,5,0.5,0.5,0.58079892578125,-0.14,-0.011,-0.56,0.005844569387543823,10,1,100,0.03970054587595612,-10,-1,-100,1601.8992006621556,-0.0035162323100907866,0.00024589884712979544,0.9999937878027535,99.28505141703332,-4.513048117341323,-8045.648584209,144.27614315289904,-85.19467163085938,5780.9580078125,True
1598633651.1836433,0,5,0.5,0.5,1.21501301651001,-0.14,-0.011,-0.56,0.0057797071814461665,10,1,100,0.03987604903583633,-10,-1,-100,1613.4470016991254,-0.003527651036414797,0.000274334316090573,0.9999937401898317,99.48983717818476,-4.513157528069007,-8028.432356857821,144.2814932846755,-87.93899536132812,5779.044921875,True
1598633651.3746526,0,5,0.5,0.5,1.34885525970459,-0.14,-0.011,-0.56,0.005508404565970822,10,1,100,0.040159562325577165,-10,-1,-100,1624.9946809343528,-0.0035404748231984548,0.00029769585458300175,0.9999936881876827,99.69516438299885,-4.514071031657164,-8011.4159117502395,144.28692533446304,-90.33543395996094,5777.1328125,True
1598633651.5072482,0,5,0.5,0.5,1.2690888793945314,-0.14,-0.011,-0.56,0.005389735343827995,10,1,100,0.04113755986584512,-10,-1,-100,1642.3080818899907,-0.0035608979066019085,0.00031779607049225214,0.9999936094854589,100.12208545466919,-4.521616009204547,-7995.639907245464,144.2952241964035,-92.1458969116211,5774.2666015625,True
1598633651.6434746,0,5,0.5,0.5,0.12865753402709962,-0.14,-0.011,-0.56,0.003734266973583957,10,1,100,0.04072280287608929,-10,-1,-100,1653.8301267663483,-0.0035755700233409664,0.0003209143935538282,0.9999935561357185,100.46781559906822,-4.529699458342855,-7990.079734873617,144.30085118060472,-91.96690368652344,5772.357421875,True
1598633651.7786098,0,5,0.5,0.5,-0.6487320854187012,-0.14,-0.011,-0.56,0.0029431089036085654,10,1,100,0.04084804716374811,-10,-1,-100,1665.3775614693295,-0.003589928199667081,0.00031641810719514345,0.9999935061264661,100.80793291773139,-4.537647008346018,-7984.105103397792,144.30636584224305,-90.70897674560547,5770.44970703125,True
1598633651.9254417,0,5,0.5,0.5,-1.2446618789672852,-0.14,-0.011,-0.56,0.0024865712979849582,10,1,100,0.04093343049637705,-10,-1,-100,1676.9259728103643,-0.003603640732786476,0.0003080251314688192,0.9999934594256041,101.24669156387446,-4.5501130273295285,-7985.9481639427495,144.31171256631265,-88.84188842773438,5768.54345703125,True
1598633652.0475478,0,5,0.5,0.5,-1.3321176895141602,-0.14,-0.011,-0.56,0.002233854917506398,10,1,100,0.04102314434839914,-10,-1,-100,1688.4737736518728,-0.003616801922819509,0.0002979486798677178,0.9999934149635362,101.68125718438917,-4.56242832094859,-7987.430528604775,144.31691078444675,-87.21337890625,5766.638671875,True
1598633652.1815526,0,5,0.5,0.5,-1.0305892807006836,-0.14,-0.011,-0.56,0.002363092708230061,10,1,100,0.04109239781596294,-10,-1,-100,1700.021208954975,-0.003629272217876577,0.0002898313443272145,0.9999933721685161,102.07834839203903,-4.572983103179915,-7985.951083317021,144.32199809359764,-86.33218383789062,5764.73486328125,True
1598633652.37999,0,5,0.5,0.5,-0.4578678024291993,-0.14,-0.011,-0.56,0.002469076685435778,10,1,100,0.041245433323006765,-10,-1,-100,1711.5687657556264,-0.003641873459735845,0.00028330842910177377,0.9999933282247623,102.42419892757322,-4.581011249673541,-7980.482253813442,144.32704234086975,-86.43743896484375,5762.83203125,True
1598633652.5727057,0,5,0.5,0.5,0.8817068618774415,-0.14,-0.011,-0.56,0.0022503475243162876,10,1,100,0.04205889299597372,-10,-1,-100,1728.9001112321857,-0.003660600042784591,0.00027532703015556957,0.9999932620784768,102.84241013289764,-4.587722475040931,-7964.58197573664,144.33467258065468,-88.42977905273438,5759.98046875,True
1598633652.7728286,0,5,0.5,0.5,2.220724617004395,-0.14,-0.011,-0.56,0.0019071126214051616,10,1,100,0.04241128482053568,-10,-1,-100,1746.212657999131,-0.003680696527840656,0.0002649241427388957,0.999993191120954,103.15765268045047,-4.5879693345959955,-7940.978401894747,144.3427562620068,-91.93144989013672,5757.13134765625,True
1598633652.9715056,0,5,0.5,0.5,2.229977309417725,-0.14,-0.011,-0.56,0.000677691845310518,10,1,100,0.042749211706440256,-10,-1,-100,1763.5173920562956,-0.003701898990044006,0.000244298974553197,0.9999931181072592,103.7377297674829,-4.59705534202504,-7937.907992462189,144.35092054657332,-94.73973083496094,5754.28515625,True
1598633653.0995307,0,5,0.5,0.5,0.9726858055114747,-0.14,-0.011,-0.56,-0.0009574762048556746,10,1,100,0.04297339055604192,-10,-1,-100,1780.8482491589384,-0.0037230651959826613,0.0002107322001828962,0.999993047164572,104.2699226523463,-4.600981863354164,-7931.194125590488,144.35897163225175,-95.18330383300781,5751.44140625,True
1598633653.231226,0,5,0.5,0.5,-0.01898647460937508,-0.14,-0.011,-0.56,-0.0006787235076014184,10,1,100,0.04232012238111734,-10,-1,-100,1792.3960507875308,-0.0037362209749826876,0.00018284839697612452,0.9999930035851701,104.55499436217684,-4.598908977069385,-7921.469621560905,144.36430243351856,-94.11671447753906,5749.54736328125,True
1598633653.488953,0,5,0.5,0.5,-0.8958994842529298,-0.14,-0.011,-0.56,-0.0010394202531869667,10,1,100,0.042337013096706094,-10,-1,-100,1803.9439736265922,-0.003748188279713844,0.00015434593818880682,0.9999929636062203,104.78284011387719,-4.5932731026350995,-7907.502966324642,144.36957383690049,-92.00733184814453,5747.654296875,True
1598633653.6993482,0,5,0.5,0.5,-3.3532736312866214,-0.14,-0.011,-0.56,-0.00316783701536842,10,1,100,0.043409586372140756,-10,-1,-100,1827.0571542771067,-0.0037686744409915316,0.00010923270706141964,0.9999928925553289,105.75221682478778,-4.602828037071558,-7918.371260417007,144.37979381735653,-86.8072509765625,5743.873046875,True
1598633653.8148165,0,5,0.5,0.5,-2.415527601623535,-0.14,-0.011,-0.56,-3.874453868013832e-05,10,1,100,0.043004897982541326,-10,-1,-100,1844.3881336677587,-0.00378346920796743,9.684769439224058e-05,0.9999928379649909,106.4206321581674,-4.6070126928632025,-7922.054204175064,144.38792211324784,-83.99002075195312,5741.0390625,True
1598633654.013471,0,5,0.5,0.5,-1.3318815231323242,-0.14,-0.011,-0.56,0.0019733887567334016,10,1,100,0.042573970515298515,-10,-1,-100,1855.9100553407334,-0.0037928499579840866,0.00010406353191081496,0.999992801704081,106.79682587771617,-4.607149073443423,-7919.302012739044,144.39268035075284,-83.28936767578125,5739.1513671875,True
1598633654.1472218,0,5,0.5,0.5,-0.367511946105957,-0.14,-0.011,-0.56,0.0045620969349008,10,1,100,0.0432042362306522,-10,-1,-100,1873.2403015858727,-0.0038069588938296193,0.0001343259747405102,0.9999927444839354,107.25401357142074,-4.6043237855945405,-7907.323564911949,144.39960895679226,-84.11129760742188,5736.3232421875,True
1598633654.2964742,0,5,0.5,0.5,0.4044324722290039,-0.14,-0.011,-0.56,0.004671770646896422,10,1,100,0.042946796223665575,-10,-1,-100,1884.8062916528434,-0.0038172947577765036,0.00016296975874415814,0.9999927008241559,107.48596290639051,-4.600767076580521,-7894.100929180551,144.40442543548656,-85.87527465820312,5734.439453125,True
1598633654.4154093,0,5,0.5,0.5,1.0838149002075197,-0.14,-0.011,-0.56,0.004992864610580802,10,1,100,0.04309847255370272,-10,-1,-100,1896.3542149120476,-0.003827927423714925,0.0001920307413913428,0.9999926550209421,107.66721182335908,-4.596136833324581,-7877.300441619563,144.40934355205061,-88.26101684570312,5732.556640625,True
1598633654.6105108,0,5,0.5,0.5,1.4574619026184084,-0.14,-0.011,-0.56,0.004996703775174067,10,1,100,0.043326809052592286,-10,-1,-100,1907.9198385025375,-0.0038395354237435097,0.00021855098474994725,0.9999926050742559,107.8271840207808,-4.591379349728921,-7859.097544218504,144.41438085582485,-90.70915985107422,5730.6748046875,True
1598633654.742829,0,5,0.5,0.5,1.5356555328369144,-0.14,-0.011,-0.56,0.005290673019324892,10,1,100,0.04430946748286068,-10,-1,-100,1925.2500852785306,-0.0038588962854685725,0.000245356151831689,0.9999925243319655,108.21307240279377,-4.591338530098115,-7842.624185831479,144.42210479169043,-92.78571319580078,5727.85546875,True
1598633654.874673,0,5,0.5,0.5,0.36459411087036137,-0.14,-0.011,-0.56,0.0034917666053209473,10,1,100,0.04397455694889782,-10,-1,-100,1936.7976426053792,-0.0038733289448285254,0.00025333931454991947,0.9999924665426619,108.55076755325254,-4.595201391002819,-7837.545110132252,144.4273524946237,-92.77777862548828,5725.9765625,True
1598633655.0122643,0,5,0.5,0.5,-0.39971593780517584,-0.14,-0.011,-0.56,0.0027287364206369192,10,1,100,0.04406364608979127,-10,-1,-100,1948.363754031714,-0.0038871348019185632,0.0002535960145079344,0.9999924129072647,108.82333638367236,-4.596673735963801,-7827.808903862359,144.43256991523347,-91.6816635131836,5724.09912109375,True
1598633655.1451566,0,5,0.5,0.5,-1.0690294036865235,-0.14,-0.011,-0.56,0.002286398116112516,10,1,100,0.04423331476749549,-10,-1,-100,1959.9033765173517,-0.0039011017085957226,0.00024971789345016324,0.9999923594940276,109.23758404011703,-4.604527100575131,-7828.2896371819115,144.43768607851,-89.84912109375,5722.22314453125,True
1598633655.2805748,0,5,0.5,0.5,-1.3272647674560547,-0.14,-0.011,-0.56,0.0020928076591407805,10,1,100,0.04427913334240679,-10,-1,-100,1971.4511777332518,-0.003914095040558148,0.00024430470180118394,0.9999923100580455,109.67855908851523,-4.613900053494146,-7830.663631311251,144.44266540397328,-88.0093994140625,5720.3486328125,True
1598633655.4716341,0,5,0.5,0.5,-1.089391912841797,-0.14,-0.011,-0.56,0.002159160025272701,10,1,100,0.044358159118295284,-10,-1,-100,1983.0168009392219,-0.00392650682591153,0.0002398527699874848,0.9999922624774629,110.08177695377924,-4.622004783761459,-7830.317857082389,144.4475348400279,-86.87112426757812,5718.474609375,True
1598633655.6646352,0,5,0.5,0.5,-0.32283479309082036,-0.14,-0.011,-0.56,0.0023857702054308192,10,1,100,0.04513330013094026,-10,-1,-100,2000.3471697178902,-0.003944715497376897,0.00023774220703276242,0.9999921913186561,110.56714281292852,-4.629328019935891,-7821.338011656429,144.45478033324932,-87.04995727539062,5715.66650390625,True
1598633655.7994125,0,5,0.5,0.5,1.2544150665283205,-0.14,-0.011,-0.56,0.0027109796815566484,10,1,100,0.045333067304995645,-10,-1,-100,2017.6954830341274,-0.003962959667015419,0.00023868594846389302,0.9999921189587924,110.9065310501844,-4.630058162443632,-7802.2120298260315,144.46236969909143,-89.44161987304688,5712.8603515625,True
1598633655.9332578,0,5,0.5,0.5,1.6244612457275394,-0.14,-0.011,-0.56,0.002449987590862429,10,1,100,0.044888072737304295,-10,-1,-100,2029.243162746774,-0.003975367447972118,0.00023710240694977362,0.9999920700866093,111.06031518672752,-4.626650135348979,-7784.515395227643,144.46761082827024,-91.87798309326172,5710.9912109375,True
1598633656.065423,0,5,0.5,0.5,1.6680498939514163,-0.14,-0.011,-0.56,0.0019001952522719103,10,1,100,0.0450869089004178,-10,-1,-100,2040.8089078747435,-0.0039883208139390065,0.00023062373734469816,0.9999920200230484,111.40578607143009,-4.630115041115476,-7780.330401504615,144.47284106456968,-93.88365936279297,5709.12353515625,True
1598633656.1917462,0,5,0.5,0.5,1.1769916725158693,-0.14,-0.011,-0.56,0.001162971834823378,10,1,100,0.04526893535268035,-10,-1,-100,2052.3746533829253,-0.00400161612766566,0.00021802103140637494,0.9999919697353558,111.78341484509765,-4.633818896251248,-7778.3977361684165,144.4778914219744,-94.78170013427734,5707.2568359375,True
1598633656.3878112,0,5,0.5,0.5,0.5254131492614746,-0.14,-0.011,-0.56,0.00043586538810170584,10,1,100,0.04544591204121182,-10,-1,-100,2063.9146419088356,-0.004015181910183633,0.0001999788175108162,0.9999919191287001,112.09311762939538,-4.6337177503498665,-7771.759323900446,144.48289577723259,-94.56616973876953,5705.3916015625,True
1598633656.5227828,0,5,0.5,0.5,-0.9955009376525881,-0.14,-0.011,-0.56,-0.0015191233498330963,10,1,100,0.04632755615550558,-10,-1,-100,2081.2446445536334,-0.0040354004289977746,0.0001658526895309365,0.9999918439848712,112.4314862911372,-4.626865622277488,-7753.185694592481,144.4904730347018,-92.21820068359375,5702.59619140625,True
1598633656.6584656,0,5,0.5,0.5,-1.5223332321166994,-0.14,-0.011,-0.56,-0.0006350638298527661,10,1,100,0.04569015335665086,-10,-1,-100,2092.810268422705,-0.0040478515428146065,0.00014294560820811886,0.9999917971985772,112.86671651069548,-4.630400438097165,-7755.326866882867,144.49566756816242,-89.58636474609375,5700.73388671875,True
1598633656.784826,0,5,0.5,0.5,-1.7262691146850588,-0.14,-0.011,-0.56,-0.00019375896466163468,10,1,100,0.04566378156041942,-10,-1,-100,2104.3763796390267,-0.004058797584651242,0.00012622991694842406,0.9999917550800981,113.35747890230206,-4.636140772893169,-7761.240928637341,144.50059603823743,-87.18997192382812,5698.87255859375,True
1598633656.918489,0,5,0.5,0.5,-1.3514289077758792,-0.14,-0.011,-0.56,0.0003910820345226964,10,1,100,0.045751535349914746,-10,-1,-100,2115.9420032138005,-0.004069414745730783,0.00011645791105478886,0.9999917131162549,113.77548955688155,-4.638958332814635,-7762.12852803177,144.50529856313912,-85.80963134765625,5697.0126953125,True
1598633657.050474,0,5,0.5,0.5,-0.823264274597168,-0.14,-0.011,-0.56,0.0012292996993922517,10,1,100,0.045773194325980704,-10,-1,-100,2127.5073823715793,-0.004079133693840221,0.00011530660706750981,0.999991673651683,114.12138733047678,-4.638934343321826,-7758.1007935859125,144.50993489443118,-85.4615478515625,5695.154296875,True
1598633657.1835842,0,5,0.5,0.5,-0.16951347808837886,-0.14,-0.011,-0.56,0.001979987158963436,10,1,100,0.045926024149436424,-10,-1,-100,2139.0732499485603,-0.004089236264883432,0.00012119570362059894,0.9999916316941715,114.39845503041147,-4.63629569128298,-7749.447412595352,144.51459160144552,-86.1195068359375,5693.296875,True
1598633657.3174675,0,5,0.5,0.5,0.5416149124145508,-0.14,-0.011,-0.56,0.0025639823432379418,10,1,100,0.04605366089540975,-10,-1,-100,2150.612994528725,-0.00409946595752441,0.00013196528420303302,0.9999915884466363,114.60931226857599,-4.631164284407376,-7736.406278377996,144.5193421652918,-87.6669921875,5691.44091796875,True
1598633657.4496703,0,5,0.5,0.5,1.0640677833557128,-0.14,-0.011,-0.56,0.002864396645927523,10,1,100,0.04623212076417377,-10,-1,-100,2162.177885748446,-0.0041102752237235606,0.00014458243032310268,0.9999915423309869,114.7730806501288,-4.624199788167332,-7720.312129690677,144.52423684653198,-89.657958984375,5689.58544921875,True
1598633657.5794663,0,5,0.5,0.5,1.151074481201172,-0.14,-0.011,-0.56,0.0028401777724546763,10,1,100,0.04643232817418874,-10,-1,-100,2173.7437533572083,-0.004121811029077666,0.0001559106109525234,0.9999914931466778,114.93637457975447,-4.617151598265364,-7704.31177512775,144.52927864858472,-91.38166809082031,5687.7314453125,True
1598633657.7117186,0,5,0.5,0.5,0.7778787269592287,-0.14,-0.011,-0.56,0.0025571565303924644,10,1,100,0.046613909104643456,-10,-1,-100,2185.3096209920477,-0.004133839592493339,0.00016369250061548017,0.9999914422508768,115.15071009046099,-4.612121706507962,-7691.833526543498,144.53443761189106,-92.23284149169922,5685.87841796875,True
