Timestamp,Input Throttle,horizon,dT,dt,Input Roll,Roll P,Roll I,Roll D,Input Pitch,Pitch P,Pitch I,Pitch D,Input Yaw,Yaw P,Yaw I,Yaw D,Altitude,Direction X,Direction Y,Direction Z,Drag X,Drag Y,Drag Z,Vertical Velocity,Roll,Mass,Has Fuel
1598624239.6004026,0,5,0.5,0.5,-0.0093994140625,-0.14,-0.011,-0.56,0.0043213541247600126,10,1,100,0.12794000886917384,-10,-1,-100,478.4743523929501,-0.011752726539025904,0.0004142744912893648,0.999930848506808,5.398517093998344,-0.442112351631486,112.6701053227043,-14.239847421741258,-89.922607421875,6440.1796875,True
1598624239.645309,0,5,0.5,0.5,-0.0093392822265625,-0.14,-0.011,-0.56,0.004300652785352533,10,1,100,0.12357668370619321,-10,-1,-100,477.59852968971245,-0.011797036954135282,0.00041533340422872795,0.9999303262814195,5.585611924451467,-0.457902745952086,121.47417435237188,-14.82323111364486,-89.92486572265625,6440.1796875,True
1598624239.6912122,0,5,0.5,0.5,-0.008678521728515626,-0.14,-0.011,-0.56,0.004040490417417834,10,1,100,0.11757184096214879,-10,-1,-100,477.0085067768814,-0.011772005091148735,0.00041355336409762563,0.999930622028223,6.030939647353865,-0.49162610627989095,127.54906162146695,-14.56643997562673,-89.927734375,6438.60107421875,True
1598624239.739271,0,5,0.5,0.5,-0.006754229736328125,-0.14,-0.011,-0.56,0.004085757413353651,10,1,100,0.11772654289542725,-10,-1,-100,476.4723627100466,-0.011739953410471543,0.00041197070633776947,0.9999309995064946,5.872682746687441,-0.4731401426526028,114.05381786950294,-13.663580735256796,-89.93289184570312,6435.443359375,True
1598624239.7852533,0,5,0.5,0.5,-0.004482467651367187,-0.14,-0.011,-0.56,0.004024314693038345,10,1,100,0.11498584063691922,-10,-1,-100,475.9451855275547,-0.011675227358950867,0.00040959883754745403,0.9999317583189911,5.709412353510116,-0.4547790001289443,101.4213889997268,-12.760171215471109,-89.94036865234375,6432.28515625,True
1598624239.8324537,0,5,0.5,0.5,-0.002070034790039062,-0.14,-0.011,-0.56,0.0038961770656420107,10,1,100,0.11113789082837128,-10,-1,-100,475.4754212611588,-0.011570790288982589,0.00040590534309124836,0.9999329737802133,5.5281593206667505,-0.4355197712635577,89.41399236477413,-11.85621966937163,-89.94989013671875,6429.126953125,True
1598624239.88139,0,5,0.5,0.5,0.00025460510253906294,-0.14,-0.011,-0.56,0.0037626100195781503,10,1,100,0.10718951820304312,-10,-1,-100,475.01206257450394,-0.011429434301245732,0.0004009643701276706,0.9999346014910814,5.335220808265925,-0.4158797219105148,78.15442938308496,-10.951721817400065,-89.96090698242188,6425.9697265625,True
1598624239.927622,0,5,0.5,0.5,0.0024375549316406255,-0.14,-0.011,-0.56,0.0036152810308281986,10,1,100,0.10290551397255349,-10,-1,-100,474.61214884452056,-0.011251592970024824,0.0003947687090174843,0.9999366208981963,5.12962802011685,-0.3957903923581194,67.62802063688288,-10.046666970555924,-89.972900390625,6422.8115234375,True
1598624239.9745023,0,5,0.5,0.5,0.004321807861328126,-0.14,-0.011,-0.56,0.0034519061332996216,10,1,100,0.09836772617055388,-10,-1,-100,474.21870487811975,-0.011038437695287616,0.0003872921828406756,0.999938999588481,4.9118027143755505,-0.37529004456797177,57.84026350026599,-9.141045383096909,-89.9852294921875,6419.65380859375,True
1598624240.021514,0,5,0.5,0.5,0.005882098388671876,-0.14,-0.011,-0.56,0.0032606154427885503,10,1,100,0.0935577496569899,-10,-1,-100,473.88855289062485,-0.010790898170225674,0.0003784042507818028,0.9999417049642958,4.682499327881474,-0.35443284905385875,48.796586973521514,-8.234853654749362,-89.99734497070312,6416.49609375,True
1598624240.0684998,0,5,0.5,0.5,0.007078671264648438,-0.14,-0.011,-0.56,0.0030981698380154743,10,1,100,0.08857881832306341,-10,-1,-100,473.5649004797451,-0.0105107893187971,0.00036850353045690703,0.999944692227047,4.442956878697985,-0.3333088496696211,40.50229383035783,-7.328085333664177,-90.00875091552734,6413.337890625,True
1598624240.1173334,0,5,0.5,0.5,0.007958493804931641,-0.14,-0.011,-0.56,0.002879879403047033,10,1,100,0.08219948380447248,-10,-1,-100,473.30451070237905,-0.01019927999207505,0.0003575600270807727,0.9999479220631795,4.195344628981343,-0.3120689262658642,32.96390371835531,-6.4207344759464515,-90.01899719238281,6410.1806640625,True
1598624240.1676495,0,5,0.5,0.5,0.00842306137084961,-0.14,-0.011,-0.56,0.0026417728502631087,10,1,100,0.07566450500515887,-10,-1,-100,473.107718380983,-0.009858133303208571,0.00034549930387456763,0.9999513477354821,3.943800261555323,-0.29100108715610706,26.19139256377329,-5.512793819451284,-90.0277099609375,6407.0224609375,True
1598624240.313702,0,5,0.5,0.5,0.00849244613647461,-0.14,-0.011,-0.56,0.0024303771178224957,10,1,100,0.06900064735603065,-10,-1,-100,472.91742635983974,-0.009489159309054189,0.0003326750979923966,0.9999549215754111,3.6970100690735426,-0.27071720279765266,20.201842459919554,-4.604262631587686,-90.03462219238281,6403.86474609375,True
1598624240.3602364,0,5,0.5,0.5,0.008188852691650391,-0.14,-0.011,-0.56,0.002204472417703559,10,1,100,0.06223287642087816,-10,-1,-100,472.76048995903693,-0.009094249391413744,0.000319035136833292,0.9999585955651304,3.4772903700577884,-0.2528020021184701,15.034428890752984,-3.6951305785951725,-90.03955841064453,6400.70703125,True
1598624240.4054732,0,5,0.5,0.5,0.007568438720703126,-0.14,-0.011,-0.56,0.001912739690900659,10,1,100,0.05539598545601293,-10,-1,-100,472.6397462193854,-0.00867543316475778,0.0003040653870820016,0.999962321491987,3.3573976002591057,-0.24243817976639773,10.796203093243872,-2.785385435707926,-90.04246520996094,6397.548828125,True
1598624240.4674027,0,5,0.5,0.5,0.006640608215332032,-0.14,-0.011,-0.56,0.0016659737670450655,10,1,100,0.048540320623531336,-10,-1,-100,472.5556548007298,-0.008234999057615457,0.00028830577886942245,0.9999660502588571,3.6735664741562197,-0.26358937778475433,7.851945311423267,-1.8750252983989828,-90.04331970214844,6394.3916015625,True
1598624240.511473,0,5,0.5,0.5,0.005499725341796875,-0.14,-0.011,-0.56,0.0014548803247418996,10,1,100,0.041646616050357854,-10,-1,-100,472.50787935685366,-0.00777483840522416,0.000272162247920011,0.9999697384498611,6.934337051973277,-0.4946133111853141,7.530361463425343,-0.9640451492033598,-90.04224395751953,6391.2333984375,True
1598624240.5574653,0,5,0.5,0.5,0.004197066497802736,-0.14,-0.011,-0.56,0.0011861274027241738,10,1,100,0.034748568054023016,-10,-1,-100,472.4967555030016,-0.0072969616981424824,0.00025515456273047355,0.9999733442677986,13.592003373396828,-0.9641339975421486,0.7939828421550149,-0.05243902412424109,-90.03941345214844,6388.076171875,True
1598624240.7702239,0,5,0.5,0.5,-0.011082534027099609,-0.14,-0.011,-0.56,-0.0050813385512397885,10,1,100,-0.1431906657373446,-10,-1,-100,472.8167659450555,-0.005248300271780475,0.00018283619263132183,0.9999862108625218,2.4267493069586075,-0.16905911237414392,-9.384058041015948,3.600538748381108,-90.0152359008789,6375.4443359375,True
1598624240.8178852,0,5,0.5,0.5,-0.010431597900390627,-0.14,-0.011,-0.56,-0.0021209485045325873,10,1,100,-0.05931995603186186,-10,-1,-100,473.16363295156043,-0.004153380515954352,0.00014418264574593163,0.9999913642835394,3.399863526037064,-0.2352898567912907,-19.564589744290878,5.430798479969253,-89.99679565429688,6369.12841796875,True
1598624240.8673687,0,5,0.5,0.5,-0.006334641265869141,-0.14,-0.011,-0.56,-0.00017791327779398966,10,1,100,-0.00401167793212108,-10,-1,-100,473.442734993645,-0.0036665809104762864,0.00012691094235202867,0.9999932700163736,3.856307543807726,-0.2661513503871696,-25.79055039587098,6.346854146991691,-89.9879150390625,6365.97119140625,True
1598624240.916373,0,5,0.5,0.5,-0.005988582611083985,-0.14,-0.011,-0.56,-0.000478205170273689,10,1,100,-0.01308227242541287,-10,-1,-100,473.7346852180781,-0.0031475146819950274,0.00010868914850296394,0.9999950406567003,4.3054976100409945,-0.2964488575045442,-32.794618735821295,7.263454850188966,-89.98135375976562,6362.8134765625,True
1598624240.9662762,0,5,0.5,0.5,-0.005569603729248048,-0.14,-0.011,-0.56,-0.0006481070044931591,10,1,100,-0.017715830410917302,-10,-1,-100,474.02636200678535,-0.002639613600435855,9.079460119761137e-05,0.9999965120921076,4.750398252105424,-0.32641327088066424,-40.58414145525718,8.18066239137803,-89.97677612304688,6359.6552734375,True
1598624241.0152576,0,5,0.5,0.5,-0.0051632637023925785,-0.14,-0.011,-0.56,-0.000750883931291713,10,1,100,-0.021003429309372806,-10,-1,-100,474.38176048663445,-0.0021542249414948467,7.381238658257199e-05,0.9999976769306181,5.192651419493932,-0.35618396087889087,-49.16868326075231,9.098544902570094,-89.97378540039062,6356.498046875,True
1598624241.0674546,0,5,0.5,0.5,-0.004693011474609376,-0.14,-0.011,-0.56,-0.0009686455768509647,10,1,100,-0.0257398684446316,-10,-1,-100,474.74954859982245,-0.0016762130998187763,5.661728810949818e-05,0.9999985935510742,5.632469426914274,-0.3858030054411887,-58.55151179301854,10.017032705528319,-89.97216796875,6353.34033203125,True
1598624241.1146543,0,5,0.5,0.5,-0.004099562072753906,-0.14,-0.011,-0.56,-0.001092435846849962,10,1,100,-0.030440080876134413,-10,-1,-100,475.17471100366674,-0.0012052906035222677,4.008496713305157e-05,0.9999992728336139,6.069758520458455,-0.41528737935745513,-68.73601708890297,10.936120310711628,-89.97183227539062,6350.18212890625,True
1598624241.1632693,0,5,0.5,0.5,-0.0034347900390625003,-0.14,-0.011,-0.56,-0.0012666510246397717,10,1,100,-0.03480282956322853,-10,-1,-100,475.66328925965354,-0.0007439085356010345,2.3697465367043993e-05,0.9999997230192221,6.5041485406729524,-0.44463666324848833,-79.72445788533199,11.855805650612766,-89.97262573242188,6347.0244140625,True
1598624241.2118807,0,5,0.5,0.5,-0.002695330047607422,-0.14,-0.011,-0.56,-0.0014218097807783537,10,1,100,-0.03897309534015131,-10,-1,-100,476.1582463629311,-0.00029295053940027276,7.615079417189055e-06,0.9999999570609952,6.9351659628538025,-0.4738401152354088,-91.51865080407372,12.776084247260817,-89.97442626953125,6343.8662109375,True
1598624241.2597332,0,5,0.5,0.5,-0.0019379585266113286,-0.14,-0.011,-0.56,-0.001476701312113133,10,1,100,-0.042851350256263424,-10,-1,-100,476.72287536691874,0.00014590085532985512,-7.279249473619535e-06,0.9999999893299764,7.362263014090818,-0.5028804277293089,-104.11963020445802,13.696952295887863,-89.97705078125,6340.708984375,True
1598624241.3106833,0,5,0.5,0.5,-0.0011425598144531252,-0.14,-0.011,-0.56,-0.0016942715823714948,10,1,100,-0.04628311888204361,-10,-1,-100,477.2875962568214,0.0005711507461124182,-2.2624627792971595e-05,0.9999998366374624,7.784918159430009,-0.531742211683239,-117.5286715952487,14.618406352481282,-89.9803466796875,6337.55078125,True
1598624241.3614767,0,5,0.5,0.5,-0.00040015563964843764,-0.14,-0.011,-0.56,-0.001746023069046337,10,1,100,-0.0493331752219862,-10,-1,-100,477.91576398233883,0.0009811743124032567,-3.689379680439121e-05,0.9999995179677921,8.202571393723174,-0.560407650572356,-131.74610725086293,15.540442100312323,-89.98406982421875,6334.392578125,True
1598624241.4114478,0,5,0.5,0.5,0.0002663909912109376,-0.14,-0.011,-0.56,-0.0018711090903368258,10,1,100,-0.05213472872659802,-10,-1,-100,478.55024888098706,0.001375166445234236,-5.0854000881816746e-05,0.999999053165111,8.614695650867004,-0.5888553360269468,-146.77209768793867,16.46305699432373,-89.98800659179688,6331.2353515625,True
1598624241.4585314,0,5,0.5,0.5,0.0008462188720703128,-0.14,-0.011,-0.56,-0.0019631708860066654,10,1,100,-0.05456373839341069,-10,-1,-100,479.24808840139303,0.0017513114892086692,-6.423698168612506e-05,0.9999984643896599,9.020802904567699,-0.6170669541571636,-162.60641744727485,17.386246752116275,-89.99197387695312,6328.0771484375,True
1598624241.5073211,0,5,0.5,0.5,0.001295523071289063,-0.14,-0.011,-0.56,-0.0019965256168081634,10,1,100,-0.05674445184342129,-10,-1,-100,479.95251994021237,0.002109094446831301,-7.656561489470648e-05,0.9999977729266805,9.420418292487321,-0.6450189747558674,-179.24824390885678,18.310009009837707,-89.99576568603516,6324.91943359375,True
1598624241.558237,0,5,0.5,0.5,0.001604888153076172,-0.14,-0.011,-0.56,-0.0020840954865917498,10,1,100,-0.05858978965914764,-10,-1,-100,480.72027603164315,0.00244725173446,-8.843284571737921e-05,0.9999970015647948,9.813137595822658,-0.6727011851973311,-196.69673434361562,19.234339299022828,-89.99920654296875,6321.76171875,True
1598624241.608274,0,5,0.5,0.5,0.0017692131042480472,-0.14,-0.011,-0.56,-0.0021680813365737702,10,1,100,-0.06011122521308625,-10,-1,-100,481.48794021178037,0.002764750078399824,-9.985288134343926e-05,0.9999961730858804,10.198602534040779,-0.7000969498804044,-214.95071453978338,20.15923451030733,-90.00215148925781,6318.6044921875,True
1598624241.6542757,0,5,0.5,0.5,0.0017609077453613281,-0.14,-0.011,-0.56,-0.002204500185864244,10,1,100,-0.06135588315944837,-10,-1,-100,482.32555075362325,0.0030610908808739357,-0.00011043859613479226,0.999995308751964,10.576500559638514,-0.7271928321254085,-234.0083602533335,21.084685212808104,-90.00444793701172,6315.44580078125,True
1598624241.7031863,0,5,0.5,0.5,0.0016047195434570314,-0.14,-0.011,-0.56,-0.0022004044051960724,10,1,100,-0.06229215055015823,-10,-1,-100,483.2265768003417,0.003335544041750968,-0.00011990279697403721,0.9999944298691192,10.946567907767102,-0.7539752025991724,-253.867515637589,22.01069444944829,-90.00601196289062,6312.28857421875,True
1598624241.7592618,0,5,0.5,0.5,0.001335050964355469,-0.14,-0.011,-0.56,-0.002220549517749284,10,1,100,-0.06291715371128649,-10,-1,-100,484.13407259224914,0.0035874301307574803,-0.00012857382796347888,0.9999935568861569,11.308631440027463,-0.7804343841131606,-274.5263828379654,22.93726461286772,-90.00682830810547,6309.1298828125,True
1598624241.8193161,0,5,0.5,0.5,0.0009320152282714844,-0.14,-0.011,-0.56,-0.002273036625717083,10,1,100,-0.06326028846673667,-10,-1,-100,485.04138496657833,0.003816408228289832,-0.0001368234711367787,0.9999927081272006,11.662549999109682,-0.8065639638447382,-295.9822015749679,23.864386181632256,-90.0068588256836,6305.97265625,True
1598624241.8614278,0,5,0.5,0.5,0.0004367340087890626,-0.14,-0.011,-0.56,-0.0022313326180224326,10,1,100,-0.06332128463761579,-10,-1,-100,486.07568075391464,0.004022174411707073,-0.00014384020227587826,0.9999919006786995,12.008225279388384,-0.8323552296702124,-318.23144723836316,24.792056174658942,-90.00613403320312,6302.814453125,True
1598624241.9164026,0,5,0.5,0.5,-0.00015850219726562499,-0.14,-0.011,-0.56,-0.002206870452672936,10,1,100,-0.06307906884601437,-10,-1,-100,487.0590733544668,0.004204268071163367,-0.00014989944143963563,0.9999911507909175,12.345652469015135,-0.8578086310426324,-341.2709169820277,25.720270934163604,-90.00466918945312,6299.65673828125,True
1598624242.0133958,0,5,0.5,0.5,-0.0007885192871093752,-0.14,-0.011,-0.56,-0.002211768746216706,10,1,100,-0.06259883910912585,-10,-1,-100,488.0998383013066,0.004362870126128348,-0.00015536232931112403,0.9999904705679995,12.674890944855083,-0.8829200648433186,-365.09744296302426,26.64902766604758,-90.00257110595703,6296.4990234375,True
1598624242.061513,0,5,0.5,0.5,-0.0036287300109863288,-0.14,-0.011,-0.56,-0.0025780946211170263,10,1,100,-0.0739722150230913,-10,-1,-100,490.3778398252325,0.0046080739947353625,-0.00016357598501373004,0.999989369391973,13.309317264773034,-0.9321318333350078,-415.09606729883194,28.508099932786344,-89.99681854248047,6290.18359375,True
1598624242.1113474,0,5,0.5,0.5,-0.00287882308959961,-0.14,-0.011,-0.56,-0.0020974744350316663,10,1,100,-0.05927072558140443,-10,-1,-100,491.49468465161044,0.004695064898955582,-0.0001665945699879422,0.999988964245028,13.614892813969359,-0.9562411796279594,-441.26054433979436,29.438463389072833,-89.9932861328125,6287.025390625,True
1598624242.161584,0,5,0.5,0.5,-0.003427938079833985,-0.14,-0.011,-0.56,-0.0019723896717456107,10,1,100,-0.05714840022495832,-10,-1,-100,492.738298930577,0.004752810205765822,-0.00016813054782165225,0.999988691199689,13.913057334164337,-0.9800262339990301,-468.19479554837,30.36935577757714,-89.98968505859375,6283.8681640625,True
1598624242.2113605,0,5,0.5,0.5,-0.0038389900207519536,-0.14,-0.011,-0.56,-0.0019744700994793396,10,1,100,-0.05589846895702341,-10,-1,-100,493.9820958774071,0.00479213560031448,-0.00016948373368035145,0.9999885032897389,14.204103846321194,-1.003492854339789,-495.89091541432344,31.30077489886781,-89.98623657226562,6280.7099609375,True
1598624242.2604795,0,5,0.5,0.5,-0.004234999084472656,-0.14,-0.011,-0.56,-0.001866412077684247,10,1,100,-0.053695300487876824,-10,-1,-100,495.23202653974295,0.004806283477712436,-0.00016967787959235392,0.9999884353574041,14.488578712996613,-1.0266584172176163,-524.3475338887368,32.232717649808336,-89.98294067382812,6277.5517578125,True
1598624242.3104215,0,5,0.5,0.5,-0.004593629455566407,-0.14,-0.011,-0.56,-0.0017676137922198508,10,1,100,-0.05144785344852792,-10,-1,-100,496.5455855889013,0.004797376811865623,-0.00016891095956939045,0.999988478256031,14.766987334096859,-1.049542392240453,-553.5619851181307,33.16518034339253,-89.97982788085938,6274.39453125,True
1598624242.3594048,0,5,0.5,0.5,-0.00486686019897461,-0.14,-0.011,-0.56,-0.001706567341622063,10,1,100,-0.0491449933077099,-10,-1,-100,497.9225910565583,0.00476724479919644,-0.00016762212169616568,0.9999886225752015,15.039844709425754,-1.0721619936085118,-583.5310663606944,34.0981546081862,-89.97698974609375,6271.236328125,True
1598624242.4093125,0,5,0.5,0.5,-0.005062069702148437,-0.14,-0.011,-0.56,-0.0016057803626861717,10,1,100,-0.04664602453694932,-10,-1,-100,499.31223000132013,0.004716269765607626,-0.0001655062068660356,0.9999888646415985,15.307654735167082,-1.0945336148102933,-614.2486698826143,35.0316431724984,-89.9744873046875,6268.0791015625,True
1598624242.460286,0,5,0.5,0.5,-0.005212237548828125,-0.14,-0.011,-0.56,-0.0014974346720380638,10,1,100,-0.04394485741061527,-10,-1,-100,500.759028305416,0.0046447417654203035,-0.0001625779907376708,0.9999891999128439,15.571049834986647,-1.1166785808746367,-645.7128867394683,35.965649666789574,-89.97232055664062,6264.9208984375,True
1598624242.5123303,0,5,0.5,0.5,-0.005294818115234376,-0.14,-0.011,-0.56,-0.0014238959904824895,10,1,100,-0.041153201546693524,-10,-1,-100,502.21214292303193,0.004553937190401397,-0.0001592359166529266,0.9999896180961024,15.83062438539924,-1.138619794024229,-677.9187000498817,36.90016529451905,-89.97052001953125,6261.7626953125,True
1598624242.5653255,0,5,0.5,0.5,-0.005325801849365235,-0.14,-0.011,-0.56,-0.0012425494492604378,10,1,100,-0.038224938458136695,-10,-1,-100,503.72873426321894,0.004444593305884354,-0.00015454554112173888,0.9999901108041124,16.087032152165214,-1.1603802458481207,-710.8622516348369,37.83518660929388,-89.96908569335938,6258.60546875,True
1598624242.6184964,0,5,0.5,0.5,-0.005300765991210938,-0.14,-0.011,-0.56,-0.001137346275980737,10,1,100,-0.035138886878049266,-10,-1,-100,505.2516425793292,0.004317283378948838,-0.00014933338037620002,0.9999906693383531,16.340972720344684,-1.18198342969689,-744.540849197508,38.7707046702358,-89.968017578125,6255.447265625,True
1598624242.671572,0,5,0.5,0.5,-0.005243112182617188,-0.14,-0.011,-0.56,-0.0010674786568653331,10,1,100,-0.03198351886295578,-10,-1,-100,506.83805735525675,0.004173205355706617,-0.00014397558424248988,0.9999912817760415,16.593148760706164,-1.2034578811332262,-778.9507731340541,39.70669864351191,-89.96728515625,6252.2900390625,True
1598624242.7216663,0,5,0.5,0.5,-0.005178030395507813,-0.14,-0.011,-0.56,-0.0009237924502599567,10,1,100,-0.02875291370797523,-10,-1,-100,508.4244422474876,0.004013383110304828,-0.00013782058130050375,0.9999919368482414,16.84427633076551,-1.2248200037967472,-814.0895423434232,40.643195526499916,-89.96682739257812,6249.1318359375,True
1598624242.7733593,0,5,0.5,0.5,-0.0050925689697265625,-0.14,-0.011,-0.56,-0.000772223194339799,10,1,100,-0.025418900688831382,-10,-1,-100,510.08055896731094,0.0038384889074837216,-0.00013087600643795115,0.9999926244099894,17.095098641595268,-1.24610883227278,-849.9553052688301,41.58021030654949,-89.96661376953125,6245.97412109375,True
1598624242.822332,0,5,0.5,0.5,-0.0050549865722656255,-0.14,-0.011,-0.56,-0.0006648423277969607,10,1,100,-0.022063192914664305,-10,-1,-100,511.800213270355,0.0036498675565814044,-0.0001236218412971997,0.9999933315699958,17.34637884091199,-1.2673468113764403,-886.5458957230738,42.51771648099495,-89.96652221679688,6242.81640625,True
1598624242.871524,0,5,0.5,0.5,-0.004996990966796876,-0.14,-0.011,-0.56,-0.0005488466660474583,10,1,100,-0.01862694068299838,-10,-1,-100,513.5262153263902,0.0034481981347962297,-0.00011601381162449583,0.9999940482174974,17.598875283908274,-1.2885635150250447,-923.8595801498034,43.45571065765994,-89.966552734375,6239.658203125,True
1598624242.9183035,0,5,0.5,0.5,-0.005025561523437501,-0.14,-0.011,-0.56,-0.00036394635643382796,10,1,100,-0.015219494056393418,-10,-1,-100,515.309407282155,0.0032350846426263897,-0.00010746342575288809,0.9999947613257616,17.853320976294615,-1.3097866312016488,-961.893622889834,44.394189490302594,-89.966552734375,6236.5009765625,True
1598624242.9702673,0,5,0.5,0.5,-0.00503428955078125,-0.14,-0.011,-0.56,-0.00027140117573733885,10,1,100,-0.01176587327278912,-10,-1,-100,517.1052330486709,0.0030112950836419334,-9.890179402792492e-05,0.9999954611498767,18.110504609939326,-1.331046549182978,-1000.6486866599809,45.33315091014593,-89.966552734375,6233.3427734375,True
1598624243.0183694,0,5,0.5,0.5,-0.005126083374023439,-0.14,-0.011,-0.56,-0.00014089582681098788,10,1,100,-0.00831077608372139,-10,-1,-100,518.9072847701609,0.0027779250071025196,-8.998996764836407e-05,0.9999961375097709,18.371186137657777,-1.3523729813773724,-1040.1248057258626,46.27259171125952,-89.9664306640625,6230.18505859375,True
1598624243.0672903,0,5,0.5,0.5,-0.0052544830322265625,-0.14,-0.011,-0.56,4.29946966253958e-06,10,1,100,-0.004904777403333983,-10,-1,-100,520.8235937891295,0.0025364213242298024,-8.063130092537175e-05,0.9999967800275454,18.63608245545879,-1.373796454790282,-1080.3202857491046,47.2125066804776,-89.96615600585938,6227.02685546875,True
1598624243.1166956,0,5,0.5,0.5,-0.005424331665039063,-0.14,-0.011,-0.56,0.00014381027594607423,10,1,100,-0.0015060006481148087,-10,-1,-100,522.7527210377157,0.002287709252917753,-7.092233679297965e-05,0.9999973806747676,18.905951484700292,-1.3953468995663536,-1121.2374521768577,48.152895375004775,-89.9656982421875,6223.869140625,True
1598624243.1656315,0,5,0.5,0.5,-0.005661868286132812,-0.14,-0.011,-0.56,0.0002774027189728982,10,1,100,0.0018497669677683508,-10,-1,-100,524.688134605065,0.0020329454589678893,-6.095281177563682e-05,0.9999979317066189,19.18147009798858,-1.4170448139091187,-1162.8750990533654,49.09375674733444,-89.96499633789062,6220.71142578125,True
1598624243.2582364,0,5,0.5,0.5,-0.005933551025390626,-0.14,-0.011,-0.56,0.00038908897514198116,10,1,100,0.0051779783563688335,-10,-1,-100,526.6807382198749,0.0017730312335686805,-5.094975286057608e-05,0.9999984268809464,19.463337104263363,-1.438930219641662,-1205.2347344147008,50.03507237326393,-89.96405029296875,6217.5537109375,True
1598624243.3063154,0,5,0.5,0.5,-0.007350790405273438,-0.14,-0.011,-0.56,0.0017021804548641704,10,1,100,0.03782326229461046,-10,-1,-100,530.748220735346,0.0012420069491096905,-2.999784114799181e-05,0.9999992282591362,20.04879205039561,-1.4833518420563978,-1292.1301913865261,51.91910214935387,-89.96127319335938,6211.2373046875,True
1598624243.355632,0,5,0.5,0.5,-0.0070832275390625005,-0.14,-0.011,-0.56,0.0007497384852172186,10,1,100,0.014623510216538762,-10,-1,-100,532.8803507878911,0.0009725248748188733,-1.9700919465423813e-05,0.9999995269035088,20.353574197678718,-1.5059408599246766,-1336.6657108004815,52.861811998430504,-89.95944213867188,6208.080078125,True
1598624243.4123254,0,5,0.5,0.5,-0.007496899414062501,-0.14,-0.011,-0.56,0.0008930231163516691,10,1,100,0.016350523415361667,-10,-1,-100,535.0124812052818,0.0007142749988213426,-9.131967581714062e-06,0.9999997448638841,20.667353209882354,-1.528824163375176,-1381.9397140058427,53.80497729385161,-89.9573974609375,6204.921875,True
1598624243.4528432,0,5,0.5,0.5,-0.007857312011718751,-0.14,-0.011,-0.56,0.0010052451328622113,10,1,100,0.020214568145306335,-10,-1,-100,537.208209980512,0.0004468600895840676,1.3992053317153835e-06,0.9999999001570464,20.99080976582454,-1.5520376831266014,-1427.976798459279,54.74859604471406,-89.95526123046875,6201.7646484375,True
1598624243.5043533,0,5,0.5,0.5,-0.008296978759765625,-0.14,-0.011,-0.56,0.0011005687437425221,10,1,100,0.022487212408968796,-10,-1,-100,539.4161464081844,0.0001856299738378337,1.1740611141849884e-05,0.9999999827018352,21.324011814771,-1.5755863675165276,-1474.7609154775014,55.69266254119123,-89.95294189453125,6198.60693359375,True
1598624243.5572221,0,5,0.5,0.5,-0.00870074462890625,-0.14,-0.011,-0.56,0.0012080581687346718,10,1,100,0.024947008109776524,-10,-1,-100,541.6816997567657,-7.164494220262725e-05,2.2018481737200994e-05,0.9999999971910943,21.667316026671575,-1.599481344808481,-1522.288680517035,56.637166835907,-89.95053100585938,6195.44921875,True
1598624243.6505053,0,5,0.5,0.5,-0.009162570190429688,-0.14,-0.011,-0.56,0.0013412923419401325,10,1,100,0.027490483643882554,-10,-1,-100,543.9598267762922,-0.0003260632162319146,3.247139435358295e-05,0.9999999463141924,22.021195315637367,-1.6237428448356241,-1570.566452043728,57.582112659617366,-89.94796752929688,6192.291015625,True
1598624243.7484927,0,5,0.5,0.5,-0.011421347045898438,-0.14,-0.011,-0.56,0.002535189370374982,10,1,100,0.056878890683105005,-10,-1,-100,548.6936929719523,-0.0008219176343055966,5.272483090399341e-05,0.9999996608356898,22.762124695094467,-1.6734364033694125,-1669.3922665774228,59.473330610912626,-89.94271850585938,6185.9755859375,True
1598624243.7992697,0,5,0.5,0.5,-0.012395111083984377,-0.14,-0.011,-0.56,0.002652944195760666,10,1,100,0.05994611932040965,-10,-1,-100,553.5164878271753,-0.001297751341177874,7.209513784633006e-05,0.999999155321517,23.549192976795105,-1.7247993473184033,-1771.2608710350705,61.366274817590465,-89.93716430664062,6179.66015625,True
1598624243.8492515,0,5,0.5,0.5,-0.011237982177734376,-0.14,-0.011,-0.56,0.001723267989788107,10,1,100,0.03657957081426822,-10,-1,-100,555.9912087327102,-0.0015148763639148896,8.113195323995651e-05,0.999998849282942,23.96084072796868,-1.7511449359617812,-1823.3585955606168,62.31338209559118,-89.93441772460938,6176.501953125,True
1598624243.89847,0,5,0.5,0.5,-0.011334664916992188,-0.14,-0.011,-0.56,0.001818227590178091,10,1,100,0.03802842130286777,-10,-1,-100,558.5295289136702,-0.001722445109392642,9.00904347776163e-05,0.999998512532173,24.385165377913477,-1.7779826537614625,-1876.2793768566303,63.260912252040626,-89.93212890625,6173.34423828125,True
1598624243.949457,0,5,0.5,0.5,-0.011473535156250003,-0.14,-0.011,-0.56,0.001895605962082395,10,1,100,0.03989458853361228,-10,-1,-100,561.0804219229612,-0.0019254141691441831,9.882877748741376e-05,0.999998141504848,24.821986286380913,-1.8053008172260245,-1930.0324602999453,64.20886151353162,-89.93014526367188,6170.1865234375,True
1598624243.9973855,0,5,0.5,0.5,-0.011676660156250001,-0.14,-0.011,-0.56,0.0019178500618624095,10,1,100,0.04058037152529726,-10,-1,-100,563.6885054283775,-0.002113531396984572,0.00010686719022436356,0.9999977607797118,25.270824549011785,-1.8330836053517452,-1984.5929035651736,65.15722395826856,-89.92831420898438,6167.0283203125,True
1598624244.0485797,0,5,0.5,0.5,-0.011900912475585938,-0.14,-0.011,-0.56,0.001962692902676722,10,1,100,0.04157263927588405,-10,-1,-100,566.3029359520879,-0.002290996941484982,0.0001144770465764425,0.9999973691105493,25.731590482280357,-1.8613263563447202,-2039.9566087567398,66.10599690263734,-89.92657470703125,6163.87109375,True
1598624244.0962691,0,5,0.5,0.5,-0.01217599792480469,-0.14,-0.011,-0.56,0.0020504914513414033,10,1,100,0.04259319364456613,-10,-1,-100,568.980904247961,-0.0024591180607178562,0.00012209046839233435,0.9999969689115468,26.204274982262174,-1.89003008148039,-2096.1301606077495,67.05517596939899,-89.92483520507812,6160.712890625,True
1598624244.189285,0,5,0.5,0.5,-0.012386358642578126,-0.14,-0.011,-0.56,0.0020348291103680282,10,1,100,0.043391805708358225,-10,-1,-100,571.7221657410264,-0.0026168112351144376,0.00012876905798225036,0.999996567852855,26.688807509999425,-1.919190646584806,-2153.118722729743,68.00475796135322,-89.92318725585938,6157.55517578125,True
1598624244.2404146,0,5,0.5,0.5,-0.013928887939453127,-0.14,-0.011,-0.56,0.0028132990569327884,10,1,100,0.05910770950846227,-10,-1,-100,577.2303844916169,-0.002900726731573265,0.0001418204565998127,0.9999957828268011,27.692997087155373,-1.9789085603727448,-2269.5623134724174,69.90511390319779,-89.91970825195312,6151.2392578125,True
1598624244.2892096,0,5,0.5,0.5,-0.013336193847656252,-0.14,-0.011,-0.56,0.0022250466215952064,10,1,100,0.04481479107888263,-10,-1,-100,580.0478178659687,-0.0030265555030711644,0.00014823820678339477,0.9999954089830717,28.212311095881223,-2.009450801234523,-2329.0243139333415,70.85588099459605,-89.91781616210938,6148.08154296875,True
1598624244.3383677,0,5,0.5,0.5,-0.013585754394531252,-0.14,-0.011,-0.56,0.00212747826429546,10,1,100,0.04437060921928193,-10,-1,-100,582.9287882242352,-0.003134903062192189,0.00015309870972403587,0.9999950744596575,28.742971194272933,-2.040454876647556,-2389.3313179367697,71.80703544870966,-89.91598510742188,6144.923828125,True
1598624244.3912897,0,5,0.5,0.5,-0.013865399169921877,-0.14,-0.011,-0.56,0.002243205824092229,10,1,100,0.04496304578457346,-10,-1,-100,585.8159846194321,-0.003237116492240303,0.00015849577787560958,0.9999947479641601,29.284831070073967,-2.0719316359615694,-2450.507843412225,72.75857372952163,-89.91415405273438,6141.765625,True
1598624244.4413905,0,5,0.5,0.5,-0.014186761474609377,-0.14,-0.011,-0.56,0.0022192631082502117,10,1,100,0.044627902442551305,-10,-1,-100,588.7730658169603,-0.003325425361785364,0.0001631142116651713,0.9999944574545987,29.837282093519285,-2.1038426824625973,-2512.538230225316,73.71049144019938,-89.91226196289062,6138.60791015625,True
1598624244.4885995,0,5,0.5,0.5,-0.01455895690917969,-0.14,-0.011,-0.56,0.0022322019711616143,10,1,100,0.0443421350479533,-10,-1,-100,591.7302688310156,-0.0034016510121005353,0.00016736402861225146,0.9999942003630189,30.39993003920694,-2.136180816472256,-2575.4205426230365,74.66278447246576,-89.91024780273438,6135.4501953125,True
1598624244.5402548,0,5,0.5,0.5,-0.014948275756835938,-0.14,-0.011,-0.56,0.002203297453511948,10,1,100,0.04400774705489192,-10,-1,-100,594.7508261197945,-0.0034665651335019907,0.00017090242544812298,0.9999939768411289,30.972435936646,-2.1689282507237935,-2639.1595649457886,75.6154493628912,-89.90811157226562,6132.2919921875,True
1598624244.588326,0,5,0.5,0.5,-0.015355020141601564,-0.14,-0.011,-0.56,0.0022708695158755034,10,1,100,0.04359657760862934,-10,-1,-100,597.7776702428237,-0.0035206100364131836,0.00017467522747019871,0.9999937873774698,31.554400466419377,-2.202079817639539,-2703.7568846007584,76.56848185851234,-89.90585327148438,6129.13427734375,True
1598624244.645473,0,5,0.5,0.5,-0.014946295166015627,-0.14,-0.011,-0.56,0.0020796687723854766,10,1,100,0.040818163923109586,-10,-1,-100,599.3513644135091,-0.003543365630014154,0.00017631213329409118,0.9999937067172191,31.848809586667713,-2.2188009664384425,-2736.377921409538,77.04513471115136,-89.9046630859375,6127.5556640625,True
1598624244.6853652,0,5,0.5,0.5,-0.016908181762695314,-0.14,-0.011,-0.56,0.00233618666284804,10,1,100,0.044446111132953665,-10,-1,-100,604.0282566889655,-0.0035960481919506218,0.00018008291789737877,0.9999935179827636,32.74512203344842,-2.269514841178829,-2835.537507150304,78.4756340964531,-89.90093994140625,6122.81884765625,True
1598624244.7332277,0,5,0.5,0.5,-0.016727575683593753,-0.14,-0.011,-0.56,0.002202677753040137,10,1,100,0.04169660148481911,-10,-1,-100,607.1884621782228,-0.003618055672403609,0.00018225053757491824,0.9999934382074179,33.35299858946471,-2.3037722709483908,-2902.7247397089996,79.42974560980988,-89.89825439453125,6119.6611328125,True
1598624244.780642,0,5,0.5,0.5,-0.017212600708007814,-0.14,-0.011,-0.56,0.00216937220415829,10,1,100,0.04076681441610654,-10,-1,-100,610.4120823361445,-0.0036289577458809104,0.00018388156858195997,0.9999933984048331,33.9685680373247,-2.338376346170243,-2970.774648905848,80.38420890693257,-89.89544677734375,6116.5029296875,True
1598624244.826368,0,5,0.5,0.5,-0.0176302734375,-0.14,-0.011,-0.56,0.0021466579977992613,10,1,100,0.0399271107331474,-10,-1,-100,613.642050294322,-0.0036306874135217286,0.0001851254282016444,0.9999933918969072,34.591452931231395,-2.3733018203160925,-3039.6976175927316,81.33901982218003,-89.89263916015625,6113.3447265625,True
1598624244.8737557,0,5,0.5,0.5,-0.01809174499511719,-0.14,-0.011,-0.56,0.002183173536920466,10,1,100,0.03888956713371298,-10,-1,-100,616.9355559698306,-0.003622376911062769,0.0001865590539220252,0.9999934217689803,35.22108342821618,-2.4085253843935646,-3109.486556691466,82.29417367783941,-89.8897705078125,6110.1875,True
1598624244.9236808,0,5,0.5,0.5,-0.01854154052734375,-0.14,-0.011,-0.56,0.0020786363446483568,10,1,100,0.03784767691675877,-10,-1,-100,620.2416952383937,-0.003604999942837929,0.00018688649985076455,0.9999934845031984,35.85695017623871,-2.444039686520072,-3180.141058588841,83.24966698089285,-89.88687133789062,6107.029296875,True
1598624244.9711895,0,5,0.5,0.5,-0.01899671630859375,-0.14,-0.011,-0.56,0.0020621659895787878,10,1,100,0.036724551996206396,-10,-1,-100,623.6048413031967,-0.0035787383137366414,0.00018701283629609007,0.9999935788085247,36.498562720806916,-2.479814087572972,-3251.662957331133,84.20549474871632,-89.88394165039062,6103.8720703125,True
1598624245.0165102,0,5,0.5,0.5,-0.019435809326171876,-0.14,-0.011,-0.56,0.002069495048803204,10,1,100,0.035546272711061894,-10,-1,-100,626.9743352859514,-0.0035439914871417608,0.00018717645286871356,0.9999937025248282,37.14536572875067,-2.5158284209230453,-3324.046802897813,85.16164193350593,-89.88101196289062,6100.7138671875,True
1598624245.0643456,0,5,0.5,0.5,-0.019918499755859378,-0.14,-0.011,-0.56,0.001992437117941209,10,1,100,0.034375703079572224,-10,-1,-100,630.407488221419,-0.003501691533265927,0.00018660987399287987,0.9999938516476793,37.796736660977,-2.552049561369159,-3397.2809585093783,86.11811768631082,-89.87802124023438,6097.5556640625,True
1598624245.1125753,0,5,0.5,0.5,-0.02034645385742188,-0.14,-0.011,-0.56,0.001970752566616632,10,1,100,0.03314060037415409,-10,-1,-100,633.9041179697961,-0.0034520260219687744,0.00018588682032415066,0.9999940244633633,38.452338316144704,-2.58847620251686,-3471.3794934521547,87.07490939402571,-89.87506103515625,6094.3984375,True
1598624245.15849,0,5,0.5,0.5,-0.020814807128906255,-0.14,-0.011,-0.56,0.0019607989960001328,10,1,100,0.03185421226690184,-10,-1,-100,637.4131989357993,-0.0033952641558218383,0.00018513030754058315,0.9999942189373303,39.1114992889025,-2.6250610281435787,-3546.323404077809,88.03201586192469,-89.8720703125,6091.24072265625,True
1598624245.2053769,0,5,0.5,0.5,-0.021222540283203126,-0.14,-0.011,-0.56,0.00187628409718233,10,1,100,0.03057946408337766,-10,-1,-100,640.9793470952427,-0.003332256370416339,0.00018366966284841157,0.9999944311509623,39.773751492284795,-2.661809191899746,-3622.1131584906525,88.98945576351362,-89.869140625,6088.0830078125,True
1598624245.25149,0,5,0.5,0.5,-0.021686083984375003,-0.14,-0.011,-0.56,0.001867156817411939,10,1,100,0.02928998844407054,-10,-1,-100,644.5521482944023,-0.003263513877237627,0.00018225753865282158,0.9999946581154135,40.43856629544645,-2.698685682406461,-3698.742430144163,89.94721101372647,-89.86618041992188,6084.9248046875,True
1598624245.2992384,0,5,0.5,0.5,-0.02211134338378906,-0.14,-0.011,-0.56,0.0018221282836245233,10,1,100,0.028016775234469257,-10,-1,-100,648.1883649501251,-0.003189778257777553,0.00018056591546778975,0.9999948963422846,41.105493251809,-2.7356656698238466,-3776.2088744930243,90.9052626093716,-89.86325073242188,6081.76708984375,True
1598624245.346307,0,5,0.5,0.5,-0.022532464599609378,-0.14,-0.011,-0.56,0.0017375577435439103,10,1,100,0.026695384312172672,-10,-1,-100,651.8370323725976,-0.0031111340582072843,0.0001782633981286042,0.9999951445217286,41.77394734069682,-2.7727260917427037,-3854.4953368148554,91.86361194641782,-89.8603515625,6078.609375,True
1598624245.3945522,0,5,0.5,0.5,-0.02297070922851563,-0.14,-0.011,-0.56,0.0017378957249929495,10,1,100,0.025429704855679344,-10,-1,-100,655.5428288800176,-0.003028597920677878,0.0001761808146114208,0.9999953982668899,42.443537768752925,-2.809860028951163,-3933.602662170657,92.8222712066098,-89.85745239257812,6075.45166015625,True
1598624245.4414346,0,5,0.5,0.5,-0.023430316162109378,-0.14,-0.011,-0.56,0.0016934485356132306,10,1,100,0.024173540674613293,-10,-1,-100,659.3123460217612,-0.0029426693958434177,0.00017389322395165604,0.9999956552195481,43.11376626036784,-2.8470262548705993,-4013.52004160273,93.78123116428657,-89.85452270507812,6072.29345703125,True
1598624245.488471,0,5,0.5,0.5,-0.023830108642578125,-0.14,-0.011,-0.56,0.0016483569509064475,10,1,100,0.02292174703595009,-10,-1,-100,663.0880886854138,-0.002853750857385964,0.00017141559950212135,0.9999959133530177,43.784179816540856,-2.8842129242166177,-4094.2353620426156,94.74047823095515,-89.85165405273438,6069.1357421875,True
1598624245.5363662,0,5,0.5,0.5,-0.024285375976562502,-0.14,-0.011,-0.56,0.0015716014708839383,10,1,100,0.02172283820363761,-10,-1,-100,666.8763431226835,-0.0027626441427033976,0.00016847976459630936,0.9999961696986194,44.45443436317447,-2.921388146957911,-4175.744992988591,95.7000135809276,-89.8487548828125,6065.97802734375,True
1598624245.5842388,0,5,0.5,0.5,-0.024744815063476564,-0.14,-0.011,-0.56,0.001564610118568062,10,1,100,0.020550089903797412,-10,-1,-100,670.7220926703885,-0.0026698303697121196,0.000165763747942151,0.9999964222576883,45.12406958291659,-2.95854537651761,-4258.030844860819,96.65983261105535,-89.8458251953125,6062.8203125,True
1598624245.6306047,0,5,0.5,0.5,-0.025187130737304688,-0.14,-0.011,-0.56,0.001491994405202614,10,1,100,0.01942320066369488,-10,-1,-100,674.6310139454436,-0.0025759208517666227,0.0001626527927463048,0.9999966690823697,45.792766789862696,-2.9956590366899554,-4341.0863901275225,97.61993228049822,-89.8428955078125,6059.662109375,True
1598624245.6805665,0,5,0.5,0.5,-0.02562937927246094,-0.14,-0.011,-0.56,0.001480761816554064,10,1,100,0.018334561567433086,-10,-1,-100,678.6098813225981,-0.0024813967012174776,0.00015974297132127077,0.9999969085715188,46.46020282982159,-3.0327106964599664,-4424.900972622706,98.58031377959242,-89.8399658203125,6056.5048828125,True
1598624245.7272246,0,5,0.5,0.5,-0.02611435241699219,-0.14,-0.011,-0.56,0.0014394336110659023,10,1,100,0.017286552799327788,-10,-1,-100,682.5314366373932,-0.0023867118116165692,0.00015674371969546304,0.9999971395149762,47.12550333955291,-3.0696431712090853,-4509.407143749722,99.54096900401431,-89.83697509765625,6053.3466796875,True
1598624245.7737954,0,5,0.5,0.5,-0.026607904052734378,-0.14,-0.011,-0.56,0.0014064801616450434,10,1,100,0.01635183974332302,-10,-1,-100,686.5737191543449,-0.00229293434062081,0.00015374074487631853,0.9999973594044601,47.78493598452362,-3.106209773137774,-4594.258270326269,100.50189339668569,-89.83392333984375,6050.18896484375,True
1598624245.8202822,0,5,0.5,0.5,-0.027088772583007813,-0.14,-0.011,-0.56,0.0013508009331162079,10,1,100,0.01541189128829151,-10,-1,-100,690.6286967211636,-0.002199952420958158,0.00015052897948191727,0.9999975687722307,48.437679192737235,-3.142366278136487,-4679.378550287756,101.46308945057794,-89.83084106445312,6047.03125,True
1598624245.8682466,0,5,0.5,0.5,-0.027574114990234377,-0.14,-0.011,-0.56,0.0013175664606168208,10,1,100,0.014596944969115337,-10,-1,-100,694.6835528417723,-0.0021088431471243717,0.00014733227429941867,0.9999977655343946,49.08336910724977,-3.1780885458834236,-4764.733806685298,102.42456078293765,-89.82772827148438,6043.873046875,True
1598624245.9162834,0,5,0.5,0.5,-0.028085327148437506,-0.14,-0.011,-0.56,0.0012687749000379338,10,1,100,0.013796219141423307,-10,-1,-100,698.8018849417567,-0.0020195733495451417,0.00014400884498307734,0.9999979502903685,49.721885432923834,-3.2133603118336294,-4850.307479343232,103.38630375164848,-89.82455444335938,6040.7158203125,True
1598624245.9622285,0,5,0.5,0.5,-0.028605352783203128,-0.14,-0.011,-0.56,0.0012841846394561038,10,1,100,0.013072467890958886,-10,-1,-100,702.9902246241691,-0.0019326786095109818,0.00014115480176199457,0.9999981224125944,50.35297682397043,-3.2481780731012178,-4936.065619171493,104.34831875244238,-89.82131958007812,6037.5576171875,True
1598624246.0096834,0,5,0.5,0.5,-0.0291129638671875,-0.14,-0.011,-0.56,0.0012390671731498527,10,1,100,0.012477526495337761,-10,-1,-100,707.1784420957556,-0.001849112171563258,0.0001381775680470808,0.9999982808440907,50.97653134720796,-3.2825153980045183,-5021.984687714286,105.31060331773384,-89.81805419921875,6034.3994140625,True
1598624246.05626,0,5,0.5,0.5,-0.029646612548828125,-0.14,-0.011,-0.56,0.0011587598754498824,10,1,100,0.011903628149987626,-10,-1,-100,711.4299529455602,-0.0017687559084449988,0.0001347684730512951,0.9999984266687597,51.59245040029266,-3.316371668275746,-5108.0381135679945,106.27316098637388,-89.81472778320312,6031.2421875,True
1598624246.1035159,0,5,0.5,0.5,-0.03016788024902344,-0.14,-0.011,-0.56,0.001226449350308959,10,1,100,0.011414349749298974,-10,-1,-100,715.6942813987844,-0.0016920759332960183,0.00013231283216738233,0.999998559685138,52.200692891757484,-3.3497313534191298,-5194.201406570798,107.23599435981664,-89.81137084960938,6028.083984375,True
1598624246.1491573,0,5,0.5,0.5,-0.030736614990234376,-0.14,-0.011,-0.56,0.001139418406938914,10,1,100,0.011031124106697479,-10,-1,-100,720.0158602612792,-0.0016196864908809957,0.0001293168227518966,0.999998679945544,52.8012411864982,-3.3825869714443515,-5280.448192477947,108.19910214895492,-89.80792236328125,6024.92626953125,True
1598624246.196238,0,5,0.5,0.5,-0.03127601318359375,-0.14,-0.011,-0.56,0.0011629755129297609,10,1,100,0.010723305036424342,-10,-1,-100,724.4007943274919,-0.0015518629246015253,0.0001268349934727985,0.9999987878164391,53.39413929001418,-3.4149386692033548,-5366.753408030633,109.16248514121324,-89.804443359375,6021.7685546875,True
1598624246.245379,0,5,0.5,0.5,-0.03182022094726563,-0.14,-0.011,-0.56,0.0011392805020698667,10,1,100,0.01047282039324507,-10,-1,-100,728.7983621921157,-0.0014886869574885725,0.0001243905655987309,0.9999988841684425,53.97945571991823,-3.4467766731311076,-5453.090115020499,110.1261442612948,-89.80093383789062,6018.6103515625,True
1598624246.2912767,0,5,0.5,0.5,-0.031130191040039064,-0.14,-0.011,-0.56,0.0012297293118387698,10,1,100,0.013459314769832764,-10,-1,-100,730.9940636313986,-0.0014591353429758965,0.0001230173023286391,0.9999989278948225,54.26933686727199,-3.4625105700506817,-5496.267668032251,110.60807821511483,-89.79916381835938,6017.03125,True
1598624246.3395667,0,5,0.5,0.5,-0.03393359069824219,-0.14,-0.011,-0.56,0.000986567635295196,10,1,100,0.007393830697086556,-10,-1,-100,737.6635048859753,-0.0013778029446466639,0.0001195833310937534,0.9999990436789792,55.12797082279935,-3.508927865237502,-5625.781295750125,112.05429811633378,-89.79379272460938,6012.294921875,True
1598624246.3863747,0,5,0.5,0.5,-0.033590670776367196,-0.14,-0.011,-0.56,0.0010906493718533228,10,1,100,0.010124199362462784,-10,-1,-100,742.1880257537123,-0.0013293505160348524,0.00011743296297911817,0.9999991095179559,55.69159055259914,-3.5392391595158914,-5712.095532702887,113.01879543137308,-89.7900390625,6009.13720703125,True
1598624246.440563,0,5,0.5,0.5,-0.032872412109375,-0.14,-0.011,-0.56,0.0012204043243703505,10,1,100,0.012609655486301444,-10,-1,-100,744.453368698596,-0.00130852538463493,0.00011668183324506271,0.9999991370729614,55.97087336351398,-3.5542051338232197,-5755.2396270121935,113.50114995160396,-89.78811645507812,6007.55859375,True
1598624246.486387,0,5,0.5,0.5,-0.035762939453125,-0.14,-0.011,-0.56,0.0009780308142542011,10,1,100,0.008445437259317304,-10,-1,-100,751.3196477122838,-0.0012523043296850322,0.00011381784063897179,0.9999992093893698,56.798613574105914,-3.598351875172275,-5884.55230947608,114.94863656407063,-89.78250122070312,6002.8212890625,True
1598624246.53323,0,5,0.5,0.5,-0.03534916687011719,-0.14,-0.011,-0.56,0.0011069891594947155,10,1,100,0.010594595993591032,-10,-1,-100,755.9774691965431,-0.001221274638989321,0.00011240870479690118,0.9999992479259868,57.34256007285705,-3.62716825604162,-5970.650246847866,115.91398653552721,-89.77865600585938,5999.6640625,True
1598624246.5814724,0,5,0.5,0.5,-0.03594853820800781,-0.14,-0.011,-0.56,0.0011234485843001415,10,1,100,0.011095616504393536,-10,-1,-100,760.6478029979626,-0.0011981182714272932,0.00011129763040984485,0.9999992760624605,57.88066089501992,-3.65550326231745,-6056.645550140152,116.87962473541457,-89.7747802734375,5996.505859375,True
1598624246.6306007,0,5,0.5,0.5,-0.03644594116210938,-0.14,-0.011,-0.56,0.0010930327054896843,10,1,100,0.011360848751021783,-10,-1,-100,765.3183803969296,-0.0011799272828510417,0.00011003015952493271,0.9999992978322391,58.41314235548686,-3.683356899930718,-6142.505948640917,117.84555298502275,-89.77102661132812,5993.3486328125,True
1598624246.6796136,0,5,0.5,0.5,-0.03696931457519532,-0.14,-0.011,-0.56,0.0011259423715014522,10,1,100,0.011818285706173087,-10,-1,-100,770.0586602838011,-0.0011679483193813068,0.00010919462537805316,0.9999993119863919,58.940488231669725,-3.710762448620078,-6228.223432125287,118.81177565060077,-89.767333984375,5990.18994140625,True
1598624246.729565,0,5,0.5,0.5,-0.03750574035644531,-0.14,-0.011,-0.56,0.0011182874978471133,10,1,100,0.01235009008483301,-10,-1,-100,774.8559467702871,-0.0011622419511286564,0.0001083814958186639,0.9999993187233172,59.463148005577494,-3.737710331997938,-6313.784038724286,119.77829535211285,-89.763671875,5987.0322265625,True
1598624246.778422,0,5,0.5,0.5,-0.03803806152343751,-0.14,-0.011,-0.56,0.0011442037775648381,10,1,100,0.01290609580786755,-10,-1,-100,779.6661725860322,-0.001162405709295979,0.00010789244337099849,0.9999993185858617,59.98155927256549,-3.7642492094385838,-6399.177946571639,120.745113149462,-89.76004028320312,5983.875,True
1598624246.8282723,0,5,0.5,0.5,-0.03861088256835938,-0.14,-0.011,-0.56,0.0011509419273048995,10,1,100,0.01351878798218056,-10,-1,-100,784.5334054750856,-0.0011683942634270086,0.00010752285601526471,0.9999993116466034,60.49622981727308,-3.7903741942289044,-6484.397774184928,121.71223162074973,-89.75637817382812,5980.716796875,True
1598624246.8772945,0,5,0.5,0.5,-0.039164733886718754,-0.14,-0.011,-0.56,0.0011976393301402404,10,1,100,0.014208432387698188,-10,-1,-100,789.4133943638299,-0.0011802982696701228,0.000107622353422263,0.9999992976564653,61.0075214335428,-3.816103949161432,-6569.420085178715,122.67965319629505,-89.75271606445312,5977.55908203125,True
1598624246.9225297,0,5,0.5,0.5,-0.039739846801757815,-0.14,-0.011,-0.56,0.0012074897996171485,10,1,100,0.014931985776226524,-10,-1,-100,794.3503901731456,-0.0011978333536471794,0.0001078112740689214,0.9999992767857315,61.51602347497178,-3.841466120608369,-6654.24909494778,123.6473820020415,-89.7490234375,5974.40087890625,True
1598624246.9693801,0,5,0.5,0.5,-0.04029981689453126,-0.14,-0.011,-0.56,0.0012240591289479309,10,1,100,0.01570669717478349,-10,-1,-100,799.3572102830512,-0.0012209177990959194,0.00010814171452268717,0.9999992488322665,62.02215145827075,-3.8664650462857493,-6738.868239945669,124.61542006658482,-89.74533081054688,5971.24365234375,True
1598624247.0166006,0,5,0.5,0.5,-0.04087903442382813,-0.14,-0.011,-0.56,0.001249326344275954,10,1,100,0.016491907838775965,-10,-1,-100,804.3703165363986,-0.0012490704705679684,0.00010867697700738016,0.9999992140058281,62.52645314875005,-3.891149843189416,-6823.27596326485,125.58377063558154,-89.74160766601562,5968.0849609375,True
1598624247.0646446,0,5,0.5,0.5,-0.04148375244140625,-0.14,-0.011,-0.56,0.0013096260522224045,10,1,100,0.01736034847675704,-10,-1,-100,809.3834841685602,-0.0012825334542227694,0.00010971515090915018,0.999999171534919,63.02943395862322,-3.91550492593128,-6907.468948345644,126.55243560226113,-89.73782348632812,5964.927734375,True
1598624247.1112094,0,5,0.5,0.5,-0.04205419006347657,-0.14,-0.011,-0.56,0.0012686562796304234,10,1,100,0.01823263561329143,-10,-1,-100,814.5236044765916,-0.0013208074904385416,0.00011028793150492373,0.9999991216516868,63.53159160932334,-3.9395765249193073,-6991.440940960232,127.52141787151199,-89.73403930664062,5961.76953125,True
1598624247.1569486,0,5,0.5,0.5,-0.042688748168945315,-0.14,-0.011,-0.56,0.0013850044216131279,10,1,100,0.019115398744286683,-10,-1,-100,819.6065353848971,-0.0013634991152732118,0.00011186611718094246,0.9999990641776294,64.03337811179462,-3.9633761719990286,-7075.187859094209,128.49072174635285,-89.73016357421875,5958.6123046875,True
1598624247.2044854,0,5,0.5,0.5,-0.043293600463867196,-0.14,-0.011,-0.56,0.0013654329689728691,10,1,100,0.020044150890452493,-10,-1,-100,824.8162965353113,-0.0014105751111826994,0.00011312048050622723,0.9999989987403051,64.5354104478109,-3.9869271802062434,-7158.71039140882,129.46035057537725,-89.72625732421875,5955.4541015625,True
1598624247.2518034,0,5,0.5,0.5,-0.04392435607910157,-0.14,-0.011,-0.56,0.0014247284612819795,10,1,100,0.020988068348075102,-10,-1,-100,830.0324057287071,-0.0014617267814787537,0.0001147955525641257,0.999998925087821,65.03809241632185,-4.010251638125987,-7242.0104751197505,130.43030722867098,-89.7222900390625,5952.2958984375,True
1598624247.2974412,0,5,0.5,0.5,-0.044564025878906253,-0.14,-0.011,-0.56,0.0014532441486663583,10,1,100,0.021967191432429416,-10,-1,-100,835.2488200480584,-0.001516857308812767,0.00011657130331189763,0.9999988427768485,65.54182700238212,-4.033374404927808,-7325.082390865443,131.40059389771125,-89.71826171875,5949.138671875,True
1598624247.3460186,0,5,0.5,0.5,-0.045191281127929694,-0.14,-0.011,-0.56,0.0014694511918453034,10,1,100,0.022899812757228553,-10,-1,-100,840.5348142805742,-0.0015751375611187841,0.00011832473306850195,0.9999987524696824,66.04712884169435,-4.056319952844746,-7407.937523560078,132.37121379683515,-89.71420288085938,5945.98046875,True
1598624247.3933842,0,5,0.5,0.5,-0.045844607543945315,-0.14,-0.011,-0.56,0.0015323122754577708,10,1,100,0.023880217798167704,-10,-1,-100,845.8842241244856,-0.0016366734369587478,0.00012048049508039537,0.9999986533913489,66.5544463417596,-4.079116691158286,-7490.573522812624,133.3421687650609,-89.7100830078125,5942.82275390625,True
1598624247.4431715,0,5,0.5,0.5,-0.046506948852539066,-0.14,-0.011,-0.56,0.0015518515102920126,10,1,100,0.024838663133192766,-10,-1,-100,851.2338167619891,-0.0017009293361468412,0.00012260639066150842,0.999998545902476,67.06416162763142,-4.101783138905396,-7572.999016475767,134.31346314091368,-89.70590209960938,5939.6650390625,True
1598624247.5292754,0,5,0.5,0.5,-0.04713564758300782,-0.14,-0.011,-0.56,0.0016278142838157751,10,1,100,0.025769511332636448,-10,-1,-100,856.6531726829708,-0.001767369672188186,0.00012521644397079192,0.9999984303614101,67.57669491948573,-4.124343246413054,-7655.218094209954,135.28509871340074,-89.70172119140625,5936.50732421875,True
1598624247.5783563,0,5,0.5,0.5,-0.05088374633789063,-0.14,-0.011,-0.56,0.0019426548774929425,10,1,100,0.034547994604502134,-10,-1,-100,867.5680559818866,-0.0019071031899685327,0.00013043637104269353,0.999998172970219,68.61173413557326,-4.1692144603184715,-7819.068105461974,137.22940725928808,-89.69308471679688,5930.19140625,True
1598624247.6322773,0,5,0.5,0.5,-0.049279516601562504,-0.14,-0.011,-0.56,0.001723785424063298,10,1,100,0.0286004811359657,-10,-1,-100,873.0572361577069,-0.001979497565749657,0.00013317319951312227,0.9999980319252063,69.13488722893817,-4.191576615118685,-7900.709382565651,138.20208512415675,-89.68853759765625,5927.03369140625,True
1598624247.7172196,0,5,0.5,0.5,-0.04981662902832031,-0.14,-0.011,-0.56,0.0017505700741597748,10,1,100,0.029143608096133422,-10,-1,-100,878.6161180102499,-0.002049649343301921,0.00013588391742529074,0.9999978902343397,69.66238816092643,-4.213926276832414,-7982.188958111844,139.17511574477857,-89.6842041015625,5923.8759765625,True
1598624247.7692022,0,5,0.5,0.5,-0.05299462585449219,-0.14,-0.011,-0.56,0.002138042810072723,10,1,100,0.0381076429082287,-10,-1,-100,889.8670606280211,-0.0021942911391611827,0.00014184885148988492,0.9999975824797277,70.73169519434497,-4.258686494268088,-8144.785882576099,141.1222447061291,-89.67626953125,5917.56005859375,True
1598624247.8632865,0,5,0.5,0.5,-0.051490164184570315,-0.14,-0.011,-0.56,0.0018339863266385035,10,1,100,0.03164078322046574,-10,-1,-100,895.5022363114404,-0.002266281578209959,0.00014448125227103795,0.9999974215431637,71.27351537116415,-4.281125453461759,-8225.88743279498,142.0963480273205,-89.67214965820312,5914.40234375,True
1598624247.9543674,0,5,0.5,0.5,-0.05329702758789063,-0.14,-0.011,-0.56,0.002047799072629506,10,1,100,0.035797073074706295,-10,-1,-100,904.1388986603124,-0.0023687804716594593,0.00014879110912681626,0.9999971833661748,72.09590079252592,-4.314885865577,-8347.342648271733,143.5581828132531,-89.66635131835938,5909.66552734375,True
1598624248.0433435,0,5,0.5,0.5,-0.056729373168945316,-0.14,-0.011,-0.56,0.0024762756112890957,10,1,100,0.04403306803557323,-10,-1,-100,918.6199649041519,-0.0025360594897461167,0.00015657511134187016,0.9999967719380393,73.49351790182232,-4.371603047374989,-8549.468898462557,145.99640278132,-89.65689086914062,5901.77099609375,True
1598624248.1332994,0,5,0.5,0.5,-0.057689633178710946,-0.14,-0.011,-0.56,0.0023770850604940908,10,1,100,0.04109209244113504,-10,-1,-100,930.4169265631353,-0.0026605216172130696,0.00016271497164080696,0.9999964475679712,74.63510883449284,-4.417422100125482,-8710.866647026822,147.9486420474982,-89.64804077148438,5895.455078125,True
1598624248.2226758,0,5,0.5,0.5,-0.05895416870117188,-0.14,-0.011,-0.56,0.0023828878706925335,10,1,100,0.040807243964268325,-10,-1,-100,942.3532924964093,-0.0027701487031385526,0.00016831102066295316,0.9999961489663662,75.79898126426987,-4.463790560913808,-8872.24832871278,149.9023758049967,-89.63925170898438,5889.1396484375,True
1598624248.3135173,0,5,0.5,0.5,-0.05965980834960938,-0.14,-0.011,-0.56,0.0024003709033637724,10,1,100,0.04041588167871746,-10,-1,-100,954.4293063904624,-0.0028652798337776278,0.00017351572495282328,0.9999958800233966,76.98521983657749,-4.510849087907888,-9033.896131960584,151.8576137947592,-89.63131713867188,5882.82421875,True
1598624248.4033897,0,5,0.5,0.5,-0.060484933471679686,-0.14,-0.011,-0.56,0.002441707297961881,10,1,100,0.03971661804705989,-10,-1,-100,966.6450292278314,-0.0029444076375602733,0.00017857915127543163,0.9999956492771109,78.19113413900729,-4.558506516742395,-9195.812082612738,153.81436394179582,-89.6239013671875,5876.50830078125,True
1598624248.4943323,0,5,0.5,0.5,-0.061492431640625,-0.14,-0.011,-0.56,0.002395528243224198,10,1,100,0.038964787898558936,-10,-1,-100,979.0637545622885,-0.0030085641810603135,0.00018271869036179416,0.9999954575674075,79.41494420100561,-4.606741533970557,-9358.07096826661,155.77263514438843,-89.61663818359375,5870.1923828125,True
1598624248.5833654,0,5,0.5,0.5,-0.06299425048828125,-0.14,-0.011,-0.56,0.0024033292594479306,10,1,100,0.038231870185290236,-10,-1,-100,991.615658290917,-0.003059289908107625,0.0001865077846870225,0.9999953029690212,80.65485470234967,-4.6555254694198505,-9520.7309776187,157.73243421705615,-89.60879516601562,5863.876953125,True
1598624248.6741884,0,5,0.5,0.5,-0.06494426574707031,-0.14,-0.011,-0.56,0.0023791288350761925,10,1,100,0.037482444224615705,-10,-1,-100,1004.3136183654424,-0.003097673387085589,0.00018968639033634,0.9999951842077341,81.90916704165767,-4.704772642052118,-9683.84249552561,159.69376694075982,-89.599853515625,5857.5615234375,True
1598624248.7634714,0,5,0.5,0.5,-0.06715600891113283,-0.14,-0.011,-0.56,0.0023599168657966792,10,1,100,0.036786803312080785,-10,-1,-100,1017.2083556014113,-0.0031254221939989437,0.00019235788889786353,0.9999950973552579,83.17636158122737,-4.75447575462448,-9847.460231416731,161.65663972964998,-89.58966064453125,5851.24560546875,True
1598624248.8534155,0,5,0.5,0.5,-0.06940006713867188,-0.14,-0.011,-0.56,0.0023267022169414235,10,1,100,0.03610013223321027,-10,-1,-100,1030.2426800634712,-0.003143624880825181,0.00019444104838544913,0.9999950398953422,84.4552239583818,-4.804569369130189,-10011.645504456357,163.62105654560918,-89.57843017578125,5844.93017578125,True
1598624248.945331,0,5,0.5,0.5,-0.07132539367675782,-0.14,-0.011,-0.56,0.0023369132591697364,10,1,100,0.03557224596637963,-10,-1,-100,1043.416591262794,-0.0031546694078695126,0.00019638615744964013,0.9999950047342258,85.7447443025487,-4.854974816812343,-10176.448498965343,165.58702194434906,-89.56683349609375,5838.6142578125,True
1598624249.0342376,0,5,0.5,0.5,-0.07281300659179687,-0.14,-0.011,-0.56,0.0023017737032134788,10,1,100,0.035081920593958475,-10,-1,-100,1056.7859858366428,-0.003159690010962237,0.00019779879604829527,0.9999949886047783,86.99870048425873,-4.903018168086341,-10331.343226786359,167.41986767993927,-89.55557250976562,5832.59375,True
1598624249.1221967,0,5,0.5,0.5,-0.07376494140625,-0.14,-0.011,-0.56,0.0022808750034739762,10,1,100,0.034732491276351626,-10,-1,-100,1070.2380196009763,-0.0031606237759830612,0.00019886113039088856,0.9999949854432258,88.1523446561563,-4.944942865885229,-10466.35068582448,169.0577572133229,-89.54534912109375,5827.00146484375,True
1598624249.2143092,0,5,0.5,0.5,-0.0742527557373047,-0.14,-0.011,-0.56,0.0022466031264204156,10,1,100,0.03444016715423093,-10,-1,-100,1083.8233815415297,-0.003158460183916491,0.00019948755353846106,0.999994992154452,89.22059412800384,-4.981631722037061,-10583.472495804175,170.50499702309065,-89.53662109375,5821.82861328125,True
1598624249.3039334,0,5,0.5,0.5,-0.07451072998046875,-0.14,-0.011,-0.56,0.002223904671560426,10,1,100,0.03425094194891986,-10,-1,-100,1097.5418306717183,-0.003154506525307564,0.0001998270687842674,0.999995004566385,90.22155946450395,-5.014154834433969,-10685.616592804605,171.77978843736534,-89.5294189453125,5817.0341796875,True
1598624249.3967423,0,5,0.5,0.5,-0.07474710693359375,-0.14,-0.011,-0.56,0.0022302146530322215,10,1,100,0.03417866767673543,-10,-1,-100,1111.330621299916,-0.003150064252381638,0.00020017376618700872,0.9999950185004269,91.164312269031,-5.043071131894904,-10774.645477875678,172.90132718098636,-89.52346801757812,5812.57568359375,True
1598624249.4862208,0,5,0.5,0.5,-0.07519139099121096,-0.14,-0.011,-0.56,0.0021657935549763644,10,1,100,0.034199104837315,-10,-1,-100,1125.2526178210974,-0.003146082978389409,0.00019988743104733375,0.9999950310911091,92.05567378356837,-5.068792117828173,-10852.120429832292,173.88828345961616,-89.51821899414062,5808.412109375,True
1598624249.579044,0,5,0.5,0.5,-0.07587635192871095,-0.14,-0.011,-0.56,0.0021892485469991235,10,1,100,0.03427898431222977,-10,-1,-100,1139.1809837783221,-0.0031431109126499883,0.00019982819026023585,0.999995040448944,92.90115263427535,-5.0916385220688465,-10919.326842470582,174.75622884386942,-89.51318359375,5804.5087890625,True
1598624249.6652648,0,5,0.5,0.5,-0.07671936950683594,-0.14,-0.011,-0.56,0.0021662995553103897,10,1,100,0.03445003229262954,-10,-1,-100,1153.2365677970229,-0.003141922709503636,0.00019955648798395482,0.999995044237168,93.70518852762629,-5.111900074627186,-10977.361696815358,175.51941376743355,-89.50808715820312,5800.8349609375,True
1598624249.7564564,0,5,0.5,0.5,-0.07756532592773438,-0.14,-0.011,-0.56,0.0021008040074221796,10,1,100,0.03469857208052657,-10,-1,-100,1167.3047433096217,-0.003143086976973739,0.00019870752766191008,0.9999950407474898,94.47244687414162,-5.129861258900732,-11027.297182727723,176.1907537966893,-89.5029296875,5797.36181640625,True
1598624249.844645,0,5,0.5,0.5,-0.07822088623046874,-0.14,-0.011,-0.56,0.00215829026425425,10,1,100,0.03498262206162529,-10,-1,-100,1181.4364171467023,-0.0031467281635055044,0.00019845446926827325,0.9999950293464908,95.19419248977077,-5.1450468930916164,-11067.772736667384,176.7610663480612,-89.49798583984375,5794.109375,True
