Timestamp,Input Throttle,horizon,dT,dt,Input Roll,Roll P,Roll I,Roll D,Input Pitch,Pitch P,Pitch I,Pitch D,Input Yaw,Yaw P,Yaw I,Yaw D,Altitude,Direction X,Direction Y,Direction Z,Drag X,Drag Y,Drag Z,Vertical Velocity,Roll,Mass,Has Fuel
1598624956.0320241,0,5,0.5,0.5,-0.0084124755859375,-0.14,-0.011,-0.56,0.004346347980966205,10,1,100,0.1299704001076789,-10,-1,-100,477.92863825475797,-0.011782365398137595,0.0004136294237214472,0.9999304999730354,5.523280533757096,-0.452636975898937,118.50228120200009,-14.628779715394892,-89.92391967773438,6440.1796875,True
1598624956.0769815,0,5,0.5,0.5,-0.009025949096679689,-0.14,-0.011,-0.56,0.004247846790124507,10,1,100,0.12411420457162287,-10,-1,-100,476.9955953715835,-0.01182884098041426,0.00041426751108997347,0.9999299509983134,5.710011966023578,-0.46842959446490967,127.5265294867609,-15.212108839601827,-89.92636108398438,6440.1796875,True
1598624956.1221235,0,5,0.5,0.5,-0.008444720458984376,-0.14,-0.011,-0.56,0.00404152322638969,10,1,100,0.1179570997345945,-10,-1,-100,476.4057553263847,-0.011804364337619685,0.0004125953149264172,0.9999302409406823,6.155435967804312,-0.5021100331195069,133.74785750826675,-14.955287156930462,-89.92926025390625,6438.60107421875,True
1598624956.1660721,0,5,0.5,0.5,-0.0065999267578125,-0.14,-0.011,-0.56,0.0040619551850484634,10,1,100,0.11819980606731445,-10,-1,-100,475.8123605407309,-0.01177358802506969,0.00041088579502469456,0.9999306044910713,6.000254122940336,-0.48369959754743874,119.92174017976981,-14.052408052332943,-89.934326171875,6435.443359375,True
1598624956.2099159,0,5,0.5,0.5,-0.004403491210937502,-0.14,-0.011,-0.56,0.004033175159186291,10,1,100,0.11539379671565247,-10,-1,-100,475.27242700662464,-0.011709397121349975,0.00040869651688344995,0.9999313591373218,5.839972718881768,-0.46541118313814545,106.96169072540671,-13.148983776507247,-89.94161987304688,6432.28515625,True
1598624956.2561545,0,5,0.5,0.5,-0.002058041381835938,-0.14,-0.011,-0.56,0.0038850488342113297,10,1,100,0.11156032168051382,-10,-1,-100,474.80275406793226,-0.011605547074811384,0.0004049881187853793,0.999932571357548,5.66160102457857,-0.4462186230653415,94.6229758288803,-12.245020100876154,-89.95089721679688,6429.126953125,True
1598624956.3028464,0,5,0.5,0.5,0.0002335266113281248,-0.14,-0.011,-0.56,0.003731173925923475,10,1,100,0.1076098877882557,-10,-1,-100,474.3394258772023,-0.01146467440886958,0.00039984981396743883,0.9999341985154949,5.47138355369746,-0.4266364117217133,83.03165135281249,-11.34050880329537,-89.961669921875,6425.9697265625,True
1598624956.3500006,0,5,0.5,0.5,0.002361773681640625,-0.14,-0.011,-0.56,0.003593645935445224,10,1,100,0.10330494399316989,-10,-1,-100,473.8822611073265,-0.011287050064959097,0.00039356487347953843,0.9999362217699296,5.268309962420576,-0.40659501445604335,72.17269288672824,-10.435443450048657,-89.973388671875,6422.8115234375,True
1598624956.3943818,0,5,0.5,0.5,0.004229473876953126,-0.14,-0.011,-0.56,0.0034411061075207486,10,1,100,0.0987601582885684,-10,-1,-100,473.5397504515713,-0.011073996200394136,0.0003861067792607887,0.9999386068802967,5.052701326533401,-0.386125043664716,62.051800218253305,-9.529879762749248,-89.9854736328125,6419.654296875,True
1598624956.4407942,0,5,0.5,0.5,0.005771875000000001,-0.14,-0.011,-0.56,0.003243766650994978,10,1,100,0.09396150476084868,-10,-1,-100,473.15247035911307,-0.010826619476719089,0.0003771816923850903,0.9999413193006264,4.825308465013994,-0.36528217911226574,52.67511491450811,-8.623748808666427,-89.99736785888672,6416.49609375,True
1598624956.48879,0,5,0.5,0.5,0.003097623443603516,-0.14,-0.011,-0.56,0.0036716498872448517,10,1,100,0.10485987522822432,-10,-1,-100,473.01919347117655,-0.010690965259920897,0.0003726149321981951,0.9999427805729304,4.707427197014645,-0.35473744471023066,48.266424226872005,-8.170437053658056,-90.00306701660156,6414.91796875,True
1598624956.5336592,0,5,0.5,0.5,0.010855889129638674,-0.14,-0.011,-0.56,0.002375904898626375,10,1,100,0.06814821209664457,-10,-1,-100,472.56211089272983,-0.010234893034488378,0.00035672111803314354,0.9999475584822518,4.339571449452658,-0.32278641318246365,36.16963845086785,-6.809632466866329,-90.01858520507812,6410.1806640625,True
1598624956.6217728,0,5,0.5,0.5,0.008606414031982423,-0.14,-0.011,-0.56,0.002620979474300599,10,1,100,0.07528939316071781,-10,-1,-100,472.30815939139575,-0.00988665079190123,0.00034455246165564126,0.9999510665126169,4.0862390856796,-0.30148104302008605,29.056330229227573,-5.901696859427355,-90.02764129638672,6407.0224609375,True
1598624956.729963,0,5,0.5,0.5,0.010660739135742187,-0.14,-0.011,-0.56,0.0016509138068177202,10,1,100,0.04845545932991771,-10,-1,-100,472.04782147775404,-0.009327865457947204,0.000324733125111041,0.9999564417885392,3.71080954825463,-0.2706851194920635,19.847250612980996,-4.538678935930191,-90.03766632080078,6402.2861328125,True
1598624956.76589,0,5,0.5,0.5,0.0066076957702636725,-0.14,-0.011,-0.56,0.002850691090593994,10,1,100,0.08199550419368401,-10,-1,-100,471.9661182187265,-0.009127011673629712,0.00031770093325929203,0.9999582974924636,3.5953591294993634,-0.26132779405163464,17.182525757260613,-4.084039771907891,-90.03973388671875,6400.70751953125,True
1598624956.806966,0,5,0.5,0.5,0.007213362884521486,-0.14,-0.011,-0.56,0.0019358307898274655,10,1,100,0.05604912798128891,-10,-1,-100,471.8299028093461,-0.008710888799999055,0.00030307384300857376,0.9999620135597951,3.4157061458661846,-0.24658025395832542,12.51808392422153,-3.1743059932612647,-90.04209899902344,6397.54931640625,True
1598624956.8484888,0,5,0.5,0.5,0.006218866729736329,-0.14,-0.011,-0.56,0.001631454989754446,10,1,100,0.04811167117547234,-10,-1,-100,471.73030769848265,-0.0082630680878045,0.00028710208484887225,0.9999658190549161,3.46190254958823,-0.24831884323230674,8.934749119116685,-2.263982563937562,-90.04242706298828,6394.3916015625,True
1598624956.9301102,0,5,0.5,0.5,0.0051039337158203125,-0.14,-0.011,-0.56,0.001470670311079113,10,1,100,0.042146932404165276,-10,-1,-100,471.66715179220773,-0.007804644002725809,0.0002712231237422029,0.9999695065200777,4.782626844218867,-0.3410042792883753,7.289382462376373,-1.3530407662335475,-90.04096984863281,6391.23388671875,True
1598624957.0030575,0,5,0.5,0.5,0.0038367202758789075,-0.14,-0.011,-0.56,0.0012037506204529394,10,1,100,0.03490996844062083,-10,-1,-100,471.6402199208969,-0.007325270076678624,0.00025447238168475406,0.9999731374702574,13.362125287734102,-0.9474291187756803,6.570848922817385,-0.4414492472290301,-90.03788757324219,6388.076171875,True
1598624957.0467067,0,5,0.5,0.5,0.0024801910400390624,-0.14,-0.011,-0.56,0.0009083266502642466,10,1,100,0.027962107272837537,-10,-1,-100,471.64990858978126,-0.006829721157041078,0.00023667842953769975,0.9999766491734883,1.346697964381659,-0.09498943804076956,-0.6989551467684636,0.4707943991807092,-90.03340148925781,6384.91796875,True
1598624957.0881603,0,5,0.5,0.5,0.0011120521545410155,-0.14,-0.011,-0.56,0.0006921302892749985,10,1,100,0.021194187010191795,-10,-1,-100,471.6959757099394,-0.006321329135273508,0.00021866441817942756,0.9999799962918435,0.6995930669840172,-0.049111385176487554,-1.0569964761671788,1.3837062007360519,-90.02780151367188,6381.759765625,True
1598624957.1341395,0,5,0.5,0.5,-0.00021617813110351566,-0.14,-0.011,-0.56,0.0004555268392443272,10,1,100,0.014526008849600688,-10,-1,-100,471.7788160238415,-0.005802507165047296,0.00020027705877528198,0.9999831452578084,1.562622640194041,-0.10922172546013857,-3.885400625517154,2.29719998813023,-90.0213851928711,6378.6025390625,True
1598624957.179288,0,5,0.5,0.5,-0.0014424987792968757,-0.14,-0.011,-0.56,0.0002674824386123208,10,1,100,0.007981626828516213,-10,-1,-100,471.89806522487197,-0.005275385888167646,0.00018199400481963855,0.9999860684939132,2.2053021554960264,-0.15353786309289724,-7.6047150254343165,3.21132006389174,-90.01449584960938,6375.44482421875,True
1598624957.2221034,0,5,0.5,0.5,-0.002506916046142579,-0.14,-0.011,-0.56,2.7865680081692098e-06,10,1,100,0.0016257500647616566,-10,-1,-100,472.0538441912504,-0.004742596088519044,0.0001631145009970486,0.9999887405246126,2.7343705248464456,-0.18970009459179754,-12.028796083491972,4.126124456152618,-90.00748443603516,6372.287109375,True
1598624957.2680554,0,5,0.5,0.5,-0.003414902496337891,-0.14,-0.011,-0.56,-0.00020018603027155586,10,1,100,-0.004538194867084837,-10,-1,-100,472.24639725126326,-0.004206374288884826,0.00014425303628680023,0.9999911427639763,3.216376007090001,-0.22243695802914387,-17.17835355281654,5.0415492779890085,-90.00062561035156,6369.12939453125,True
1598624957.3160508,0,5,0.5,0.5,-0.004092382049560547,-0.14,-0.011,-0.56,-0.0004090712256990868,10,1,100,-0.010532028572193632,-10,-1,-100,472.4338853179943,-0.003668883834975226,0.0001253649737708446,0.9999932617648124,3.678171742386028,-0.25366678146696164,-23.08414501585353,5.957591430264377,-89.99423217773438,6365.9716796875,True
1598624957.361281,0,5,0.5,0.5,-0.004559464263916017,-0.14,-0.011,-0.56,-0.0006194506774156552,10,1,100,-0.016315374594837714,-10,-1,-100,472.7192435791949,-0.0031322639175470285,0.0001064430208945868,0.999995088784257,4.13026257373897,-0.2841568177842271,-29.764683218351074,6.874248869740288,-89.988525390625,6362.8134765625,True
1598624957.408494,0,5,0.5,0.5,-0.004819561767578125,-0.14,-0.011,-0.56,-0.0008149126694663126,10,1,100,-0.021820593110588142,-10,-1,-100,473.0111641800031,-0.00259904455535117,8.762855386475944e-05,0.9999966186386011,4.5770031679917595,-0.3142430989908808,-37.2314559146286,7.791518003498404,-89.98367309570312,6359.6552734375,True
1598624957.4559457,0,5,0.5,0.5,-0.004835591125488281,-0.14,-0.011,-0.56,-0.0009706872368483441,10,1,100,-0.027120864911698753,-10,-1,-100,473.36631817778107,-0.0020708477546606337,6.927526465224106e-05,0.9999978533929536,5.020076637418802,-0.3440715131873146,-45.49134129662959,8.7093958520086,-89.9798583984375,6356.498046875,True
1598624957.5042934,0,5,0.5,0.5,-0.004685800170898438,-0.14,-0.011,-0.56,-0.0011789109974902556,10,1,100,-0.032148141765465384,-10,-1,-100,473.7278809811687,-0.0015497430756550112,5.086587401414561e-05,0.9999987978538085,5.460059875258909,-0.3737113909671962,-54.549402298179466,9.627861916273059,-89.97711181640625,6353.34033203125,True
1598624957.5528424,0,5,0.5,0.5,-0.004320472717285157,-0.14,-0.011,-0.56,-0.0013406583387767022,10,1,100,-0.0368846772557996,-10,-1,-100,474.1531040817499,-0.001037752115811758,3.282855447283983e-05,0.9999994609962708,5.896861861188766,-0.4031839671736884,-64.4086363494843,10.54691970459019,-89.97552490234375,6350.1826171875,True
1598624957.6003208,0,5,0.5,0.5,-0.003831101989746094,-0.14,-0.011,-0.56,-0.0015081359420993474,10,1,100,-0.04135203067465261,-10,-1,-100,474.58434032206424,-0.0005364967367096475,1.5077409281180156e-05,0.9999998559719512,6.330222710016077,-0.43249718436774137,-75.07242195027695,11.466591026673683,-89.97503662109375,6347.0244140625,True
1598624957.647927,0,5,0.5,0.5,-0.0032454887390136722,-0.14,-0.011,-0.56,-0.0016165301187930476,10,1,100,-0.04547494224053102,-10,-1,-100,475.0793280538637,-4.8116296407323034e-05,-1.8770337270949128e-06,0.9999999988406495,6.759612099143046,-0.4616394237760171,-86.54213025670742,12.386867412078491,-89.97555541992188,6343.86669921875,True
1598624957.6960506,0,5,0.5,0.5,-0.003151604461669922,-0.14,-0.011,-0.56,-0.00085475238304949,10,1,100,-0.023431891337700766,-10,-1,-100,475.35846892837435,0.00019072248694018755,-1.0197756101906512e-05,0.9999999817604692,6.972671239073495,-0.47614433998219463,-92.5799365462147,12.847227449524501,-89.97616577148438,6342.2880859375,True
1598624957.7431211,0,5,0.5,0.5,-0.0022247512817382816,-0.14,-0.011,-0.56,-0.0018374238324593885,10,1,100,-0.051383635739230674,-10,-1,-100,475.8598352840636,0.0006574705858377788,-2.653786938537163e-05,0.9999997835140617,7.395105720617093,-0.5050048579790766,-105.26093876528952,13.768335794323958,-89.97802734375,6339.13037109375,True
1598624957.7909398,0,5,0.5,0.5,-0.00047226562500000003,-0.14,-0.011,-0.56,-0.002841086525326991,10,1,100,-0.08000053922110327,-10,-1,-100,476.76708376815077,0.0013375190302392286,-5.0361459663979786e-05,0.9999991042528823,8.018540656308998,-0.5478912197400214,-125.79987707363303,15.151173352296377,-89.9820556640625,6334.3935546875,True
1598624957.837103,0,5,0.5,0.5,-0.0003703033447265624,-0.14,-0.011,-0.56,-0.002131601199007487,10,1,100,-0.05931748003688887,-10,-1,-100,477.4015692927642,0.0017631658026884024,-6.540965110214187e-05,0.9999984434827535,8.426580368599073,-0.5761911298951083,-140.50589502498391,16.073790939258327,-89.98544311523438,6331.2353515625,True
1598624957.8859496,0,5,0.5,0.5,0.00020736083984375007,-0.14,-0.011,-0.56,-0.0022148767597144833,10,1,100,-0.06129312707641704,-10,-1,-100,478.03617662994657,0.002163627450983148,-7.969064598690125e-05,0.9999976561800805,8.827770128215425,-0.6042237008215644,-156.0209282406107,16.996985674603287,-89.98898315429688,6328.078125,True
1598624957.932024,0,5,0.5,0.5,0.000666082763671875,-0.14,-0.011,-0.56,-0.0022724175996501252,10,1,100,-0.06452449102503763,-10,-1,-100,478.79749377432745,0.0025527298289600726,-9.304435879077774e-05,0.9999967374512618,9.221564805947075,-0.6319649378311368,-172.3421203208293,17.92073338779471,-89.99246215820312,6324.919921875,True
1598624957.9786978,0,5,0.5,0.5,0.0010334930419921876,-0.14,-0.011,-0.56,-0.002357832146431261,10,1,100,-0.0659566346427789,-10,-1,-100,479.50177360337693,0.002915275498569815,-0.00010581303028918213,0.9999957449771325,9.607569039021092,-0.6593976937525072,-189.46825904728982,18.845050755656036,-89.9957504272461,6321.7626953125,True
1598624958.0259979,0,5,0.5,0.5,0.001263346099853516,-0.14,-0.011,-0.56,-0.0023865100581515718,10,1,100,-0.06733855884732227,-10,-1,-100,480.2759082239354,0.003253366310461589,-0.00011753918639036774,0.9999947008820544,9.985508797023359,-0.6865147129830337,-207.40008678532664,19.769953977598508,-89.9986801147461,6318.6044921875,True
1598624958.0738945,0,5,0.5,0.5,0.001383879089355469,-0.14,-0.011,-0.56,-0.0024589618540521675,10,1,100,-0.06860014733632308,-10,-1,-100,481.1070799678564,0.0035682895635120514,-0.0001287212830443026,0.999993625349893,10.355071519299926,-0.7133027725016758,-226.1356492207032,20.6954096957774,-90.00115966796875,6315.44677734375,True
1598624958.1238992,0,5,0.5,0.5,0.001343186950683594,-0.14,-0.011,-0.56,-0.002451553325308947,10,1,100,-0.06947927335872478,-10,-1,-100,481.94469110528007,0.0038588438607613765,-0.0001386887491117364,0.9999925450169562,10.715951919233099,-0.7397452121505458,-245.671611511446,21.621399980025746,-90.00304412841797,6312.2890625,True
1598624958.1717572,0,5,0.5,0.5,0.000814800262451172,-0.14,-0.011,-0.56,-0.0019937526007762062,10,1,100,-0.055753012707592114,-10,-1,-100,482.42686635872815,0.003994648161289404,-0.00014346388284511982,0.9999920110701795,10.893060004742756,-0.7528331533683009,-255.73856909309526,22.084596525031202,-90.00375366210938,6310.7099609375,True
1598624958.2222567,0,5,0.5,0.5,0.0012168510437011722,-0.14,-0.011,-0.56,-0.0029492497889345563,10,1,100,-0.08322701455810252,-10,-1,-100,483.8166291679954,0.004364412155251933,-0.00015637010056168682,0.9999904636819947,11.41095840686196,-0.7915617752713934,-287.1351362673958,23.475088504731048,-90.00485229492188,6305.97314453125,True
1598624958.2712846,0,5,0.5,0.5,0.0005723777770996095,-0.14,-0.011,-0.56,-0.0025008479590470124,10,1,100,-0.07088255308058922,-10,-1,-100,484.78735745779704,0.004584968916722825,-0.0001639086161857916,0.9999894755416171,11.744976644239516,-0.8169254045325502,-309.0588070848271,24.402770133410964,-90.00476837158203,6302.8154296875,True
1598624958.3200607,0,5,0.5,0.5,0.00011564178466796866,-0.14,-0.011,-0.56,-0.0024580667682323255,10,1,100,-0.06942283168502278,-10,-1,-100,485.7645550343441,0.004769252641839866,-0.00017026966760346076,0.9999886125539023,12.06997142332783,-0.8419248999377389,-331.77311758306365,25.33099376505474,-90.00401306152344,6299.6572265625,True
1598624958.3661768,0,5,0.5,0.5,-0.00042362365722656254,-0.14,-0.011,-0.56,-0.0024473190754262875,10,1,100,-0.06946986886756797,-10,-1,-100,486.8051374682691,0.004934478105570176,-0.00017585940803355846,0.9999878099253483,12.385883870286854,-0.8665474872937375,-355.2709228365159,26.259760930367115,-90.00260925292969,6296.5,True
1598624958.4150639,0,5,0.5,0.5,-0.001011051940917969,-0.14,-0.011,-0.56,-0.00240299989439204,10,1,100,-0.06835487364791484,-10,-1,-100,487.85225015494507,0.005072027797278532,-0.00018045066244965716,0.9999871209028556,12.692940278508976,-0.8908016251501706,-379.54952369623356,27.18906863600893,-90.00062561035156,6293.341796875,True
1598624958.464085,0,5,0.5,0.5,-0.0015895355224609376,-0.14,-0.011,-0.56,-0.0023699552833575856,10,1,100,-0.06701155838530648,-10,-1,-100,489.019876216189,0.005182570743745763,-0.00018424466426974378,0.9999865534167897,12.991342538697616,-0.9146903382380419,-404.6040740345004,28.11888785089916,-89.99819946289062,6290.1845703125,True
1598624958.5098345,0,5,0.5,0.5,-0.002209552764892578,-0.14,-0.011,-0.56,-0.0022399047965432984,10,1,100,-0.06552763838438327,-10,-1,-100,490.1365687174257,0.005267512972121057,-0.00018644017819516485,0.9999861091770967,13.281376906697155,-0.9382226945808103,-430.4312670492108,29.049247796048856,-89.99536895751953,6287.0263671875,True
1598624958.5580366,0,5,0.5,0.5,-0.0027696830749511722,-0.14,-0.011,-0.56,-0.00226707459859687,10,1,100,-0.06378004102867763,-10,-1,-100,491.3168285184074,0.005327014888627036,-0.00018862046088075757,0.9999857935664377,13.56338436446659,-0.9614074027744697,-457.02729519303114,29.98016435203632,-89.9923095703125,6283.86865234375,True
1598624958.60496,0,5,0.5,0.5,-0.0033092033386230473,-0.14,-0.011,-0.56,-0.002169844007691525,10,1,100,-0.06176413678401189,-10,-1,-100,492.5604731114581,0.005361182296567225,-0.00018966416778866922,0.9999856107724183,13.837755495324824,-0.984258545321122,-484.38703072720114,30.911608581874635,-89.98910522460938,6280.7109375,True
1598624958.65403,0,5,0.5,0.5,-0.0037945068359375002,-0.14,-0.011,-0.56,-0.002055049216760049,10,1,100,-0.059543219308364814,-10,-1,-100,493.81058660382405,0.005370687655428963,-0.00018952306195223282,0.9999855597932986,14.104938539053304,-1.006789740264851,-512.5059284146731,31.843577916831283,-89.98587036132812,6277.552734375,True
1598624958.7018886,0,5,0.5,0.5,-0.004224334716796875,-0.14,-0.011,-0.56,-0.0019902124794469993,10,1,100,-0.057125001838026664,-10,-1,-100,495.1178589493502,0.005356094150578251,-0.00018876348705343827,0.9999856382087676,14.36543192024786,-1.0290182336337181,-541.3790066069389,32.776069286747756,-89.98269653320312,6274.39501953125,True
1598624958.7512283,0,5,0.5,0.5,-0.004586230468750001,-0.14,-0.011,-0.56,-0.0018833900820293078,10,1,100,-0.05447690739016209,-10,-1,-100,496.4946811228292,0.005317852213010356,-0.00018707240318119897,0.9999858426256626,14.619831846444434,-1.0509580132977328,-571.0034619029086,33.70908008809359,-89.97967529296875,6271.2373046875,True
1598624958.798978,0,5,0.5,0.5,-0.00486590805053711,-0.14,-0.011,-0.56,-0.0017814496879639732,10,1,100,-0.05169444291023835,-10,-1,-100,497.8209345743526,0.0052571254260436115,-0.00018458726536311893,0.9999861641841833,14.868663015535228,-1.0726280893363414,-601.3720467657461,34.64260757443377,-89.97689819335938,6268.07958984375,True
1598624958.84813,0,5,0.5,0.5,-0.005092267608642578,-0.14,-0.011,-0.56,-0.001648644648214803,10,1,100,-0.04868857720587359,-10,-1,-100,499.261446194374,0.0051741496835030695,-0.00018110771462372674,0.9999865975977119,15.112632280865178,-1.0940562956437736,-632.4824862985694,35.57664076968007,-89.97439575195312,6264.921875,True
1598624958.8991256,0,5,0.5,0.5,-0.0052386589050292965,-0.14,-0.011,-0.56,-0.0015319634248466606,10,1,100,-0.04557727137970531,-10,-1,-100,500.7144998678705,0.005070214708612017,-0.00017687897709675967,0.9999871307355092,15.352385358130057,-1.115265670827352,-664.3293850813951,36.51118474987639,-89.97222900390625,6261.763671875,True
1598624958.9463089,0,5,0.5,0.5,-0.005316892242431641,-0.14,-0.011,-0.56,-0.0014446129861587806,10,1,100,-0.04230280628906223,-10,-1,-100,502.23102975683287,0.004945962151604002,-0.00017224382234358424,0.9999877538202459,15.588678057732881,-1.1362822404462565,-696.910879545113,37.44624401156607,-89.97042846679688,6258.60595703125,True
1598624958.994998,0,5,0.5,0.5,-0.005364530181884766,-0.14,-0.011,-0.56,-0.00127864169838583,10,1,100,-0.038891051152464495,-10,-1,-100,503.74765105894767,0.004802204424529592,-0.00016653212526269445,0.9999884554832201,15.822226932228043,-1.1571274849602737,-730.2214877354114,38.38180693163984,-89.96896362304688,6255.4482421875,True
1598624959.0459113,0,5,0.5,0.5,-0.005363668823242187,-0.14,-0.011,-0.56,-0.0011478184803853072,10,1,100,-0.03544306694805478,-10,-1,-100,505.27687583013903,0.0046405932785560326,-0.00016016846961909212,0.9999892195619333,16.05382762700047,-1.177831252151195,-764.2593597675808,39.31787208100696,-89.96783447265625,6252.2900390625,True
1598624959.0933256,0,5,0.5,0.5,-0.005335049438476563,-0.14,-0.011,-0.56,-0.0010214885291348042,10,1,100,-0.03185562377619258,-10,-1,-100,506.863320591161,0.004461684954845023,-0.0001532607394692324,0.999990034889603,16.284256195254983,-1.1984240809868534,-799.0206329343799,40.25443235481597,-89.96701049804688,6249.13232421875,True
1598624959.1389399,0,5,0.5,0.5,-0.005282449340820314,-0.14,-0.011,-0.56,-0.00087783121227585,10,1,100,-0.028202295830862163,-10,-1,-100,508.5130591909401,0.004266646676824485,-0.00014570810320547803,0.9999908872061203,16.514319890801666,-1.218933898480895,-834.5027683017397,41.19148828989286,-89.96646118164062,6245.974609375,True
1598624959.1857352,0,5,0.5,0.5,-0.005252529907226563,-0.14,-0.011,-0.56,-0.0007750073164009857,10,1,100,-0.02451325329188576,-10,-1,-100,510.2328347618459,0.004056806074613851,-0.00013794713932933596,0.9999917616135943,16.74484000821661,-1.2393931805011664,-870.7037806629247,42.12903724715899,-89.96609497070312,6242.8173828125,True
1598624959.2359855,0,5,0.5,0.5,-0.005193887329101563,-0.14,-0.011,-0.56,-0.0005923517629338924,10,1,100,-0.02075914141998062,-10,-1,-100,511.89529869914986,0.0038330947720195594,-0.00012927740927198242,0.9999926453088643,16.976644734734155,-1.2598323017318072,-907.6219919951817,43.067076658982366,-89.96591186523438,6239.6591796875,True
1598624959.2849913,0,5,0.5,0.5,-0.0051705749511718755,-0.14,-0.011,-0.56,-0.0004498487356176008,10,1,100,-0.016990070472118517,-10,-1,-100,513.678490272956,0.003596806358717812,-0.0001201528953296122,0.9999935242526821,17.21055705442043,-1.2802814055649034,-945.2562555100188,44.00560988160782,-89.9658203125,6236.5009765625,True
1598624959.3311892,0,5,0.5,0.5,-0.005174215698242188,-0.14,-0.011,-0.56,-0.00032961692117450085,10,1,100,-0.013225211049988542,-10,-1,-100,515.4678460952127,0.0033492820964853382,-0.00011082344285982338,0.9999943849980373,17.447414801029396,-1.3007729524737779,-983.6063333796477,44.94462750416777,-89.96575927734375,6233.34375,True
1598624959.3779368,0,5,0.5,0.5,-0.00525634765625,-0.14,-0.011,-0.56,-0.0001649635367930271,10,1,100,-0.009458052606697884,-10,-1,-100,517.2700802410254,0.0030916721155050085,-0.00010090916827633277,0.9999952156789901,17.68800702257693,-1.321336137910267,-1022.6704956613747,45.884126754642004,-89.96560668945312,6230.185546875,True
1598624959.4260757,0,5,0.5,0.5,-0.005306356811523438,-0.14,-0.011,-0.56,-3.201090073631655e-05,10,1,100,-0.005730464171398157,-10,-1,-100,519.1292604712071,0.0028253927311957176,-9.075659451702615e-05,0.9999960044515954,17.933151987560798,-1.3420014830075215,-1062.4495443737212,46.82410454533008,-89.96542358398438,6227.02734375,True
1598624959.4713626,0,5,0.5,0.5,-0.005465670776367188,-0.14,-0.011,-0.56,0.00013008162906215294,10,1,100,-0.0020258470525973057,-10,-1,-100,521.0520394573687,0.002551570016580362,-8.012749285387638e-05,0.9999967415297089,18.183616688599795,-1.3628056210523871,-1102.944001661122,47.76455860469484,-89.96505737304688,6223.8701171875,True
1598624959.5189455,0,5,0.5,0.5,-0.005628048706054688,-0.14,-0.011,-0.56,0.0002728944032357665,10,1,100,0.00163651519021097,-10,-1,-100,522.9811049696291,0.0022713921050935538,-6.92449248788972e-05,0.9999974179881892,18.44016603628068,-1.3837787479153685,-1144.1543964451832,48.70548557714085,-89.96453857421875,6220.7119140625,True
1598624959.5649903,0,5,0.5,0.5,-0.005875204467773437,-0.14,-0.011,-0.56,0.0004051451704262795,10,1,100,0.005212120856533539,-10,-1,-100,524.973647067789,0.0019863332260239433,-5.823205933149346e-05,0.999998025542722,18.70358343495567,-1.404948442257234,-1186.0844119940298,49.64688178892829,-89.96377563476562,6217.55419921875,True
1598624959.613214,0,5,0.5,0.5,-0.006156472778320312,-0.14,-0.011,-0.56,0.0005333621759197629,10,1,100,0.008752930831440141,-10,-1,-100,526.9724759306991,0.0016972499286695294,-4.714114394767452e-05,0.9999985585591571,18.97452975391937,-1.4263467361187914,-1228.7339220816782,50.5887455623783,-89.9627685546875,6214.396484375,True
1598624959.659806,0,5,0.5,0.5,-0.006472424316406251,-0.14,-0.011,-0.56,0.0006520907884878066,10,1,100,0.012174019830013524,-10,-1,-100,529.0348425530829,0.0014056819372222631,-3.6068748902000365e-05,0.9999990113781797,19.253736747442865,-1.4479929211552847,-1272.1078471977958,51.53107283870749,-89.96151733398438,6211.23828125,True
1598624959.7049158,0,5,0.5,0.5,-0.006823529052734375,-0.14,-0.011,-0.56,0.0008303204025922844,10,1,100,0.015497204141641168,-10,-1,-100,531.1034351164708,0.0011128194731984894,-2.4475282723553457e-05,0.9999993805166985,19.54179943636347,-1.4699266519181002,-1316.205881310355,52.47386059077195,-89.96002197265625,6208.0810546875,True
1598624959.7508962,0,5,0.5,0.5,-0.007188894653320313,-0.14,-0.011,-0.56,0.0009358266954405425,10,1,100,0.01873280764202287,-10,-1,-100,533.2356265413109,0.0008196392698086989,-1.3071894559570674e-05,0.9999996640102401,19.83938695877778,-1.4921693090655856,-1361.0348097989704,53.41710535467315,-89.95831298828125,6204.9228515625,True
1598624959.79787,0,5,0.5,0.5,-0.007607308959960938,-0.14,-0.011,-0.56,0.0010687592530242416,10,1,100,0.021821833519646377,-10,-1,-100,535.4311722723069,0.0005275544561022293,-1.5940466149800101e-06,0.9999998608418678,20.147044264092116,-1.5147516187844072,-1406.5972083722681,54.3608046321718,-89.95635986328125,6201.76513671875,True
1598624959.8448775,0,5,0.5,0.5,-0.008019259643554688,-0.14,-0.011,-0.56,0.0012005899231399577,10,1,100,0.024807146101690117,-10,-1,-100,537.6331270857481,0.0002374488089326621,9.939521793659065e-06,0.9999999717596341,20.465311624881675,-1.5376881192528333,-1452.8973745283154,55.304954324276004,-89.9542236328125,6198.607421875,True
1598624959.8920512,0,5,0.5,0.5,-0.008437664794921876,-0.14,-0.011,-0.56,0.0012987127573814393,10,1,100,0.027655415661384262,-10,-1,-100,539.8413072900148,-4.9582208758189054e-05,2.121583821273534e-05,0.9999999985457464,20.794685944760513,-1.5610049121884253,-1499.9404564971994,56.2495522276559,-89.95193481445312,6195.44921875,True
1598624959.939222,0,5,0.5,0.5,-0.008858386230468751,-0.14,-0.011,-0.56,0.0014349408948333949,10,1,100,0.03032522716775099,-10,-1,-100,542.1131471749395,-0.00033217689768052047,3.260367944988631e-05,0.9999999442977527,21.135635938003258,-1.584729836714277,-1547.7333006345116,57.194593997514794,-89.94952392578125,6192.29150390625,True
1598624959.98987,0,5,0.5,0.5,-0.009277084350585938,-0.14,-0.011,-0.56,0.0015084499635572004,10,1,100,0.032875672250042266,-10,-1,-100,544.4484035716159,-0.000609645436617778,4.352204376996382e-05,0.9999998132191192,21.488549232074437,-1.6088751310730496,-1596.280962817508,58.14007665485449,-89.947021484375,6189.13330078125,True
1598624960.0377815,0,5,0.5,0.5,-0.009689419555664063,-0.14,-0.011,-0.56,0.0016227744380877649,10,1,100,0.03525775558223087,-10,-1,-100,546.7898846974131,-0.0008809257409063527,5.438462749426772e-05,0.9999996105059998,21.85374883537128,-1.6334643199311298,-1645.5870054583002,59.085995929961086,-89.9444580078125,6185.9765625,True
1598624960.088875,0,5,0.5,0.5,-0.010090917968750002,-0.14,-0.011,-0.56,0.0017442584461176318,10,1,100,0.037487014288286595,-10,-1,-100,549.1884953640401,-0.0011452035885265361,6.526172487406482e-05,0.9999993421246076,22.23159113298205,-1.6585078260329396,-1695.660924650358,60.032349759034034,-89.94186401367188,6182.818359375,True
1598624960.1347206,0,5,0.5,0.5,-0.01045570983886719,-0.14,-0.011,-0.56,0.0018179624174377287,10,1,100,0.03955391168060311,-10,-1,-100,551.5999843408354,-0.0014016621049139475,7.57178468960433e-05,0.9999990148045903,22.622317031227055,-1.6840250804647574,-1746.5082719021723,60.979134079609935,-89.93930053710938,6179.66015625,True
1598624960.181974,0,5,0.5,0.5,-0.010839035034179689,-0.14,-0.011,-0.56,0.0019087091166203841,10,1,100,0.04140129587090895,-10,-1,-100,554.0748279865365,-0.0016490484815033415,8.594675818514057e-05,0.9999986366252008,23.02613992951973,-1.7100278082796028,-1798.1358649051474,61.92634476127748,-89.93673706054688,6176.50244140625,True
1598624960.2270155,0,5,0.5,0.5,-0.0111594482421875,-0.14,-0.011,-0.56,0.002006861533264696,10,1,100,0.04314109279201654,-10,-1,-100,556.6130262691295,-0.0018872507340904035,9.603767947116938e-05,0.9999982145291215,23.44321142527451,-1.7365225797597674,-1850.5503584985565,62.87398031847217,-89.93426513671875,6173.3447265625,True
1598624960.271911,0,5,0.5,0.5,-0.01146788330078125,-0.14,-0.011,-0.56,0.002037125007859161,10,1,100,0.044663389768973855,-10,-1,-100,559.157693850575,-0.002115176490774709,0.00010538717625111731,0.9999977574584636,23.87366890482164,-1.7635285982509936,-1903.761376057611,63.82203710379627,-89.931884765625,6170.18701171875,True
1598624960.3198636,0,5,0.5,0.5,-0.011785333251953125,-0.14,-0.011,-0.56,0.0021101752042805445,10,1,100,0.04602690557784031,-10,-1,-100,561.7023616236402,-0.002332374839707521,0.00011445355581593155,0.9999972734602783,24.317536020403235,-1.7910471179894862,-1957.7728313602445,64.77051038783203,-89.9295654296875,6167.02880859375,True
1598624960.3667743,0,5,0.5,0.5,-0.012073077392578126,-0.14,-0.011,-0.56,0.0021797357144885342,10,1,100,0.04720828544039511,-10,-1,-100,564.3167317877524,-0.002538231497807266,0.0001232330745730878,0.9999967710920236,24.77484367457112,-1.8190757515545668,-2012.5937779299513,65.71939374175477,-89.92733764648438,6163.87109375,True
1598624960.4128714,0,5,0.5,0.5,-0.01234793701171875,-0.14,-0.011,-0.56,0.002247783868865786,10,1,100,0.048220224713813306,-10,-1,-100,566.9945782843279,-0.0027323109537571552,0.00013174033190451362,0.9999962585536692,25.245571369867022,-1.8476251301426654,-2068.2325162721904,66.66868603568768,-89.92520141601562,6160.71337890625,True
1598624960.4598353,0,5,0.5,0.5,-0.012631039428710938,-0.14,-0.011,-0.56,0.0022891271550405747,10,1,100,0.04904890104115997,-10,-1,-100,569.6788943513529,-0.002914098303909227,0.00013975992603244006,0.9999957442400633,25.729604895741346,-1.876697281867215,-2124.6945461804353,67.61838709161975,-89.92312622070312,6157.5556640625,True
1598624960.5060759,0,5,0.5,0.5,-0.012862402343750003,-0.14,-0.011,-0.56,0.0022932797521876143,10,1,100,0.04970519394633382,-10,-1,-100,572.4264428234892,-0.0030832308733060626,0.00014700072804801675,0.9999952360277362,26.226839640153703,-1.906287897594731,-2181.9892805466147,68.56848944770553,-89.92117309570312,6154.3974609375,True
1598624960.554105,0,5,0.5,0.5,-0.013140090942382814,-0.14,-0.011,-0.56,0.0023499610714008234,10,1,100,0.05020505927576671,-10,-1,-100,575.1742352598812,-0.003239529889268576,0.00015401436359997587,0.9999947408490067,26.737080908326313,-1.9363986520772363,-2240.1217296578675,69.5189898248864,-89.91925048828125,6151.23974609375,True
1598624960.5995615,0,5,0.5,0.5,-0.013434130859375,-0.14,-0.011,-0.56,0.002410124058908657,10,1,100,0.050506883155043265,-10,-1,-100,577.9917299650842,-0.003382459824227246,0.00016085664795298637,0.9999942665289019,27.260108983982875,-1.9670279156954793,-2299.0993379237148,70.46988451226184,-89.91732788085938,6148.08203125,True
1598624960.6459017,0,5,0.5,0.5,-0.013706103515625002,-0.14,-0.011,-0.56,0.0024149334859891397,10,1,100,0.05066933191550391,-10,-1,-100,580.8727006979752,-0.0035120722104490304,0.00016704322961003944,0.9999938187035697,27.795678926472966,-1.9981720962015923,-2358.929430124376,71.42116887417187,-89.91543579101562,6144.923828125,True
1598624960.6959178,0,5,0.5,0.5,-0.013973065185546876,-0.14,-0.011,-0.56,0.0024357529895406536,10,1,100,0.05064053156484493,-10,-1,-100,583.7536104928004,-0.0036279461731638023,0.0001727829389019879,0.9999934040545571,28.343463786900546,-2.029813244412561,-2419.616632421067,72.3728390096965,-89.91357421875,6141.7666015625,True
1598624960.7448113,0,5,0.5,0.5,-0.014299169921875,-0.14,-0.011,-0.56,0.0024303334868511833,10,1,100,0.05052006660235458,-10,-1,-100,586.647276291158,-0.003730608552846343,0.0001778818198161906,0.9999930254346194,28.903144666869633,-2.0619468025322076,-2481.1695970022297,73.3248910159866,-89.91165161132812,6138.6083984375,True
1598624960.791767,0,5,0.5,0.5,-0.014590591430664063,-0.14,-0.011,-0.56,0.0024447479952108614,10,1,100,0.05018834451623873,-10,-1,-100,589.6042965111556,-0.003819453758991171,0.00018258230286549457,0.999992689191619,29.474315608743417,-2.0945576882600214,-2543.5903664692833,74.27732158522046,-89.90972900390625,6135.451171875,True
1598624960.8399482,0,5,0.5,0.5,-0.014945663452148436,-0.14,-0.011,-0.56,0.0024661763892715478,10,1,100,0.04976026297479532,-10,-1,-100,592.6249764943495,-0.003894978587910362,0.0001869883376317321,0.9999923970596782,30.05659109362323,-2.127641672475039,-2606.8887207475686,75.23012667271661,-89.90771484375,6132.29296875,True
1598624960.8881543,0,5,0.5,0.5,-0.01531331787109375,-0.14,-0.011,-0.56,0.0024281252448061993,10,1,100,0.049151928262388525,-10,-1,-100,595.6455946270144,-0.003956873801278562,0.0001905899449576643,0.9999921533818121,30.649480047991293,-2.1611798818631143,-2671.062922274812,76.18330135485598,-89.90560913085938,6129.134765625,True
1598624960.935162,0,5,0.5,0.5,-0.015672393798828125,-0.14,-0.011,-0.56,0.002442182626117427,10,1,100,0.048452666231773134,-10,-1,-100,598.7357930826256,-0.004005672010564494,0.00019393842816311095,0.9999919584574817,31.252543405059757,-2.19515528400864,-2736.1228106568046,77.13684198740505,-89.9034423828125,6125.9775390625,True
1598624960.9811015,0,5,0.5,0.5,-0.016040115356445315,-0.14,-0.011,-0.56,0.0024077080068676746,10,1,100,0.04760189230263763,-10,-1,-100,601.8326439657249,-0.00404130737082624,0.00019661984499112772,0.999991814554185,31.865212706464842,-2.2295514430991563,-2802.0662971976158,78.09074452443528,-89.90121459960938,6122.8193359375,True
1598624961.0271368,0,5,0.5,0.5,-0.016480770874023436,-0.14,-0.011,-0.56,0.0024005851413353117,10,1,100,0.04667527897832946,-10,-1,-100,604.9927270942135,-0.004064408416754554,0.00019894763504180957,0.9999917204677548,32.48697860385616,-2.264351607382282,-2868.898945703795,79.04500448311381,-89.89883422851562,6119.66162109375,True
1598624961.0732815,0,5,0.5,0.5,-0.016879205322265625,-0.14,-0.011,-0.56,0.0023775508450715847,10,1,100,0.04559173419976628,-10,-1,-100,608.2101829524618,-0.004074809070950186,0.00020081355669326662,0.9999916777678455,33.11728586394807,-2.299531046828809,-2936.6228024521665,79.99961751147822,-89.89639282226562,6116.50341796875,True
1598624961.121995,0,5,0.5,0.5,-0.017308117675781252,-0.14,-0.011,-0.56,0.002321520848671081,10,1,100,0.044476133438232306,-10,-1,-100,611.4400898480089,-0.004073492977617068,0.00020196416103755,0.9999916828981325,33.75554485370465,-2.335063027785711,-3005.238770207632,80.95458006678075,-89.89385986328125,6113.34619140625,True
1598624961.1688106,0,5,0.5,0.5,-0.01775055236816406,-0.14,-0.011,-0.56,0.0023029319002968508,10,1,100,0.04323090064839496,-10,-1,-100,614.6764663208742,-0.004060465848527377,0.00020280942824583506,0.999991735708565,34.40112608408242,-2.3709295119630664,-3074.7442557342174,81.90988740475889,-89.8912353515625,6110.1875,True
1598624961.2142024,0,5,0.5,0.5,-0.018206643676757815,-0.14,-0.011,-0.56,0.0022746263557158752,10,1,100,0.04192827463675952,-10,-1,-100,617.9762581348186,-0.004036387749544278,0.00020329323303959094,0.9999918330895491,35.053464768510715,-2.4071214303600477,-3145.142586378817,82.86553514572118,-89.88851928710938,6107.0302734375,True
1598624961.2599192,0,5,0.5,0.5,-0.018676425170898438,-0.14,-0.011,-0.56,0.0022365423523517574,10,1,100,0.04053868631519811,-10,-1,-100,621.3394040466519,-0.004001587966457541,0.0002033637360822194,0.9999919729362519,35.71191054650983,-2.4436074310754687,-3216.4302122313056,83.82151967882682,-89.88571166992188,6103.8720703125,True
1598624961.3078752,0,5,0.5,0.5,-0.01913863525390625,-0.14,-0.011,-0.56,0.0021828049792286352,10,1,100,0.03908842099195807,-10,-1,-100,624.7025500392774,-0.003956601993251537,0.0002029204159714744,0.9999921520311906,36.37582964693046,-2.480348069078891,-3288.6057650319362,84.77783649104109,-89.88284301757812,6100.71484375,True
1598624961.3549933,0,5,0.5,0.5,-0.019588967895507816,-0.14,-0.011,-0.56,0.00213323426436418,10,1,100,0.03760220431643822,-10,-1,-100,628.1357640216593,-0.003902138572009225,0.00020205227111899323,0.999992366215585,37.044617292554086,-2.5173305060527458,-3361.669399279448,85.73448077644129,-89.87994384765625,6097.556640625,True
1598624961.4008472,0,5,0.5,0.5,-0.020065808105468753,-0.14,-0.011,-0.56,0.0021183320803499677,10,1,100,0.036030839051082814,-10,-1,-100,631.5750207529636,-0.003838390991403228,0.00020111715382918903,0.9999926131259608,37.717583199676035,-2.5545148821292103,-3435.611499826762,86.69144891069496,-89.87698364257812,6094.39892578125,True
1598624961.447118,0,5,0.5,0.5,-0.020552066040039067,-0.14,-0.011,-0.56,0.002092868604647455,10,1,100,0.034492237714136356,-10,-1,-100,635.0778755440842,-0.0037666034341702274,0.0002000290349451023,0.9999928863181752,38.39409391104595,-2.591897946049357,-3510.428554822609,87.64873599238993,-89.87396240234375,6091.2412109375,True
1598624961.4960897,0,5,0.5,0.5,-0.020983654785156253,-0.14,-0.011,-0.56,0.00198443091788552,10,1,100,0.03290266276867096,-10,-1,-100,638.6442070634803,-0.003687141068032956,0.00019805093954359314,0.9999931828600481,39.07356566957231,-2.62943866242866,-3586.120230831117,88.60633873717909,-89.8709716796875,6088.0830078125,True
1598624961.594799,0,5,0.5,0.5,-0.02145436706542969,-0.14,-0.011,-0.56,0.0019608596652372556,10,1,100,0.0312920687340642,-10,-1,-100,642.2105991751887,-0.0036006037597287586,0.00019603920205950808,0.9999934985894642,39.755336648531326,-2.667109886105042,-3662.6753859380706,89.56425261656517,-89.86795043945312,6084.92578125,True
1598624961.635514,0,5,0.5,0.5,-0.024087582397460942,-0.14,-0.011,-0.56,0.0015972648962025485,10,1,100,0.018755387665904878,-10,-1,-100,649.4890740015544,-0.003408394747297332,0.00019090928313241864,0.9999941731824702,41.123382358955894,-2.7427558155998835,-3818.3524246107986,91.48099422800587,-89.86181640625,6078.60986328125,True
1598624961.6868815,0,5,0.5,0.5,-0.022930813598632815,-0.14,-0.011,-0.56,0.0017677951796945778,10,1,100,0.026374091494605373,-10,-1,-100,653.1379242687253,-0.003303524860102694,0.0001878060456649059,0.9999945257112101,41.80852451656545,-2.780674186047873,-3897.4644361210985,92.43981722389545,-89.85861206054688,6075.45166015625,True
1598624961.7777362,0,5,0.5,0.5,-0.0233298583984375,-0.14,-0.011,-0.56,0.0017483783775353056,10,1,100,0.025305562697508915,-10,-1,-100,656.8500679789577,-0.003199162829032532,0.0001848220437498836,0.9999948655858216,42.49355673367267,-2.818609915963082,-3977.4066203658017,93.39893641120419,-89.85552978515625,6072.2939453125,True
1598624961.867819,0,5,0.5,0.5,-0.025698910522460938,-0.14,-0.011,-0.56,0.0013150753288127095,10,1,100,0.010918837740558615,-10,-1,-100,664.4587423402118,-0.0029742609601969383,0.00017818698810173947,0.9999955610007166,43.860935452350674,-2.8944213405327135,-4139.683950814589,95.31804349740827,-89.8497314453125,6065.978515625,True
1598624961.9151554,0,5,0.5,0.5,-0.02674251708984375,-0.14,-0.011,-0.56,0.001160946255602007,10,1,100,0.0076475686222097355,-10,-1,-100,672.1561010024743,-0.002740999839276191,0.0001707768338905843,0.9999962288704664,45.2225476082946,-2.970041706245211,-4305.159495946954,97.23828633386483,-89.84365844726562,6059.6630859375,True
1598624962.0007539,0,5,0.5,0.5,-0.025542333984375,-0.14,-0.011,-0.56,0.0015004271518222491,10,1,100,0.01832124371375829,-10,-1,-100,676.0715525161941,-0.0026270827775932036,0.00016715574146615534,0.9999965352415167,45.90007292645647,-3.007723583603346,-4389.07282999271,98.19882407542302,-89.840576171875,6056.5048828125,True
1598624962.0900354,0,5,0.5,0.5,-0.026700750732421875,-0.14,-0.011,-0.56,0.0012400364112808136,10,1,100,0.011036704633293391,-10,-1,-100,682.042752207024,-0.0024584578715084577,0.00016152837482961855,0.9999969649421332,46.90952325954214,-3.063913590309222,-4516.195659615446,99.64014146465503,-89.83651733398438,6051.7685546875,True
1598624962.1803164,0,5,0.5,0.5,-0.028787500000000004,-0.14,-0.011,-0.56,0.0007494758319816035,10,1,100,-0.0021866063373637105,-10,-1,-100,692.1389980952954,-0.002186205069079892,0.00015198893514731916,0.9999975987004968,48.55541558493167,-3.155429514572198,-4729.557092534272,102.04368999644986,-89.83035278320312,6043.87353515625,True
1598624962.2690697,0,5,0.5,0.5,-0.029356710815429687,-0.14,-0.011,-0.56,0.000872370255480677,10,1,100,0.0026134695489162217,-10,-1,-100,700.381887888303,-0.0019837763007156412,0.00014447761210412745,0.9999980218769476,49.83629257052687,-3.2264784114704397,-4901.25890594174,103.96774461830672,-89.82467651367188,6037.55810546875,True
1598624962.3600733,0,5,0.5,0.5,-0.030287762451171877,-0.14,-0.011,-0.56,0.0008398659380350606,10,1,100,0.0033108749785517866,-10,-1,-100,708.8155736830086,-0.0018076387104423886,0.00013740234584030164,0.9999983567800937,51.08269732303479,-3.295394241412853,-5073.485705294423,105.89288328624814,-89.81887817382812,6031.2421875,True
1598624962.448051,0,5,0.5,0.5,-0.031046697998046876,-0.14,-0.011,-0.56,0.0008849088573438961,10,1,100,0.004260264406738271,-10,-1,-100,717.3949505552882,-0.0016577744095859328,0.0001314330729180123,0.9999986172537212,52.29441698367424,-3.3620530918014095,-5245.855597664592,107.81911340575724,-89.813232421875,6024.9267578125,True
1598624962.5359917,0,5,0.5,0.5,-0.03195463256835938,-0.14,-0.011,-0.56,0.0008999683157303722,10,1,100,0.005973241549397931,-10,-1,-100,726.114158442826,-0.001538698128593071,0.00012619743461963944,0.9999988082404282,53.474411336188666,-3.426528292962661,-5418.243946900594,109.74644581531821,-89.8074951171875,6018.611328125,True
1598624962.624983,0,5,0.5,0.5,-0.033006344604492185,-0.14,-0.011,-0.56,0.0009467835385960121,10,1,100,0.007814939254270688,-10,-1,-100,734.9728319257265,-0.0014487940583997761,0.00012191936420266562,0.9999989430651639,54.62552893848565,-3.4888508637837155,-5590.50179815099,111.67489223858593,-89.80148315429688,6012.294921875,True
1598624962.713149,0,5,0.5,0.5,-0.0342919921875,-0.14,-0.011,-0.56,0.0009951990205037174,10,1,100,0.009895220577704344,-10,-1,-100,744.028282379848,-0.001387565978228571,0.0001185275342768933,0.9999990303054698,55.75089088383754,-3.549113274611349,-5762.4858437045295,113.604468356333,-89.794921875,6005.9794921875,True
1598624962.8038037,0,5,0.5,0.5,-0.035676745605468754,-0.14,-0.011,-0.56,0.0010016263423227062,10,1,100,0.012103883756397165,-10,-1,-100,753.1661905859364,-0.0013534252933173813,0.00011555671859165913,0.9999990774428845,56.85415592925313,-3.607424812924597,-5934.093448063311,115.53518947637617,-89.78778076171875,5999.6640625,True
1598624962.8919086,0,5,0.5,0.5,-0.03714385070800782,-0.14,-0.011,-0.56,0.0011212890427287848,10,1,100,0.014376991536288478,-10,-1,-100,762.564169938094,-0.001344314354620729,0.00011399401989540963,0.9999990899117256,57.93894148806949,-3.663915872275844,-6105.222598646292,117.46707334862087,-89.78005981445312,5993.3486328125,True
1598624962.9803946,0,5,0.5,0.5,-0.038526336669921876,-0.14,-0.011,-0.56,0.001225300116590507,10,1,100,0.016681203302428185,-10,-1,-100,772.0386259467341,-0.00135814521588229,0.00011356726877171732,0.9999990712715927,59.0090881317044,-3.7187426725282866,-6275.807362273721,119.40013902512393,-89.77200317382812,5987.03271484375,True
1598624963.0711691,0,5,0.5,0.5,-0.03974659423828126,-0.14,-0.011,-0.56,0.0012797663004904146,10,1,100,0.018970124466252136,-10,-1,-100,781.6522420364199,-0.0013925273845690415,0.00011371806133659429,0.9999990239673665,60.06822178665883,-3.7720515962058627,-6445.782854295148,121.3344061931732,-89.763916015625,5980.71728515625,True
1598624963.1605303,0,5,0.5,0.5,-0.04075961608886719,-0.14,-0.011,-0.56,0.0013818906447308522,10,1,100,0.02117633873304761,-10,-1,-100,791.463062191382,-0.0014445619200592389,0.00011481834031940526,0.9999989500282527,61.12007447404173,-3.8240386389935432,-6615.119522973747,123.26989360097397,-89.756103515625,5974.4013671875,True
1598624963.2490492,0,5,0.5,0.5,-0.041672448730468756,-0.14,-0.011,-0.56,0.001455127314626764,10,1,100,0.023299599299354802,-10,-1,-100,801.419512408087,-0.0015116586069082623,0.00011651134482263691,0.9999988506560207,62.16804565746955,-3.874851691719352,-6783.791758043097,125.20662255910625,-89.7486572265625,5968.0859375,True
1598624963.3441324,0,5,0.5,0.5,-0.04253582458496095,-0.14,-0.011,-0.56,0.0015756424938484425,10,1,100,0.02530155628542963,-10,-1,-100,811.5662693402264,-0.0015911242767385403,0.00011916502418306064,0.9999987270608064,63.215393326324026,-3.924659447463036,-6951.794123691542,127.14461404965112,-89.7415771484375,5961.77001953125,True
1598624963.429363,0,5,0.5,0.5,-0.04358449401855469,-0.14,-0.011,-0.56,0.001643169027996692,10,1,100,0.027161212756567243,-10,-1,-100,821.7956138690934,-0.0016803323537153598,0.00012220249032000716,0.9999985807738591,64.25616539568432,-3.9730411038525473,-7116.49338069297,129.04668978247756,-89.73452758789062,5955.5380859375,True
1598624963.5200949,0,5,0.5,0.5,-0.04480123291015625,-0.14,-0.011,-0.56,0.001745667528343417,10,1,100,0.02883921609572455,-10,-1,-100,832.2265871854033,-0.0017765564229365147,0.00012589925948792844,0.9999984139970687,65.25031643275759,-4.017437455421914,-7267.730098290328,130.79163362198602,-89.72726440429688,5949.66064453125,True
1598624963.6061716,0,5,0.5,0.5,-0.046134704589843756,-0.14,-0.011,-0.56,0.00176705410054227,10,1,100,0.03031274359730669,-10,-1,-100,842.7848431200255,-0.001877130588275096,0.0001294507640284962,0.9999982298100603,66.15630869041382,-4.055395683609496,-7399.169931930056,132.3458227690876,-89.71966552734375,5944.2138671875,True
1598624963.6959763,0,5,0.5,0.5,-0.04743086547851563,-0.14,-0.011,-0.56,0.0018814888168785118,10,1,100,0.03158666673866955,-10,-1,-100,853.425950911711,-0.0019796977084043355,0.0001337097899141131,0.9999980314574001,66.99177067116104,-4.088162280332616,-7513.244494957946,133.72170269220504,-89.71185302734375,5939.16796875,True
1598624963.7839775,0,5,0.5,0.5,-0.048479962158203126,-0.14,-0.011,-0.56,0.0019177256851157947,10,1,100,0.03263754257852973,-10,-1,-100,864.1937360535376,-0.002081924623052294,0.00013789455491108334,0.9999978232851087,67.77081118119591,-4.116739180795489,-7612.36547789981,134.93726659712902,-89.7042236328125,5934.482421875,True
1598624963.8710794,0,5,0.5,0.5,-0.049097439575195315,-0.14,-0.011,-0.56,0.001961128765840532,10,1,100,0.03352174669844458,-10,-1,-100,875.0380859596189,-0.0021822258463056353,0.00014207173242853965,0.9999976088501306,68.50278449507788,-4.141827312094828,-7698.486650609646,136.01056516281312,-89.69735717773438,5930.11669921875,True
1598624963.9589846,0,5,0.5,0.5,-0.049307723999023445,-0.14,-0.011,-0.56,0.002064739143629469,10,1,100,0.03416035119007778,-10,-1,-100,885.9522233937168,-0.0022784651077049534,0.00014678516591189316,0.9999973935220372,69.1949262025602,-4.1639943580215935,-7773.290747657462,136.95808429819073,-89.69168090820312,5926.033203125,True
1598624964.0470848,0,5,0.5,0.5,-0.049135107421875004,-0.14,-0.011,-0.56,0.0020623429693127394,10,1,100,0.0345867559939868,-10,-1,-100,896.9929686036194,-0.0023690263547188374,0.0001510182610351758,0.9999971824498384,69.85310881435896,-4.183698876193895,-7838.250028541094,137.79460343567922,-89.6875,5922.1982421875,True
1598624964.1359615,0,5,0.5,0.5,-0.04887731933593751,-0.14,-0.011,-0.56,0.002116883007964522,10,1,100,0.03490034154732928,-10,-1,-100,908.0406902236864,-0.0024533651166394276,0.00015532943884343463,0.99999697843162,70.48189769101747,-4.201309588931269,-7894.603432402637,138.53278780682462,-89.68463134765625,5918.583984375,True
1598624964.2248845,0,5,0.5,0.5,-0.04877257690429688,-0.14,-0.011,-0.56,0.002111001033049708,10,1,100,0.035059563321496734,-10,-1,-100,919.1578252704348,-0.00253062809223264,0.00015915992972078907,0.9999967852896207,71.08518391943952,-4.217119901075415,-7943.451034707278,139.18406916255873,-89.68258666992188,5915.1640625,True
1598624964.3110716,0,5,0.5,0.5,-0.048910098266601566,-0.14,-0.011,-0.56,0.002116458843826675,10,1,100,0.03502295671989994,-10,-1,-100,930.2817568101455,-0.0025996802792887766,0.00016265545161132214,0.9999966075970707,71.65559814195785,-4.23075756958596,-7983.827922681098,139.74030188955166,-89.68084716796875,5911.9580078125,True
1598624964.4025297,0,5,0.5,0.5,-0.04946902465820313,-0.14,-0.011,-0.56,0.002173453113570745,10,1,100,0.034911929162801864,-10,-1,-100,941.5262339994079,-0.0026606098825247607,0.00016631455309012438,0.9999964467409482,72.21857636802926,-4.243794012264096,-8020.626684964161,140.24763566939674,-89.67874145507812,5908.8603515625,True
1598624964.4918942,0,5,0.5,0.5,-0.049197692871093754,-0.14,-0.011,-0.56,0.002001983629746054,10,1,100,0.03190645529479265,-10,-1,-100,947.1546919478569,-0.002687874256248673,0.00016804545431462723,0.9999963735397784,72.50061717974837,-4.250290310386685,-8037.945891394735,140.47924177716774,-89.67752075195312,5907.3623046875,True
1598624964.5790358,0,5,0.5,0.5,-0.05172207946777344,-0.14,-0.011,-0.56,0.002234326619801918,10,1,100,0.03692337842926921,-10,-1,-100,964.034397747484,-0.0027575314029765863,0.00017169612380078664,0.9999961832632176,73.29408556903842,-4.266540206519398,-8080.033893130465,141.09383427438462,-89.67300415039062,5903.04443359375,True
1598624964.6658833,0,5,0.5,0.5,-0.05177763061523438,-0.14,-0.011,-0.56,0.002129694508544789,10,1,100,0.03438968876445809,-10,-1,-100,975.3551676219795,-0.0027971154178722496,0.00017402918020051523,0.9999960729218809,73.81427984738656,-4.276772044778659,-8104.873076794202,141.4609859257249,-89.66937255859375,5900.2626953125,True
1598624964.7558541,0,5,0.5,0.5,-0.0520253173828125,-0.14,-0.011,-0.56,0.0021099304122249923,10,1,100,0.033800438144622184,-10,-1,-100,986.6819364686962,-0.00282709388869269,0.0001759376173016436,0.9999959882850028,74.32415724937577,-4.286332479255206,-8126.165825939121,141.77625951876198,-89.66616821289062,5897.5966796875,True
1598624964.8429046,0,5,0.5,0.5,-0.051440118408203124,-0.14,-0.011,-0.56,0.0020893824016237363,10,1,100,0.03346625128701086,-10,-1,-100,998.0092263006372,-0.002850722737967181,0.00017745497285640967,0.9999959209364826,74.813203470084,-4.294643555037218,-8143.218155162651,142.04830301730382,-89.66448974609375,5895.02734375,True
1598624964.934876,0,5,0.5,0.5,-0.050572811889648434,-0.14,-0.011,-0.56,0.002034641661945847,10,1,100,0.03302174178433829,-10,-1,-100,1009.3998773443745,-0.002867642280346729,0.00017830886226644847,0.9999958724083323,75.29223500830216,-4.302346765994576,-8157.7177364505815,142.2874759217854,-89.6644287109375,5892.5322265625,True
1598624965.020135,0,5,0.5,0.5,-0.04975224304199219,-0.14,-0.011,-0.56,0.0020205596300097725,10,1,100,0.032614195911213714,-10,-1,-100,1020.7904119320447,-0.0028788654328218877,0.00017893229725685463,0.9999958400498737,75.76230497025641,-4.309513776004932,-8170.0310463272435,142.49841336109296,-89.66558837890625,5890.1005859375,True
1598624965.1059315,0,5,0.5,0.5,-0.049290402221679686,-0.14,-0.011,-0.56,0.001987344015349067,10,1,100,0.03229887862862851,-10,-1,-100,1032.1874215272255,-0.002885814959488364,0.0001791756390617507,0.9999958199753188,76.223441331811,-4.3161532271543335,-8180.360477108275,142.68469988720727,-89.66720581054688,5887.7255859375,True
1598624965.189954,0,5,0.5,0.5,-0.049444039916992186,-0.14,-0.011,-0.56,0.0019692163182707494,10,1,100,0.03198040574353729,-10,-1,-100,1043.6415638752514,-0.0028889146058050084,0.0001792138655388161,0.9999958110186217,76.67624756341783,-4.32231424885609,-8188.934090412081,142.84930103843755,-89.66830444335938,5885.3984375,True
1598624965.2770596,0,5,0.5,0.5,-0.050137158203125004,-0.14,-0.011,-0.56,0.0019295012289933255,10,1,100,0.03176855782836357,-10,-1,-100,1055.044806606369,-0.002889543635658091,0.000178872517511874,0.999995809262319,77.12129197635468,-4.3280219983567045,-8195.955076509348,142.9948181860919,-89.668212890625,5883.115234375,True
1598624965.3650994,0,5,0.5,0.5,-0.051101498413085936,-0.14,-0.011,-0.56,0.0019117327332880672,10,1,100,0.031514734029628046,-10,-1,-100,1066.5053035756573,-0.0028875998703059035,0.00017838925301331358,0.9999958149633744,77.55905623090499,-4.333309706000019,-8201.592570862475,143.12353476213647,-89.66677856445312,5880.8701171875,True
1598624965.456085,0,5,0.5,0.5,-0.051976351928710945,-0.14,-0.011,-0.56,0.001904257317219961,10,1,100,0.03140396922146936,-10,-1,-100,1077.9660476977006,-0.0028846442893533295,0.0001778725598697316,0.999995823585617,77.98998245456062,-4.338203153766275,-8205.995514049273,143.23745662620013,-89.66439819335938,5878.6591796875,True
1598624965.5440419,0,5,0.5,0.5,-0.05238315734863281,-0.14,-0.011,-0.56,0.0018771829136867263,10,1,100,0.03131110652778467,-10,-1,-100,1089.4265503070783,-0.0028809976341026044,0.00017715109294701956,0.9999958342263844,78.41447968103147,-4.342728441773012,-8209.293929606412,143.3383689714481,-89.66192626953125,5876.4775390625,True
1598624965.632348,0,5,0.5,0.5,-0.05216063537597657,-0.14,-0.011,-0.56,0.0018567198170827376,10,1,100,0.03129359873007555,-10,-1,-100,1100.8932804741198,-0.0028774470746080164,0.00017630634767293007,0.9999958445985685,78.83290058910863,-4.346906140028297,-8211.59760981655,143.42780730367917,-89.6602783203125,5874.32275390625,True
1598624965.7209268,0,5,0.5,0.5,-0.05135107421875,-0.14,-0.011,-0.56,0.0018352039092498539,10,1,100,0.031260344174361916,-10,-1,-100,1112.3602566180052,-0.0028738712034828895,0.00017534246305221223,0.9999958550510729,79.24560357853554,-4.350765839992239,-8213.004713966246,143.5071318561351,-89.66012573242188,5872.19140625,True
1598624965.808608,0,5,0.5,0.5,-0.05026639709472657,-0.14,-0.011,-0.56,0.0017938272007001045,10,1,100,0.03136556251104819,-10,-1,-100,1123.884241349413,-0.0028715558978249078,0.00017409197287365666,0.9999958619207934,79.65297194005451,-4.354310033567496,-8213.606675979956,143.57755130631185,-89.66156005859375,5870.0810546875,True
1598624965.8959868,0,5,0.5,0.5,-0.0493424285888672,-0.14,-0.011,-0.56,0.0018378425206385923,10,1,100,0.031415598867929224,-10,-1,-100,1135.35134318145,-0.0028699023926370445,0.00017335913642840402,0.9999958667948916,80.0553952750483,-4.357571315840128,-8213.48681959858,143.64012991063888,-89.66403198242188,5867.98828125,True
1598624965.983872,0,5,0.5,0.5,-0.04893398437500001,-0.14,-0.011,-0.56,0.0017844783926124722,10,1,100,0.031589106213093895,-10,-1,-100,1146.875208715559,-0.0028699846938224703,0.0001722128595514173,0.9999958667567523,80.45319920563101,-4.36056935597413,-8212.71435635152,143.69580686810588,-89.66659545898438,5865.9130859375,True
1598624966.069859,0,5,0.5,0.5,-0.049173913574218756,-0.14,-0.011,-0.56,0.001805883200378903,10,1,100,0.031760353872323635,-10,-1,-100,1158.348416425637,-0.002871630701134642,0.00017137170862431542,0.9999958621758661,80.84681048220988,-4.363320087828186,-8211.36243677132,143.74541218715808,-89.66830444335938,5863.8515625,True
1598624966.1608055,0,5,0.5,0.5,-0.050045495605468754,-0.14,-0.011,-0.56,0.001820082739408208,10,1,100,0.0319786464880658,-10,-1,-100,1169.8724062447436,-0.002875127262383973,0.00017074324191532057,0.9999958522363833,81.23645984446105,-4.365845356228682,-8209.477985924052,143.78966994568023,-89.66842651367188,5861.8037109375,True
1598624966.2470713,0,5,0.5,0.5,-0.05107492370605469,-0.14,-0.011,-0.56,0.0017805975843987714,10,1,100,0.03217017772910501,-10,-1,-100,1181.3456158507615,-0.002880060253323061,0.00016982034283941815,0.9999958381983338,81.62265058369478,-4.368166934007243,-8207.132226913911,143.82922371146546,-89.66705322265625,5859.7666015625,True
1598624966.3371425,0,5,0.5,0.5,-0.05192911376953126,-0.14,-0.011,-0.56,0.0017832161892816015,10,1,100,0.032432999179367435,-10,-1,-100,1192.8763214321807,-0.0028869409306491478,0.00016901293909678158,0.9999958184946022,82.00569830947349,-4.370305512271718,-8204.373181681834,143.86463961115916,-89.66473388671875,5857.74072265625,True
1598624966.388767,0,5,0.5,0.5,-0.05214664001464844,-0.14,-0.011,-0.56,0.0017914582732612497,10,1,100,0.03266902516588531,-10,-1,-100,1204.3495326567208,-0.0028953396947854837,0.000168361917931266,0.9999957943223142,82.38570657825956,-4.372260993409149,-8201.225293047324,143.89641906655748,-89.66256713867188,5855.7236328125,True
1598624966.4762392,0,5,0.5,0.5,-0.05144525146484376,-0.14,-0.011,-0.56,0.001837092068367894,10,1,100,0.03237484936835827,-10,-1,-100,1210.1113449393306,-0.002900287571240377,0.00016819292334996293,0.9999957800126682,82.57523095698326,-4.3732133069485375,-8199.57586194634,143.91109849174399,-89.66183471679688,5854.71826171875,True
1598624966.5631452,0,5,0.5,0.5,-0.051140194702148443,-0.14,-0.011,-0.56,0.0018020616188656616,10,1,100,0.033058675406929416,-10,-1,-100,1221.6416856151773,-0.002910981477007625,0.0001677282091208698,0.9999957490180088,82.9501627117978,-4.374893395682048,-8195.74944863864,143.93658576215336,-89.66168212890625,5852.716796875,True
1598624966.6521423,0,5,0.5,0.5,-0.050134454345703135,-0.14,-0.011,-0.56,0.001805250632766185,10,1,100,0.0333862427595836,-10,-1,-100,1233.1722733919742,-0.0029236473579351383,0.00016734165472436386,0.9999957121322557,83.32339081722562,-4.376482725673698,-8191.753264286339,143.96089602615487,-89.66299438476562,5850.71875,True
1598624966.738862,0,5,0.5,0.5,-0.04924420471191407,-0.14,-0.011,-0.56,0.0018244799463519137,10,1,100,0.03365313630189749,-10,-1,-100,1244.6517117756885,-0.0029375407441992675,0.00016717119023118262,0.9999956714447165,83.69540761990977,-4.377998940522721,-8187.600178630741,143.98335398333606,-89.66531372070312,5848.7265625,True
1598624966.826506,0,5,0.5,0.5,-0.048661740112304695,-0.14,-0.011,-0.56,0.0018381324617000473,10,1,100,0.03392188450066258,-10,-1,-100,1256.1820539792534,-0.0029525527713812837,0.00016714596169163472,0.9999956272376195,84.06548863361162,-4.379412038712129,-8183.203527944418,144.0037154161993,-89.66799926757812,5846.740234375,True
1598624966.9138877,0,5,0.5,0.5,-0.04864737854003907,-0.14,-0.011,-0.56,0.0017841045792084506,10,1,100,0.03418299992393081,-10,-1,-100,1267.7127628778107,-0.0029684987835059563,0.00016663647035835828,0.9999955801138618,84.43375198906585,-4.3807269684261065,-8178.581582324614,144.02221580855365,-89.670166015625,5844.75927734375,True
1598624967.0038288,0,5,0.5,0.5,-0.04921784057617188,-0.14,-0.011,-0.56,0.0018498185125941115,10,1,100,0.034421954707216464,-10,-1,-100,1279.2493313642917,-0.0029850794124833724,0.00016677500057549113,0.9999955307335131,84.80082101988754,-4.381978049664573,-8173.8026976903875,144.03909775985275,-89.67108154296875,5842.783203125,True
1598624967.1311843,0,5,0.5,0.5,-0.050090774536132816,-0.14,-0.011,-0.56,0.0018217377403464065,10,1,100,0.03463756479759798,-10,-1,-100,1290.7799186652992,-0.0030020128467844014,0.0001666492648809417,0.9999954800632301,85.16665934968235,-4.383174141661805,-8168.870184772898,144.0545702061099,-89.67056274414062,5840.81103515625,True
1598624967.21684,0,5,0.5,0.5,-0.051676269531250006,-0.14,-0.011,-0.56,0.001897833832108096,10,1,100,0.03584911681268839,-10,-1,-100,1308.0278873160714,-0.003028310121201194,0.00016722962515460164,0.9999954006754541,85.71378167241785,-4.384911187297947,-8161.260910627497,144.07551337291446,-89.66787719726562,5837.8603515625,True
