Timestamp,Input Throttle,horizon,dT,dt,Input Roll,Roll P,Roll I,Roll D,Input Pitch,Pitch P,Pitch I,Pitch D,Input Yaw,Yaw P,Yaw I,Yaw D,Altitude,Direction X,Direction Y,Direction Z,Drag X,Drag Y,Drag Z,Vertical Velocity,Roll,Mass,Has Fuel
1598621708.9348996,0,5,0.5,0.5,-0.0098565673828125,-0.14,-0.011,-0.56,0.004289379081893119,10,1,100,0.12507116378825175,-10,-1,-100,478.55668717972003,-0.01172914973462544,0.0004131218780085815,0.9999311258165817,5.398998695813504,-0.44210838156612436,112.66784579477225,-14.240059697767762,-89.92202758789062,6440.1796875,True
1598621708.9862723,0,5,0.5,0.5,-0.008865676879882814,-0.14,-0.011,-0.56,0.0042886935350178144,10,1,100,0.1248964448630124,-10,-1,-100,477.3536554053426,-0.011787622757746308,0.0004141779013461373,0.9999304377837427,5.648310962791007,-0.4631585141204436,124.47852503979725,-15.01788699595417,-89.92507934570312,6440.1796875,True
1598621709.0226352,0,5,0.5,0.5,-0.008584930419921876,-0.14,-0.011,-0.56,0.0040443588773152895,10,1,100,0.11760700952557829,-10,-1,-100,476.73271837003995,-0.011763796436827017,0.000412540173036305,0.9999307190520743,6.09354950601163,-0.4968578735266136,130.6261749358215,-14.76107935962865,-89.92803955078125,6438.60107421875,True
1598621709.067554,0,5,0.5,0.5,-0.0065833984375000005,-0.14,-0.011,-0.56,0.004095473089373525,10,1,100,0.11759563698216367,-10,-1,-100,476.16321891965345,-0.011731338397926777,0.0004111409672524084,0.9999311009577103,5.936488224108137,-0.478406547682325,116.96525832108394,-13.858208426666158,-89.93338012695312,6435.443359375,True
1598621709.113474,0,5,0.5,0.5,-0.004306826782226563,-0.14,-0.011,-0.56,0.003964804826085132,10,1,100,0.11496166787240988,-10,-1,-100,475.65783105778974,-0.011667221063021592,0.0004083073041760148,0.9999318522968511,5.77441665127047,-0.4600793200156733,104.16925267107689,-12.954800514151184,-89.94100952148438,6432.28515625,True
1598621709.156472,0,5,0.5,0.5,-0.0018936889648437502,-0.14,-0.011,-0.56,0.0038719353496166906,10,1,100,0.11112649118942186,-10,-1,-100,475.1526662543183,-0.011563460769568785,0.00040451579040760204,0.9999330591304629,5.594338034637805,-0.44085043323677403,91.99649615123997,-12.050851816081696,-89.95065307617188,6429.126953125,True
1598621709.199908,0,5,0.5,0.5,0.00044888000488281163,-0.14,-0.011,-0.56,0.003739029928541977,10,1,100,0.10718072091925761,-10,-1,-100,474.70865579776,-0.011422750354183313,0.0003994929869807225,0.9999346784563976,5.402517446027148,-0.4212368965329202,80.5711991385233,-11.146345323896039,-89.9617919921875,6425.9697265625,True
1598621709.244545,0,5,0.5,0.5,0.002585806274414063,-0.14,-0.011,-0.56,0.003590930885598225,10,1,100,0.102897278874976,-10,-1,-100,474.268000879325,-0.011245507094017431,0.0003932172716686336,0.9999366899711081,5.197963994031871,-0.40116954031246765,69.87885977612295,-10.241310701853166,-89.97381591796875,6422.8115234375,True
1598621709.28945,0,5,0.5,0.5,0.004453976440429688,-0.14,-0.011,-0.56,0.0033870509450576215,10,1,100,0.09836112373088254,-10,-1,-100,473.89179935958236,-0.01103291589519849,0.00038530115167848493,0.9999390612981734,4.981123143054641,-0.3806856890602633,59.92550586639051,-9.335713851926013,-89.98614501953125,6419.654296875,True
1598621709.3347533,0,5,0.5,0.5,0.006009933471679689,-0.14,-0.011,-0.56,0.0032727051418257203,10,1,100,0.09357250350323348,-10,-1,-100,473.57669269503094,-0.010786088334297918,0.0003767148978838066,0.9999417574960705,4.752610967726707,-0.359832961405616,50.71528093372431,-8.429520718851203,-89.99825286865234,6416.49609375,True
1598621709.3806381,0,5,0.5,0.5,0.007158371734619141,-0.14,-0.011,-0.56,0.0030968230610407717,10,1,100,0.0885839457538701,-10,-1,-100,473.2614330605138,-0.010506543582726551,0.000366967816519796,0.9999447374113061,4.513573034231473,-0.33869143691887155,42.253819192824665,-7.5227523020560465,-90.00958251953125,6413.33837890625,True
1598621709.4263494,0,5,0.5,0.5,0.008018384552001954,-0.14,-0.011,-0.56,0.0028379338199147003,10,1,100,0.08222302477174909,-10,-1,-100,473.01407405594364,-0.010195696896144116,0.0003557952531436301,0.9999479592331492,4.266038755063445,-0.31740274770327004,34.547979649462654,-6.61540202927826,-90.01973724365234,6410.1806640625,True
1598621709.4843283,0,5,0.5,0.5,0.008449351501464844,-0.14,-0.011,-0.56,0.002637193330827626,10,1,100,0.0757122118529375,-10,-1,-100,472.7630827642279,-0.00985536699622689,0.00034386653894468995,0.9999513755664188,4.013661618314198,-0.29622194444638833,27.60669023186417,-5.707465434635417,-90.02832794189453,6407.0224609375,True
1598621709.6552093,0,5,0.5,0.5,0.008501990509033204,-0.14,-0.011,-0.56,0.0023585462953419067,10,1,100,0.06904072315773704,-10,-1,-100,472.51575329271145,-0.009487061216746317,0.00033055152901768475,0.999954942187475,3.764073370718325,-0.2756842843861175,21.445891363030963,-4.798934633368188,-90.03511810302734,6403.86474609375,True
1598621709.7345457,0,5,0.5,0.5,0.00819199676513672,-0.14,-0.011,-0.56,0.0021524034567371774,10,1,100,0.06213347878223842,-10,-1,-100,472.3510650101816,-0.009091484902151427,0.0003166462118587595,0.9999586214626336,3.536180095653774,-0.25712988963378686,16.100573778223676,-3.88979897084043,-90.03994750976562,6400.70751953125,True
1598621709.782475,0,5,0.5,0.5,0.008074388122558595,-0.14,-0.011,-0.56,0.00013284154373634097,10,1,100,0.006587056628039628,-10,-1,-100,472.1307576287072,-0.008229244174900511,0.00028572868895274464,0.9999660983750531,3.575091417819544,-0.25655685443113235,8.438174979398303,-2.069708813278169,-90.04348754882812,6394.3916015625,True
1598621709.8283565,0,5,0.5,0.5,0.005264823913574219,-0.14,-0.011,-0.56,0.0014176974043801796,10,1,100,0.04143093195287466,-10,-1,-100,472.07529175525997,-0.007765182577256968,0.00026941034604536135,0.9999698142232131,5.871357131572018,-0.41883535342518075,7.666840134822898,-1.1587488341220378,-90.04216003417969,6391.23388671875,True
1598621709.9084857,0,5,0.5,0.5,0.00376280517578125,-0.14,-0.011,-0.56,0.001196370895214003,10,1,100,0.036628921865377,-10,-1,-100,472.0562330905814,-0.007302978822037337,0.000252681686628898,0.999973300969726,16.429643345554215,-1.1655131556727358,4.525437669546827,-0.2471584965361056,-90.03882598876953,6388.076171875,True
1598621709.9591777,0,5,0.5,0.5,-0.0021919898986816413,-0.14,-0.011,-0.56,-0.0010353699117687711,10,1,100,-0.027000640750077687,-10,-1,-100,472.1274623385398,-0.006307927137398976,0.00021731302126412402,0.9999800812167612,0.8799230465999103,-0.06180265506743666,-1.5169255637127643,1.5780307873465391,-90.02754974365234,6381.759765625,True
1598621710.0018845,0,5,0.5,0.5,0.004168252563476563,-0.14,-0.011,-0.56,0.0024846978116671897,10,1,100,0.07203202883797846,-10,-1,-100,472.1274623385398,-0.006307927137398976,0.00021731302126412402,0.9999800812167612,0.8799230465999103,-0.06180265506743666,-1.5169255637127643,1.5780307873465391,-90.02754974365234,6381.759765625,True
1598621710.0439608,0,5,0.5,0.5,-0.0037089141845703132,-0.14,-0.011,-0.56,-0.0004916985738790598,10,1,100,-0.011808582156233247,-10,-1,-100,472.27706872625276,-0.005549810820357869,0.00019039978310153965,0.9999845815550262,2.0295456914370806,-0.14164305089821883,-6.454372912334968,2.948611736796662,-90.01625061035156,6377.0234375,True
1598621710.087289,0,5,0.5,0.5,-0.00564127655029297,-0.14,-0.011,-0.56,-0.0009427736967761054,10,1,100,-0.02411118635250202,-10,-1,-100,472.5088293271838,-0.004753278432865663,0.00016199303641232458,0.9999886899872397,2.8309749370777855,-0.1964921755284961,-13.046964576519391,4.320558874269315,-90.00444030761719,6372.287109375,True
1598621710.133583,0,5,0.5,0.5,-0.004619895172119142,-0.14,-0.011,-0.56,-0.0001153323873103948,10,1,100,-0.0012515492395833785,-10,-1,-100,472.70892122690566,-0.004241920616593171,0.00014386709879611853,0.9999909926653041,3.3066707753565154,-0.22877624643120842,-18.349825847588235,5.23597946983376,-89.99647521972656,6369.12890625,True
1598621710.1785867,0,5,0.5,0.5,-0.005075770568847657,-0.14,-0.011,-0.56,-0.00035329619860860625,10,1,100,-0.007742926521303137,-10,-1,-100,472.994187386008,-0.003723140486856757,0.00012540748398790071,0.9999930612248656,3.7655861331153573,-0.25979040329338915,-24.413552681749664,6.152028383650558,-89.989501953125,6365.97119140625,True
1598621710.2233038,0,5,0.5,0.5,-0.005237032318115235,-0.14,-0.011,-0.56,-0.0006052553532319212,10,1,100,-0.014271100959014377,-10,-1,-100,473.2586717335507,-0.003197415074689814,0.00010652197279751782,0.9999948825818606,4.216374045767184,-0.2901705586016086,-31.254520192812656,7.068691379275988,-89.9837646484375,6362.8134765625,True
1598621710.2696993,0,5,0.5,0.5,-0.005311650848388672,-0.14,-0.011,-0.56,-0.0007319383988675513,10,1,100,-0.019109133048730333,-10,-1,-100,473.5873966983054,-0.002680859017201959,8.839268424508333e-05,0.9999964025843608,4.662615714781636,-0.3201957128630992,-38.88272690478047,7.985965132152717,-89.97915649414062,6359.6552734375,True
1598621710.3194473,0,5,0.5,0.5,-0.005151702117919922,-0.14,-0.011,-0.56,-0.0009378042746292188,10,1,100,-0.024258878298446473,-10,-1,-100,473.9161830979865,-0.002169490721904397,7.021940124022559e-05,0.9999976441868466,5.105753121213138,-0.3499935062577925,-47.30504367783325,8.903846522403603,-89.97579956054688,6356.498046875,True
1598621710.3643405,0,5,0.5,0.5,-0.004199308013916016,-0.14,-0.011,-0.56,-0.00011512025816406242,10,1,100,-0.0015330117673935384,-10,-1,-100,474.11274226557,-0.0019162962326937788,6.135826315349737e-05,0.999998162020267,5.32629620150452,-0.3648256167384365,-51.81538355752823,9.363013851736591,-89.97457885742188,6354.9189453125,True
1598621710.4093933,0,5,0.5,0.5,-0.004846762084960939,-0.14,-0.011,-0.56,-0.0021747801381404855,10,1,100,-0.059150170459825464,-10,-1,-100,474.70272523816675,-0.001167224056743239,3.475243273257278e-05,0.9999993181899024,5.983774217185126,-0.4090949800180326,-66.54863194729766,10.741418954145775,-89.9727783203125,6350.18212890625,True
1598621710.4543285,0,5,0.5,0.5,-0.0037705360412597657,-0.14,-0.011,-0.56,-0.0014991146593900041,10,1,100,-0.03961825235699672,-10,-1,-100,475.1568490579957,-0.0006684856096145147,1.6873691782674394e-05,0.9999997764211092,6.418269323952837,-0.43842037443616116,-77.37650466911505,11.66110303808664,-89.97296142578125,6347.0244140625,True
1598621710.5016046,0,5,0.5,0.5,-0.003057267761230469,-0.14,-0.011,-0.56,-0.001544594333394519,10,1,100,-0.04166235439910457,-10,-1,-100,475.67902801639866,-0.00020163104050358895,3.8905690952704553e-07,0.9999999796723859,6.849107401108266,-0.4675859185121247,-89.01125392873915,12.581368045316822,-89.97421264648438,6343.8662109375,True
1598621710.5480022,0,5,0.5,0.5,-0.0031205993652343752,-0.14,-0.011,-0.56,-0.0008405582127596895,10,1,100,-0.021445942453612855,-10,-1,-100,475.93998029618524,3.4134659383824094e-05,-8.023909400115719e-06,0.9999999993852209,7.062906484750777,-0.48209835735353945,-95.13071255842897,13.041716362998413,-89.97518920898438,6342.2880859375,True
1598621710.594404,0,5,0.5,0.5,-0.000815739440917969,-0.14,-0.011,-0.56,-0.0026707843617794634,10,1,100,-0.07326129837520437,-10,-1,-100,476.7840864608297,0.0007151636103029866,-3.215591926741396e-05,0.9999997437534708,7.6972683195914815,-0.5253482507890643,-114.70213201282888,14.423677627596554,-89.97930908203125,6337.55078125,True
1598621710.639685,0,5,0.5,0.5,-0.0019668243408203128,-0.14,-0.011,-0.56,-0.0011400162075714492,10,1,100,-0.030198852342803412,-10,-1,-100,477.04513071326073,0.0009382976160923109,-4.0018015001190837e-05,0.9999995589979738,7.906111295440978,-0.5396582390197082,-121.63005241821413,14.884623609651415,-89.98098754882812,6335.9716796875,True
1598621710.6866431,0,5,0.5,0.5,0.0011213439941406252,-0.14,-0.011,-0.56,-0.0028513205690994027,10,1,100,-0.07714691216856856,-10,-1,-100,478.01808304630686,0.001563709585132335,-6.257230031943386e-05,0.9999987754477705,8.524060324280867,-0.5822494984963703,-143.63113329209898,16.26830878189552,-89.98675537109375,6331.2353515625,True
1598621710.7334661,0,5,0.5,0.5,-0.000716796875,-0.14,-0.011,-0.56,-0.0014163765815182097,10,1,100,-0.038002608377991326,-10,-1,-100,478.3433974336367,0.0017720803182909076,-6.987752865517398e-05,0.9999984274230019,8.726801185852844,-0.5963159106567331,-151.36803866942776,16.729810408619905,-89.98873901367188,6329.65625,True
1598621710.780974,0,5,0.5,0.5,0.002412640380859375,-0.14,-0.011,-0.56,-0.002916468206239165,10,1,100,-0.08052811535156179,-10,-1,-100,479.38068229414057,0.0023440556487988934,-9.001195990067345e-05,0.9999972486466961,9.324857229989505,-0.6381120024127145,-175.79538730109516,18.115243256342836,-89.99478149414062,6324.919921875,True
1598621710.8294024,0,5,0.5,0.5,0.0016719543457031252,-0.14,-0.011,-0.56,-0.002357023830006538,10,1,100,-0.06438323979941024,-10,-1,-100,480.157074773917,0.002713158402085954,-0.00010308446546615736,0.9999963140657462,9.71433708932433,-0.665608413788543,-193.08932756696936,19.039577224572472,-89.99852752685547,6321.76171875,True
1598621710.8793247,0,5,0.5,0.5,0.0018756050109863284,-0.14,-0.011,-0.56,-0.0023438510073749957,10,1,100,-0.06398614473814256,-10,-1,-100,480.93319292366505,0.0030408878093946853,-0.00011469931511211085,0.9999953699119801,10.09600455652417,-0.6927908697663048,-211.18946361449923,19.964476867152577,-90.00177764892578,6318.6044921875,True
1598621710.9275897,0,5,0.5,0.5,0.0018498260498046877,-0.14,-0.011,-0.56,-0.0024225072622290813,10,1,100,-0.06628945169351487,-10,-1,-100,481.77394720353186,0.0033559372321186093,-0.00012583746097270145,0.9999943609092141,10.469424292448766,-0.7196383250193817,-230.09164207928248,20.889938924435405,-90.0042953491211,6315.44580078125,True
1598621710.9765203,0,5,0.5,0.5,0.0017187355041503908,-0.14,-0.011,-0.56,-0.0024385661205098405,10,1,100,-0.06697001608092748,-10,-1,-100,482.6178751665866,0.0036448741809879883,-0.00013597930032783128,0.999993348178794,10.834453267967062,-0.7461464878446048,-249.79510336492882,21.815959191710675,-90.00607299804688,6312.28857421875,True
1598621711.025054,0,5,0.5,0.5,0.001441892242431641,-0.14,-0.011,-0.56,-0.002462612806522462,10,1,100,-0.06746461234836612,-10,-1,-100,483.52308242139407,0.0039085436412809645,-0.00014529378928966645,0.9999923510589063,11.190891328333306,-0.7723023558002117,-270.29741358855154,22.742534791485674,-90.00704956054688,6309.1298828125,True
1598621711.0734086,0,5,0.5,0.5,0.0010528968811035157,-0.14,-0.011,-0.56,-0.0024534304164294846,10,1,100,-0.06780875169442263,-10,-1,-100,484.4889888674952,0.0041478495001642775,-0.00015355323945422632,0.9999913858458614,11.538598594178897,-0.7981019124531524,-291.5957462213015,23.669662936683658,-90.0072250366211,6305.97265625,True
1598621711.1213517,0,5,0.5,0.5,0.0005741134643554688,-0.14,-0.011,-0.56,-0.0025105336410809176,10,1,100,-0.06780388444483362,-10,-1,-100,485.4583740904927,0.004362235409707515,-0.0001614705895368512,0.9999904723693517,11.877532569340262,-0.8235400899679844,-313.68752762902886,24.5973391202222,-90.00663757324219,6302.814453125,True
1598621711.169721,0,5,0.5,0.5,7.38830566406252e-06,-0.14,-0.011,-0.56,-0.002409659133582479,10,1,100,-0.06752550796831752,-10,-1,-100,486.4315131268231,0.004551488325147935,-0.00016764072811240106,0.9999896278715156,12.207665484502185,-0.8486125743839447,-336.56891015812164,25.525561431135884,-90.00531768798828,6299.65673828125,True
1598621711.2164202,0,5,0.5,0.5,-0.0006162666320800782,-0.14,-0.011,-0.56,-0.002444371376067765,10,1,100,-0.0669331756304752,-10,-1,-100,487.52623336808756,0.004715435428167917,-0.00017346999408750084,0.9999888672264726,12.529070787731174,-0.8733144606994905,-360.2362711158766,26.45431430851012,-90.00334167480469,6296.49951171875,True
1598621711.2664354,0,5,0.5,0.5,-0.0012613670349121094,-0.14,-0.011,-0.56,-0.002382363624447174,10,1,100,-0.06610498732653516,-10,-1,-100,488.5601623672992,0.004854273487141286,-0.00017811144499064769,0.9999882020830172,12.841838805948269,-0.8976497239683223,-384.6849854397462,27.38360679698225,-90.00081634521484,6293.3408203125,True
1598621711.315312,0,5,0.5,0.5,-0.001923368835449219,-0.14,-0.011,-0.56,-0.0023277460388559192,10,1,100,-0.06494295583694107,-10,-1,-100,489.71933567139786,0.004967643965540454,-0.00018175433186532435,0.99998764466307,13.146218392583126,-0.9216252177779535,-409.91288060277634,28.31344718671859,-89.99784088134766,6290.18359375,True
1598621711.3635542,0,5,0.5,0.5,-0.0025596527099609376,-0.14,-0.011,-0.56,-0.0023227453839664487,10,1,100,-0.06356112616079865,-10,-1,-100,490.88220051361714,0.005056096416517081,-0.00018494906864658143,0.9999872007595241,13.442403176540571,-0.9452481767953991,-435.913690811308,29.24382020679462,-89.99455261230469,6287.025390625,True
1598621711.4111803,0,5,0.5,0.5,-0.0031721534729003908,-0.14,-0.011,-0.56,-0.0022048598537544734,10,1,100,-0.06192060247093738,-10,-1,-100,492.04469926748425,0.005119761876036073,-0.00018671782476076585,0.99998687650128,13.730756966558323,-0.9685258083094481,-462.6844861863787,30.17472339013493,-89.99105834960938,6283.8681640625,True
1598621711.4575346,0,5,0.5,0.5,-0.0037079544067382814,-0.14,-0.011,-0.56,-0.002148286968854278,10,1,100,-0.06002589204266631,-10,-1,-100,493.32942031056155,0.005158811449301859,-0.00018775614012566985,0.9999866756172617,14.011615176068265,-0.9914690421803416,-490.2197261820581,31.106154148332127,-89.98751831054688,6280.7099609375,True
1598621711.5046105,0,5,0.5,0.5,-0.004202607727050781,-0.14,-0.011,-0.56,-0.0020779515324590926,10,1,100,-0.057942503282210095,-10,-1,-100,494.5564323341241,0.005173994856931777,-0.00018801358027217377,0.9999865971242385,14.285427125866306,-1.0140946954989938,-518.5154784208048,32.03810939648786,-89.9840087890625,6277.5517578125,True
1598621711.5523317,0,5,0.5,0.5,-0.004591111755371094,-0.14,-0.011,-0.56,-0.001958190109217978,10,1,100,-0.055622009661294464,-10,-1,-100,495.9089929040056,0.005165552148027332,-0.00018712004038409219,0.9999866409393159,14.552662790696004,-1.0364127978721362,-547.566726717293,32.970580505060994,-89.98068237304688,6274.39453125,True
1598621711.5995877,0,5,0.5,0.5,-0.004915108489990235,-0.14,-0.011,-0.56,-0.0018975467572982059,10,1,100,-0.053093537974019334,-10,-1,-100,497.2614313411759,0.005133965667640915,-0.00018572591292208385,0.9999868038641354,14.813864831763476,-1.0584454492054964,-577.3692606871157,33.90356611808423,-89.97760009765625,6271.236328125,True
1598621711.6490412,0,5,0.5,0.5,-0.005164945220947266,-0.14,-0.011,-0.56,-0.0017648465920294034,10,1,100,-0.05042130162240431,-10,-1,-100,498.61734856816474,0.005080256054767732,-0.00018323010888746422,0.9999870786290918,15.069591336404303,-1.0802076068949198,-607.9181515193036,34.83707197995962,-89.97482299804688,6268.0791015625,True
1598621711.6936033,0,5,0.5,0.5,-0.005330935668945313,-0.14,-0.011,-0.56,-0.001692830772062972,10,1,100,-0.04755659684186532,-10,-1,-100,500.0341479028575,0.005004905665305739,-0.00018029233469195604,0.999987459128341,15.32051277504577,-1.1017294831495974,-639.2109130857714,35.771094390920545,-89.972412109375,6264.9208984375,True
1598621711.7418532,0,5,0.5,0.5,-0.00540341033935547,-0.14,-0.011,-0.56,-0.0015620978099447345,10,1,100,-0.044554215631632026,-10,-1,-100,501.5119209154509,0.004908847781849863,-0.0001764269472762333,0.999987935970723,15.567234152895026,-1.1230235600531822,-671.2413345480926,36.7056262993982,-89.97042846679688,6261.7626953125,True
1598621711.7873156,0,5,0.5,0.5,-0.005458199310302735,-0.14,-0.011,-0.56,-0.0014224409442029962,10,1,100,-0.041408345272373595,-10,-1,-100,502.9932337338105,0.004792873998810618,-0.00017164488220766446,0.9999884993823009,15.810491533411419,-1.1441219099453945,-704.0068502570052,37.6406540806876,-89.96881103515625,6258.60546875,True
1598621711.8350852,0,5,0.5,0.5,-0.005417500305175782,-0.14,-0.011,-0.56,-0.001321246442469583,10,1,100,-0.03816627123935773,-10,-1,-100,504.5389994344441,0.004658128768444551,-0.00016638679072016873,0.9999891370169041,16.050976863018818,-1.1650456781118477,-737.5029050419735,38.5761858220056,-89.96762084960938,6255.447265625,True
1598621711.8814955,0,5,0.5,0.5,-0.005357403564453126,-0.14,-0.011,-0.56,-0.0011645596448355967,10,1,100,-0.03478421297984268,-10,-1,-100,506.0846733771032,0.004505248909068965,-0.00016019915691479675,0.9999898384826204,16.289463691745404,-1.1858270724473965,-771.7275283037222,39.512229977211916,-89.966796875,6252.28955078125,True
1598621711.927553,0,5,0.5,0.5,-0.005264462280273437,-0.14,-0.011,-0.56,-0.0011027761535554032,10,1,100,-0.03135007673677524,-10,-1,-100,507.6946777640842,0.004335606446487789,-0.00015403647505086225,0.9999905893504726,16.526730244773603,-1.2064938031393273,-806.6777320487352,40.448770539723704,-89.96630859375,6249.1318359375,True
1598621711.972353,0,5,0.5,0.5,-0.0052066162109375,-0.14,-0.011,-0.56,-0.0008980596954048661,10,1,100,-0.02782188965934369,-10,-1,-100,509.3657483624993,0.004150059966167173,-0.00014660363252325765,0.9999913777176542,16.76354692874614,-1.2270698094323649,-842.3504002827636,41.385806888199625,-89.96603393554688,6245.97412109375,True
1598621712.0194054,0,5,0.5,0.5,-0.005093942260742188,-0.14,-0.011,-0.56,-0.0007513416565179785,10,1,100,-0.024233307172234587,-10,-1,-100,511.04038886225317,0.003949688720439044,-0.00013855034800623533,0.999992190350911,17.000699092030413,-1.2475894126777074,-878.7426133153897,42.32333631430777,-89.96600341796875,6242.81591796875,True
1598621712.0651867,0,5,0.5,0.5,-0.005050274658203125,-0.14,-0.011,-0.56,-0.0006512983078283324,10,1,100,-0.020606371732975845,-10,-1,-100,512.7757291753078,0.0037356662325362003,-0.00013036384954119812,0.9999930138771299,17.239006549903024,-1.2680843727765725,-915.8533923700829,43.261355575351445,-89.966064453125,6239.658203125,True
1598621712.110378,0,5,0.5,0.5,-0.0050116943359375,-0.14,-0.011,-0.56,-0.0005032467179872026,10,1,100,-0.016947175213177058,-10,-1,-100,514.514669997734,0.0035091060928400847,-0.00012162598381386391,0.9999938356717751,17.47929790689548,-1.2885842772534506,-953.6817331842178,44.199838001884565,-89.9661865234375,6236.5009765625,True
1598621712.1567993,0,5,0.5,0.5,-0.005025466918945313,-0.14,-0.011,-0.56,-0.0003416618972334883,10,1,100,-0.013307271180408923,-10,-1,-100,516.3144020073814,0.003271480610965658,-0.00011226952035041142,0.9999946423907314,17.722329515945777,-1.309116878750802,-992.2248334305311,45.1387937618545,-89.96627807617188,6233.3427734375,True
1598621712.2027116,0,5,0.5,0.5,-0.00508348388671875,-0.14,-0.011,-0.56,-0.0002405078215139832,10,1,100,-0.009644698719068548,-10,-1,-100,518.1176737708738,0.0030237371732988487,-0.00010290590089013324,0.9999954232014677,17.96891299207518,-1.3297182078845087,-1031.4836692864712,46.07825291223649,-89.96627807617188,6230.18505859375,True
1598621712.2494361,0,5,0.5,0.5,-0.005194860839843751,-0.14,-0.011,-0.56,-5.060655385281899e-05,10,1,100,-0.00598950190562764,-10,-1,-100,520.0429551472189,0.0027670005413055147,-9.273398171694803e-05,0.9999961675468627,18.219872164972774,-1.3504149797327178,-1071.4600303992497,47.01820036167616,-89.96612548828125,6227.02685546875,True
1598621712.294548,0,5,0.5,0.5,-0.005325988769531251,-0.14,-0.011,-0.56,5.870888417539152e-05,10,1,100,-0.0024144815673030375,-10,-1,-100,521.91080266051,0.002502945121379083,-8.256474294151476e-05,0.9999968642194748,18.475965852520233,-1.3712416684699253,-1112.153432137099,47.95862279497119,-89.9658203125,6223.869140625,True
1598621712.3404675,0,5,0.5,0.5,-0.005562954711914063,-0.14,-0.011,-0.56,0.000210161258972579,10,1,100,0.001190645374504709,-10,-1,-100,523.9004760079551,0.0022320801161995886,-7.201934250912705e-05,0.9999975063126754,18.7379176868258,-1.392231006240389,-1153.5633337843976,48.89951657053617,-89.96524047851562,6220.71142578125,True
1598621712.3932657,0,5,0.5,0.5,-0.005816741943359375,-0.14,-0.011,-0.56,0.0003617979680836616,10,1,100,0.004681346945962308,-10,-1,-100,525.8325322791934,0.0019561720688348605,-6.113426277358807e-05,0.9999980848248856,19.006474527862196,-1.4134106349358466,-1195.6922938655123,49.840879402443534,-89.96441650390625,6217.5537109375,True
1598621712.432612,0,5,0.5,0.5,-0.0061264404296875,-0.14,-0.011,-0.56,0.00045997935164793745,10,1,100,0.008108108852804805,-10,-1,-100,527.8864761803998,0.0016763573124207694,-5.043063426549311e-05,0.9999985936404673,19.28232995690626,-1.4347964858786897,-1238.5408113603958,50.7827017296488,-89.96331787109375,6214.3955078125,True
1598621712.4773815,0,5,0.5,0.5,-0.0065182220458984376,-0.14,-0.011,-0.56,0.0006652097341428951,10,1,100,0.011561865817042986,-10,-1,-100,529.9439601344056,0.0013928312911455636,-3.892176214295968e-05,0.9999990292525741,19.566162763833884,-1.4564317724739915,-1282.112409511664,51.72498256967998,-89.96188354492188,6211.2373046875,True
1598621712.522791,0,5,0.5,0.5,-0.0068944580078125015,-0.14,-0.011,-0.56,0.0007348126561601389,10,1,100,0.014763789569736315,-10,-1,-100,532.0659583861707,0.001108296380806613,-2.791696872764823e-05,0.9999993854496988,19.858622249879115,-1.4783430906020805,-1326.409012387045,52.667732284082206,-89.960205078125,6208.080078125,True
1598621712.5696628,0,5,0.5,0.5,-0.007306787109375001,-0.14,-0.011,-0.56,0.0008855495823796194,10,1,100,0.0179469035868888,-10,-1,-100,534.187834638753,0.0008230793983895712,-1.6635408912473044e-05,0.999999661131726,20.16032911238182,-1.500557202314002,-1371.4345204035506,53.61093858183287,-89.95828247070312,6204.921875,True
1598621712.6168065,0,5,0.5,0.5,-0.0077555450439453135,-0.14,-0.011,-0.56,0.001035681765964823,10,1,100,0.02100689750488193,-10,-1,-100,536.3708073095186,0.0005384149484781871,-5.110053388722289e-06,0.9999998550416048,20.471865297720615,-1.5230918804426923,-1417.1933916952369,54.55459456638234,-89.95611572265625,6201.7646484375,True
1598621712.6614668,0,5,0.5,0.5,-0.0081768798828125,-0.14,-0.011,-0.56,0.001097392651337176,10,1,100,0.023940377245836295,-10,-1,-100,538.5570145909442,0.0002554456924250596,5.831132893561891e-06,0.9999999673567477,20.793762134803018,-1.545981525732777,-1463.6898051915923,55.49869993731775,-89.95379638671875,6198.60693359375,True
1598621712.7063916,0,5,0.5,0.5,-0.008622128295898437,-0.14,-0.011,-0.56,0.0012616950028988844,10,1,100,0.026745769233016477,-10,-1,-100,540.8076752085472,-2.4786020705899983e-05,1.7172471770032407e-05,0.9999999995453797,21.126511733176145,-1.5692419900694292,-1510.9284575695447,56.44325570532248,-89.95132446289062,6195.44921875,True
1598621712.7564147,0,5,0.5,0.5,-0.009048565673828127,-0.14,-0.011,-0.56,0.0013821095105156277,10,1,100,0.029364468027378524,-10,-1,-100,543.0584587962367,-0.0003008104884445988,2.8477542223806015e-05,0.9999999543510388,21.470595089729656,-1.5928986393216589,-1558.9167864165122,57.388255230727744,-89.94876098632812,6192.291015625,True
1598621712.7993448,0,5,0.5,0.5,-0.00946894226074219,-0.14,-0.011,-0.56,0.0014682548318607235,10,1,100,0.03192149097021299,-10,-1,-100,545.434486027807,-0.0005724386171329803,3.943707075295078e-05,0.9999998353793599,21.82635166018747,-1.6169698048099321,-1607.655617669113,58.33369242147339,-89.94613647460938,6189.1328125,True
1598621712.8426845,0,5,0.5,0.5,-0.009878750610351565,-0.14,-0.011,-0.56,0.0015463516967186214,10,1,100,0.03424976521482604,-10,-1,-100,547.7496001494583,-0.0008379898465885981,5.000892599337048e-05,0.999999647636,22.194180835313862,-1.6414657245498148,-1657.1535973135292,59.279565392510634,-89.9434814453125,6185.9755859375,True
1598621712.8883533,0,5,0.5,0.5,-0.01027348327636719,-0.14,-0.011,-0.56,0.0016639044400005257,10,1,100,0.03644666171101031,-10,-1,-100,550.1867241606815,-0.0010968316943177226,6.058732552470847e-05,0.9999993966445232,22.574405049493738,-1.6664166039613952,-1707.417920181445,60.22587424732911,-89.94082641601562,6182.8173828125,True
1598621712.9327126,0,5,0.5,0.5,-0.010627203369140626,-0.14,-0.011,-0.56,0.0017604626049570605,10,1,100,0.03850850326159627,-10,-1,-100,552.6305615559686,-0.0013483653981615823,7.098092845299313e-05,0.999999088435815,22.967274244193487,-1.691831423641528,-1758.453851247178,61.17261324132359,-89.938232421875,6179.66015625,True
1598621712.9754102,0,5,0.5,0.5,-0.010097799682617188,-0.14,-0.011,-0.56,0.0012880301698960533,10,1,100,0.02711625127224215,-10,-1,-100,553.8508630323922,-0.0014709744774897744,7.603490653215553e-05,0.9999989152258014,23.16851929045132,-1.7047151733839836,-1784.2629073634027,61.64614238624539,-89.93695068359375,6178.0810546875,True
1598621713.0203218,0,5,0.5,0.5,-0.012011807250976564,-0.14,-0.011,-0.56,0.0024119441372988173,10,1,100,0.054121569546697654,-10,-1,-100,557.5795773034915,-0.0018255953785938205,9.075233005754666e-05,0.9999983294813688,23.791770815893923,-1.7440795789414365,-1862.8674094010237,63.06736589327687,-89.9332275390625,6173.34423828125,True
1598621713.063545,0,5,0.5,0.5,-0.011663391113281251,-0.14,-0.011,-0.56,0.0020148410377252785,10,1,100,0.04426747356829768,-10,-1,-100,560.1487813426647,-0.002055987439087514,0.00010042415259453367,0.9999978814130757,24.223609205932384,-1.7709387456154315,-1916.2522453896772,64.01536929255805,-89.9307861328125,6170.1865234375,True
1598621713.1117463,0,5,0.5,0.5,-0.011968963623046875,-0.14,-0.011,-0.56,0.002025900919875056,10,1,100,0.04460688280360514,-10,-1,-100,562.7180463761324,-0.0022661617576867892,0.00010922132273317144,0.9999974262874832,24.668630644626592,-1.7982933360290174,-1970.4246664047375,64.96378761147267,-89.92843627929688,6167.0283203125,True
1598621713.153741,0,5,0.5,0.5,-0.012197665405273438,-0.14,-0.011,-0.56,0.002132109119232094,10,1,100,0.04648210768746776,-10,-1,-100,565.3517034039833,-0.0024719844485847796,0.00011809028813532464,0.9999969376690959,25.12711736693712,-1.8261706580221195,-2025.4136884242237,65.91261012369695,-89.92626953125,6163.87109375,True
1598621713.1987998,0,5,0.5,0.5,-0.012443121337890627,-0.14,-0.011,-0.56,0.002149120330066849,10,1,100,0.047359560659082894,-10,-1,-100,568.0464562259149,-0.0026648481051177457,0.00012621588785726598,0.999996441320731,25.598895860625714,-1.8545547250216736,-2081.22111531572,66.86184147680889,-89.92422485351562,6160.712890625,True
1598621713.246514,0,5,0.5,0.5,-0.012692279052734377,-0.14,-0.011,-0.56,0.0022383137112950407,10,1,100,0.04811378285366756,-10,-1,-100,570.7445666997228,-0.0028448861422651454,0.00013432479257416579,0.9999959442816195,26.083873169061846,-1.883453868835351,-2137.8528435860185,67.811489680856,-89.92227172851562,6157.55517578125,True
1598621713.2933195,0,5,0.5,0.5,-0.012927880859375003,-0.14,-0.011,-0.56,0.002247540044628649,10,1,100,0.04883056308632291,-10,-1,-100,573.4461552833673,-0.0030130074076731646,0.00014169413832727004,0.9999954508442187,26.581902465915938,-1.9128660846256775,-2195.3120921654377,68.76153695903214,-89.92041015625,6154.3974609375,True
1598621713.343455,0,5,0.5,0.5,-0.013171154785156252,-0.14,-0.011,-0.56,0.002308463251628849,10,1,100,0.04934200820297795,-10,-1,-100,576.2696316558868,-0.00316851713404906,0.00014886404070069945,0.9999949691566796,27.092798039976387,-1.9427915820635495,-2253.6052189013435,69.71198188291096,-89.91860961914062,6151.2392578125,True
1598621713.404528,0,5,0.5,0.5,-0.013426306152343753,-0.14,-0.011,-0.56,0.002329001829055233,10,1,100,0.04968123068317734,-10,-1,-100,579.0965254793409,-0.003311090102901931,0.0001554885965484424,0.9999945062377228,27.61638494157388,-1.9732236391337963,-2312.7415384053347,70.66282108631952,-89.91683959960938,6148.08154296875,True
1598621713.4434078,0,5,0.5,0.5,-0.01369764099121094,-0.14,-0.011,-0.56,0.002325099378494972,10,1,100,0.04989359028908838,-10,-1,-100,581.9234800264239,-0.003440848139453968,0.00016139861807030142,0.9999940672396849,28.152413149947666,-2.004163964441398,-2372.727525043392,71.61404982365832,-89.91506958007812,6144.923828125,True
1598621713.4979203,0,5,0.5,0.5,-0.013990875244140628,-0.14,-0.011,-0.56,0.002411488193519665,10,1,100,0.049939125379792115,-10,-1,-100,584.8148878224893,-0.003557433151996796,0.0001674791143980903,0.999993658289949,28.70058857371893,-2.035592604837087,-2433.568465786002,72.56566346532031,-89.91326904296875,6141.765625,True
1598621713.536577,0,5,0.5,0.5,-0.014286267089843752,-0.14,-0.011,-0.56,0.002331223657435686,10,1,100,0.049810088126987485,-10,-1,-100,587.7670864955289,-0.0036606720631253216,0.00017220740910955264,0.9999932848897808,29.260557406602064,-2.067506341974425,-2495.268372408961,73.51765855832267,-89.91143798828125,6138.60791015625,True
1598621713.5824728,0,5,0.5,0.5,-0.014649346923828126,-0.14,-0.011,-0.56,0.0024057873016149443,10,1,100,0.04954779483973906,-10,-1,-100,590.7228250902845,-0.003750682330063507,0.00017711845265204346,0.9999929504807086,29.83196792575406,-2.099887752705164,-2557.834347597186,74.47003111816215,-89.90948486328125,6135.4501953125,True
1598621713.6295764,0,5,0.5,0.5,-0.015007717895507814,-0.14,-0.011,-0.56,0.0023912890972737407,10,1,100,0.04916927733599521,-10,-1,-100,593.7395372883184,-0.0038277192130892978,0.00018138951116946156,0.9999926578047815,30.414416995400693,-2.1327372342054707,-2621.2709242025044,75.42277739462058,-89.90744018554688,6132.2919921875,True
1598621713.677763,0,5,0.5,0.5,-0.01535740966796875,-0.14,-0.011,-0.56,0.0024001919299356305,10,1,100,0.04861367701103228,-10,-1,-100,596.7596674303059,-0.003891469344918077,0.0001852956817340096,0.9999924110371279,31.00748054816547,-2.1660355344524405,-2685.583290860149,76.37589249171042,-89.90533447265625,6129.134765625,True
1598621713.7316298,0,5,0.5,0.5,-0.015737075805664066,-0.14,-0.011,-0.56,0.002362175577262856,10,1,100,0.04795489630448392,-10,-1,-100,599.8443728943821,-0.003942319984484891,0.0001884474337739583,0.9999922112700202,31.61070004174182,-2.1997649557005254,-2750.7741836402743,77.3293727453898,-89.90313720703125,6125.9765625,True
1598621713.7775881,0,5,0.5,0.5,-0.01615119018554688,-0.14,-0.011,-0.56,0.0023841619032098343,10,1,100,0.047179903301524884,-10,-1,-100,602.9898078865372,-0.003980504780571258,0.00019146333619052074,0.9999920594302151,32.223555065056004,-2.2339090946027533,-2816.847033840515,78.28321367401726,-89.90081787109375,6122.81884765625,True
1598621713.8183243,0,5,0.5,0.5,-0.01656153564453125,-0.14,-0.011,-0.56,0.0022986265286399693,10,1,100,0.046282698119462146,-10,-1,-100,606.1353033451596,-0.004006182277746568,0.00019338222662052123,0.9999919565210871,32.8455334480004,-2.2684491069018433,-2883.8049220852213,79.2374120138686,-89.89840698242188,6119.6611328125,True
1598621713.8658276,0,5,0.5,0.5,-0.017049456787109375,-0.14,-0.011,-0.56,0.002339994845045548,10,1,100,0.045263280631909555,-10,-1,-100,609.3451908089919,-0.0040194965115248294,0.00019546227699155437,0.9999919026883629,33.47610589134373,-2.3033716213610465,-2951.651806717547,80.19196295136037,-89.89581298828125,6116.5029296875,True
1598621713.9515984,0,5,0.5,0.5,-0.01749983215332031,-0.14,-0.011,-0.56,0.002294187596870987,10,1,100,0.04418332425973173,-10,-1,-100,612.5586183047853,-0.00402113856938652,0.0001969004626359584,0.9999918958045678,34.114694314517784,-2.338650695305319,-3020.387478903934,81.14686214532658,-89.89312744140625,6113.345703125,True
1598621713.9966,0,5,0.5,0.5,-0.018946697998046876,-0.14,-0.011,-0.56,0.0022811265029962545,10,1,100,0.04196323723897584,-10,-1,-100,617.504003387643,-0.004001921203226701,0.00019805689250967752,0.9999919726678562,35.0862945864595,-2.3921850800713202,-3125.1569948390593,82.57985549959386,-89.88894653320312,6108.6083984375,True
1598621714.0454226,0,5,0.5,0.5,-0.019772402954101567,-0.14,-0.011,-0.56,0.002197268839370341,10,1,100,0.039101432033442976,-10,-1,-100,622.5139018686023,-0.0039580303793481765,0.00019831805201817607,0.9999921473019008,36.07256701367355,-2.446390818611233,-3231.9257056022698,84.01360721407873,-89.88446044921875,6103.8720703125,True
1598621714.0923371,0,5,0.5,0.5,-0.019426101684570315,-0.14,-0.011,-0.56,0.002159384069167704,10,1,100,0.03892621581480026,-10,-1,-100,625.9135468837339,-0.003916266429910745,0.00019818732580323384,0.9999923117599624,36.737244885539425,-2.4828630794151105,-3304.218580638063,84.96985704796201,-89.88140869140625,6100.7138671875,True
1598621714.140641,0,5,0.5,0.5,-0.018794754028320315,-0.14,-0.011,-0.56,0.0021323486289177764,10,1,100,0.04045326563230491,-10,-1,-100,627.5881924873684,-0.0038920309432178063,0.00019780355353905867,0.9999924064556147,37.07142390481905,-2.50118885838279,-3340.69221094706,85.4481061637164,-89.87991333007812,6099.13525390625,True
1598621714.1893754,0,5,0.5,0.5,-0.01997432556152344,-0.14,-0.011,-0.56,0.002057302596109708,10,1,100,0.03676559615133512,-10,-1,-100,631.0522900670767,-0.003836415949369838,0.00019675751114394462,0.9999926215723521,37.74321751866515,-2.538002798161801,-3414.303852171967,86.4048420161875,-89.8770751953125,6095.9775390625,True
1598621714.2367675,0,5,0.5,0.5,-0.021449502563476563,-0.14,-0.011,-0.56,0.0019303911465627286,10,1,100,0.03123497300576119,-10,-1,-100,636.3162162717199,-0.0037356285203624206,0.00019464240321667755,0.9999930035724712,38.7581943593426,-2.593586405082872,-3526.3618029582726,87.8405549452865,-89.87274169921875,6091.24072265625,True
1598621714.3236532,0,5,0.5,0.5,-0.021192410278320313,-0.14,-0.011,-0.56,0.00199199627800882,10,1,100,0.03289893689149377,-10,-1,-100,639.8516028583981,-0.003659318430647903,0.0001932739926873604,0.9999932859943546,39.43889001499697,-2.6308399264238567,-3602.163660386117,88.79809023656426,-89.86968994140625,6088.0830078125,True
1598621714.410416,0,5,0.5,0.5,-0.022615200805664065,-0.14,-0.011,-0.56,0.0017586778609698412,10,1,100,0.0266387405481502,-10,-1,-100,645.2445566322422,-0.003533326733558785,0.00018990726054535695,0.9999937397491176,40.464199829232484,-2.686952603576519,-3717.4768466429937,90.23497520079847,-89.86526489257812,6083.34619140625,True
1598621714.4574544,0,5,0.5,0.5,-0.025257858276367187,-0.14,-0.011,-0.56,0.0013464127875355432,10,1,100,0.012660194533741738,-10,-1,-100,654.3659504220122,-0.00329214100475059,0.00018310188971783762,0.999994564125877,42.17958090571219,-2.7808327718693997,-3913.880851279259,92.63130208512432,-89.85800170898438,6075.451171875,True
1598621714.504372,0,5,0.5,0.5,-0.023368298339843753,-0.14,-0.011,-0.56,0.0016754361649196476,10,1,100,0.025331156596091354,-10,-1,-100,658.1485898103565,-0.003188733047770658,0.00017991754729383347,0.999994899792607,42.86656329116466,-2.8184595818577227,-3993.9122004186243,93.59035032969642,-89.85494995117188,6072.29345703125,True
1598621714.5507936,0,5,0.5,0.5,-0.023623916625976564,-0.14,-0.011,-0.56,0.0016872611558603257,10,1,100,0.02435038053322679,-10,-1,-100,661.8772130196448,-0.003086566400418875,0.0001771456294763287,0.9999952208522207,43.55296316356924,-2.85606259710061,-4074.7466599343816,94.54968936482467,-89.85220336914062,6069.1357421875,True
1598621714.607403,0,5,0.5,0.5,-0.023877957153320313,-0.14,-0.011,-0.56,0.0015600512812720864,10,1,100,0.022450145564160806,-10,-1,-100,665.7277841912583,-0.002977244907473752,0.0001734882610214616,0.999995552947404,44.23817410621683,-2.893600168536504,-4156.345764554851,95.50931660340945,-89.84970092773438,6065.97802734375,True
1598621714.6893005,0,5,0.5,0.5,-0.024245172119140627,-0.14,-0.011,-0.56,0.0015356339638631453,10,1,100,0.02129368235123285,-10,-1,-100,669.578294699546,-0.0028682400532896355,0.00016996397753240723,0.999995872147102,44.92213136893841,-2.9310777536443102,-4238.7239196085175,96.46922744717169,-89.84722900390625,6062.81982421875,True
1598621714.7413683,0,5,0.5,0.5,-0.026615533447265628,-0.14,-0.011,-0.56,0.0010865188381765452,10,1,100,0.007702326680991679,-10,-1,-100,677.3508485187776,-0.0026465397037351746,0.00016270287626181674,0.9999964846715064,46.28509977673385,-3.0058120162934117,-4405.827177365251,98.38988604067718,-89.8419189453125,6056.5048828125,True
1598621714.821482,0,5,0.5,0.5,-0.025755838012695317,-0.14,-0.011,-0.56,0.0013724796552049504,10,1,100,0.01741524125272402,-10,-1,-100,681.3301425215323,-0.0025344254195554883,0.00015873342860451748,0.9999967757405479,46.96315071458506,-3.0430146440037724,-4490.51138054691,99.35062537685643,-89.83895874023438,6053.3466796875,True
1598621714.9104497,0,5,0.5,0.5,-0.028562048339843757,-0.14,-0.011,-0.56,0.0009376842059041941,10,1,100,0.004649858187676402,-10,-1,-100,689.3566020576982,-0.002317638033827899,0.00015120672127018347,0.9999973028415984,48.299232225478114,-3.11621840159862,-4660.975280352069,101.27291566009471,-89.8326416015625,6047.03125,True
1598621714.9985497,0,5,0.5,0.5,-0.029768267822265628,-0.14,-0.011,-0.56,0.0008293716092386967,10,1,100,0.002817063257383682,-10,-1,-100,697.576420846046,-0.0021051859024242793,0.00014341908707105394,0.999997773809163,49.603176679896926,-3.1874668901907963,-4832.339086753959,103.19628723309424,-89.825927734375,6040.71484375,True
1598621715.0865188,0,5,0.5,0.5,-0.030927246093750006,-0.14,-0.011,-0.56,0.0007986357635227571,10,1,100,0.002924352446535005,-10,-1,-100,705.9216056270525,-0.0019144358051662038,0.00013610532547953338,0.9999981582037479,50.873923145147124,-3.256710332749993,-5004.431450756502,105.12074074121826,-89.8189697265625,6034.3994140625,True
1598621715.174625,0,5,0.5,0.5,-0.03148232116699219,-0.14,-0.011,-0.56,0.0008176278253019398,10,1,100,0.0034219404235962085,-10,-1,-100,714.4599667139119,-0.0017470218719306848,0.0001296780172625671,0.9999984655479183,52.10974828384358,-3.3237194106735557,-5176.863269217856,107.04628001332073,-89.81268310546875,6028.083984375,True
1598621715.2604234,0,5,0.5,0.5,-0.031792791748046875,-0.14,-0.011,-0.56,0.0008068048681845132,10,1,100,0.0047473159821066375,-10,-1,-100,723.0663208162878,-0.0016082809096419624,0.00012378518643012593,0.9999986990540254,53.31188494515755,-3.388504231725483,-5349.400474138232,108.97291605929203,-89.80728149414062,6021.7685546875,True
1598621715.3473694,0,5,0.5,0.5,-0.032152844238281256,-0.14,-0.011,-0.56,0.0008492984174177109,10,1,100,0.006478238394273391,-10,-1,-100,731.9231634053867,-0.0014993251950702112,0.00011886540190353913,0.9999988689468481,54.482739138497564,-3.451105506381045,-5521.866730960287,110.90065866808624,-89.80252075195312,6015.453125,True
1598621715.4212778,0,5,0.5,0.5,-0.03199814453125,-0.14,-0.011,-0.56,0.001007167972348122,10,1,100,0.01035052300927115,-10,-1,-100,738.600661483244,-0.0014369200794189158,0.00011588103031289377,0.9999989609155963,55.34207367819189,-3.4966386085708048,-5651.071290604378,112.34720096391382,-89.79901123046875,6010.7158203125,True
1598621715.5034034,0,5,0.5,0.5,-0.03273749694824219,-0.14,-0.011,-0.56,0.001051889888137048,10,1,100,0.01136996433000859,-10,-1,-100,745.4070042911917,-0.0013908560997681284,0.00011362689831103237,0.9999990263036448,56.18691471761656,-3.5410123639429885,-5780.093125775279,113.79438049368473,-89.79522705078125,6005.97900390625,True
1598621715.5862627,0,5,0.5,0.5,-0.03627248229980469,-0.14,-0.011,-0.56,0.0009240528928226459,10,1,100,0.010958832615640415,-10,-1,-100,756.9588149177143,-0.0013465852699127215,0.00011046674842395597,0.9999990872521876,57.567236330647,-3.6125549749733517,-5994.624615494157,116.20778106787299,-89.7872314453125,5998.0849609375,True
1598621715.6722622,0,5,0.5,0.5,-0.03631982116699219,-0.14,-0.011,-0.56,0.0010814176279999542,10,1,100,0.014281100729718988,-10,-1,-100,763.9583337892545,-0.0013377232751119953,0.00010907196078080555,0.9999990992994675,58.38147178119148,-3.654139588255415,-6123.008438808131,117.65669392087541,-89.78085327148438,5993.34765625,True
1598621715.7574887,0,5,0.5,0.5,-0.04154914245605469,-0.14,-0.011,-0.56,0.0011551244185455697,10,1,100,0.016682896871805408,-10,-1,-100,775.8964354797499,-0.0013525893376252513,0.00010851918053546869,0.9999990793624117,59.71974767911991,-3.72134241494034,-6336.291350856473,120.07302823091979,-89.76837158203125,5985.453125,True
1598621715.8445525,0,5,0.5,0.5,-0.042000088500976564,-0.14,-0.011,-0.56,0.001230583317788102,10,1,100,0.018994185515044868,-10,-1,-100,785.590740135056,-0.0013879929718451178,0.00010874144988803521,0.9999990308249339,60.777242630505285,-3.7733828501882365,-6506.167314379553,122.00744944337276,-89.75784301757812,5979.1376953125,True
1598621715.9303958,0,5,0.5,0.5,-0.04288674926757813,-0.14,-0.011,-0.56,0.0013194097748433565,10,1,100,0.021382760124185263,-10,-1,-100,795.413705964922,-0.0014425444020649812,0.00010978255130649166,0.9999989535061723,61.82737076707686,-3.8240897663280182,-6675.355128855969,123.94309816566945,-89.74826049804688,5972.822265625,True
1598621716.01839,0,5,0.5,0.5,-0.042447561645507816,-0.14,-0.011,-0.56,0.0014234546376759303,10,1,100,0.02356504340289277,-10,-1,-100,805.4266743841581,-0.0015124045424377444,0.00011169879932554186,0.999998850077278,62.87371227345451,-3.873635346134127,-6843.838520843637,125.87999478954406,-89.7413330078125,5966.505859375,True
1598621716.101585,0,5,0.5,0.5,-0.04204325866699219,-0.14,-0.011,-0.56,0.0015312746119646112,10,1,100,0.025615960962687524,-10,-1,-100,815.6327577151824,-0.0015947717545288388,0.00011443736930724553,0.9999987218027528,63.919704228925774,-3.9221895051206657,-7011.612736951712,127.81815981971616,-89.73648071289062,5960.1904296875,True
1598621716.1833804,0,5,0.5,0.5,-0.042010055541992185,-0.14,-0.011,-0.56,0.001623313110689036,10,1,100,0.027529703993158947,-10,-1,-100,825.9634072645567,-0.0016870609832114949,0.00011777219002185534,0.9999985699764525,64.94744053938899,-3.9686143510298417,-7172.424212522827,129.66962807172845,-89.73275756835938,5954.072265625,True
1598621716.264628,0,5,0.5,0.5,-0.042949832153320315,-0.14,-0.011,-0.56,0.0016943136453002796,10,1,100,0.02926444424961173,-10,-1,-100,836.4258221118944,-0.0017865599790833518,0.00012145029845149529,0.9999983967253478,65.90680029465496,-4.009833389917256,-7316.5252735245695,131.3471416954896,-89.72854614257812,5948.34716796875,True
1598621716.3475332,0,5,0.5,0.5,-0.04489868164062501,-0.14,-0.011,-0.56,0.0018062445629513147,10,1,100,0.030758960512696477,-10,-1,-100,846.9564382602694,-0.001890282268722479,0.0001258065242133241,0.9999982055012213,66.78414852159702,-4.045141588013411,-7441.625178032215,132.83761754535402,-89.72250366210938,5943.04296875,True
1598621716.4289346,0,5,0.5,0.5,-0.04740543518066406,-0.14,-0.011,-0.56,0.0018429072860000686,10,1,100,0.03205566169432083,-10,-1,-100,857.6731179371709,-0.0019959094280737667,0.00013008895454642779,0.9999979997092089,67.59645525001741,-4.075694183908989,-7550.228834923091,134.15604676321644,-89.71420288085938,5938.125,True
1598621716.5144877,0,5,0.5,0.5,-0.0498014404296875,-0.14,-0.011,-0.56,0.0019245520058619394,10,1,100,0.03312238510735257,-10,-1,-100,868.4545847513946,-0.0021010413092768976,0.00013470645938788226,0.9999977837373373,68.3560965713557,-4.102421791309243,-7644.586308006943,135.32067854933587,-89.70425415039062,5933.55419921875,True
1598621716.5965562,0,5,0.5,0.5,-0.051342608642578134,-0.14,-0.011,-0.56,0.0020133665834043907,10,1,100,0.03395595615102766,-10,-1,-100,879.3650446524844,-0.0022034997398275493,0.0001396882922226749,0.9999975625350681,69.07159385931371,-4.125931876186922,-7726.537724154709,136.3488397297368,-89.6942138671875,5929.2890625,True
1598621716.682365,0,5,0.5,0.5,-0.05165489501953125,-0.14,-0.011,-0.56,0.0020276920537124605,10,1,100,0.03459965030733867,-10,-1,-100,890.2788234259933,-0.002301721977747149,0.0001443191271555714,0.9999973406204273,69.74960814457206,-4.146743932047466,-7797.689129872163,137.25652213834755,-89.68585205078125,5925.294921875,True
1598621716.7667553,0,5,0.5,0.5,-0.050704421997070315,-0.14,-0.011,-0.56,0.0020376954609964866,10,1,100,0.03504945976192118,-10,-1,-100,901.3183547562221,-0.002394273435437624,0.00014858757381781614,0.9999971226840852,70.3957396861349,-4.165289955100968,-7859.463053756032,138.05800996830246,-89.68063354492188,5921.5380859375,True
1598621716.8519442,0,5,0.5,0.5,-0.04905273742675781,-0.14,-0.011,-0.56,0.0021065927319885405,10,1,100,0.035296990072090244,-10,-1,-100,912.4185725545976,-0.0024797961915819814,0.00015305904140841065,0.999996913587126,71.01416808962207,-4.181900102221442,-7913.022355061936,138.76520283671948,-89.67892456054688,5917.9931640625,True
1598621716.9322777,0,5,0.5,0.5,-0.04750212402343751,-0.14,-0.011,-0.56,0.002095192670465088,10,1,100,0.03541041398790014,-10,-1,-100,923.5259475287749,-0.0025576958312668106,0.00015698277480229893,0.9999967167688318,71.60833292721311,-4.19684313658789,-7959.399747052229,139.38910915585836,-89.67987060546875,5914.634765625,True
1598621717.0075603,0,5,0.5,0.5,-0.047068789672851566,-0.14,-0.011,-0.56,0.0020141776228677927,10,1,100,0.03354798996746171,-10,-1,-100,931.9317534281872,-0.002610707172542908,0.00015977462708631737,0.9999965793342136,72.04248137013884,-4.207252373986073,-7990.2415067631255,139.80641832160308,-89.68133544921875,5912.22900390625,True
1598621717.0893517,0,5,0.5,0.5,-0.04702708740234376,-0.14,-0.011,-0.56,0.0021742957845868873,10,1,100,0.03530000550641184,-10,-1,-100,943.1036687911255,-0.0026739870366122415,0.00016373011023554002,0.9999964114864508,72.60123118161572,-4.219806452549569,-8026.225534416494,140.3079535599737,-89.68264770507812,5909.14501953125,True
1598621717.1395235,0,5,0.5,0.5,-0.048410583496093756,-0.14,-0.011,-0.56,0.002111119508886383,10,1,100,0.03529126136384318,-10,-1,-100,954.397625952377,-0.002730627941690531,0.00016671323803593417,0.9999962579318687,73.13162376666561,-4.230597039092901,-8055.475272942816,140.7364131664702,-89.68179321289062,5906.22412109375,True
1598621717.2214108,0,5,0.5,0.5,-0.048980877685546875,-0.14,-0.011,-0.56,0.0019600022263468607,10,1,100,0.03244911547821311,-10,-1,-100,959.9834825458238,-0.0027555180330987314,0.0001680141910006399,0.9999961894385404,73.40402551477446,-4.2363785893016,-8070.18080837993,140.9381303278863,-89.68035888671875,5904.7919921875,True
1598621717.305303,0,5,0.5,0.5,-0.051205606079101566,-0.14,-0.011,-0.56,0.002153432913264711,10,1,100,0.03492855405180535,-10,-1,-100,971.2805948893074,-0.002799995186316093,0.0001709208588164854,0.9999960653987677,73.9100592105308,-4.245643117087001,-8092.586091319064,141.28172317114473,-89.67608642578125,5902.0615234375,True
1598621717.3882487,0,5,0.5,0.5,-0.05273195190429688,-0.14,-0.011,-0.56,0.0021226173766279713,10,1,100,0.03485635184567739,-10,-1,-100,982.6392147350125,-0.0028391371656606777,0.00017325022068016675,0.9999959546340754,74.41043529205157,-4.254529218620609,-8113.032315768124,141.6012630134641,-89.6705322265625,5899.3857421875,True
1598621717.4716883,0,5,0.5,0.5,-0.053492864990234375,-0.14,-0.011,-0.56,0.0020885341364891463,10,1,100,0.03446843639555304,-10,-1,-100,993.9401366570964,-0.0028706164269493213,0.00017502746389274457,0.9999958644548067,74.90962889250976,-4.263309153563404,-8131.847153716514,141.89092543008675,-89.6650390625,5896.7763671875,True
1598621717.5535157,0,5,0.5,0.5,-0.05304578857421875,-0.14,-0.011,-0.56,0.0020739266964870276,10,1,100,0.03414325806552135,-10,-1,-100,1005.3019160171971,-0.0028957605938030708,0.00017648242796167136,0.9999957917034131,75.39730653378321,-4.271401975198738,-8147.8711778140705,142.14781519002872,-89.66131591796875,5894.24169921875,True
1598621717.6374388,0,5,0.5,0.5,-0.05162294616699219,-0.14,-0.011,-0.56,0.0020387162476412273,10,1,100,0.03365586283063742,-10,-1,-100,1016.7247350997059,-0.0029137321641181115,0.00017745966862196675,0.9999957393273942,75.87436740150888,-4.278870090518661,-8161.406713319126,142.374929662864,-89.660400390625,5891.7744140625,True
1598621717.7215648,0,5,0.5,0.5,-0.049806164550781254,-0.14,-0.011,-0.56,0.002038641326274099,10,1,100,0.03327292670661036,-10,-1,-100,1028.0899429592537,-0.002926194230574688,0.0001783252057305218,0.99999570278449,76.34236597799968,-4.285804726726817,-8172.825914351093,142.5756112602835,-89.66229248046875,5889.3662109375,True
1598621717.8057845,0,5,0.5,0.5,-0.04832159423828125,-0.14,-0.011,-0.56,0.0020113838841321996,10,1,100,0.03278317754885626,-10,-1,-100,1039.516373151564,-0.002932736118283531,0.00017884486050889255,0.9999956835273722,76.80192448025461,-4.292265276498155,-8182.37888798434,142.7529321107418,-89.66595458984375,5887.0107421875,True
1598621717.8903334,0,5,0.5,0.5,-0.04782581787109375,-0.14,-0.011,-0.56,0.0019392504900152927,10,1,100,0.03245041362580611,-10,-1,-100,1050.9428069525165,-0.002935365408767714,0.00017864417923960083,0.999995675848738,77.25359863512202,-4.2982789502731915,-8190.284108210771,142.9096577297696,-89.66961669921875,5884.70166015625,True
1598621717.974582,0,5,0.5,0.5,-0.04867328186035156,-0.14,-0.011,-0.56,0.0019755500297667355,10,1,100,0.03214618065255445,-10,-1,-100,1059.5419873207575,-0.0029347523018399962,0.00017877817929343596,0.9999956776243033,77.58820848533713,-4.302550134167732,-8195.305303396894,143.01467900243088,-89.67135620117188,5882.9990234375,True
1598621718.0613098,0,5,0.5,0.5,-0.0499793182373047,-0.14,-0.011,-0.56,0.001886565114623635,10,1,100,0.03179558769142871,-10,-1,-100,1073.859894142137,-0.002930822155568065,0.00017808007562175108,0.9999956892751984,78.13531802840716,-4.30907850570218,-8201.899277154675,143.1708628952839,-89.6708984375,5880.203125,True
1598621718.1482944,0,5,0.5,0.5,-0.05197641906738281,-0.14,-0.011,-0.56,0.001843312407891547,10,1,100,0.031613872583045904,-10,-1,-100,1085.2862188338768,-0.002925437972406039,0.0001770430786911812,0.9999957052249864,78.56703587004186,-4.313966671352687,-8206.103941395459,143.28200683925098,-89.66769409179688,5877.9990234375,True
1598621718.234853,0,5,0.5,0.5,-0.053416925048828126,-0.14,-0.011,-0.56,0.0018885187129201774,10,1,100,0.031522490737434045,-10,-1,-100,1096.7768697119318,-0.0029195984774930983,0.00017650575496376458,0.9999957223860753,78.99283239782517,-4.318515838578859,-8209.23721259967,143.37904386120888,-89.6630859375,5875.8271484375,True
1598621718.3223317,0,5,0.5,0.5,-0.053835272216796876,-0.14,-0.011,-0.56,0.0018004217877271964,10,1,100,0.0313961670656495,-10,-1,-100,1108.2676482859533,-0.002913068302090718,0.00017521343813319183,0.9999957416575924,79.41107413896435,-4.322639297137474,-8211.225217622252,143.46410443220458,-89.6588134765625,5873.681640625,True
1598621718.4117773,0,5,0.5,0.5,-0.05298762817382813,-0.14,-0.011,-0.56,0.0017891238026327243,10,1,100,0.031393419622888684,-10,-1,-100,1119.6975157356355,-0.002907068209631509,0.00017393572662795736,0.9999957593414023,79.82358758690066,-4.326434708968066,-8212.354164699731,143.53941665859628,-89.6566162109375,5871.56005859375,True
1598621718.4994473,0,5,0.5,0.5,-0.051548706054687504,-0.14,-0.011,-0.56,0.0018253523039556884,10,1,100,0.031535437363739094,-10,-1,-100,1128.3612844881136,-0.002902894370843751,0.00017310583590916543,0.999995771610381,80.12990328892694,-4.329107476252122,-8212.731379893812,143.59003877083316,-89.65692138671875,5869.982421875,True
1598621718.5865738,0,5,0.5,0.5,-0.04888224487304688,-0.14,-0.011,-0.56,0.0017520481089860398,10,1,100,0.031402894611923235,-10,-1,-100,1142.6793261844432,-0.002897904890377713,0.00017168894605846033,0.9999957863261987,80.63310331207006,-4.3331560770304005,-8212.410437360406,143.66567178380384,-89.66098022460938,5867.373046875,True
1598621718.6746545,0,5,0.5,0.5,-0.04752504577636719,-0.14,-0.011,-0.56,0.0017903431633125347,10,1,100,0.03162546406401412,-10,-1,-100,1154.1735310921213,-0.00289541807528232,0.00017075503419685298,0.9999957936895973,81.03099397925635,-4.336121096137544,-8211.551991746059,143.71981122193802,-89.66616821289062,5865.30126953125,True
1598621718.7635689,0,5,0.5,0.5,-0.047161651611328126,-0.14,-0.011,-0.56,0.0017658401850121303,10,1,100,0.03180338033298642,-10,-1,-100,1165.7252283245325,-0.002894808680407167,0.00016969062345294447,0.9999957956350597,81.42479234727342,-4.338860790022305,-8210.121554302461,143.76737261645616,-89.67083740234375,5863.2451171875,True
1598621718.8525002,0,5,0.5,0.5,-0.048429229736328135,-0.14,-0.011,-0.56,0.0017839962996110629,10,1,100,0.03193698128891569,-10,-1,-100,1174.3313848967664,-0.002895506108963985,0.00016889617250555127,0.9999957937503818,81.71708116059689,-4.340741509185699,-8208.649733215065,143.79916521582814,-89.67276000976562,5861.712890625,True
1598621718.940425,0,5,0.5,0.5,-0.050081127929687504,-0.14,-0.011,-0.56,0.0017277702613619648,10,1,100,0.032318854753410425,-10,-1,-100,1188.7104655344738,-0.0028996473902318408,0.00016767178221182736,0.9999957819566968,82.1991887255331,-4.3435971001190525,-8205.590376422628,143.84685660040324,-89.67193603515625,5859.17138671875,True
1598621719.0293393,0,5,0.5,0.5,-0.05231021118164063,-0.14,-0.011,-0.56,0.0017789805468953776,10,1,100,0.032497278443006705,-10,-1,-100,1200.2046735646436,-0.0029050625656219815,0.00016703371026184567,0.9999957663466529,82.58175264232628,-4.345703032109712,-8202.769110817406,143.8812235461071,-89.6680908203125,5857.1474609375,True
1598621719.1143167,0,5,0.5,0.5,-0.05363851013183594,-0.14,-0.011,-0.56,0.0017764545938267363,10,1,100,0.03276141565798653,-10,-1,-100,1211.7600372941233,-0.002912405222846275,0.00016643978106890134,0.9999957450877563,82.96136726247886,-4.347640200165083,-8199.564990971294,143.91164562974248,-89.66311645507812,5855.13427734375,True
1598621719.199172,0,5,0.5,0.5,-0.0537367431640625,-0.14,-0.011,-0.56,0.0017696941349316581,10,1,100,0.033050087622575414,-10,-1,-100,1223.254001252586,-0.002921711195687029,0.00016584753760708293,0.999995718039974,83.33782506228638,-4.34939932378532,-8195.975134000868,143.93873635840012,-89.65899658203125,5853.12890625,True
1598621719.283305,0,5,0.5,0.5,-0.05234799194335937,-0.14,-0.011,-0.56,0.001777270123185104,10,1,100,0.03332829715553446,-10,-1,-100,1234.748210277292,-0.0029326924913931638,0.0001653865215354849,0.9999956859717193,83.71178201440834,-4.351025953847875,-8192.091544136849,143.96335720366218,-89.65768432617188,5851.130859375,True
1598621719.366428,0,5,0.5,0.5,-0.05013795471191407,-0.14,-0.011,-0.56,0.0018140075925101268,10,1,100,0.033609118567347634,-10,-1,-100,1246.3035766072571,-0.0029452051146136226,0.00016530916501434367,0.9999956492103919,84.0835405815537,-4.35253725481377,-8187.941322903168,143.98559012004037,-89.6597900390625,5849.13916015625,True
1598621719.4488652,0,5,0.5,0.5,-0.04783194274902344,-0.14,-0.011,-0.56,0.001772304476925992,10,1,100,0.03391665251614334,-10,-1,-100,1257.797908028122,-0.0029593375254905736,0.0001648668095542639,0.9999956075605257,84.45306893618901,-4.353934570115053,-8183.525142560495,144.00566398408242,-89.66476440429688,5847.1533203125,True
1598621719.5343714,0,5,0.5,0.5,-0.04640505065917969,-0.14,-0.011,-0.56,0.0018171738615224374,10,1,100,0.03416398651872238,-10,-1,-100,1269.3532748991856,-0.0029743778148247813,0.00016487877366552653,0.9999955629359587,84.82087549299759,-4.355239816542003,-8178.899292883313,144.02388952675363,-89.6707763671875,5845.1728515625,True
1598621719.6214633,0,5,0.5,0.5,-0.04645552368164063,-0.14,-0.011,-0.56,0.0018209108172322055,10,1,100,0.03442882811752968,-10,-1,-100,1280.847363282228,-0.0029903866744454524,0.00016492896450997347,0.9999955151829301,85.18713573781838,-4.356471540308444,-8174.087959645193,144.04052724128232,-89.67550659179688,5843.19677734375,True
1598621719.7094595,0,5,0.5,0.5,-0.04792438659667969,-0.14,-0.011,-0.56,0.0018002646482592087,10,1,100,0.034695710907932574,-10,-1,-100,1292.3416958854068,-0.0030072795012915086,0.00016479122888602796,0.9999954645466408,85.55225331443404,-4.357653298688862,-8169.134631302441,144.05578400563985,-89.67718505859375,5841.22509765625,True
1598621719.7943444,0,5,0.5,0.5,-0.05024801025390626,-0.14,-0.011,-0.56,0.0018370722969794154,10,1,100,0.03495171104724107,-10,-1,-100,1303.900481739547,-0.0030248622784249755,0.00016500436143773348,0.9999954114803513,85.91635828417965,-4.358788527542694,-8164.05683467939,144.0698310280977,-89.67520141601562,5839.2578125,True
1598621719.8943772,0,5,0.5,0.5,-0.05246609802246094,-0.14,-0.011,-0.56,0.0018506320266142846,10,1,100,0.03516086798020298,-10,-1,-100,1315.3946929046651,-0.0030426342162203327,0.00016532381350030468,0.9999953575117553,86.2795780838674,-4.359894198293967,-8158.871070730874,144.08281629851152,-89.67044067382812,5837.2939453125,True
1598621719.9804697,0,5,0.5,0.5,-0.05364271240234375,-0.14,-0.011,-0.56,0.0018018102757655062,10,1,100,0.03542212889681546,-10,-1,-100,1326.9500610659597,-0.003061040557412045,0.00016517194481925463,0.9999953013634286,86.64197557615208,-4.360969839049325,-8153.587376823147,144.09486274368163,-89.66494750976562,5835.3330078125,True
