Timestamp,Input Throttle,horizon,dT,dt,Input Roll,Roll P,Roll I,Roll D,Input Pitch,Pitch P,Pitch I,Pitch D,Input Yaw,Yaw P,Yaw I,Yaw D,Altitude,Direction X,Direction Y,Direction Z,Drag X,Drag Y,Drag Z,Vertical Velocity,Roll,Mass,Has Fuel
1598626200.0208235,0,5,0.5,0.5,-0.009886474609375,-0.14,-0.011,-0.56,0.004222365391112157,10,1,100,0.12506703495213667,-10,-1,-100,478.54820415121503,-0.01173028062078692,0.00041334735251417714,0.999931112457515,5.399028416620249,-0.4421105101324728,112.66839707868897,-14.240060438374597,-89.92181396484375,6440.1796875,True
1598626200.0633492,0,5,0.5,0.5,-0.008938543701171876,-0.14,-0.011,-0.56,0.004326712024455023,10,1,100,0.12495384319495281,-10,-1,-100,477.3748967011925,-0.011789171611014237,0.00041472829582383017,0.9999304192958461,5.648339329540457,-0.4631605413864354,124.47907668830481,-15.017887443308283,-89.9248046875,6440.1796875,True
1598626200.110397,0,5,0.5,0.5,-0.008602557373046875,-0.14,-0.011,-0.56,0.004042875031873653,10,1,100,0.11760464080686278,-10,-1,-100,476.7589337528916,-0.011765180515319149,0.00041302633681293517,0.9999307025672766,6.093594960542442,-0.49686064194536844,130.6269320387525,-14.761079793597357,-89.92779541015625,6438.60107421875,True
1598626200.1606545,0,5,0.5,0.5,-0.0067038330078125,-0.14,-0.011,-0.56,0.004068812514924608,10,1,100,0.11764064172922163,-10,-1,-100,476.2176626798464,-0.011733002090785677,0.00041133941816093664,0.9999310813560206,5.936552538084148,-0.47841056171635044,116.9661837165488,-13.858222171668105,-89.93301391601562,6435.443359375,True
1598626200.2014678,0,5,0.5,0.5,-0.004423391723632813,-0.14,-0.011,-0.56,0.004041500383145601,10,1,100,0.114978392134534,-10,-1,-100,475.7281444106484,-0.011668880342993737,0.00040918361871734616,0.9999318325767548,5.774505858211251,-0.46008530382412394,104.17032695161048,-12.95481824881835,-89.9405517578125,6432.28515625,True
1598626200.2473724,0,5,0.5,0.5,-0.0019167633056640628,-0.14,-0.011,-0.56,0.003876128344931093,10,1,100,0.11113952859147153,-10,-1,-100,475.183642500313,-0.011565081012479593,0.0004053484337678435,0.9999330400550939,5.59443797750477,-0.4408597351997107,91.99739949774825,-12.05085973454377,-89.95025634765625,6429.126953125,True
1598626200.2904599,0,5,0.5,0.5,0.0004980010986328125,-0.14,-0.011,-0.56,0.0037484978881279366,10,1,100,0.1071923577193751,-10,-1,-100,474.764259495656,-0.011424320903163605,0.0004003331265393871,0.9999346601779985,5.402618581797497,-0.42124825525481346,80.5718810879179,-11.146352891380616,-89.9615478515625,6425.9697265625,True
1598626200.3335197,0,5,0.5,0.5,0.0026987457275390635,-0.14,-0.011,-0.56,0.003609767673151211,10,1,100,0.10290895154506255,-10,-1,-100,474.35946294409223,-0.01124703136501608,0.00039414863335323887,0.999936672460976,5.198091913241073,-0.40118490323334133,69.87952759737217,-10.241293783141423,-89.97378540039062,6422.8115234375,True
1598626200.3769412,0,5,0.5,0.5,0.00457542724609375,-0.14,-0.011,-0.56,0.003434546270175797,10,1,100,0.09840967693682251,-10,-1,-100,473.95475785282906,-0.011034731987202496,0.00038657512803573377,0.9999390407668063,4.981233181559525,-0.3807019630190512,59.9256059153402,-9.335672794814434,-89.98629760742188,6419.65380859375,True
1598626200.4273887,0,5,0.5,0.5,0.006141165161132813,-0.14,-0.011,-0.56,0.003287710208022604,10,1,100,0.09359168367018808,-10,-1,-100,473.6197538926499,-0.010787901039505105,0.00037800381797475853,0.9999417374548757,4.75272587905597,-0.35985163439560974,50.71532773512206,-8.429479632241838,-89.99856567382812,6416.49609375,True
1598626200.470375,0,5,0.5,0.5,0.007291015625000001,-0.14,-0.011,-0.56,0.003150919732154071,10,1,100,0.08863564573767889,-10,-1,-100,473.28484086855315,-0.010508647195812388,0.00036862452830418096,0.9999447146968032,4.513704736508437,-0.33871505105580796,42.25397293655487,-7.522717671621795,-90.01002502441406,6413.33837890625,True
1598626200.5102675,0,5,0.5,0.5,0.008255357360839844,-0.14,-0.011,-0.56,0.0028277355108041443,10,1,100,0.08212199618942134,-10,-1,-100,473.01965929439757,-0.010196675645130281,0.0003572005200679384,0.999947948752122,4.266179071678165,-0.31743062151734913,34.54819830388206,-6.615379582095769,-90.02043151855469,6410.1806640625,True
1598626200.5547876,0,5,0.5,0.5,0.008786724853515625,-0.14,-0.011,-0.56,0.002633608043279971,10,1,100,0.07553754588727582,-10,-1,-100,472.7690954331774,-0.00985465422900512,0.0003451025608536398,0.9999513821652777,4.013785226841312,-0.29625305842188177,27.606758161277924,-5.707444134353208,-90.02936553955078,6407.0224609375,True
1598626200.6933577,0,5,0.5,0.5,0.00890486068725586,-0.14,-0.011,-0.56,0.002436596182817856,10,1,100,0.06894664438256179,-10,-1,-100,472.5739510949934,-0.009485545224563312,0.00033237514808731215,0.9999549559647943,3.764182085418737,-0.2757188985381422,21.44590734310484,-4.798911054672169,-90.0365219116211,6403.86474609375,True
1598626200.73073,0,5,0.5,0.5,0.008583996582031251,-0.14,-0.011,-0.56,0.002141623968035217,10,1,100,0.06210975978822941,-10,-1,-100,472.40901842236053,-0.009089881230455213,0.00031819499295632995,0.9999586355500725,3.5362552641129654,-0.25716669277181026,16.10050540119962,-3.889777162178487,-90.0416259765625,6400.70751953125,True
1598626200.7702975,0,5,0.5,0.5,0.007903704833984376,-0.14,-0.011,-0.56,0.0019210766212893063,10,1,100,0.055264361104364744,-10,-1,-100,472.2808291579131,-0.008670300337878661,0.00030338168389025695,0.9999623662176517,3.388869026707061,-0.2447859267652313,11.66328652466973,-2.980049809098578,-90.0445785522461,6397.548828125,True
1598626200.8384392,0,5,0.5,0.5,0.006930799102783204,-0.14,-0.011,-0.56,0.0016762829200197508,10,1,100,0.04839771132032432,-10,-1,-100,472.18877256603446,-0.008229070692658338,0.0002877823390458106,0.9999660992137985,3.5750948047479025,-0.25660358471457023,8.438090721676739,-2.0697078633536936,-90.04540252685547,6394.3916015625,True
1598626200.8783915,0,5,0.5,0.5,0.005712461853027345,-0.14,-0.011,-0.56,0.0014385228559643803,10,1,100,0.04151664253307036,-10,-1,-100,472.13330647780094,-0.007768302435492559,0.00027154198022989566,0.9999697894147721,5.87093262052345,-0.418894638979078,7.666129343562773,-1.1587334799742766,-90.044189453125,6391.23388671875,True
1598626200.9174473,0,5,0.5,0.5,0.004338337707519532,-0.14,-0.011,-0.56,0.001168395839893364,10,1,100,0.0346162968171807,-10,-1,-100,472.11427827808075,-0.007289854266951511,0.0002544337781176213,0.9999733962902309,16.433044219550354,-1.1660406359685056,4.5260032314855065,-0.2471402933827382,-90.04114532470703,6388.076171875,True
1598626200.9603925,0,5,0.5,0.5,0.0028723335266113282,-0.14,-0.011,-0.56,0.0009344624276499834,10,1,100,0.02778932567627186,-10,-1,-100,472.1318110951688,-0.006796242446742525,0.00023687432822235764,0.9999768772222475,1.1186830359603097,-0.07896898164936443,-0.8206394194018855,0.6651085290897546,-90.03652954101562,6384.91796875,True
1598626200.999531,0,5,0.5,0.5,0.003554962921142578,-0.14,-0.011,-0.56,0.0017170716733354353,10,1,100,0.049132054864741335,-10,-1,-100,472.1541120528709,-0.006545158019713862,0.00022815412099630604,0.9999785541961359,0.5495347663770028,-0.03869899199081864,-0.6764365157043356,1.1214912116976397,-90.03375244140625,6383.3388671875,True
1598626201.03951,0,5,0.5,0.5,-0.0017798072814941405,-0.14,-0.011,-0.56,-0.0004461019030417325,10,1,100,-0.011074876533130329,-10,-1,-100,472.27619108196814,-0.005773166881685425,0.00020068914592129205,0.9999833149948169,1.7077190353182523,-0.11947013223922054,-4.608062028548564,2.4915805667232265,-90.02387237548828,6378.6025390625,True
1598626201.0775936,0,5,0.5,0.5,-0.0015623992919921881,-0.14,-0.011,-0.56,0.00020721865529355846,10,1,100,0.006631668476495649,-10,-1,-100,472.40328279393725,-0.005236346718804759,0.00018180254763264255,0.9999862737162316,2.316530875098425,-0.16143308002418558,-8.476974694956851,3.4057487228330836,-90.01627349853516,6375.4443359375,True
1598626201.1135209,0,5,0.5,0.5,-7.1826171875e-05,-0.14,-0.011,-0.56,0.0010505980280769512,10,1,100,0.03136795854266681,-10,-1,-100,472.4804245564155,-0.0049774022145240735,0.00017244845258937476,0.9999875977874557,2.5806781413415716,-0.17951802974024417,-10.672575316017246,3.8630776172611507,-90.01234436035156,6373.86572265625,True
1598626201.1524227,0,5,0.5,0.5,0.0021018959045410158,-0.14,-0.011,-0.56,0.0019700148628539363,10,1,100,0.05681159466973143,-10,-1,-100,472.4804245564155,-0.0049774022145240735,0.00017244845258937476,0.9999875977874557,2.5806781413415716,-0.17951802974024417,-10.672575316017246,3.8630776172611507,-90.01234436035156,6373.86572265625,True
1598626201.1954997,0,5,0.5,0.5,-0.0033189552307128912,-0.14,-0.011,-0.56,-9.430188710890758e-05,10,1,100,-0.0021565341284379355,-10,-1,-100,472.66235609794967,-0.004445066933646108,0.00015381443353550069,0.99999010881162,3.071300082488907,-0.21294275149395556,-15.603879651864506,4.777809219670751,-90.00464630126953,6370.708984375,True
1598626201.237375,0,5,0.5,0.5,-0.009738460540771486,-0.14,-0.011,-0.56,-0.0025790462628517163,10,1,100,-0.0717690670232769,-10,-1,-100,473.13907864456996,-0.0033321256823532685,0.00011442180120736668,0.999994441907598,3.990296462872851,-0.27514748501659725,-27.735615727976803,6.609907060392338,-89.9893798828125,6364.39306640625,True
1598626201.2813132,0,5,0.5,0.5,-0.006548742675781251,-0.14,-0.011,-0.56,-0.0007709304748838913,10,1,100,-0.021282782785596775,-10,-1,-100,473.44729546422604,-0.0027837788969844205,9.52053340158964e-05,0.9999961207479742,4.438122903298236,-0.3053597138097722,-34.97279475532473,7.5268764883343104,-89.9818115234375,6361.2353515625,True
1598626201.3239408,0,5,0.5,0.5,-0.0066515380859375,-0.14,-0.011,-0.56,-0.0009332849648028768,10,1,100,-0.02528138976586948,-10,-1,-100,473.7556346829515,-0.0022534622318634507,7.642017452094536e-05,0.9999974580307325,4.881878518626031,-0.33528190441031225,-43.00194419250207,8.444455442302297,-89.9757080078125,6358.07763671875,True
1598626201.3655145,0,5,0.5,0.5,-0.004950447845458985,-0.14,-0.011,-0.56,-0.0001438836523658131,10,1,100,-0.003071624407229981,-10,-1,-100,473.96522473113146,-0.001977841668682099,6.668096291459652e-05,0.9999980418460742,5.102423664142789,-0.35015690087812357,-47.314447647980394,8.903472076715794,-89.97335815429688,6356.4990234375,True
1598626201.4074032,0,5,0.5,0.5,-0.0069083641052246104,-0.14,-0.011,-0.56,-0.0022854132140886045,10,1,100,-0.06373466251740983,-10,-1,-100,474.5530098875752,-0.0011801757200411082,3.851340486162471e-05,0.9999993028507507,5.75939517498002,-0.3945217335732994,-61.45257504976577,10.281426804728056,-89.96878051757812,6351.76171875,True
1598626201.4523067,0,5,0.5,0.5,-0.0053135734558105475,-0.14,-0.011,-0.56,-0.0015229874859795387,10,1,100,-0.04240116988143264,-10,-1,-100,475.0009697729256,-0.0006538429564215209,2.0010077538218826e-05,0.9999997860444697,6.193188455446446,-0.4238948651246695,-71.88233731552417,11.2008129025978,-89.96749877929688,6348.60400390625,True
1598626201.494601,0,5,0.5,0.5,-0.004572361755371094,-0.14,-0.011,-0.56,-0.0015749707482696348,10,1,100,-0.04440427746664703,-10,-1,-100,475.4491127941292,-0.0001618024877429143,2.8805494673790343e-06,0.9999999869058286,6.623074496119921,-0.4531000937893547,-83.11828435067895,12.12079430254726,-89.96762084960938,6345.4462890625,True
1598626201.5364509,0,5,0.5,0.5,-0.0036261238098144535,-0.14,-0.011,-0.56,-0.0018104756938646734,10,1,100,-0.04998746195481195,-10,-1,-100,475.9526459859917,0.00033165002982908024,-1.4670046467734525e-05,0.9999999448965222,7.048415097580776,-0.48211718775666784,-95.1608253311725,13.04136750951423,-89.96914672851562,6342.28857421875,True
1598626201.5773447,0,5,0.5,0.5,-0.0026696128845214847,-0.14,-0.011,-0.56,-0.0019313775777459181,10,1,100,-0.053235532116476476,-10,-1,-100,476.5403163495939,0.000804944727051159,-3.1554133990342614e-05,0.9999996755341088,7.468663927180366,-0.5109281065185515,-108.01088905380536,13.962528694647725,-89.9718017578125,6339.13037109375,True
1598626201.6226702,0,5,0.5,0.5,-0.0017443611145019529,-0.14,-0.011,-0.56,-0.002008382815673669,10,1,100,-0.05648175795418017,-10,-1,-100,477.113674560911,0.001259467098558014,-4.7417895186075234e-05,0.9999992057467699,7.883288417652386,-0.539517143588931,-121.66982641361969,14.884274125516598,-89.97531127929688,6335.97265625,True
1598626201.664922,0,5,0.5,0.5,-0.000815325927734375,-0.14,-0.011,-0.56,-0.0021273567851043357,10,1,100,-0.05959996105825745,-10,-1,-100,477.7158728259383,0.0016958306153902173,-6.27381393327277e-05,0.9999985601101882,8.29167703472998,-0.5678630809418949,-136.1373403753533,15.806600985492743,-89.9794921875,6332.81494140625,True
1598626201.706282,0,5,0.5,0.5,3.683471679687524e-05,-0.14,-0.011,-0.56,-0.0022380397277369343,10,1,100,-0.06228449148968762,-10,-1,-100,478.35896424017847,0.002112358674343637,-7.751078808948983e-05,0.9999977659639587,8.69329117730141,-0.5959445661654452,-151.41320483678538,16.729504776945696,-89.98406982421875,6329.65673828125,True
1598626201.7481706,0,5,0.5,0.5,0.0007656372070312502,-0.14,-0.011,-0.56,-0.0023317827263313233,10,1,100,-0.06459289976551957,-10,-1,-100,479.08643697516527,0.0025075550417440104,-9.163566319912679e-05,0.9999968518803536,9.08764409879091,-0.623741367149603,-167.49710319896136,17.65298299317704,-89.98876953125,6326.4990234375,True
1598626201.7926521,0,5,0.5,0.5,0.001373876953125,-0.14,-0.011,-0.56,-0.002360777753545617,10,1,100,-0.06660431379846993,-10,-1,-100,479.81406293960754,0.0028807818512497103,-0.0001045872718755448,0.9999958450700823,9.474265936427386,-0.6512352645730395,-184.38771074610216,18.577031404747732,-89.99337768554688,6323.34130859375,True
1598626201.83462,0,5,0.5,0.5,0.0018274169921875002,-0.14,-0.011,-0.56,-0.0024586455937010113,10,1,100,-0.06827114636881079,-10,-1,-100,480.59701725177,0.0032308150436944163,-0.00011709547082389191,0.9999947740477468,9.8527794259396,-0.6784095912555027,-202.08371551069794,19.50160492969591,-89.9976806640625,6320.18359375,True
1598626201.8755095,0,5,0.5,0.5,0.0020877838134765628,-0.14,-0.011,-0.56,-0.0024882573854295396,10,1,100,-0.06962293274498088,-10,-1,-100,481.3944064871175,0.003557306012278663,-0.00012859429626929815,0.9999936644986517,10.222740075235842,-0.7052457281026305,-220.58152605986047,20.42673896790958,-90.00144958496094,6317.0263671875,True
1598626201.9166143,0,5,0.5,0.5,0.0011574172973632813,-0.14,-0.011,-0.56,-0.001936693593630252,10,1,100,-0.05433586374500827,-10,-1,-100,481.8280283907661,0.003711314311929409,-0.0001338984627725762,0.9999931040848629,10.404481078655904,-0.7185338659698616,-230.13190360985072,20.88953570039667,-90.00308227539062,6315.447265625,True
1598626201.9595022,0,5,0.5,0.5,0.0029150222778320314,-0.14,-0.011,-0.56,-0.003063780347500519,10,1,100,-0.08598083409373061,-10,-1,-100,483.12889410799835,0.00413548239041877,-0.00014884233098143144,0.9999914377790238,10.936310000316215,-0.7578650833258526,-259.98231502418514,22.278759743639963,-90.00684356689453,6310.71044921875,True
1598626202.000471,0,5,0.5,0.5,0.0008501655578613283,-0.14,-0.011,-0.56,-0.001582810755066365,10,1,100,-0.0439444094808535,-10,-1,-100,483.12889410799835,0.00413548239041877,-0.00014884233098143144,0.9999914377790238,10.936310000316215,-0.7578650833258526,-259.98231502418514,22.278759743639963,-90.00684356689453,6310.71044921875,True
1598626202.0435667,0,5,0.5,0.5,0.0024588409423828127,-0.14,-0.011,-0.56,-0.003435413346152461,10,1,100,-0.09683558838670495,-10,-1,-100,484.98862480546813,0.004613283528050721,-0.0001655775470849495,0.9999893450428188,11.613576902349807,-0.8090346261323166,-302.5714569466105,24.133010205553163,-90.00908660888672,6304.39453125,True
1598626202.084625,0,5,0.5,0.5,0.0011277381896972658,-0.14,-0.011,-0.56,-0.002576729768097901,10,1,100,-0.072947068991745,-10,-1,-100,485.9955774989212,0.004827430916462412,-0.0001728777476950164,0.9999883329439555,11.938376613915775,-0.8340578986047776,-325.05379004238597,25.060957574552173,-90.00892639160156,6301.2373046875,True
1598626202.1275103,0,5,0.5,0.5,0.0005235191345214844,-0.14,-0.011,-0.56,-0.002505779201419043,10,1,100,-0.06994765544878405,-10,-1,-100,487.0025602245005,0.004991996055263329,-0.00017876916163584916,0.9999875239306595,12.25401451758284,-0.8587056856338935,-348.3248158602748,25.98943543424124,-90.00788879394531,6298.0791015625,True
1598626202.1705892,0,5,0.5,0.5,-0.00020970993041992186,-0.14,-0.011,-0.56,-0.0024748584520956365,10,1,100,-0.07043240083615271,-10,-1,-100,488.0793362974655,0.00514338965098486,-0.00018375184170316947,0.999986755801375,12.560375570388187,-0.8829667687364867,-372.37373406866266,26.918445666363013,-90.00597381591797,6294.921875,True
1598626202.2146761,0,5,0.5,0.5,-0.0009608963012695313,-0.14,-0.011,-0.56,-0.0024752362726861306,10,1,100,-0.06892293133350297,-10,-1,-100,489.17063816427253,0.005264901529244671,-0.00018820124360746147,0.9999861225997986,12.857789370320527,-0.9068465998807699,-397.1983801645107,27.848007973390047,-90.00334167480469,6291.76318359375,True
1598626202.256771,0,5,0.5,0.5,-0.0017350006103515627,-0.14,-0.011,-0.56,-0.0023129890134286927,10,1,100,-0.06728539551730642,-10,-1,-100,490.3030472584069,0.005358312802353627,-0.00019069516664381212,0.9999856259563261,13.146603956231075,-0.930361060628023,-422.796772409539,28.778113056577602,-90.00011444091797,6288.60546875,True
1598626202.2996182,0,5,0.5,0.5,-0.002467186737060547,-0.14,-0.011,-0.56,-0.002346821118135672,10,1,100,-0.0655971332095251,-10,-1,-100,491.51965319830924,0.0054259502135104295,-0.0001932030251779944,0.9999852607598133,13.427114135883008,-0.9535164239646933,-449.1638663674367,29.708750210797156,-89.9964828491211,6285.447265625,True
1598626202.3416445,0,5,0.5,0.5,-0.0031679931640625006,-0.14,-0.011,-0.56,-0.002217353079619918,10,1,100,-0.06358629445472645,-10,-1,-100,492.7361980964197,0.005467459649335506,-0.0001942471791962817,0.9999850344645246,13.699719239065999,-0.9763288681483099,-476.29524016332994,30.63991595520456,-89.99258422851562,6282.2900390625,True
1598626202.3843482,0,5,0.5,0.5,-0.0024062255859375005,-0.14,-0.011,-0.56,-0.002137644693831443,10,1,100,-0.06089564795044257,-10,-1,-100,493.37941353872884,0.005479138581558081,-0.00019441692596353522,0.9999849705082887,13.833192530246631,-0.9876109170513723,-490.1459998845091,31.105696198193186,-89.99057006835938,6280.7109375,True
1598626202.4258752,0,5,0.5,0.5,-0.005547295379638672,-0.14,-0.011,-0.56,-0.002043536470227635,10,1,100,-0.059505200984633175,-10,-1,-100,495.2391416047467,0.0054758938600793,-0.00019367428045102006,0.9999849884256794,14.223018749991772,-1.020981483049398,-532.8312083526135,32.50382189140293,-89.9844970703125,6275.974609375,True
1598626202.4683924,0,5,0.5,0.5,-0.0049908218383789065,-0.14,-0.011,-0.56,-0.0019915721500264718,10,1,100,-0.0564219849082592,-10,-1,-100,496.59542495396454,0.005443696320340954,-0.00019248598893829608,0.9999851644497113,14.474765578732097,-1.0428488393352409,-562.2266431576472,33.436553793704086,-89.98046875,6272.81640625,True
1598626202.5112832,0,5,0.5,0.5,-0.0054153678894042975,-0.14,-0.011,-0.56,-0.0018258165435134795,10,1,100,-0.053584996905551366,-10,-1,-100,497.95179995463695,0.0053878801089248494,-0.00018987439255674403,0.9999854672422228,14.72072149880556,-1.064440325401109,-592.3686075718109,34.36978166182962,-89.9766845703125,6269.65869140625,True
1598626202.5519576,0,5,0.5,0.5,-0.005638822174072266,-0.14,-0.011,-0.56,-0.0017280347133530152,10,1,100,-0.05062550784526145,-10,-1,-100,499.3779682163149,0.005309724153278062,-0.00018659583680400002,0.9999858859061012,14.961441955201295,-1.0857728912213995,-623.2493224108995,35.30352591580913,-89.973388671875,6266.5009765625,True
1598626202.5947137,0,5,0.5,0.5,-0.005817763519287111,-0.14,-0.011,-0.56,-0.001642757676504318,10,1,100,-0.047459327055746965,-10,-1,-100,500.8041359402705,0.005209600979059929,-0.00018283297062545535,0.9999864132225715,15.197700026465398,-1.1068754773472405,-654.8687859142323,36.237803617207796,-89.97055053710938,6263.3427734375,True
1598626202.6364393,0,5,0.5,0.5,-0.005143228149414063,-0.14,-0.011,-0.56,-0.0017818577377240212,10,1,100,-0.05111529573543697,-10,-1,-100,501.5172348212218,0.005151755798378739,-0.00018067756453884633,0.9999867132956375,15.31436091753599,-1.11734828804993,-670.9531752385379,36.705133302961144,-89.96929931640625,6261.7646484375,True
1598626202.6772063,0,5,0.5,0.5,-0.0065307723999023445,-0.14,-0.011,-0.56,-0.0011074661618107168,10,1,100,-0.03445385737230131,-10,-1,-100,503.7962712753797,0.00494780450875903,-0.00017259411166005228,0.9999877446458111,15.659652151452674,-1.1484929996702495,-720.3013624170943,38.10782936762345,-89.96636962890625,6257.02734375,True
1598626202.7184057,0,5,0.5,0.5,-0.005931295013427734,-0.14,-0.011,-0.56,-0.001191858635512498,10,1,100,-0.036906258910685184,-10,-1,-100,505.36220876313746,0.004785061994266052,-0.0001660291779447864,0.9999885377423199,15.886823179329152,-1.169056981190931,-754.1047479789274,39.04358880233843,-89.96493530273438,6253.8701171875,True
1598626202.7625403,0,5,0.5,0.5,-0.005846368408203125,-0.14,-0.011,-0.56,-0.0011099555610555722,10,1,100,-0.03382476499337182,-10,-1,-100,506.942428318318,0.004609683298405263,-0.00015934118647878463,0.9999893626585609,16.112569419790677,-1.1894952171318458,-788.6304678481858,39.97988352437327,-89.96395874023438,6250.7119140625,True
1598626202.8044763,0,5,0.5,0.5,-0.0056727783203125,-0.14,-0.011,-0.56,-0.0009354790593014219,10,1,100,-0.02977711004152865,-10,-1,-100,508.57828079431783,0.00441423105383409,-0.0001517067769416703,0.9999902457270556,16.33780334746056,-1.2098510418445987,-823.8787389651462,40.91663932431824,-89.96347045898438,6247.55419921875,True
1598626202.8463163,0,5,0.5,0.5,-0.005514599609375,-0.14,-0.011,-0.56,-0.0008388833907958796,10,1,100,-0.02608555701401554,-10,-1,-100,510.2140723185148,0.0042039557199081085,-0.00014392708960244495,0.9999911529815141,16.563220013069746,-1.2301380902587147,-859.8425976127414,41.85388945532086,-89.96334838867188,6244.396484375,True
1598626202.8903391,0,5,0.5,0.5,-0.0053840545654296875,-0.14,-0.011,-0.56,-0.0006638948169203107,10,1,100,-0.02237767147661427,-10,-1,-100,511.9195660460973,0.003980244582490087,-0.00013530906606868816,0.9999920696408148,16.789741235883884,-1.2504015168860025,-896.5258540168928,42.791667282548495,-89.96347045898438,6241.23828125,True
1598626202.93141,0,5,0.5,0.5,-0.005214764404296875,-0.14,-0.011,-0.56,-0.0005187461230421156,10,1,100,-0.018498428341590472,-10,-1,-100,513.6951892927755,0.0037429353851897162,-0.00012620694465989804,0.9999929872286651,17.018124811849738,-1.270668735333059,-933.9222703984852,43.7299341284109,-89.96383666992188,6238.0810546875,True
1598626202.9755232,0,5,0.5,0.5,-0.005134902954101563,-0.14,-0.011,-0.56,-0.0003652024282820499,10,1,100,-0.01468230869071216,-10,-1,-100,515.470689753769,0.003494003158748426,-0.00011659431656126719,0.9999938891551748,17.24924610800797,-1.2909704103343824,-972.0321484499594,44.6686837615762,-89.96426391601562,6234.9228515625,True
1598626203.0178974,0,5,0.5,0.5,-0.005234661865234375,-0.14,-0.011,-0.56,-0.0007680425831128441,10,1,100,-0.0252861382517073,-10,-1,-100,516.3380240130937,0.0033657502407149634,-0.00011158138471573976,0.9999943296213791,17.36610754298718,-1.3011418987891008,-991.3553830981572,45.13823852104756,-89.9644775390625,6233.34423828125,True
1598626203.0634036,0,5,0.5,0.5,-0.0049550872802734385,-0.14,-0.011,-0.56,0.00045640489371300496,10,1,100,0.006067966939958723,-10,-1,-100,519.1059202154865,0.0029657955868860743,-9.595760741767049e-05,0.9999955974146459,17.72302569098657,-1.331801655667676,-1050.3927111695168,46.547630937717834,-89.96505737304688,6228.607421875,True
1598626203.1043365,0,5,0.5,0.5,-0.00511356201171875,-0.14,-0.011,-0.56,0.00010165866766803514,10,1,100,-0.0025695081009714273,-10,-1,-100,521.0212524920935,0.0026827101839696243,-8.505615734449012e-05,0.999996397909272,17.967215000135347,-1.352391270500913,-1090.6384203665093,47.48782303583567,-89.96530151367188,6225.44921875,True
1598626203.1455324,0,5,0.5,0.5,-0.005230093383789063,-0.14,-0.011,-0.56,0.0002001323324653157,10,1,100,3.65720946596676e-05,-10,-1,-100,522.9364629068878,0.002403727356198741,-7.433011301100138e-05,0.9999971082807347,18.217369344880268,-1.3731388250058474,-1131.5920712809839,48.42845541317588,-89.96533203125,6222.2919921875,True
1598626203.186423,0,5,0.5,0.5,-0.005439007568359375,-0.14,-0.011,-0.56,0.0003530524236309908,10,1,100,0.004489642378418767,-10,-1,-100,524.9214975634823,0.002111788996225644,-6.327234375626347e-05,0.9999977681694324,18.474379077815414,-1.394088021364761,-1173.264543441751,49.369558812523636,-89.96505737304688,6219.1337890625,True
1598626203.231331,0,5,0.5,0.5,-0.005454888916015625,-0.14,-0.011,-0.56,-0.00013025695966611451,10,1,100,-0.008352086163686736,-10,-1,-100,525.9142594092991,0.001965404286907587,-5.770088322985953e-05,0.9999980669264302,18.605675624578662,-1.4046468128407388,-1194.3726154852575,49.84030274294517,-89.96481323242188,6217.5546875,True
1598626203.271714,0,5,0.5,0.5,-0.006192547607421876,-0.14,-0.011,-0.56,0.0012589493708963185,10,1,100,0.02609488342911702,-10,-1,-100,528.920620649471,0.001521399215562889,-4.0092230558662746e-05,0.9999988418678492,19.011710009579215,-1.436703335225048,-1258.780171018856,51.253232202167936,-89.96356201171875,6212.818359375,True
1598626203.3126855,0,5,0.5,0.5,-0.005897512817382813,-0.14,-0.011,-0.56,0.00016886961283227103,10,1,100,-0.001289908145760979,-10,-1,-100,529.9830845813267,0.0013691495800250955,-3.408857580274227e-05,0.9999990621332584,19.151363914932073,-1.4475258648213525,-1280.610891502992,51.724440263769786,-89.96298217773438,6211.2392578125,True
1598626203.356688,0,5,0.5,0.5,-0.007196878051757813,-0.14,-0.011,-0.56,0.0014794801805147347,10,1,100,0.032813002179193904,-10,-1,-100,533.1704760057619,0.000923088085675207,-1.6808084945943023e-05,0.9999995738128464,19.584233574631963,-1.4804379355689254,-1347.1717417296238,53.13873752234126,-89.96066284179688,6206.5029296875,True
1598626203.3975623,0,5,0.5,0.5,-0.007290090942382813,-0.14,-0.011,-0.56,0.0010818931913166648,10,1,100,0.022406552829376536,-10,-1,-100,535.2951601663372,0.0006147452188095704,-4.8124284867570315e-06,0.9999998110325604,19.88545030356043,-1.5028011620094082,-1392.460151213904,54.082167585665935,-89.95867919921875,6203.3447265625,True
1598626203.439306,0,5,0.5,0.5,-0.007766204833984375,-0.14,-0.011,-0.56,0.001175719579698967,10,1,100,0.02395403649800537,-10,-1,-100,537.5043169928249,0.0003229829955259466,6.844061017728879e-06,0.9999999478175704,20.197322840883142,-1.525523563787481,-1438.478218565851,55.026064669453625,-89.9564208984375,6200.18701171875,True
1598626203.4815505,0,5,0.5,0.5,-0.008219403076171876,-0.14,-0.011,-0.56,0.001315995033234134,10,1,100,0.02768341653273295,-10,-1,-100,539.6990085991565,2.6607307902573366e-05,1.8608441557823527e-05,0.9999999994728885,20.520611078224082,-1.548639967230651,-1485.2479755318225,55.9704087853587,-89.9539794921875,6197.029296875,True
1598626203.5233338,0,5,0.5,0.5,-0.008680197143554688,-0.14,-0.011,-0.56,0.0014102406168509012,10,1,100,0.030275624427353046,-10,-1,-100,541.9782340736128,-0.00026371867236159996,3.0055960037175187e-05,0.99999996477455,20.855601954722758,-1.5721707414956203,-1532.7688835270449,56.91519854288043,-89.95138549804688,6193.87158203125,True
1598626203.5665417,0,5,0.5,0.5,-0.009165475463867189,-0.14,-0.011,-0.56,0.0015510013523038991,10,1,100,0.03278999735208633,-10,-1,-100,544.3126965952106,-0.0005478307456844863,4.16377906885388e-05,0.9999998490738727,21.20266062628546,-1.596132893847523,-1581.0423859356101,57.86043188572333,-89.94863891601562,6190.7138671875,True
1598626203.6084244,0,5,0.5,0.5,-0.0096324462890625,-0.14,-0.011,-0.56,0.0016295970539908292,10,1,100,0.03525232661792857,-10,-1,-100,546.647097982117,-0.0008258160255748731,5.2775808656296414e-05,0.9999996576212444,21.562157860424563,-1.6205387955037622,-1630.0747974912388,58.80610424695191,-89.94580078125,6187.5556640625,True
1598626203.6533191,0,5,0.5,0.5,-0.010072329711914062,-0.14,-0.011,-0.56,0.0017329037345317285,10,1,100,0.03757820453051101,-10,-1,-100,548.9959035573993,-0.0010970037110243373,6.373493285698191e-05,0.999999396260176,21.9344225243586,-1.6454125302136737,-1679.872555512243,59.75221185516488,-89.94293212890625,6184.39794921875,True
1598626203.6946607,0,5,0.5,0.5,-0.01047664794921875,-0.14,-0.011,-0.56,0.0017980947238971162,10,1,100,0.03969592572549972,-10,-1,-100,551.414656019304,-0.0013600059741165369,7.418002220084785e-05,0.9999990724401072,22.319722743710553,-1.6707625525084748,-1730.4432548702075,60.698749618374364,-89.94009399414062,6181.240234375,True
1598626203.7355437,0,5,0.5,0.5,-0.010878439331054689,-0.14,-0.011,-0.56,0.0019000227860152133,10,1,100,0.041643559721158886,-10,-1,-100,553.8888282726984,-0.0016141852448975475,8.449829284838185e-05,0.9999986936321636,22.718256443230512,-1.6965961533821987,-1781.791735389799,61.6457157813637,-89.93728637695312,6178.08251953125,True
1598626203.7777245,0,5,0.5,0.5,-0.011235684204101565,-0.14,-0.011,-0.56,0.0020113544150937553,10,1,100,0.043436962106860426,-10,-1,-100,556.3775269434555,-0.0018588488447276415,9.478283836626212e-05,0.9999982678470928,23.130197514099304,-1.7229336495236534,-1833.9251724289456,62.59310892652171,-89.9345703125,6174.92431640625,True
1598626203.8214533,0,5,0.5,0.5,-0.011580548095703127,-0.14,-0.011,-0.56,0.00210240906558189,10,1,100,0.045053263398950605,-10,-1,-100,558.9215237286408,-0.0020934349136554533,0.00010485874845667067,0.9999978032650398,23.555707311159782,-1.749786589943074,-1886.8539123704472,63.54092344755724,-89.93194580078125,6171.7666015625,True
1598626203.863997,0,5,0.5,0.5,-0.011870574951171876,-0.14,-0.011,-0.56,0.002089985386268067,10,1,100,0.046467377848464456,-10,-1,-100,561.4800462418934,-0.002317088580283167,0.0001138060231115133,0.9999973090707297,23.99481437340797,-1.7771604411441861,-1940.5825629472693,64.48915554665778,-89.92947387695312,6168.6083984375,True
1598626203.9044352,0,5,0.5,0.5,-0.012160836791992188,-0.14,-0.011,-0.56,0.0022257824052878995,10,1,100,0.047692475317787544,-10,-1,-100,564.1083324336214,-0.0025291472800514723,0.000123077189368738,0.9999967941278818,24.44756079738112,-1.8050592964969758,-1995.1200378511437,65.43780180047331,-89.9271240234375,6165.451171875,True
1598626203.9557385,0,5,0.5,0.5,-0.012433908081054688,-0.14,-0.011,-0.56,0.0022449302447883866,10,1,100,0.04874313615460322,-10,-1,-100,566.7367407291895,-0.0027291559650955703,0.0001315846220091186,0.9999962671896357,24.91392189492073,-1.8334834359867513,-2050.474170887802,66.38685845030089,-89.92489624023438,6162.29296875,True
1598626204.0005581,0,5,0.5,0.5,-0.01266812438964844,-0.14,-0.011,-0.56,0.002315973774966636,10,1,100,0.04962029220302975,-10,-1,-100,569.4205074905185,-0.002916714881673415,0.00013987220317292874,0.9999957365959444,25.393776848456316,-1.862443739416492,-2106.650020085757,67.33632210361037,-89.92282104492188,6159.13525390625,True
1598626204.0413246,0,5,0.5,0.5,-0.012922964477539062,-0.14,-0.011,-0.56,0.0023357384256457846,10,1,100,0.0503367410559973,-10,-1,-100,572.1332657231251,-0.003091582628011171,0.00014749674249848986,0.9999952101693113,25.887071945938718,-1.8919336306348038,-2163.65940601431,68.28618833970864,-89.92083740234375,6155.9775390625,True
1598626204.08447,0,5,0.5,0.5,-0.01314268493652344,-0.14,-0.011,-0.56,0.0023993319599339216,10,1,100,0.05082801735782954,-10,-1,-100,574.8869789150776,-0.0032529596668781184,0.00015492015498449013,0.9999946971125152,26.393590957714533,-1.921945641219518,-2221.50701476199,69.23643336233701,-89.91897583007812,6152.8193359375,True
1598626204.1313326,0,5,0.5,0.5,-0.013386932373046877,-0.14,-0.011,-0.56,0.0024027709614861674,10,1,100,0.051202865958868075,-10,-1,-100,577.7248590344097,-0.003401113820443099,0.00016161707978394033,0.9999942031355481,26.913097998148718,-1.9524843654381092,-2280.197612007169,70.18706535132496,-89.91717529296875,6149.662109375,True
1598626204.1678085,0,5,0.5,0.5,-0.01364285583496094,-0.14,-0.011,-0.56,0.002464982160348862,10,1,100,0.05135447181568917,-10,-1,-100,580.5483963529114,-0.003535322097067522,0.00016819126135711674,0.9999937365850695,27.445371934311098,-1.983543804987041,-2339.742346411453,71.13810849899825,-89.9154052734375,6146.50390625,True
1598626204.2094517,0,5,0.5,0.5,-0.013893365478515628,-0.14,-0.011,-0.56,0.002432946446089826,10,1,100,0.051410788021342295,-10,-1,-100,583.4007413397776,-0.003656095098730053,0.00017380047177718703,0.9999933013585766,27.990078645707094,-2.0151096996971,-2400.1449207180804,72.08954750388571,-89.91366577148438,6143.34619140625,True
1598626204.251657,0,5,0.5,0.5,-0.014181253051757815,-0.14,-0.011,-0.56,0.0024887522734025934,10,1,100,0.05126144100592249,-10,-1,-100,586.3086896439781,-0.00376289717623399,0.00017933524546790252,0.9999929041966803,28.546891856066207,-2.047179679357142,-2461.413726191437,73.04136433015809,-89.91189575195312,6140.1884765625,True
1598626204.2936292,0,5,0.5,0.5,-0.014472473144531253,-0.14,-0.011,-0.56,0.002451572809427891,10,1,100,0.05095075188626737,-10,-1,-100,589.271874547354,-0.003855647834456542,0.0001839611568805909,0.9999925500412838,29.11539511095107,-2.0797434120354024,-2523.5514296463048,73.99356023365945,-89.91009521484375,6137.0302734375,True
1598626204.3356066,0,5,0.5,0.5,-0.014788589477539063,-0.14,-0.011,-0.56,0.0024708309106509976,10,1,100,0.050536533020230194,-10,-1,-100,592.2640508051263,-0.003934802298372912,0.00018827782714527308,0.9999922409110646,29.695209444049553,-2.112783378186256,-2586.565780629881,74.94613781661218,-89.90823364257812,6133.873046875,True
1598626204.3785508,0,5,0.5,0.5,-0.015112713623046878,-0.14,-0.011,-0.56,0.0024783467108477992,10,1,100,0.04994024831404327,-10,-1,-100,595.2971206927905,-0.004000062263678529,0.00019221112498970367,0.9999919812462349,30.28589398332867,-2.1462855709605724,-2650.4627959602517,75.8990871078118,-89.90631103515625,6130.71484375,True
1598626204.420783,0,5,0.5,0.5,-0.015487771606445313,-0.14,-0.011,-0.56,0.0024651234295910477,10,1,100,0.049218704669522245,-10,-1,-100,598.3592427768745,-0.004051674647825642,0.0001956115236523241,0.9999917728004966,30.88690528513194,-2.1802325566013097,-2715.2412950312296,76.85240304184057,-89.90426635742188,6127.5576171875,True
1598626204.4825761,0,5,0.5,0.5,-0.015858523559570313,-0.14,-0.011,-0.56,0.0024342290830252846,10,1,100,0.048414127586902236,-10,-1,-100,601.4621361513855,-0.00409024887832997,0.00019837126535821812,0.999991615221325,31.497761234379148,-2.214608774709595,-2780.9091337742393,77.80607500612136,-89.90213012695312,6124.3994140625,True
1598626204.5304067,0,5,0.5,0.5,-0.016263623046875002,-0.14,-0.011,-0.56,0.0024521686469207576,10,1,100,0.04741866561529727,-10,-1,-100,604.594021373312,-0.004115358827909933,0.0002009969588327536,0.9999915116749443,32.11792713875545,-2.2494001786806734,-2847.469402206998,78.76010563573165,-89.89987182617188,6121.2412109375,True
1598626204.5824127,0,5,0.5,0.5,-0.016686248779296878,-0.14,-0.011,-0.56,0.002383465279981091,10,1,100,0.046362879132289536,-10,-1,-100,607.781264847843,-0.004127803996627073,0.0002027174888339268,0.9999914600334271,32.746772190208745,-2.2845750907928575,-2914.9202709743768,79.71449785900033,-89.89749145507812,6118.083984375,True
1598626204.628387,0,5,0.5,0.5,-0.017169326782226563,-0.14,-0.011,-0.56,0.0023801995040990034,10,1,100,0.04521970172748076,-10,-1,-100,610.9686304958304,-0.004128064637075135,0.00020421455413692895,0.9999914586529066,33.383780061786005,-2.3201261792379806,-2983.2672793625925,80.66923998552566,-89.89492797851562,6114.92578125,True
1598626204.6718006,0,5,0.5,0.5,-0.017593463134765626,-0.14,-0.011,-0.56,0.0023237949944189718,10,1,100,0.04394998794004795,-10,-1,-100,614.2402239594376,-0.004116219873469431,0.0002050300058764035,0.999991507312262,34.02830654389079,-2.3560163934499525,-3052.510912155332,81.62432836162108,-89.89230346679688,6111.76806640625,True
1598626204.7166483,0,5,0.5,0.5,-0.01804848022460938,-0.14,-0.011,-0.56,0.0023068136699018428,10,1,100,0.04260749039701557,-10,-1,-100,617.5528333155671,-0.004092829088186916,0.000205588559476589,0.9999916032064465,34.679722409211145,-2.392222779909335,-3122.6484660046135,82.57975841310753,-89.88958740234375,6108.60986328125,True
1598626204.762422,0,5,0.5,0.5,-0.01851735534667969,-0.14,-0.011,-0.56,0.0022490517897992856,10,1,100,0.04118949098805913,-10,-1,-100,620.8943119316828,-0.004058373896110523,0.0002055473608267265,0.9999917436417173,35.33736083381785,-2.428727863989847,-3193.6773372859325,83.53552645374639,-89.88677978515625,6105.4521484375,True
1598626204.8053272,0,5,0.5,0.5,-0.01900015563964844,-0.14,-0.011,-0.56,0.0022040855576463568,10,1,100,0.03974782837011863,-10,-1,-100,624.2213250317145,-0.0040137606740037485,0.00020508149975823748,0.9999919238008027,36.000639898307945,-2.4655035936471874,-3265.6006026948166,84.4916278145492,-89.88388061523438,6102.294921875,True
1598626204.851308,0,5,0.5,0.5,-0.019496914672851563,-0.14,-0.011,-0.56,0.0021822553964248185,10,1,100,0.038201062667488815,-10,-1,-100,627.6326886510942,-0.0039590699126322,0.00020444425761885805,0.9999921419531118,36.66885971499742,-2.502530177529771,-3338.4100694758326,85.44805807698998,-89.88088989257812,6099.13671875,True
1598626204.897332,0,5,0.5,0.5,-0.019943579101562504,-0.14,-0.011,-0.56,0.0021189173936285765,10,1,100,0.03662947107109016,-10,-1,-100,631.0994107607985,-0.003895101108100846,0.0002032780255279753,0.9999923934037708,37.341402438164096,-2.539768623780035,-3412.1064205771268,86.40481310579308,-89.87789916992188,6095.978515625,True
1598626204.946473,0,5,0.5,0.5,-0.020412646484375,-0.14,-0.011,-0.56,0.0020543549723709455,10,1,100,0.03501492437933586,-10,-1,-100,634.580659251078,-0.003822412291819781,0.00020162391388676195,0.9999926742292009,38.01761323818407,-2.5771901722931108,-3486.685099247169,87.36188948957026,-89.8748779296875,6092.8212890625,True
1598626204.9894388,0,5,0.5,0.5,-0.020886959838867188,-0.14,-0.011,-0.56,0.0020266713574273038,10,1,100,0.03340480476912299,-10,-1,-100,638.1172666015336,-0.0037419375865500684,0.0001998655498511453,0.9999929789537826,38.69678760472092,-2.6147773878632172,-3562.1353457842947,88.31928163421472,-89.871826171875,6089.6630859375,True
1598626205.0333922,0,5,0.5,0.5,-0.021345056152343753,-0.14,-0.011,-0.56,0.0019749611681212174,10,1,100,0.03175329079905011,-10,-1,-100,641.6538738543168,-0.0036541044740690852,0.0001977979730150581,0.9999933041758101,39.37832193386455,-2.652503367261827,-3638.4532169212,89.27698634006256,-89.8687744140625,6086.505859375,True
1598626205.079267,0,5,0.5,0.5,-0.02073577575683594,-0.14,-0.011,-0.56,0.0020199807583914865,10,1,100,0.035403184481346814,-10,-1,-100,643.4294708941597,-0.003607867677582305,0.00019633209899908935,0.999993472350959,39.71980270679511,-2.6714098400739483,-3676.93830879841,89.75595453365717,-89.86724853515625,6084.9267578125,True
1598626205.1223779,0,5,0.5,0.5,-0.023116076660156252,-0.14,-0.011,-0.56,0.0017414441119307878,10,1,100,0.02363470487566375,-10,-1,-100,648.8957882949617,-0.003459320954324016,0.0001924745007941458,0.9999939980080389,40.746030419447756,-2.728237623185209,-3793.6699486756675,91.19331324778064,-89.8626708984375,6080.189453125,True
1598626205.1653364,0,5,0.5,0.5,-0.022806875610351565,-0.14,-0.011,-0.56,0.0017722959012935135,10,1,100,0.026544928042846454,-10,-1,-100,652.5721654182998,-0.0033513322337173647,0.00018925947824302396,0.9999943663606855,41.431059554930826,-2.76619172855913,-3872.557944200281,92.15192040733712,-89.8594970703125,6077.0322265625,True
1598626205.208732,0,5,0.5,0.5,-0.022194833374023438,-0.14,-0.011,-0.56,0.0019690314626877492,10,1,100,0.0314092741201164,-10,-1,-100,654.4175873316126,-0.003298056085554199,0.00018814008019216402,0.9999945436997977,41.773634848354114,-2.785188959003637,-3912.322185338358,92.63133323323615,-89.85787963867188,6075.453125,True
1598626205.2554617,0,5,0.5,0.5,-0.024546569824218753,-0.14,-0.011,-0.56,0.0014983459952146508,10,1,100,0.017986261639511607,-10,-1,-100,660.0236749156611,-0.003128287035409965,0.00018285931160584007,0.999995090179295,42.80028359481983,-2.8421765672442896,-4032.8316284063394,94.07002668620576,-89.853271484375,6070.71630859375,True
1598626205.2994695,0,5,0.5,0.5,-0.024221353149414065,-0.14,-0.011,-0.56,0.0016361175744224897,10,1,100,0.021684917295934913,-10,-1,-100,663.8398833918618,-0.0030083806536450493,0.000179331283782119,0.9999954587327552,43.483437634136145,-2.8801390270941893,-4114.195499455985,95.0295198763112,-89.85009765625,6067.55859375,True
1598626205.343434,0,5,0.5,0.5,-0.0246568359375,-0.14,-0.011,-0.56,0.00157171270288605,10,1,100,0.020663147511919333,-10,-1,-100,667.6703740735538,-0.0028909502987849727,0.00017556131690462016,0.9999958057835012,44.165038426029064,-2.9180606283213626,-4196.374048027858,95.98929639864366,-89.84698486328125,6064.40087890625,True
1598626205.3879058,0,5,0.5,0.5,-0.02504118347167969,-0.14,-0.011,-0.56,0.0015041667371762692,10,1,100,0.018913661430890127,-10,-1,-100,671.5563456336968,-0.0027692038761840156,0.00017154521706282626,0.9999961510336581,44.84431702761052,-2.955881623991142,-4279.327072516525,96.94935402863786,-89.843994140625,6061.2431640625,True
1598626205.433362,0,5,0.5,0.5,-0.025472494506835943,-0.14,-0.011,-0.56,0.0014561002671166605,10,1,100,0.01756123386120199,-10,-1,-100,675.4567213117843,-0.002647187976291104,0.00016748459356685712,0.9999964821661769,45.52103593889063,-2.9936005570461264,-4363.052350224449,97.90968558107059,-89.84103393554688,6058.0849609375,True
1598626205.4758115,0,5,0.5,0.5,-0.023848651123046877,-0.14,-0.011,-0.56,0.0018589245210851456,10,1,100,0.02965334888946725,-10,-1,-100,675.4567213117843,-0.002647187976291104,0.00016748459356685712,0.9999964821661769,45.52103593889063,-2.9936005570461264,-4363.052350224449,97.90968558107059,-89.84103393554688,6058.0849609375,True
1598626205.5199714,0,5,0.5,0.5,-0.028002090454101566,-0.14,-0.011,-0.56,0.0009596411019105929,10,1,100,0.0028561694832617765,-10,-1,-100,683.3828391426941,-0.0024044926330508525,0.00015933684737385955,0.999997096509258,46.863866556376415,-3.068566542044326,-4532.630510434908,99.83116838763091,-89.83514404296875,6051.76904296875,True
1598626205.5650141,0,5,0.5,0.5,-0.02698210754394531,-0.14,-0.011,-0.56,0.0013014816114762648,10,1,100,0.013114568887234355,-10,-1,-100,687.367565440014,-0.002278212656545403,0.000155071078423209,0.9999973928466276,47.52501256387909,-3.1054729407717017,-4618.036587850201,100.79231585662758,-89.83193969726562,6048.611328125,True
1598626205.60944,0,5,0.5,0.5,-0.027485882568359377,-0.14,-0.011,-0.56,0.0012919640071028964,10,1,100,0.013070830485365642,-10,-1,-100,691.4632539327722,-0.0021640887908850777,0.00015114058608501507,0.9999976469353459,48.17783370674201,-3.141922614755936,-4703.732812349053,101.75373221631985,-89.82870483398438,6045.45361328125,True
1598626205.6533282,0,5,0.5,0.5,-0.027865823364257816,-0.14,-0.011,-0.56,0.0011779362925175576,10,1,100,0.01130663957225481,-10,-1,-100,695.5731630285736,-0.002045381035113622,0.00014656544918329752,0.9999978974652849,48.82144887304683,-3.1778394189281993,-4789.629698056082,102.71541742462061,-89.82562255859375,6042.2958984375,True
1598626205.6967854,0,5,0.5,0.5,-0.02831146240234375,-0.14,-0.011,-0.56,0.0012239150517643987,10,1,100,0.01054850160476636,-10,-1,-100,699.6831335268216,-0.0019317115256628039,0.00014286201765762455,0.999998124038753,49.455942506560376,-3.213236897488198,-4875.718383865819,103.67736591080921,-89.82257080078125,6039.1376953125,True
1598626205.7364914,0,5,0.5,0.5,-0.027704364013671875,-0.14,-0.011,-0.56,0.0013749201606682929,10,1,100,0.015729823847408408,-10,-1,-100,701.7381494812435,-0.0018765663333767581,0.00014090439661881927,0.9999982293208061,49.7697757181856,-3.230729430073078,-4918.829847864731,104.15843752929574,-89.821044921875,6037.55908203125,True
1598626205.7801583,0,5,0.5,0.5,-0.03012890014648438,-0.14,-0.011,-0.56,0.0008830055135022615,10,1,100,0.0035269480919086736,-10,-1,-100,708.098325684201,-0.001716528028357872,0.0001346877233249081,0.9999985176942741,50.69717737419363,-3.28239403015683,-5048.377099470072,105.60206968882838,-89.81640625,6032.822265625,True
1598626205.821326,0,5,0.5,0.5,-0.028675720214843752,-0.14,-0.011,-0.56,0.0012782606103353038,10,1,100,0.013678932726441384,-10,-1,-100,710.1678066750756,-0.0016643970861732066,0.00013266658811399805,0.9999986060899865,51.00165290400887,-3.299336599382773,-5091.624866497919,106.08341133159544,-89.8148193359375,6031.2431640625,True
1598626205.8633716,0,5,0.5,0.5,-0.03132255859375,-0.14,-0.011,-0.56,0.0008864954686759731,10,1,100,0.002819367944186614,-10,-1,-100,716.6123335988959,-0.0015192863741575681,0.0001273030353880394,0.9999988377807499,51.90107490701504,-3.349311560450648,-5221.526766463036,107.52785815198249,-89.809814453125,6026.5068359375,True
1598626205.9054797,0,5,0.5,0.5,-0.028554165649414067,-0.14,-0.011,-0.56,0.0014188325854539567,10,1,100,0.017217648985537105,-10,-1,-100,716.6123335988959,-0.0015192863741575681,0.0001273030353880394,0.9999988377807499,51.90107490701504,-3.349311560450648,-5221.526766463036,107.52785815198249,-89.809814453125,6026.5068359375,True
1598626205.949297,0,5,0.5,0.5,-0.033416387939453125,-0.14,-0.011,-0.56,0.0006459215010655511,10,1,100,-0.002345411471468649,-10,-1,-100,725.3213487997418,-0.001342465735095819,0.0001203130996737619,0.9999990916548416,53.067389425036176,-3.4139292322506885,-5394.9334277896905,109.45474286000571,-89.80291748046875,6020.19140625,True
1598626205.9897203,0,5,0.5,0.5,-0.03219573364257813,-0.14,-0.011,-0.56,0.0009446544584407093,10,1,100,0.006005566880144994,-10,-1,-100,729.7109208336333,-0.0012586031635979484,0.00011670984295301117,0.9999992011481255,53.636628862613236,-3.4453678995657033,-5481.660477431418,110.4185962763101,-89.7991943359375,6017.033203125,True
1598626206.030643,0,5,0.5,0.5,-0.03275299377441406,-0.14,-0.011,-0.56,0.000984716757845905,10,1,100,0.0067420918587286,-10,-1,-100,734.1703783214325,-0.0011899870615805965,0.00011383323159734882,0.9999992854861391,54.19709134479484,-3.4762239018701035,-5568.401144584627,111.38272531343499,-89.79547119140625,6013.87548828125,True
1598626206.0723732,0,5,0.5,0.5,-0.033225341796875,-0.14,-0.011,-0.56,0.0009296827359352883,10,1,100,0.00611683238455138,-10,-1,-100,738.644117836142,-0.0011228101570080332,0.00011075173685163896,0.9999993635154997,54.74839823934073,-3.5064775660141434,-5655.064793503327,112.34713171419698,-89.7918701171875,6010.71728515625,True
1598626206.1153104,0,5,0.5,0.5,-0.03370253295898438,-0.14,-0.011,-0.56,0.0009497754827808051,10,1,100,0.0062766542987810515,-10,-1,-100,743.1734603929799,-0.0010640318710515232,0.00010816559724716347,0.999999428068027,55.29123309396088,-3.5361652741165823,-5741.65798611749,113.31181761860078,-89.78836059570312,6007.5595703125,True
1598626206.1563222,0,5,0.5,0.5,-0.03423149719238282,-0.14,-0.011,-0.56,0.0009503482733205953,10,1,100,0.006499540207812229,-10,-1,-100,747.7725049545988,-0.0010134121008591715,0.00010585131063019336,0.9999994808955722,55.825972019034246,-3.5652645867390147,-5828.162924657872,114.27678280604385,-89.78485107421875,6004.4013671875,True
1598626206.1993814,0,5,0.5,0.5,-0.034762643432617195,-0.14,-0.011,-0.56,0.0009605764229599415,10,1,100,0.0066841613828628015,-10,-1,-100,752.3714275733801,-0.0009698571879416002,0.00010387226332602243,0.9999995242936808,56.35295224863944,-3.5937874723732106,-5914.553444660582,115.24203125392098,-89.78134155273438,6001.244140625,True
1598626206.240317,0,5,0.5,0.5,-0.03529254760742188,-0.14,-0.011,-0.56,0.000922542458399554,10,1,100,0.007012620461973224,-10,-1,-100,756.9849984962493,-0.0009339265958633722,0.00010175538015349887,0.9999995587133808,56.87266648316647,-3.6217793188209773,-6000.819748149115,116.20756782662214,-89.77783203125,5998.0869140625,True
1598626206.2844148,0,5,0.5,0.5,-0.03584592895507813,-0.14,-0.011,-0.56,0.0009724666616357083,10,1,100,0.007407064155301114,-10,-1,-100,761.6539894582238,-0.0009055123370864274,0.00010031289839695203,0.9999995849922788,57.38553887671918,-3.649228837565948,-6086.935200650734,117.17339323102044,-89.7742919921875,5994.92822265625,True
1598626206.3264759,0,5,0.5,0.5,-0.03640197143554688,-0.14,-0.011,-0.56,0.0009311420228081708,10,1,100,0.007885815755441937,-10,-1,-100,766.392926441622,-0.0008845914564150952,9.865040929892373e-05,0.9999996038829476,57.89214228259237,-3.6761603735089614,-6172.894751080828,118.13950938257798,-89.77072143554688,5991.7705078125,True
1598626206.3675313,0,5,0.5,0.5,-0.03696621398925781,-0.14,-0.011,-0.56,0.0009587998055519734,10,1,100,0.008436901681717818,-10,-1,-100,771.1460234138649,-0.0008711593414234307,9.741653780392268e-05,0.9999996157956361,58.39287818078236,-3.7025828753620877,-6258.668051517318,119.10591888049285,-89.76712036132812,5988.6123046875,True
1598626206.4113326,0,5,0.5,0.5,-0.0375097412109375,-0.14,-0.011,-0.56,0.0009871731258033435,10,1,100,0.009106132118055724,-10,-1,-100,775.9548454503529,-0.0008654607012101461,9.657359077608858e-05,0.9999996208255862,58.88841959533318,-3.728517347234715,-6344.256095834853,120.07262388315968,-89.76351928710938,5985.455078125,True
1598626206.4635835,0,5,0.5,0.5,-0.03811722106933594,-0.14,-0.011,-0.56,0.0009972366306771928,10,1,100,0.009798465831428037,-10,-1,-100,780.7634234772995,-0.0008669314642854428,9.591706738798069e-05,0.999999619614804,59.379201559753504,-3.7539806269926603,-6429.630645461808,121.03962740004975,-89.75982666015625,5982.296875,True
1598626206.5025475,0,5,0.5,0.5,-0.03869476013183594,-0.14,-0.011,-0.56,0.0010515312277549157,10,1,100,0.010593640344793053,-10,-1,-100,785.656474148971,-0.0008757910677456628,9.583010261241587e-05,0.9999996119032232,59.86591488835965,-3.7789882818080143,-6514.793719859811,122.00693384766592,-89.756103515625,5979.13916015625,True
1598626206.546495,0,5,0.5,0.5,-0.03931943054199219,-0.14,-0.011,-0.56,0.0010512641456280503,10,1,100,0.01145172757191706,-10,-1,-100,790.5349371933844,-0.0008918706084917741,9.576218082823929e-05,0.9999995976981303,60.34907003914072,-3.8035857554180694,-6599.723848422733,122.9745450015005,-89.75228881835938,5975.9814453125,True
1598626206.5883195,0,5,0.5,0.5,-0.03993589172363282,-0.14,-0.011,-0.56,0.0010493262205520742,10,1,100,0.012355003532779091,-10,-1,-100,795.4978726285044,-0.0009148564826893117,9.569409208413254e-05,0.9999995769400389,60.829310188793414,-3.8277740430522256,-6684.416861158375,123.9424644751463,-89.7484130859375,5972.8232421875,True
1598626206.6303074,0,5,0.5,0.5,-0.0405399383544922,-0.14,-0.011,-0.56,0.0011226235147831147,10,1,100,0.013290473437642707,-10,-1,-100,800.4608084853971,-0.000944346599838715,9.630776609935955e-05,0.9999995494670554,61.307343318663605,-3.8515887043918493,-6768.876380518341,124.91069403172752,-89.7445068359375,5969.666015625,True
1598626206.6734073,0,5,0.5,0.5,-0.04117005615234375,-0.14,-0.011,-0.56,0.0011255345018090495,10,1,100,0.014280852006276618,-10,-1,-100,805.4791638132883,-0.000980182430224029,9.689899190182594e-05,0.9999995149263767,61.783719806167944,-3.875052045346753,-6853.088007181192,125.87923728969395,-89.74053955078125,5966.5078125,True
1598626206.7166026,0,5,0.5,0.5,-0.04178786010742187,-0.14,-0.011,-0.56,0.001188739345992546,10,1,100,0.01535348911242361,-10,-1,-100,810.5672215408413,-0.00102246965350805,9.801547429505596e-05,0.999999472474248,62.258966736407594,-3.898193393618193,-6937.039941780357,126.84809923806435,-89.73654174804688,5963.35009765625,True
1598626206.7563174,0,5,0.5,0.5,-0.04236771545410157,-0.14,-0.011,-0.56,0.0011980272101246563,10,1,100,0.01640394595076745,-10,-1,-100,815.670049478882,-0.001070355866554448,9.911698198474053e-05,0.9999994222569044,62.73385365095424,-3.9210369811448644,-7020.7480307105925,127.81728038840293,-89.73257446289062,5960.1923828125,True
1598626206.7993875,0,5,0.5,0.5,-0.04300782165527345,-0.14,-0.011,-0.56,0.0012414745289110166,10,1,100,0.017514110093396706,-10,-1,-100,820.7722669776995,-0.0011238123120658583,0.00010051290408006994,0.999999363471319,63.208900945332964,-3.943604849484999,-7104.19957161148,128.78678436353917,-89.72854614257812,5957.03466796875,True
1598626206.8394527,0,5,0.5,0.5,-0.04363558044433594,-0.14,-0.011,-0.56,0.0012999893467738723,10,1,100,0.018601875940600122,-10,-1,-100,826.0002170599764,-0.001182068176622951,0.0001023110621779625,0.9999992961233883,63.68471802009758,-3.965931163839812,-7187.400169407974,129.75661664590984,-89.7244873046875,5953.87646484375,True
1598626206.8813422,0,5,0.5,0.5,-0.042815478515625005,-0.14,-0.011,-0.56,0.0012179943875076998,10,1,100,0.01621742497706543,-10,-1,-100,828.558771997923,-0.0012130634015741627,0.00010319512675417065,0.9999992589137002,63.92314503324212,-3.9770111741664635,-7228.905818939819,130.24165624018391,-89.72247314453125,5952.29736328125,True
1598626206.9227667,0,5,0.5,0.5,-0.0460224609375,-0.14,-0.011,-0.56,0.0014683957290801898,10,1,100,0.02417523192921881,-10,-1,-100,836.4849252739223,-0.0013132699129700326,0.00010626858123832234,0.9999991320141854,64.64108288695581,-4.009972783938036,-7353.047752567717,131.6972720891354,-89.71633911132812,5947.560546875,True
1598626206.967905,0,5,0.5,0.5,-0.045621865844726564,-0.14,-0.011,-0.56,0.001439403035320809,10,1,100,0.022230829221499965,-10,-1,-100,841.727218347718,-0.00138629264521863,0.00010878957130007869,0.9999990331782982,65.12258702473777,-4.031748075732437,-7435.496330146643,132.66810373753805,-89.71206665039062,5944.4033203125,True
1598626207.0087774,0,5,0.5,0.5,-0.04327353210449219,-0.14,-0.011,-0.56,0.0011886067681923587,10,1,100,0.014977998200312918,-10,-1,-100,841.727218347718,-0.00138629264521863,0.00010878957130007869,0.9999990331782982,65.12258702473777,-4.031748075732437,-7435.496330146643,132.66810373753805,-89.71206665039062,5944.4033203125,True
1598626207.050346,0,5,0.5,0.5,-0.04927359619140625,-0.14,-0.011,-0.56,0.0017592218238658753,10,1,100,0.03185319869159783,-10,-1,-100,852.4768798624864,-0.0015392749804461934,0.00011396507591600525,0.9999988088215386,66.09509368700395,-4.074929584356593,-7599.683583257241,134.61078750749977,-89.70355224609375,5938.08740234375,True
1598626207.092441,0,5,0.5,0.5,-0.047754925537109374,-0.14,-0.011,-0.56,0.0015743857988435568,10,1,100,0.025934682758786128,-10,-1,-100,857.8735917550512,-0.0016240042963724106,0.00011697370051226592,0.999998674462721,66.58700899790504,-4.09639354520625,-7681.44022536734,135.5826460380822,-89.698974609375,5934.9296875,True
1598626207.135501,0,5,0.5,0.5,-0.048420153808593755,-0.14,-0.011,-0.56,0.0015987163893071117,10,1,100,0.02642083220341919,-10,-1,-100,863.3254794768291,-0.001704865195014592,0.00011991175123252571,0.9999985395268528,67.08313121923032,-4.117803116109055,-7762.95152610592,136.5548533871893,-89.69442749023438,5931.771484375,True
1598626207.1794078,0,5,0.5,0.5,-0.048932177734375006,-0.14,-0.011,-0.56,0.0016614127594504566,10,1,100,0.027931257329447717,-10,-1,-100,868.8327866381733,-0.001791485880797283,0.00012313276772775824,0.9999983877070304,67.58439021014254,-4.139199764851802,-7844.291754180424,137.52741152819135,-89.69012451171875,5928.6142578125,True
1598626207.2203956,0,5,0.5,0.5,-0.04949584045410157,-0.14,-0.011,-0.56,0.0016837418225542039,10,1,100,0.028884063472541834,-10,-1,-100,874.3546205010498,-0.001878238260069455,0.00012624212349187367,0.9999982281404125,68.09094103600002,-4.160608247776896,-7925.4596878709035,138.50032379166026,-89.68594360351562,5925.4560546875,True
1598626207.265067,0,5,0.5,0.5,-0.050106668090820324,-0.14,-0.011,-0.56,0.0017800785980622389,10,1,100,0.029924057793881388,-10,-1,-100,879.9464006645139,-0.0019658727114672406,0.00012992120921895002,0.9999980592305975,68.60300626877871,-4.182037201096909,-8006.453523356629,139.47359207746263,-89.68179321289062,5922.298828125,True
1598626207.3073308,0,5,0.5,0.5,-0.05071332397460938,-0.14,-0.011,-0.56,0.001792589604133929,10,1,100,0.03092852758741912,-10,-1,-100,885.5381804256467,-0.002053959388556621,0.00013335446889236116,0.9999978817314644,69.12086051077732,-4.2035202867617745,-8087.282966006909,140.44721959872774,-89.67767333984375,5919.140625,True
1598626207.3486693,0,5,0.5,0.5,-0.048455474853515625,-0.14,-0.011,-0.56,0.0014522795710066336,10,1,100,0.02220394947717932,-10,-1,-100,885.5381804256467,-0.002053959388556621,0.00013335446889236116,0.9999978817314644,69.12086051077732,-4.2035202867617745,-8087.282966006909,140.44721959872774,-89.67767333984375,5919.140625,True
1598626207.3903544,0,5,0.5,0.5,-0.054265829467773447,-0.14,-0.011,-0.56,0.0022340768656862195,10,1,100,0.041609947364386474,-10,-1,-100,896.8611443671398,-0.00222970419709888,0.000140437093491581,0.9999975043451939,70.17518912226387,-4.24674423354542,-8248.52510703346,142.39556193495443,-89.66943359375,5912.8251953125,True
1598626207.4318228,0,5,0.5,0.5,-0.052860089111328126,-0.14,-0.011,-0.56,0.0019619378363248665,10,1,100,0.03414372376364058,-10,-1,-100,902.5925117172301,-0.0023208307070833527,0.00014437308147650354,0.9999972964469666,70.71188176902996,-4.26849466685199,-8328.943851209477,143.37028183899656,-89.6649169921875,5909.6669921875,True
1598626207.4773824,0,5,0.5,0.5,-0.05200619201660157,-0.14,-0.011,-0.56,0.0017662681689589164,10,1,100,0.029671418646509976,-10,-1,-100,905.5003704656847,-0.002362166089584536,0.00014614008856840048,0.9999971994032982,70.98249822602553,-4.279405675599648,-8369.082126679448,143.85778035091252,-89.66259765625,5908.087890625,True
1598626207.5213056,0,5,0.5,0.5,-0.05534530944824219,-0.14,-0.011,-0.56,0.0021971858168264606,10,1,100,0.03972139943235963,-10,-1,-100,914.1395961468806,-0.0024903590889032105,0.00015163464180287318,0.9999968875544282,71.8054524094361,-4.312396743125493,-8489.442800579194,145.32083164045554,-89.65603637695312,5903.3515625,True
1598626207.5642724,0,5,0.5,0.5,-0.054879846191406255,-0.14,-0.011,-0.56,0.002085376094163108,10,1,100,0.03638207615214194,-10,-1,-100,920.0107334619388,-0.002575753099561362,0.00015558172822700825,0.9999966706396057,72.36295568575665,-4.3346259497467665,-8569.615214303314,146.29666467481593,-89.65151977539062,5900.193359375,True
1598626207.6095066,0,5,0.5,0.5,-0.05553800659179688,-0.14,-0.011,-0.56,0.00213580299734817,10,1,100,0.036630805689018796,-10,-1,-100,925.8819324048236,-0.00265485347967261,0.0001595959877533639,0.9999964631348063,72.9273958000952,-4.357010197487228,-8649.71327635991,147.27287320971325,-89.64703369140625,5897.03564453125,True
1598626207.6542864,0,5,0.5,0.5,-0.05612800903320313,-0.14,-0.011,-0.56,0.002139438458274081,10,1,100,0.037502150220526845,-10,-1,-100,931.8229545691283,-0.0027338993504248408,0.00016324521585844493,0.9999962495656378,73.49918644704312,-4.379605185648937,-8729.797277472482,148.24945776730968,-89.64266967773438,5893.8779296875,True
1598626207.6996913,0,5,0.5,0.5,-0.056786572265625,-0.14,-0.011,-0.56,0.0022066753040872688,10,1,100,0.03802328767075179,-10,-1,-100,937.7783201872371,-0.0028097189723922267,0.0001671403008319416,0.9999960387638623,74.07808494344457,-4.402400785751194,-8809.873693580863,149.22642064333746,-89.6383056640625,5890.7197265625,True
1598626207.7483582,0,5,0.5,0.5,-0.05742400817871094,-0.14,-0.011,-0.56,0.002226786770843321,10,1,100,0.03852592136163813,-10,-1,-100,943.7892278637737,-0.0028824481656788852,0.00017083028314961816,0.9999958311461036,74.66405075477066,-4.425433992108933,-8889.955159935129,150.20376326455508,-89.63397216796875,5887.5625,True
1598626207.7924254,0,5,0.5,0.5,-0.058121493530273446,-0.14,-0.011,-0.56,0.002222817479527914,10,1,100,0.038960000816058896,-10,-1,-100,949.8002574450802,-0.002951758619364107,0.00017411465914076837,0.9999956283930137,75.25698773351843,-4.448670142094147,-8970.055367651323,151.18148694179044,-89.62957763671875,5884.404296875,True
1598626207.8385694,0,5,0.5,0.5,-0.058832357788085946,-0.14,-0.011,-0.56,0.002274042456183248,10,1,100,0.03938551788977485,-10,-1,-100,955.895393236191,-0.003017820278629174,0.0001775290823839094,0.9999954306116559,75.85676311953915,-4.472127279897015,-9050.18510038009,152.15959264679475,-89.6251220703125,5881.24658203125,True
