Timestamp,Input Throttle,horizon,dT,dt,Input Roll,Roll P,Roll I,Roll D,Input Pitch,Pitch P,Pitch I,Pitch D,Input Yaw,Yaw P,Yaw I,Yaw D,Altitude,Direction X,Direction Y,Direction Z,Drag X,Drag Y,Drag Z,Vertical Velocity,Roll,Mass,Has Fuel
1598620561.8349495,0,5,0.5,0.5,-0.009912109375,-0.14,-0.011,-0.56,0.004275824816168909,10,1,100,0.12495345698720592,-10,-1,-100,478.81092882319354,-0.011726628300540042,0.0004128276414777033,0.9999311555112379,5.33626429034414,-0.4368470161573987,109.80757088533944,-14.045473210074192,-89.9217529296875,6440.1796875,True
1598620561.8728673,0,5,0.5,0.5,-0.009545300292968751,-0.14,-0.011,-0.56,0.00425020982531708,10,1,100,0.12317835299013036,-10,-1,-100,477.92289927147795,-0.011769713820128005,0.00041356082917217855,0.9999306489972357,5.523522748088941,-0.45263431443175706,118.50092877723041,-14.628883858176108,-89.92388916015625,6440.1796875,True
1598620561.937433,0,5,0.5,0.5,-0.009992181396484376,-0.14,-0.011,-0.56,0.004137850372739098,10,1,100,0.11866393774684045,-10,-1,-100,477.66862656595185,-0.011757142595887038,0.00041282994948083605,0.9999307971901921,5.585820951854568,-0.4578973351285903,121.47205488350728,-14.823336007997664,-89.92507934570312,6440.1796875,True
1598620561.9806798,0,5,0.5,0.5,-0.003456552124023438,-0.14,-0.011,-0.56,0.0038313268443125673,10,1,100,0.11296858743399006,-10,-1,-100,476.5458728579106,-0.011683249986827621,0.00040900363591257364,0.9999316648580396,5.72997873647961,-0.45884734539296207,104.88657546610013,-13.017618297795135,-89.93548583984375,6433.8642578125,True
1598620562.0226874,0,5,0.5,0.5,-0.003074636840820312,-0.14,-0.011,-0.56,0.0039028261151399296,10,1,100,0.112137104628413,-10,-1,-100,476.0406265378697,-0.01159789481673488,0.0004058033409162997,0.9999326598123837,5.553955027193137,-0.43980919994385664,92.68881692668522,-12.113945139438858,-89.9444580078125,6430.70654296875,True
1598620562.0557232,0,5,0.5,0.5,-0.00025609436035156294,-0.14,-0.011,-0.56,0.0037524782916886915,10,1,100,0.10823546421645916,-10,-1,-100,475.5966318001738,-0.011474286208526686,0.0004011582713056609,0.9999340877418101,5.365490513721303,-0.42032169376799655,81.22347287490568,-11.209724865016142,-89.95574951171875,6427.548828125,True
1598620562.0928726,0,5,0.5,0.5,-0.0023341888427734375,-0.14,-0.011,-0.56,0.003975125417602601,10,1,100,0.1134226921068707,-10,-1,-100,475.4068056185497,-0.011398640194424317,0.0003985948561940197,0.9999349539464347,5.266705725500301,-0.41042353961869293,75.76804931402296,-10.757407210442357,-89.96188354492188,6425.9697265625,True
1598620562.1307383,0,5,0.5,0.5,-0.0013464538574218753,-0.14,-0.011,-0.56,0.003936805795897643,10,1,100,0.11278028800359713,-10,-1,-100,475.15606709290296,-0.011313668653215654,0.00039555375966230624,0.9999359201663016,5.16478461631732,-0.40041295825351025,70.4960583415506,-10.304949581906712,-89.96826171875,6424.390625,True
1598620562.165693,0,5,0.5,0.5,0.008910992431640626,-0.14,-0.011,-0.56,0.003073854707645359,10,1,100,0.0883791114192061,-10,-1,-100,474.59010162984487,-0.011004307766210392,0.0003845845222314893,0.9999393768150806,4.840730868644828,-0.3697664771648225,55.78687054677764,-8.946732753258152,-89.98806762695312,6419.65380859375,True
1598620562.2034307,0,5,0.5,0.5,0.007489022827148438,-0.14,-0.011,-0.56,0.0032168311387913255,10,1,100,0.09262864619773345,-10,-1,-100,474.2748425793834,-0.010751698814404756,0.00037556265164822683,0.999942128288082,4.610449645039547,-0.3488957200903222,46.91035641206935,-8.040541928851889,-90.00189971923828,6416.49609375,True
1598620562.2446437,0,5,0.5,0.5,0.008824120330810547,-0.14,-0.011,-0.56,0.0030405244602665213,10,1,100,0.08834495546439755,-10,-1,-100,473.9630611418979,-0.010473337398083484,0.0003654167425389916,0.9999450863294195,4.370229792496906,-0.3277785116438022,38.78357708669941,-7.133773230242825,-90.0148696899414,6413.337890625,True
1598620562.2887685,0,5,0.5,0.5,0.001663365173339844,-0.14,-0.011,-0.56,0.0040503742812961745,10,1,100,0.11605576800627912,-10,-1,-100,473.9630611418979,-0.010473337398083484,0.0003654167425389916,0.9999450863294195,4.370229792496906,-0.3277785116438022,38.78357708669941,-7.133773230242825,-90.0148696899414,6413.337890625,True
1598620562.4384282,0,5,0.5,0.5,0.016060166168212892,-0.14,-0.011,-0.56,0.0014760706283935576,10,1,100,0.04351761461480069,-10,-1,-100,473.52577688370366,-0.009815078163999175,0.0003420577494095434,0.9999517724556173,3.872474171367477,-0.2856777849872914,24.814427139317228,-5.318477690042054,-90.03529357910156,6407.0224609375,True
1598620562.4991958,0,5,0.5,0.5,0.009913701629638672,-0.14,-0.011,-0.56,0.0023062511741068804,10,1,100,0.0674382253080027,-10,-1,-100,473.3155560470186,-0.00943588628879881,0.0003284337353438674,0.9999554270972413,3.6302997541324973,-0.26577721298625945,19.003631389969577,-4.409935373913214,-90.04267883300781,6403.86474609375,True
1598620562.598599,0,5,0.5,0.5,0.011492795562744143,-0.14,-0.011,-0.56,0.001324262821356976,10,1,100,0.0387602054024274,-10,-1,-100,473.1055420660414,-0.008832500188291457,0.00030719434653240704,0.9999609455234025,3.3597455355302874,-0.2433669970581051,11.896488022414498,-3.0459902249748465,-90.05067443847656,6399.1279296875,True
1598620562.6688495,0,5,0.5,0.5,0.00686506576538086,-0.14,-0.011,-0.56,-0.00010028295729104042,10,1,100,0.00036012563563250777,-10,-1,-100,472.9527392986929,-0.007937389730521585,0.00027502503962008285,0.9999684606053801,5.335122217064508,-0.3815794664415347,7.41006734182688,-1.2252494453472522,-90.05029296875,6392.81201171875,True
1598620562.7347038,0,5,0.5,0.5,-0.0006946632385253903,-0.14,-0.011,-0.56,-0.0006442596126661209,10,1,100,-0.01524318615734628,-10,-1,-100,472.94584229262546,-0.006985020022138263,0.00024094963940700156,0.9999755754210009,1.2114540416323747,-0.08568730534303444,-0.8032898177906561,0.5980221803122855,-90.0390396118164,6386.49658203125,True
1598620562.8021781,0,5,0.5,0.5,-0.004524433898925782,-0.14,-0.011,-0.56,-0.00014247525582679332,10,1,100,-0.0006928483687994313,-10,-1,-100,473.03645749250427,-0.006255517558205929,0.0002146769926543643,0.9999804110150696,1.25971357166237,-0.0884588109039963,-2.7082005744166957,1.9672094161210694,-90.02444458007812,6381.759765625,True
1598620562.8398314,0,5,0.5,0.5,-0.007814378356933594,-0.14,-0.011,-0.56,-0.0003939806431325389,10,1,100,-0.008663692215852406,-10,-1,-100,473.2090448056115,-0.005524469602471516,0.00018867078914646722,0.9999847222027669,2.263047300469135,-0.1579099485557651,-8.15073997336783,3.3378162948292305,-90.00798034667969,6377.02294921875,True
1598620562.878777,0,5,0.5,0.5,-0.006102716064453125,-0.14,-0.011,-0.56,0.0002848171552535441,10,1,100,0.010326162788168003,-10,-1,-100,473.36992003093474,-0.005037497268352907,0.00017137777842742065,0.9999872970447816,2.7794523062289147,-0.1932152707350218,-12.65764045170685,4.252331413804244,-89.99722290039062,6373.86572265625,True
1598620562.9196587,0,5,0.5,0.5,-0.006876903533935547,-0.14,-0.011,-0.56,7.843654419340635e-05,10,1,100,0.0053204759811319585,-10,-1,-100,473.5676005280111,-0.0045544836314048,0.0001539662948306687,0.9999896164327065,3.2556668254175976,-0.2255477871316165,-17.89443754679664,5.167469071499919,-89.98751831054688,6370.70751953125,True
1598620562.9535415,0,5,0.5,0.5,-0.007112068176269532,-0.14,-0.011,-0.56,-5.8565699301909354e-05,10,1,100,-9.41064635584174e-05,-10,-1,-100,473.8177109716926,-0.004071537624469952,0.00013708442611794436,0.9999917018601868,3.714812530134573,-0.25656694890053156,-23.88944589809906,6.083222260527196,-89.97946166992188,6367.5498046875,True
1598620562.992383,0,5,0.5,0.5,-0.007168106842041016,-0.14,-0.011,-0.56,-0.00031040595435748077,10,1,100,-0.005581997705030414,-10,-1,-100,474.0821343885036,-0.0035884256975827217,0.0001196553907117089,0.9999935544210274,4.166164048705638,-0.2869500210367625,-30.660145647617174,6.999589714883486,-89.97299194335938,6364.3916015625,True
1598620563.0397208,0,5,0.5,0.5,-0.006988835906982422,-0.14,-0.011,-0.56,-0.00044041761756368077,10,1,100,-0.010713869560029211,-10,-1,-100,474.4075934304856,-0.003108240249427447,0.00010283107282116378,0.9999951641224685,4.613503442179732,-0.3169900076989942,-38.216753484858906,7.9165684253674735,-89.96817016601562,6361.234375,True
1598620563.0799577,0,5,0.5,0.5,-0.006549555206298829,-0.14,-0.011,-0.56,-0.0006488554943315627,10,1,100,-0.0159673999353935,-10,-1,-100,474.73988923535217,-0.002629701062273314,8.584644191598084e-05,0.9999965386453653,5.058411095082455,-0.3468245761481862,-46.566414055910855,8.83415469243613,-89.96505737304688,6358.076171875,True
1598620563.1209302,0,5,0.5,0.5,-0.005883235931396485,-0.14,-0.011,-0.56,-0.0008192689660579341,10,1,100,-0.020990417176849043,-10,-1,-100,475.1296499640448,-0.0021546405527799774,6.905788035431699e-05,0.999997676374849,5.501310099595125,-0.3765090931549072,-55.71331916940946,9.752345761541534,-89.96365356445312,6354.91845703125,True
1598620563.1630175,0,5,0.5,0.5,-0.005042870330810548,-0.14,-0.011,-0.56,-0.0010041305606036878,10,1,100,-0.025718980893411007,-10,-1,-100,475.5228903030511,-0.0016850374641606913,5.230223458353916e-05,0.9999985789556006,5.942211577397388,-0.4060683320418332,-65.66140233711906,10.671137791872674,-89.9638671875,6351.7607421875,True
1598620563.2037213,0,5,0.5,0.5,-0.004048899841308594,-0.14,-0.011,-0.56,-0.0011677328834131075,10,1,100,-0.030173942165840753,-10,-1,-100,475.98052335274406,-0.001222444083446504,3.57540331344041e-05,0.9999992521757765,6.3807549239391115,-0.43550326705148196,-76.41275495074797,11.590527177496998,-89.965576171875,6348.6025390625,True
1598620563.2458215,0,5,0.5,0.5,-0.0029771804809570323,-0.14,-0.011,-0.56,-0.0013003269320945232,10,1,100,-0.03431109182927884,-10,-1,-100,476.4991918373853,-0.0007688697162884962,1.966747042855932e-05,0.9999997042262313,6.816497651336055,-0.4648071609802461,-87.96952035984981,12.510510933665282,-89.96856689453125,6345.4453125,True
1598620563.2866447,0,5,0.5,0.5,-0.0018968780517578127,-0.14,-0.011,-0.56,-0.0014486575584426297,10,1,100,-0.038187647573510945,-10,-1,-100,477.02124828950036,-0.0003256112392756363,3.84850165527938e-06,0.9999999469812537,7.2489489982657345,-0.49396653292994813,-100.33367464014378,13.431085215251066,-89.97256469726562,6342.287109375,True
1598620563.32673,0,5,0.5,0.5,-0.0025605987548828124,-0.14,-0.011,-0.56,-0.0007314770800308288,10,1,100,-0.018196005328031735,-10,-1,-100,477.2823835811578,-0.0001086747224310995,-3.860257174165886e-06,0.9999999940874517,7.463739495973509,-0.5084847626405476,-106.81852864389609,13.891592683010838,-89.974853515625,6340.70849609375,True
1598620563.368861,0,5,0.5,0.5,0.0015483947753906248,-0.14,-0.011,-0.56,-0.002415643215764538,10,1,100,-0.06647229025560084,-10,-1,-100,478.1908817619551,0.0005233739659427679,-2.6035342296690904e-05,0.9999998627009169,8.10163180184466,-0.5517703157068543,-127.48673692369486,15.273990676425152,-89.98257446289062,6335.9716796875,True
1598620563.409751,0,5,0.5,0.5,0.0012014770507812501,-0.14,-0.011,-0.56,-0.0018537157573041577,10,1,100,-0.049195601358010314,-10,-1,-100,478.83806747884955,0.0009367256821314492,-4.09377884507878e-05,0.9999995604344504,8.524416668875013,-0.5806247335884686,-142.27853457496568,16.189641544876352,-89.98825073242188,6332.82958984375,True
1598620563.4506757,0,5,0.5,0.5,0.0019488525390625,-0.14,-0.011,-0.56,-0.0018792669245452794,10,1,100,-0.050040402124735345,-10,-1,-100,479.488174637896,0.0013160662025643742,-5.457175631201108e-05,0.9999991324954607,8.949740650864618,-0.6097963377174282,-157.651967661635,17.06643835986001,-89.99383544921875,6329.78271484375,True
1598620563.490675,0,5,0.5,0.5,0.002449191284179688,-0.14,-0.011,-0.56,-0.0019742242601363427,10,1,100,-0.05375827995348048,-10,-1,-100,480.202813297743,0.001690698013717451,-6.768642757382994e-05,0.9999985684783624,9.334713695843158,-0.6363566334857992,-172.62937203529484,17.88869802957602,-89.99897766113281,6326.8681640625,True
1598620563.5337338,0,5,0.5,0.5,0.002757804870605469,-0.14,-0.011,-0.56,-0.0020431857558946506,10,1,100,-0.05554925298767352,-10,-1,-100,480.9142407188192,0.002043626325007466,-8.009620334647732e-05,0.9999979085858339,9.694466955523689,-0.6613377933894128,-187.45246538287142,18.667384780439324,-90.00347900390625,6324.05908203125,True
1598620563.5756001,0,5,0.5,0.5,0.0029137649536132818,-0.14,-0.011,-0.56,-0.0020844938697926023,10,1,100,-0.0572384530681204,-10,-1,-100,481.68997179192957,0.00237601000247719,-9.16177513718647e-05,0.9999971730873322,10.028875497439769,-0.6847253324095062,-202.03344268553587,19.404350056703148,-90.00724029541016,6321.3515625,True
1598620563.6211133,0,5,0.5,0.5,0.002841846466064454,-0.14,-0.011,-0.56,-0.0021750713765221912,10,1,100,-0.0587924073147532,-10,-1,-100,482.46909786597826,0.0026886119774493845,-0.00010278448146889002,0.9999963803939418,10.339689243744202,-0.7066309814628923,-216.33481821446043,20.101957730940626,-90.01007843017578,6318.7392578125,True
1598620563.671723,0,5,0.5,0.5,0.002615225219726563,-0.14,-0.011,-0.56,-0.002196814066741698,10,1,100,-0.06000624894842245,-10,-1,-100,483.3094791927142,0.002980275009493013,-0.00011300777100036011,0.9999955525851661,10.628070438659043,-0.7271223926523667,-230.31482336041162,20.76229130643143,-90.01195526123047,6316.216796875,True
1598620563.7168355,0,5,0.5,0.5,0.0022047309875488285,-0.14,-0.011,-0.56,-0.0022122387905880807,10,1,100,-0.06094064976721113,-10,-1,-100,484.1495617760811,0.0032505094599527707,-0.0001223212814808192,0.9999947095988831,10.895337666252257,-0.7462815047687988,-243.94256214601467,21.387326499550547,-90.01280212402344,6313.7802734375,True
1598620563.7928388,0,5,0.5,0.5,0.0016786186218261721,-0.14,-0.011,-0.56,-0.0022610086702774413,10,1,100,-0.06164451631947908,-10,-1,-100,485.05455887236167,0.0034993249102102334,-0.00013111677193010702,0.9999938687479865,11.133705523454724,-0.7635812708760397,-257.1911130411051,21.995343471243867,-90.01266479492188,6311.38525390625,True
1598620563.841936,0,5,0.5,0.5,-0.00043524551391601555,-0.14,-0.011,-0.56,-0.0030051918155749894,10,1,100,-0.08438127137333865,-10,-1,-100,486.86398137535434,0.003928938547631522,-0.00014576228591875007,0.9999922710677543,11.586708266041528,-0.7968159016814668,-283.2046612937322,23.115531855746333,-90.00947570800781,6306.82666015625,True
1598620563.9192197,0,5,0.5,0.5,-0.0006385032653808593,-0.14,-0.011,-0.56,-0.002254979173289339,10,1,100,-0.061633312013291905,-10,-1,-100,487.8297689027386,0.004109600801485278,-0.0001521474319388996,0.9999915439804536,11.793643142377308,-0.8122255063279324,-295.9287591254518,23.6453675744774,-90.006591796875,6304.62109375,True
1598620563.9688914,0,5,0.5,0.5,-0.002917980194091797,-0.14,-0.011,-0.56,-0.0024128808178344617,10,1,100,-0.06788384135387047,-10,-1,-100,489.2528668511659,0.0043277777761581765,-0.000159286479959002,0.9999906224396995,12.080633997597687,-0.8338424025216264,-314.39210975156914,24.390026003294743,-90.0009994506836,6301.43359375,True
1598620564.011838,0,5,0.5,0.5,-0.004232426452636719,-0.14,-0.011,-0.56,-0.0023091862047765026,10,1,100,-0.06461460421982577,-10,-1,-100,490.7405878227437,0.004493662223211683,-0.0001647386501097982,0.9999898898793933,12.318853952624169,-0.852170365020185,-331.2805467811282,25.06623668816685,-89.99463653564453,6298.4111328125,True
1598620564.0559802,0,5,0.5,0.5,-0.003840930938720704,-0.14,-0.011,-0.56,-0.002051724707772348,10,1,100,-0.05671261804999459,-10,-1,-100,491.7711111024255,0.004570081878798684,-0.0001672663800718152,0.9999895431321166,12.458604635010092,-0.8631268912076987,-342.08456752947006,25.499715971658556,-89.9901123046875,6296.4375,True
1598620564.1366231,0,5,0.5,0.5,-0.004312787628173828,-0.14,-0.011,-0.56,-0.001945282100790658,10,1,100,-0.05501289585245661,-10,-1,-100,492.80449160339776,0.004621805495214893,-0.0001685174107222468,0.9999893052007339,12.59864052765736,-0.8740857573278256,-352.5590642848027,25.896288129342945,-89.98583984375,6294.552734375,True
1598620564.2105854,0,5,0.5,0.5,-0.0057676025390625005,-0.14,-0.011,-0.56,-0.0019111676544095932,10,1,100,-0.054026730749904064,-10,-1,-100,494.35638750181533,0.004657820195122116,-0.00016927467120158367,0.9999891379695659,12.782190257649138,-0.8886402259698662,-366.9349458622175,26.430247971667796,-89.98037719726562,6291.87353515625,True
1598620564.2817152,0,5,0.5,0.5,-0.0057960014343261725,-0.14,-0.011,-0.56,-0.0016999759824697796,10,1,100,-0.048965165835194766,-10,-1,-100,495.9698154621292,0.00464275641561526,-0.000167982719901771,0.9999892082391045,12.933538711702914,-0.9009508083075211,-380.22374054140903,26.93295338910115,-89.97601318359375,6289.2685546875,True
1598620564.3281531,0,5,0.5,0.5,-0.006211514282226563,-0.14,-0.011,-0.56,-0.0012561780950079246,10,1,100,-0.036217651224831164,-10,-1,-100,498.74217085842974,0.004511664227418337,-0.00016272371524419585,0.999989809151519,13.154203742100226,-0.9191889456226339,-401.0430390786261,27.711968917539462,-89.97198486328125,6285.06982421875,True
1598620564.374302,0,5,0.5,0.5,-0.00408600311279297,-0.14,-0.011,-0.56,-0.0013663986337458531,10,1,100,-0.03988635591599149,-10,-1,-100,499.84014760225546,0.004424694867370351,-0.00015890807733150565,0.9999901983637408,13.237577117106792,-0.9260717724823363,-408.90694576787354,27.995297204890846,-89.97186279296875,6283.458984375,True
1598620564.4111977,0,5,0.5,0.5,-0.003464381408691406,-0.14,-0.011,-0.56,-0.0013017729840529833,10,1,100,-0.037190103413458776,-10,-1,-100,500.93842682999093,0.004320279180979011,-0.00015482654486330538,0.9999906555646105,13.304502433905952,-0.9317595482695696,-416.1145416207155,28.26621517304795,-89.97271728515625,6281.876953125,True
1598620564.4508438,0,5,0.5,0.5,-0.002744317626953125,-0.14,-0.011,-0.56,-0.001164969175026951,10,1,100,-0.034284550448338946,-10,-1,-100,502.0972675740486,0.004198585947637297,-0.00014986414957475524,0.9999911746694452,13.37469126442698,-0.9375650418079675,-422.8148078511246,28.498353823651286,-89.9744873046875,6280.388671875,True
1598620564.4907923,0,5,0.5,0.5,-0.002190032958984375,-0.14,-0.011,-0.56,-0.0010701122421729625,10,1,100,-0.03126589671530903,-10,-1,-100,503.25028070400003,0.004060432533257147,-0.0001444926210886408,0.9999917459706982,13.593111634050402,-0.9530472058005135,-428.82329216804294,28.411214383673553,-89.97674560546875,6279.66064453125,True
1598620564.5337715,0,5,0.5,0.5,-0.0017296516418457033,-0.14,-0.011,-0.56,-0.000950068216302514,10,1,100,-0.0283274180302421,-10,-1,-100,504.3471426155884,0.0039083681187226755,-0.00013853155301050575,0.9999923527045882,13.424530413599108,-0.9407384627598571,-417.4697189715412,28.018916796776434,-89.979248046875,6279.66064453125,True
1598620564.5722692,0,5,0.5,0.5,-0.0013107879638671876,-0.14,-0.011,-0.56,-0.0008318050705831533,10,1,100,-0.025296084443910093,-10,-1,-100,505.4457242402714,0.003743102249365128,-0.00013206110533938814,0.9999929858481084,13.259752369044298,-0.9287163805848628,-406.3932954393945,27.626690945162725,-89.98187255859375,6279.66064453125,True
1598620564.611783,0,5,0.5,0.5,-0.0009737823486328128,-0.14,-0.011,-0.56,-0.0007267991376237374,10,1,100,-0.022207049948489203,-10,-1,-100,506.5440659847809,0.0035655302178357433,-0.00012525628558849783,0.9999936356323117,13.09147476617673,-0.9164690078330622,-395.3678976734364,27.23453736896039,-89.98446655273438,6279.66064453125,True
1598620564.6523452,0,5,0.5,0.5,-0.0006548583984374999,-0.14,-0.011,-0.56,-0.0006098621030688262,10,1,100,-0.019042072019181684,-10,-1,-100,507.63879128929693,0.00337628882188567,-0.00011804635016003813,0.9999942933531422,12.92347577355958,-0.9042605087398371,-384.51006832836913,26.842454201017354,-89.98699951171875,6279.66064453125,True
1598620564.6948302,0,5,0.5,0.5,-0.00044249572753906263,-0.14,-0.011,-0.56,-0.0004743370304594113,10,1,100,-0.01585698328963915,-10,-1,-100,508.67617392120883,0.003176460865638159,-0.00011030638849320876,0.9999949489516783,12.755174013593134,-0.8920500032968481,-373.8019871235033,26.450441010539468,-89.98931884765625,6279.66064453125,True
1598620564.7385895,0,5,0.5,0.5,-0.0002954132080078126,-0.14,-0.011,-0.56,-0.00037641843982326364,10,1,100,-0.012727479004077526,-10,-1,-100,509.76760272844695,0.0029676820442262044,-0.00010243232372795214,0.9999955911757327,12.586593075358639,-0.8798387693742831,-363.24425043574206,26.058496746014946,-89.99136352539062,6279.66064453125,True
1598620564.7806945,0,5,0.5,0.5,-0.00018010253906250006,-0.14,-0.011,-0.56,-0.00024228501455204638,10,1,100,-0.009566125390942155,-10,-1,-100,510.8015980271157,0.0027505471575351896,-9.410949861299528e-05,0.9999962128096969,12.417761520357859,-0.8676286120602593,-352.83763288903066,25.666620257228615,-89.99313354492188,6279.66064453125,True
1598620564.824146,0,5,0.5,0.5,-0.00015990905761718746,-0.14,-0.011,-0.56,-0.0001285947618616971,10,1,100,-0.006455750179613858,-10,-1,-100,511.7745580310002,0.0025263976201765873,-8.556865401013906e-05,0.9999968049914311,12.248784179686899,-0.8554264987915771,-342.5849369700129,25.27481059399948,-89.99454498291016,6279.66064453125,True
1598620564.8679032,0,5,0.5,0.5,-0.0001839637756347657,-0.14,-0.011,-0.56,-2.9719327109540834e-05,10,1,100,-0.0033861102036612384,-10,-1,-100,512.8050131818745,0.0022963502969426544,-7.696834395602577e-05,0.9999973604221102,12.079703873124041,-0.8432351736086858,-332.48712052973343,24.883066813919203,-89.99560546875,6279.66064453125,True
1598620564.907815,0,5,0.5,0.5,-0.0002792945861816406,-0.14,-0.011,-0.56,0.0001001514740333945,10,1,100,-0.0003449730927211521,-10,-1,-100,513.774494247511,0.002061298970858437,-6.803550553791312e-05,0.9999978732065998,11.910582924973191,-0.83105871415705,-322.5455940408511,24.491387928150854,-89.99628448486328,6279.66064453125,True
1598620564.9497018,0,5,0.5,0.5,-0.00039772491455078126,-0.14,-0.011,-0.56,0.00020693114277477284,10,1,100,0.002639270778157843,-10,-1,-100,514.7439753673971,0.0018223038515578838,-5.901352554702612e-05,0.9999983378616569,11.741447337546306,-0.8188985955610014,-312.76066276818096,24.099772675100958,-89.99662780761719,6279.66064453125,True
1598620564.9922717,0,5,0.5,0.5,-0.000570867919921875,-0.14,-0.011,-0.56,-0.0006873150535675796,10,1,100,-0.021051634725181,-10,-1,-100,514.7439753673971,0.0018223038515578838,-5.901352554702612e-05,0.9999983378616569,11.741447337546306,-0.8188985955610014,-312.76066276818096,24.099772675100958,-89.99662780761719,6279.66064453125,True
1598620565.03575,0,5,0.5,0.5,-0.0007362167358398439,-0.14,-0.011,-0.56,0.0013210965318695886,10,1,100,0.03244922767590678,-10,-1,-100,516.6187903044047,0.0013376785555460015,-4.0821645297408554e-05,0.9999991044744367,11.403418224186137,-0.7946465522456407,-293.66656794960676,23.316730180030962,-89.99636840820312,6279.66064453125,True
1598620565.076406,0,5,0.5,0.5,-0.0009410202026367189,-0.14,-0.011,-0.56,0.0005616586774428022,10,1,100,0.012277040917745022,-10,-1,-100,517.5239407800836,0.0010825189403023878,-3.1264311601900726e-05,0.9999994135874714,11.234508346042142,-0.7825529057907019,-284.3559818368151,22.925300480471844,-89.995849609375,6279.66064453125,True
1598620565.1166494,0,5,0.5,0.5,-0.0011267501831054689,-0.14,-0.011,-0.56,0.0006086200939718762,10,1,100,0.012903949059565167,-10,-1,-100,518.4290916518075,0.0008469417341385407,-2.222779721804579e-05,0.9999996410977476,11.065682286566938,-0.7704814488807787,-275.20274266396456,22.53393050111923,-89.99515533447266,6279.66064453125,True
1598620565.1553123,0,5,0.5,0.5,-0.001308318328857422,-0.14,-0.011,-0.56,0.0007528525546941779,10,1,100,0.016795172928923678,-10,-1,-100,519.3341208943166,0.0005995236198422383,-1.2781651400043252e-05,0.9999998202040132,10.897191939556995,-0.7584495013284066,-266.2125521383867,22.142619390632156,-89.99433135986328,6279.66064453125,True
1598620565.1962898,0,5,0.5,0.5,-0.001468475341796875,-0.14,-0.011,-0.56,0.0008102752145688888,10,1,100,0.018892097708542513,-10,-1,-100,520.2392717670882,0.00035768798014395946,-3.753722541478037e-06,0.9999999360226072,10.729015890617328,-0.7464551609971996,-257.38403753995584,21.751365810782293,-89.99343872070312,6279.66064453125,True
1598620565.235885,0,5,0.5,0.5,-0.0016091308593750003,-0.14,-0.011,-0.56,0.0009022293785492079,10,1,100,0.021021864573091624,-10,-1,-100,521.0798480552621,0.00012065120817452422,5.207290842428226e-06,0.999999992708085,10.5611119884321,-0.7344953844280984,-248.71548812585115,21.36016897834462,-89.99252319335938,6279.66064453125,True
1598620565.274122,0,5,0.5,0.5,-0.0016968040466308597,-0.14,-0.011,-0.56,0.0010062034060194494,10,1,100,0.023196386096273443,-10,-1,-100,521.9206686128164,-0.00011241810163388611,1.4216361491297417e-05,0.9999999935800327,10.39351887070472,-0.7225724995491322,-240.2070563895494,20.96902764680746,-89.99166870117188,6279.66064453125,True
1598620565.3146389,0,5,0.5,0.5,-0.0017353141784667973,-0.14,-0.011,-0.56,0.0010130197569762978,10,1,100,0.02526390217024274,-10,-1,-100,522.7613056284608,-0.00034090510358800137,2.2385497357652282e-05,0.9999999416412982,10.226247190325267,-0.7106869663888161,-231.8582328413039,20.577941010498623,-89.99093627929688,6279.66064453125,True
1598620565.356045,0,5,0.5,0.5,-0.0017796493530273438,-0.14,-0.011,-0.56,0.0011600627292224642,10,1,100,0.02712678203017985,-10,-1,-100,523.5410913028754,-0.0005633720094780376,3.1066537890307704e-05,0.9999998408234119,10.059349495449084,-0.6988422249624396,-223.66944017686467,20.186907916335667,-89.99029541015625,6279.66064453125,True
1598620565.3979242,0,5,0.5,0.5,-0.0017268005371093753,-0.14,-0.011,-0.56,0.001182216023696662,10,1,100,0.02888367394513842,-10,-1,-100,524.3783715937752,-0.0007794175996403886,3.907789553936231e-05,0.9999996954905154,9.892800810027977,-0.6870361135903779,-215.63925819831516,19.795927349230787,-89.9898681640625,6279.66064453125,True
1598620565.437816,0,5,0.5,0.5,-0.0017086013793945313,-0.14,-0.011,-0.56,0.0012584249871272664,10,1,100,0.030534622074284066,-10,-1,-100,525.1581575678429,-0.0009884660996427605,4.6964582686884365e-05,0.999999510364429,9.726641908990207,-0.6752712372146824,-207.76778849229234,19.404998196967405,-89.98956298828125,6279.66064453125,True
1598620565.4757159,0,5,0.5,0.5,-0.0015879135131835938,-0.14,-0.011,-0.56,0.0013051788611933197,10,1,100,0.031977869312190876,-10,-1,-100,525.9345253440551,-0.0011895159430302617,5.447952783251918e-05,0.9999992910416498,9.560857643066635,-0.6635461445644133,-200.05384665966585,19.014119216264746,-89.989501953125,6279.66064453125,True
1598620565.5178764,0,5,0.5,0.5,-0.0014752670288085937,-0.14,-0.011,-0.56,0.0013192448780545369,10,1,100,0.0333026069117825,-10,-1,-100,526.6462568554562,-0.0013822661107576115,6.136122008234879e-05,0.9999990427871417,9.395468923591315,-0.6518621391928144,-192.49709777676375,18.623289986417262,-89.9896240234375,6279.66064453125,True
1598620565.5577703,0,5,0.5,0.5,-0.0013360877990722657,-0.14,-0.011,-0.56,0.001412474006375852,10,1,100,0.03447276655793047,-10,-1,-100,527.3617119541159,-0.0015661047983430054,6.838885146029639e-05,0.9999987713186079,9.230507478304597,-0.6402210663398396,-185.09732020576706,18.23250893153372,-89.98992919921875,6279.66064453125,True
1598620565.5967712,0,5,0.5,0.5,-0.00117003173828125,-0.14,-0.011,-0.56,0.0014415935215725078,10,1,100,0.035487465729767506,-10,-1,-100,528.0735657670302,-0.001740486662784441,7.496853875761804e-05,0.999998482541796,9.065915883024857,-0.6286186832747938,-177.85253288042094,17.841775496729966,-89.99041748046875,6279.66064453125,True
1598620565.6357024,0,5,0.5,0.5,-0.0010195465087890626,-0.14,-0.011,-0.56,0.0014717421538102604,10,1,100,0.03635653768607076,-10,-1,-100,528.7854195773834,-0.0019050088531131133,8.115258544707267e-05,0.9999981821761116,8.901726924478293,-0.6170568648484897,-170.76254806162567,17.45108826051982,-89.99102783203125,6279.66064453125,True
1598620565.6766577,0,5,0.5,0.5,-0.0013629882812500002,-0.14,-0.011,-0.56,0.0008609320143252627,10,1,100,0.02010688465933228,-10,-1,-100,528.7854195773834,-0.0019050088531131133,8.115258544707267e-05,0.9999981821761116,8.901726924478293,-0.6170568648484897,-170.76254806162567,17.45108826051982,-89.99102783203125,6279.66064453125,True
1598620565.7182255,0,5,0.5,0.5,-0.0008296356201171876,-0.14,-0.011,-0.56,0.0014993845668128517,10,1,100,0.03725541194556645,-10,-1,-100,529.4973346843617,-0.002059274927759352,8.689584844790914e-05,0.9999978759156859,8.73795377494737,-0.6055363627503701,-163.82682889605522,17.06044673636154,-89.99179077148438,6279.66064453125,True
1598620565.7574315,0,5,0.5,0.5,4.4342041015626825e-06,-0.14,-0.011,-0.56,0.0020841114203108825,10,1,100,0.05321802440613238,-10,-1,-100,530.7993380361004,-0.002343069318148194,9.737404952493325e-05,0.9999972502684519,8.411527867688301,-0.582608871882951,-150.4124672491479,16.279296061179092,-89.99359130859375,6279.66064453125,True
1598620565.7984023,0,5,0.5,0.5,-0.0002472198486328126,-0.14,-0.011,-0.56,0.00154011073410397,10,1,100,0.03854583838381968,-10,-1,-100,531.4466168256477,-0.0024660628025636898,0.00010189394652795176,0.9999969540712998,8.248794454951996,-0.571195652710138,-143.93086774676456,15.888784654244311,-89.99466705322266,6279.66064453125,True
1598620565.8403256,0,5,0.5,0.5,-0.00013406143188476568,-0.14,-0.011,-0.56,0.0015346050471650352,10,1,100,0.03837411295628973,-10,-1,-100,532.0942616442917,-0.0025747806070521195,0.00010589578660307955,0.9999966796399415,8.086430964739247,-0.5598191779015408,-137.59958523621273,15.498314844787464,-89.99568176269531,6279.66064453125,True
1598620565.8797364,0,5,0.5,0.5,-4.935836791992185e-05,-0.14,-0.011,-0.56,0.0015507111138887055,10,1,100,0.03897897471962379,-10,-1,-100,532.680688043707,-0.002677671613974266,0.00010962666800166891,0.9999964090219131,7.924518210319958,-0.5484847245073333,-131.41921057248777,15.107885554837384,-89.9966049194336,6279.66064453125,True
1598620565.9216642,0,5,0.5,0.5,-0.0002647811889648438,-0.14,-0.011,-0.56,0.0013285681200078709,10,1,100,0.03387905351912876,-10,-1,-100,533.0027708866401,-0.0027234931041981315,0.0001109487628376797,0.9999962851309415,7.843703487246444,-0.5428312784220689,-128.384904564462,14.912685852883648,-89.99702453613281,6279.66064453125,True
1598620565.9615219,0,5,0.5,0.5,0.00029343872070312503,-0.14,-0.011,-0.56,0.0016920819956857396,10,1,100,0.04243937829351301,-10,-1,-100,533.8503670839127,-0.0028417508414474656,0.00011541025924680165,0.9999959555581348,7.601750412412433,-0.5259203169336251,-119.5031925368505,14.327145049424324,-89.9981460571289,6279.66064453125,True
1598620566.002523,0,5,0.5,0.5,0.00010167160034179687,-0.14,-0.011,-0.56,0.0015394423762376457,10,1,100,0.038027086541820784,-10,-1,-100,534.4334976401879,-0.0029079864538922905,0.0001180357854348512,0.9999957648322003,7.440822898396383,-0.5146846398448963,-113.76499819656236,13.936831575095477,-89.9987564086914,6279.66064453125,True
1598620566.0406213,0,5,0.5,0.5,0.00012152557373046875,-0.14,-0.011,-0.56,0.0014500475621647012,10,1,100,0.03714883561006662,-10,-1,-100,534.9555928426562,-0.0029591551841979045,0.00011957079525361744,0.9999956145420943,7.280228381791127,-0.503481583930652,-108.17293406785205,13.546555029099613,-89.99925994873047,6279.66064453125,True
1598620566.0791562,0,5,0.5,0.5,8.358383178710938e-05,-0.14,-0.011,-0.56,0.0014581780279149996,10,1,100,0.03672569457889703,-10,-1,-100,535.47762683779,-0.0030008671602550258,0.00012100524640494716,0.9999954900668386,7.119897561282068,-0.4923059813255097,-102.72532093995882,13.156314643704928,-89.99959564208984,6279.66064453125,True
1598620566.1120667,0,5,0.5,0.5,-9.530639648437487e-06,-0.14,-0.011,-0.56,0.0013683897422583063,10,1,100,0.034459907566471853,-10,-1,-100,535.7353170735296,-0.003017192839914778,0.00012145680607204253,0.9999954408874128,7.039869569662299,-0.48673106964616075,-100.05606001719276,12.96120795062374,-89.99971771240234,6279.66064453125,True
1598620566.1516476,0,5,0.5,0.5,3.230056762695313e-05,-0.14,-0.011,-0.56,0.0014026296999103446,10,1,100,0.03554706353154275,-10,-1,-100,536.2573510198854,-0.0030410467684586925,0.00012214716815021673,0.9999953685465856,6.879948740386774,-0.4755970494468694,-94.82423259215265,12.571019267103946,-89.99986267089844,6279.66064453125,True
1598620566.1901135,0,5,0.5,0.5,-1.5274810791015625e-05,-0.14,-0.011,-0.56,0.0013647990491844732,10,1,100,0.03470239682303706,-10,-1,-100,536.7760889936471,-0.003054418844830099,0.0001224083340159351,0.9999953277599453,6.720277803164625,-0.4644887027390341,-89.73523783843595,12.180863975907188,-89.9999008178711,6279.66064453125,True
1598620566.228725,0,5,0.5,0.5,-7.360458374023438e-05,-0.14,-0.011,-0.56,0.0013253150546251495,10,1,100,0.03359708364076518,-10,-1,-100,537.2337919359561,-0.0030559921071086635,0.00012226816268196886,0.9999953229704316,6.560830251670749,-0.45340388211988336,-84.78820264782651,11.7907414773498,-89.99983978271484,6279.66064453125,True
1598620566.267922,0,5,0.5,0.5,-0.00013632202148437502,-0.14,-0.011,-0.56,0.00125967505256086,10,1,100,0.032544267182805786,-10,-1,-100,537.6915555025917,-0.003047413821834949,0.00012152912292679794,0.9999953492390206,6.40158495310257,-0.4423407451929225,-79.98235485488276,11.400650479925176,-89.99969482421875,6279.66064453125,True
1598620566.3057573,0,5,0.5,0.5,-0.00020128250122070313,-0.14,-0.011,-0.56,0.0012224474175780548,10,1,100,0.03133606231004835,-10,-1,-100,538.1458398884861,-0.0030282955707357224,0.00012050801514504875,0.9999954074413313,6.242558565587105,-0.4313001459143999,-75.31744519144097,11.010590586435743,-89.99948120117188,6279.66064453125,True
1598620566.3546276,0,5,0.5,0.5,-0.0002605308532714844,-0.14,-0.011,-0.56,0.0011928204370807117,10,1,100,0.030079607223577172,-10,-1,-100,538.5392115380382,-0.0029992159303443805,0.00011930170892774877,0.9999954952253063,6.083729953653758,-0.4202802791202709,-70.79276007260967,10.620562291549074,-89.99922180175781,6279.66064453125,True
1598620566.394996,0,5,0.5,0.5,-0.0003277069091796876,-0.14,-0.011,-0.56,0.0011270494481288853,10,1,100,0.02871011929116241,-10,-1,-100,538.9934347209055,-0.0029601868532494837,0.00011760361114911313,0.9999956117219637,5.925061519227469,-0.4092781526213165,-66.4074163051234,10.23056286489773,-89.99891662597656,6279.66064453125,True
1598620566.435474,0,5,0.5,0.5,-0.00035423355102539065,-0.14,-0.011,-0.56,0.0010437575406431092,10,1,100,0.027288144165665166,-10,-1,-100,539.3867449692916,-0.002911731372568369,0.00011530307962256072,0.9999957542537938,5.766591488874172,-0.3982961166323665,-62.161439990168525,9.840590000257054,-89.9986343383789,6279.66064453125,True
1598620566.4780176,0,5,0.5,0.5,-0.0004051231384277344,-0.14,-0.011,-0.56,0.0010140684363890964,10,1,100,0.025818908948067074,-10,-1,-100,539.780055108713,-0.0028543673643452176,0.00011294566611941391,0.9999959199067894,5.608283567654196,-0.38733128633027136,-58.0540348242696,9.450644228056639,-89.99833679199219,6279.66064453125,True
1598620566.5179229,0,5,0.5,0.5,-0.0003306716918945313,-0.14,-0.011,-0.56,0.0011035936830411537,10,1,100,0.028055220538706398,-10,-1,-100,539.9157970282249,-0.0028226815529626284,0.00011162375570455873,0.9999960099965337,5.529176445771163,-0.38185429196573384,-56.05204609489291,9.255681532708364,-89.99820709228516,6279.66064453125,True
1598620566.5547314,0,5,0.5,0.5,-0.00041991882324218755,-0.14,-0.011,-0.56,0.0009411888343411753,10,1,100,0.023490069455783955,-10,-1,-100,540.305688845343,-0.002752551724849118,0.00010895455038502465,0.9999962057867559,5.371135790674827,-0.3709163290211267,-52.15205250580921,8.865775202236486,-89.99797821044922,6279.66064453125,True
1598620566.5936036,0,5,0.5,0.5,-0.00047539749145507815,-0.14,-0.011,-0.56,0.00061351434881157,10,1,100,0.017143420681790304,-10,-1,-100,540.8312011737144,-0.002631362796840175,0.00010356113442405653,0.9999965325964499,5.134430032889196,-0.354543381337947,-46.56048767623881,8.28096354865329,-89.99771881103516,6279.66064453125,True
1598620566.6345804,0,5,0.5,0.5,-0.0004073020935058595,-0.14,-0.011,-0.56,0.0007238682927815724,10,1,100,0.01939966459689614,-10,-1,-100,541.0956657265779,-0.0025420869488311797,9.967838049525996e-05,0.9999967639238464,4.976896577894775,-0.34365254074117035,-43.00478631130406,7.8911192087038655,-89.99761199951172,6279.66064453125,True
1598620566.6731203,0,5,0.5,0.5,-0.0003659599304199219,-0.14,-0.011,-0.56,0.0006783879660133425,10,1,100,0.017828955240204693,-10,-1,-100,541.4245227579959,-0.002447115097542423,9.575568284590346e-05,0.999997001224778,4.819623423514433,-0.3327839192154654,-39.58657274272838,7.50129687125449,-89.99758911132812,6279.66064453125,True
1598620566.7115846,0,5,0.5,0.5,-0.00035545883178710936,-0.14,-0.011,-0.56,0.0010680803869409035,10,1,100,0.027266110496651102,-10,-1,-100,541.4245227579959,-0.002447115097542423,9.575568284590346e-05,0.999997001224778,4.819623423514433,-0.3327839192154654,-39.58657274272838,7.50129687125449,-89.99758911132812,6279.66064453125,True
1598620566.7519314,0,5,0.5,0.5,-0.0003041343688964844,-0.14,-0.011,-0.56,0.00038585513874529926,10,1,100,0.010108840385912069,-10,-1,-100,541.8821631229948,-0.002291668260602244,8.957613725530628e-05,0.9999973701128912,4.584281690039671,-0.31652736176106083,-34.71665451390508,6.916604820571166,-89.99766540527344,6279.66064453125,True
1598620566.7937021,0,5,0.5,0.5,-0.00024710006713867194,-0.14,-0.011,-0.56,0.0004834944417115023,10,1,100,0.013230320546234594,-10,-1,-100,542.1467498284765,-0.0021793732718138697,8.4873021810522e-05,0.9999976215615277,4.427879630981253,-0.3057279352015312,-31.64172686456598,6.526836598865488,-89.99781036376953,6279.66064453125,True
1598620566.8336477,0,5,0.5,0.5,-0.00018529815673828126,-0.14,-0.011,-0.56,0.0004238535746439261,10,1,100,0.011631437151830074,-10,-1,-100,542.350240834523,-0.0020634614453129752,8.008502769586614e-05,0.9999978678543531,4.272084531157011,-0.29497337886188485,-28.704859781136,6.137088307194797,-89.99801635742188,6279.66064453125,True
1598620566.8728354,0,5,0.5,0.5,-0.00012509536743164068,-0.14,-0.011,-0.56,0.00037173676644734223,10,1,100,0.009884876158446233,-10,-1,-100,542.6112263090909,-0.001942980384851632,7.529053301887068e-05,0.9999981095774929,4.116903203750201,-0.2842638149328829,-25.905224568992576,5.747359508619038,-89.9982681274414,6279.66064453125,True
1598620566.9101315,0,5,0.5,0.5,-5.2539062500000014e-05,-0.14,-0.011,-0.56,0.0002912254824274749,10,1,100,0.008043149421047679,-10,-1,-100,542.8149609976681,-0.0018175377113463275,7.023421266969469e-05,0.9999983458105434,3.9626631304335795,-0.2736214483942175,-23.24387584542528,5.357652410130758,-89.99857330322266,6279.66064453125,True
1598620566.9460356,0,5,0.5,0.5,2.26318359375e-05,-0.14,-0.011,-0.56,0.00018818935138592834,10,1,100,0.006414892395365303,-10,-1,-100,543.0150336698862,-0.0016896103477822256,6.473849256373415e-05,0.9999985705118783,3.809659938461291,-0.2630663660887844,-20.721108878554364,4.967959384393929,-89.9989242553711,6279.66064453125,True
1598620567.0631244,0,5,0.5,0.5,-5.536804199218751e-05,-0.14,-0.011,-0.56,0.00046666206149166805,10,1,100,0.011895750637681677,-10,-1,-100,543.1438786437502,-0.001624105038905979,6.231414988456883e-05,0.9999986791990124,3.7337265504865225,-0.2578286689323069,-19.511728738138213,4.773119442900657,-89.99909210205078,6279.66064453125,True
1598620567.0996077,0,5,0.5,0.5,-2.501831054687501e-05,-0.14,-0.011,-0.56,0.00040284063739202405,10,1,100,0.01109056249029533,-10,-1,-100,543.2353696058271,-0.0015581505547312736,5.956750448854858e-05,0.9999987843085416,3.65830527119899,-0.2526267313911031,-18.33733963140206,4.578280604755721,-89.999267578125,6279.66064453125,True
1598620567.164944,0,5,0.5,0.5,0.00012420272827148437,-0.14,-0.011,-0.56,8.021607866381866e-05,10,1,100,0.002869561319140672,-10,-1,-100,543.4067561811535,-0.0014243500461020445,5.417406802737077e-05,0.9999989841455423,3.5092862276366015,-0.242349378466136,-16.09354300523361,4.188617434564935,-89.99961853027344,6279.66064453125,True
1598620567.2689464,0,5,0.5,0.5,0.0004212348937988282,-0.14,-0.011,-0.56,-0.0006389707770926695,10,1,100,-0.01438787785532672,-10,-1,-100,543.7030197596177,-0.0011467571958088966,4.2770683114712446e-05,0.9999993415590845,3.2226244034024303,-0.22258359046532877,-12.030138018114913,3.409355784184721,-90.00032043457031,6279.66064453125,True
1598620567.3336132,0,5,0.5,0.5,0.00026615829467773437,-0.14,-0.011,-0.56,-0.00010531946744843715,10,1,100,-0.0021211381962369553,-10,-1,-100,543.8277143401792,-0.001007098017808427,3.7303513281544436e-05,0.9999994921808862,3.0888793458164883,-0.2133628882826775,-10.213513589013683,3.019741644516102,-90.00065612792969,6279.66064453125,True
1598620567.368806,0,5,0.5,0.5,0.0002737205505371094,-0.14,-0.011,-0.56,-0.00018129822073273156,10,1,100,-0.003156212714485341,-10,-1,-100,543.9369056686992,-0.0008718931514991908,3.169016351605608e-05,0.9999996193989605,2.9659885236821415,-0.20489121384040443,-8.54216502867534,2.63013066131661,-90.00093078613281,6279.66064453125,True
1598620567.397729,0,5,0.5,0.5,0.00019277191162109377,-0.14,-0.011,-0.56,5.364697704978333e-05,10,1,100,0.0025030921692548672,-10,-1,-100,543.9855507195462,-0.0008016164811796277,2.8771331762084496e-05,0.9999996782915621,2.910412970417752,-0.20106165910734974,-7.761484670319911,2.435334366032925,-90.00102996826172,6279.66064453125,True
1598620567.4381933,0,5,0.5,0.5,0.0002473564147949219,-0.14,-0.011,-0.56,-0.0002809772209490359,10,1,100,-0.005686082038764187,-10,-1,-100,544.0713658798486,-0.0006644286926017911,2.3122459000242684e-05,0.9999997789999077,2.8179181811744134,-0.19469033699907384,-6.312965969585867,2.0457567864349824,-90.00118255615234,6279.66064453125,True
1598620567.4945765,0,5,0.5,0.5,0.00022385940551757815,-0.14,-0.011,-0.56,-0.00033343134646768763,10,1,100,-0.007221962724235039,-10,-1,-100,544.1414948423626,-0.0005269122892015227,1.7557689961142955e-05,0.999999861027574,2.778677374073731,-0.1919994623035291,-5.039888287516222,1.656188215816945,-90.00126647949219,6279.66064453125,True
1598620567.558034,0,5,0.5,0.5,0.0001958465576171875,-0.14,-0.011,-0.56,-0.0006812500711447075,10,1,100,-0.015778095663426302,-10,-1,-100,544.2176057395991,-0.00032528764613785335,9.384708358268977e-06,0.9999999470499359,2.8362919375492375,-0.1960131696792769,-3.3295692370957326,1.0718515085006188,-90.00128936767578,6279.66064453125,True
1598620567.6206317,0,5,0.5,0.5,0.00010552215576171876,-0.14,-0.011,-0.56,-0.0007224405757728234,10,1,100,-0.017549381011145795,-10,-1,-100,544.2586212006863,-0.00012713021537492616,1.630587571951093e-06,0.9999999919176249,2.789420708609741,-0.19280601282426785,-1.4894658386827462,0.48752274946334495,-90.00117492675781,6279.66064453125,True
1598620567.680206,0,5,0.5,0.5,1.7023468017578105e-05,-0.14,-0.011,-0.56,-0.0007983430871472626,10,1,100,-0.018541418960390466,-10,-1,-100,544.2644808703335,6.0670544108567325e-05,-6.0534690987304135e-06,0.9999999981412201,1.7212596252239494,-0.11898725762026838,0.1825480603966785,-0.09682844175318495,-90.0009536743164,6279.66064453125,True
1598620567.7416916,0,5,0.5,0.5,-9.2205810546875e-05,-0.14,-0.011,-0.56,-0.0008383219231291171,10,1,100,-0.01944895253740611,-10,-1,-100,544.2353666878771,0.00023817715697657652,-1.3342763695923844e-05,0.9999999715468059,1.3193671719634155,-0.09121645473585893,0.9844132054744256,-0.6811931690379591,-90.00061798095703,6279.66064453125,True
1598620567.7848186,0,5,0.5,0.5,-0.0001808280944824219,-0.14,-0.011,-0.56,-0.0008079614076602279,10,1,100,-0.019979668622845656,-10,-1,-100,544.1710969982669,0.00040286010835778195,-1.9632011523906793e-05,0.9999999186591553,1.500381441390528,-0.10375329532409444,2.080021031248132,-1.2655696016790285,-90.0002212524414,6279.66064453125,True
1598620567.8487718,0,5,0.5,0.5,-0.00015637054443359377,-0.14,-0.011,-0.56,-0.000646929910903158,10,1,100,-0.014840668644581827,-10,-1,-100,544.1087805549614,0.0005044449577163278,-2.3828857129155547e-05,0.999999872483727,1.7488980917141013,-0.12095861716643053,3.171177259199327,-1.655145614218803,-89.99993896484375,6279.66064453125,True
1598620567.9100094,0,5,0.5,0.5,-0.00025542602539062504,-0.14,-0.011,-0.56,-0.000880816579350389,10,1,100,-0.020255492389995456,-10,-1,-100,543.9860997627256,0.0006446463612046528,-2.9714838873983153e-05,0.9999997917740269,2.075524346664835,-0.143588775807498,5.093016826191278,-2.2395028599607154,-89.99957275390625,6279.66064453125,True
1598620567.9733136,0,5,0.5,0.5,-0.0002547836303710938,-0.14,-0.011,-0.56,-0.0008452197087908005,10,1,100,-0.020384000167599572,-10,-1,-100,543.8285075449385,0.000771891762797073,-3.468630072565741e-05,0.9999997014899389,2.3707997303397357,-0.16406676841620205,7.337092585158055,-2.823840860461551,-89.99928283691406,6279.66064453125,True
1598620568.040656,0,5,0.5,0.5,-0.00023320693969726566,-0.14,-0.011,-0.56,-0.000866730521793339,10,1,100,-0.020073273110098277,-10,-1,-100,543.635758827324,0.0008833141471365554,-3.9343675588577316e-05,0.9999996091040199,2.646544954370773,-0.18321101452785465,9.88775612350895,-3.4081564842200005,-89.99908447265625,6279.66064453125,True
1598620568.0966506,0,5,0.5,0.5,-0.00013511199951171877,-0.14,-0.011,-0.56,-0.0009788047879102503,10,1,100,-0.022847375021760034,-10,-1,-100,543.3241132780677,0.0010084192931514295,-4.453972230630477e-05,0.9999994905532414,2.9961148597152434,-0.2075130404652814,13.757864730725512,-4.187195368339814,-89.99906921386719,6279.66064453125,True
1598620568.164633,0,5,0.5,0.5,-1.6831970214843743e-05,-0.14,-0.011,-0.56,-0.0008389048923416978,10,1,100,-0.018732022683585658,-10,-1,-100,543.049577276106,0.0010833431941066817,-4.793513171519066e-05,0.9999994120347008,3.2505130130656794,-0.22522338616013762,17.01431521414198,-4.771431648177937,-89.99922943115234,6279.66064453125,True
1598620568.2155025,0,5,0.5,0.5,9.946289062500001e-05,-0.14,-0.011,-0.56,-0.0007777179859847955,10,1,100,-0.01755956931992816,-10,-1,-100,542.7194999090862,0.001139516590905257,-5.041351399268467e-05,0.9999993494799967,3.500870526060744,-0.24267517726125465,20.57588949354362,-5.355616036915546,-89.99952697753906,6279.66064453125,True
1598620568.283574,0,5,0.5,0.5,8.0560302734375e-05,-0.14,-0.011,-0.56,-0.000655218837479336,10,1,100,-0.01534615664074166,-10,-1,-100,542.4721853858791,0.0011693098847238297,-5.150564734802538e-05,0.9999993150305463,3.666237414971692,-0.25421409312970167,23.120677254342446,-5.745062093249081,-89.99974060058594,6279.66064453125,True
1598620568.3588748,0,5,0.5,0.5,0.0001411766052246094,-0.14,-0.011,-0.56,-0.0006481251757126849,10,1,100,-0.014860690183945487,-10,-1,-100,542.2249931028346,0.001190973511914735,-5.239268785659347e-05,0.9999992894182975,3.830666218185864,-0.2656976531893631,25.80213682114606,-6.13449083408382,-90.0,6279.66064453125,True
1598620568.42584,0,5,0.5,0.5,0.000454522705078125,-0.14,-0.011,-0.56,-0.0007683347339033098,10,1,100,-0.01564059446198136,-10,-1,-100,541.6014579733601,0.0012168915788386674,-5.425640255324226e-05,0.9999992581152889,4.238729182573711,-0.2942420887796129,33.105668464686424,-7.107981859949393,-90.00065612792969,6279.66064453125,True
1598620568.4717321,0,5,0.5,0.5,0.00046675033569335944,-0.14,-0.011,-0.56,-0.0005767345518140649,10,1,100,-0.012369064303606455,-10,-1,-100,540.9780449506361,0.0012099722459929425,-5.417739208481227e-05,0.999999266515718,4.562980514042813,-0.3169730474744096,39.567751914853524,-7.886685100491776,-90.0011978149414,6279.66064453125,True
1598620568.5387712,0,5,0.5,0.5,0.0003303482055664063,-0.14,-0.011,-0.56,-0.000565811930887719,10,1,100,-0.01173225164379919,-10,-1,-100,540.6629203394987,0.0011972513489637842,-5.397867825513126e-05,0.999999281837497,4.7245566399314445,-0.328317212318389,43.00577992122467,-8.276004671511723,-90.00143432617188,6279.66064453125,True
1598620568.5816197,0,5,0.5,0.5,0.0003601669311523438,-0.14,-0.011,-0.56,-0.00047834878382249895,10,1,100,-0.009880075027456935,-10,-1,-100,540.1039603736717,0.0011683465597089296,-5.298085176448185e-05,0.9999993160794389,4.96637256598632,-0.34531736433742155,48.42227118856074,-8.859941389850503,-90.00166320800781,6279.66064453125,True
1598620568.6526144,0,5,0.5,0.5,0.0002880172729492188,-0.14,-0.011,-0.56,-0.000491002080774472,10,1,100,-0.009918891520181774,-10,-1,-100,539.7276786196744,0.0011420619423230041,-5.217213533523775e-05,0.9999993464860806,5.127279339513722,-0.3566448266869864,52.20668778967991,-9.249203069089383,-90.00173950195312,6279.66064453125,True
1598620568.6967385,0,5,0.5,0.5,0.00027491607666015625,-0.14,-0.011,-0.56,-0.00033780069264735795,10,1,100,-0.005268960188740044,-10,-1,-100,538.9719411627157,0.0010756595073270685,-5.0032536453181476e-05,0.9999994202265168,5.448431309513788,-0.37929148380985234,60.192271493075125,-10.027651188932868,-90.00177764892578,6279.66064453125,True
1598620568.7660618,0,5,0.5,0.5,0.0002405113220214844,-0.14,-0.011,-0.56,-0.00037154887706124565,10,1,100,-0.0075006152139897265,-10,-1,-100,538.5957204533042,0.0010355203028201462,-4.838925476948668e-05,0.9999994626779469,5.608714726862459,-0.3906140031863979,64.39387905550973,-10.416836322688967,-90.00175476074219,6279.66064453125,True
1598620568.8327458,0,5,0.5,0.5,0.00024542541503906254,-0.14,-0.011,-0.56,-0.0001744803209193283,10,1,100,-0.0015446668264235443,-10,-1,-100,537.7147997500142,0.0009449286069189666,-4.510341716206099e-05,0.9999995525377048,5.928761137270878,-0.41326360881650714,73.21575265041506,-11.195124484704039,-90.00173950195312,6279.66064453125,True
1598620568.9066901,0,5,0.5,0.5,0.00027242584228515625,-0.14,-0.011,-0.56,-0.00017651894525152491,10,1,100,-0.0019538138044097094,-10,-1,-100,537.0236374702072,0.0008664689358850288,-4.2139652373630896e-05,0.9999996237278456,6.168344246342393,-0.4302565037012325,80.19889458421507,-11.778765101608196,-90.00176239013672,6279.66064453125,True
1598620568.9806368,0,5,0.5,0.5,0.0003472816467285157,-0.14,-0.011,-0.56,3.391461818247376e-06,10,1,100,0.002470073191129683,-10,-1,-100,536.017045375309,0.0007552001176663988,-3.781828613349142e-05,0.9999997141212389,6.487221335326921,-0.45292586378266514,89.9998908478117,-12.556846930437159,-90.00188446044922,6279.66064453125,True
1598620569.0497706,0,5,0.5,0.5,0.0004145095825195313,-0.14,-0.011,-0.56,-3.127434317009897e-05,10,1,100,0.001258465808818404,-10,-1,-100,535.257890134817,0.0006654574167561544,-3.4218164507552413e-05,0.9999997779977473,6.72592034623712,-0.469936333938275,97.71837781393504,-13.140324766325882,-90.0020751953125,6279.66064453125,True
1598620569.095606,0,5,0.5,0.5,0.000512200927734375,-0.14,-0.011,-0.56,1.3467320619934436e-05,10,1,100,0.002476327792511248,-10,-1,-100,534.4377606766066,0.0005733029744060722,-3.055680084774e-05,0.999999835194977,6.964241204569241,-0.48695636454867364,105.75280382597246,-13.723728010437748,-90.00236511230469,6279.66064453125,True
1598620569.1690264,0,5,0.5,0.5,0.00043658065795898444,-0.14,-0.011,-0.56,-0.00021090564930401778,10,1,100,-0.0032397908425638488,-10,-1,-100,534.1226362838643,0.0005420697137444865,-2.9289515966525622e-05,0.9999998526512639,7.043591658624529,-0.4926316082500257,108.50115168203538,-13.918178707785339,-90.00248718261719,6279.66064453125,True
1598620569.238695,0,5,0.5,0.5,0.0007271980285644532,-0.14,-0.011,-0.56,0.000260346946481279,10,1,100,0.007779109373512023,-10,-1,-100,532.9873210415244,0.0004140996399380091,-2.3875768987635858e-05,0.9999999139757142,7.360490924670376,-0.515339682232418,119.84526055408061,-14.695893230787302,-90.00299835205078,6279.66064453125,True
1598620569.3115156,0,5,0.5,0.5,0.0009924911499023439,-0.14,-0.011,-0.56,0.00047739051414578216,10,1,100,0.013503663392608615,-10,-1,-100,531.4690104020992,0.00024640748804921603,-1.7007516648764994e-05,0.9999999694970466,7.755543483794579,-0.5437481186278499,134.81687663774548,-15.667829816181381,-90.0037841796875,6279.66064453125,True
1598620569.3806162,0,5,0.5,0.5,0.0009285171508789064,-0.14,-0.011,-0.56,0.000259852874049632,10,1,100,0.007753421034582228,-10,-1,-100,530.5202800179832,0.00014704923909080201,-1.277323363128964e-05,0.999999989106683,7.992032226189626,-0.5608098015863722,144.2235336634755,-16.250876202043518,-90.00431823730469,6279.66064453125,True
1598620569.4526618,0,5,0.5,0.5,0.0010701667785644534,-0.14,-0.011,-0.56,0.00046022735052867966,10,1,100,0.012138008418104277,-10,-1,-100,529.1883097980171,1.77078640677127e-05,-7.1361713772496945e-06,0.9999999998177533,8.306493003691084,-0.5835649663076307,157.25727288751176,-17.028130157891347,-90.00494384765625,6279.66064453125,True
1598620569.4985886,0,5,0.5,0.5,0.001043767547607422,-0.14,-0.011,-0.56,0.0004946314968892328,10,1,100,0.013137596980999578,-10,-1,-100,527.795426721801,-0.00010803708885345995,-1.7363071642922047e-06,0.9999999941624864,8.619808950787297,-0.6063183028465302,170.8505455437685,-17.805216857958847,-90.00540161132812,6279.66064453125,True
1598620569.5597498,0,5,0.5,0.5,0.0009142814636230468,-0.14,-0.011,-0.56,0.00024178259854857627,10,1,100,0.007127819088131161,-10,-1,-100,527.0361491803778,-0.00016675909639592907,8.34609308028846e-07,0.9999999860953535,8.776059522096741,-0.6176966516054518,177.8576949445715,-18.193695441995082,-90.00557708740234,6279.66064453125,True
1598620569.6346354,0,5,0.5,0.5,0.0009483848571777345,-0.14,-0.011,-0.56,0.0004024714975052538,10,1,100,0.010686032407156865,-10,-1,-100,525.8975385469384,-0.0002515508352145156,4.593546762761724e-06,0.9999999683505376,9.009855540350502,-0.6347623664512307,188.63048678398198,-18.776329544800884,-90.0057601928711,6279.66064453125,True
1598620569.6995907,0,5,0.5,0.5,0.001004985809326172,-0.14,-0.011,-0.56,0.000587608973033879,10,1,100,0.014445376169974744,-10,-1,-100,524.3758712048875,-0.0003618948583907742,9.655274378327977e-06,0.9999999344694416,9.320439403065972,-0.6575106694558418,203.48258038966404,-19.55301457028026,-90.0059814453125,6279.66064453125,True
1598620569.7760365,0,5,0.5,0.5,0.001029576873779297,-0.14,-0.011,-0.56,0.000498583491633477,10,1,100,0.012047007102663678,-10,-1,-100,523.1727460568072,-0.00043947029496168417,1.3407637435306479e-05,0.9999999033430429,9.55256757906684,-0.6745723448210301,214.98942805334116,-20.13540423256152,-90.00618743896484,6279.66064453125,True
1598620569.8489704,0,5,0.5,0.5,0.0010465988159179688,-0.14,-0.011,-0.56,0.00036115716173660547,10,1,100,0.009720709587150317,-10,-1,-100,522.3458422418917,-0.00048792455691296473,1.552957863505806e-05,0.9999998808442225,9.70691651943175,-0.6859464408731567,222.83563897878741,-20.523602978360604,-90.0063705444336,6279.66064453125,True
1598620569.91875,0,5,0.5,0.5,0.0013542152404785158,-0.14,-0.011,-0.56,0.0007405234128787313,10,1,100,0.01741817528197249,-10,-1,-100,520.2512993026758,-0.0006010144883937328,2.086665555921375e-05,0.9999998191730674,10.0911128833559,-0.7143642332812543,243.0581956083623,-21.493880886377962,-90.00695037841797,6279.66064453125,True
1598620569.9939895,0,5,0.5,0.5,0.0015251884460449222,-0.14,-0.011,-0.56,0.0006547638611170802,10,1,100,0.015237138607898885,-10,-1,-100,518.4754812461324,-0.0006830730798589148,2.4898236451934046e-05,0.9999997663955954,10.39676576971926,-0.737084587161577,259.86159525001113,-22.26987096708072,-90.00765228271484,6279.66064453125,True
1598620570.0628786,0,5,0.5,0.5,0.0017078186035156251,-0.14,-0.011,-0.56,0.0006576724069594618,10,1,100,0.014701545997068695,-10,-1,-100,516.6961238209624,-0.0007519577933034348,2.855165517742806e-05,0.9999997168720999,10.7007934055897,-0.7597877955284531,277.21879876624064,-23.045646866779517,-90.00846862792969,6279.66064453125,True
1598620570.136697,0,5,0.5,0.5,0.0016824768066406252,-0.14,-0.011,-0.56,0.0005906888854884506,10,1,100,0.012863685999218916,-10,-1,-100,515.2998227482894,-0.0007970551627885512,3.122643574286004e-05,0.999999681863938,10.927617189289997,-0.7767962135184858,290.5969791013915,-23.62733405876368,-90.00907897949219,6279.66064453125,True
1598620570.209296,0,5,0.5,0.5,0.0018365615844726565,-0.14,-0.011,-0.56,0.0005833692434785071,10,1,100,0.013915012060046743,-10,-1,-100,513.3306456925347,-0.0008468695873944951,3.355663714123499e-05,0.9999996408428626,11.228430615975203,-0.7994492279457177,308.91439339370226,-24.40271869285486,-90.00978088378906,6279.66064453125,True
1598620570.2791138,0,5,0.5,0.5,0.0017634063720703124,-0.14,-0.011,-0.56,0.000553271924198431,10,1,100,0.012468660091093582,-10,-1,-100,511.8699525145348,-0.0008783351077743781,3.536930556057013e-05,0.9999996136381507,11.452826660779305,-0.8164217742936681,323.01244321492317,-24.984104722204187,-90.0102310180664,6279.66064453125,True
1598620570.3566446,0,5,0.5,0.5,0.0018048416137695315,-0.14,-0.011,-0.56,0.0006086222901246493,10,1,100,0.012187494436255853,-10,-1,-100,510.34138815675396,-0.0009037371876108575,3.74889759081563e-05,0.9999995909267526,11.676151418029184,-0.833378584754661,337.41831506856096,-25.5653568103364,-90.0106430053711,6279.66064453125,True
1598620570.4308565,0,5,0.5,0.5,0.002049470520019531,-0.14,-0.011,-0.56,0.0006069603392710962,10,1,100,0.013353253501067431,-10,-1,-100,507.7353071962716,-0.0009368349004583109,3.937093537170652e-05,0.9999995603950529,12.043925347862057,-0.8614538142346928,361.7854166492763,-26.514896502166,-90.01131439208984,6279.61572265625,True
1598620570.5016258,0,5,0.5,0.5,0.0019997947692871093,-0.14,-0.011,-0.56,0.0005480835768965203,10,1,100,0.011701143031384306,-10,-1,-100,506.08504106639884,-0.0009513818714660878,4.0519550079716596e-05,0.9999995466152477,12.257763406560763,-0.8778801063990876,376.1349117952101,-27.049189376438985,-90.01177215576172,6279.5048828125,True
1598620570.5740054,0,5,0.5,0.5,0.002214220428466797,-0.14,-0.011,-0.56,0.0005799608838940266,10,1,100,0.011670079930334358,-10,-1,-100,503.92324214219116,-0.0009638586245758815,4.1828891775480893e-05,0.9999995346133396,12.520058604806765,-0.8982147941892297,394.0894847146362,-27.697688372736934,-90.01243591308594,6279.205078125,True
1598620570.6465483,0,5,0.5,0.5,0.00219632568359375,-0.14,-0.011,-0.56,0.0005678436170216863,10,1,100,0.011063058995875676,-10,-1,-100,502.26621019130107,-0.0009692500879372851,4.288513696993587e-05,0.9999995293574552,12.689224154352049,-0.9115293299356345,406.0910514217339,-28.124543914690868,-90.01293182373047,6278.8388671875,True
1598620570.720836,0,5,0.5,0.5,0.00244857177734375,-0.14,-0.011,-0.56,0.0005397114521576028,10,1,100,0.01077687257476216,-10,-1,-100,499.9788522220915,-0.0009712149638924896,4.356959611939352e-05,0.9999995274214805,12.893197116844455,-0.9277890676979241,420.9748864374291,-28.645633791751685,-90.01367950439453,6278.23583984375,True
1598620570.7656689,0,5,0.5,0.5,0.0024156814575195316,-0.14,-0.011,-0.56,0.0005042079662983362,10,1,100,0.0104199769043051,-10,-1,-100,498.1997674938757,-0.0009694947614984898,4.3852098784118546e-05,0.9999995290783397,13.027360209786725,-0.9386657780427707,431.04553071820396,-28.992822727659757,-90.01422119140625,6277.6806640625,True
1598620570.835885,0,5,0.5,0.5,0.0023803527832031253,-0.14,-0.011,-0.56,0.00047508822545539597,10,1,100,0.01033387702248111,-10,-1,-100,497.0542162274942,-0.000966950454061731,4.383028497747212e-05,0.9999995315427529,13.108133998983288,-0.9453129053003086,437.44133830904116,-29.21745088739776,-90.01459503173828,6277.2939453125,True
1598620570.876,0,5,0.5,0.5,0.0026043159484863284,-0.14,-0.011,-0.56,0.0004933574751398222,10,1,100,0.00960117763395742,-10,-1,-100,494.710303306696,-0.0009578220935042138,4.396508028743869e-05,0.9999995403218488,13.517833417239222,-0.9763404939023742,448.50711128390344,-29.020521647968057,-90.01520538330078,6274.9814453125,True
1598620570.9441202,0,5,0.5,0.5,0.002450065612792969,-0.14,-0.011,-0.56,0.0004546416028919162,10,1,100,0.009866565283188152,-10,-1,-100,493.56745683122426,-0.0009518353329848324,4.372619678229442e-05,0.9999995460486562,13.144422443287421,-0.949781274866415,421.80994257018216,-28.08130627594698,-90.01546478271484,6271.82421875,True
1598620570.9887788,0,5,0.5,0.5,0.0024600952148437502,-0.14,-0.011,-0.56,0.0005202776212522535,10,1,100,0.009395853063152786,-10,-1,-100,491.97751961729955,-0.0009420468030348818,4.409812386160113e-05,0.9999995553014893,12.59272674656849,-0.9104813721802598,383.540615580787,-26.67158751157003,-90.01567840576172,6267.0869140625,True
