Timestamp,Input Throttle,horizon,dT,dt,Input Roll,Roll P,Roll I,Roll D,Input Pitch,Pitch P,Pitch I,Pitch D,Input Yaw,Yaw P,Yaw I,Yaw D,Altitude,Direction X,Direction Y,Direction Z,Drag X,Drag Y,Drag Z,Vertical Velocity,Roll,Mass,Has Fuel
1598630994.3326993,0,5,0.5,0.5,-0.006600952148437502,-0.14,-0.011,-0.56,0.0045326974686782885,10,1,100,0.13516269984763618,-10,-1,-100,476.09923258563504,-0.011865054110443796,0.00041617955869175673,0.9999295211591321,5.89644850740667,-0.4842227123215938,136.87955072051204,-15.795458299607139,-89.92892456054688,6440.1796875,True
1598630994.3885562,0,5,0.5,0.5,-0.008597470092773438,-0.14,-0.011,-0.56,0.004291450771740841,10,1,100,0.12363272206584412,-10,-1,-100,475.45622827345505,-0.011899560251810722,0.000416979897136794,0.999929110784149,6.020271247056506,-0.4947570270672503,143.30003569785063,-16.184239457849785,-89.93096923828125,6440.1796875,True
1598630994.4421573,0,5,0.5,0.5,-0.007682192993164062,-0.14,-0.011,-0.56,0.004056868033028878,10,1,100,0.11877976101765883,-10,-1,-100,474.8260134718148,-0.011875993861477323,0.00041519583455568566,0.9999293916983445,6.4661010102671765,-0.5283784538126877,149.88682553892,-15.927344182096983,-89.93402099609375,6438.60107421875,True
1598630994.4990008,0,5,0.5,0.5,-0.005960336303710938,-0.14,-0.011,-0.56,0.004134665843524997,10,1,100,0.11928825844690064,-10,-1,-100,474.22895663790405,-0.011848396216111452,0.0004139037615459558,0.9999297196257256,6.318647029823322,-0.5102298435911518,135.2343519790441,-15.024419510171514,-89.93902587890625,6435.443359375,True
1598630994.6088383,0,5,0.5,0.5,-0.003852725219726563,-0.14,-0.011,-0.56,0.004048471848963446,10,1,100,0.11633660838399518,-10,-1,-100,473.6286898483522,-0.0117857029959196,0.00041156929180332735,0.999930461490003,6.16583246034269,-0.4921814252115358,121.45436437890696,-14.120956200423798,-89.94613647460938,6432.28515625,True
1598630994.665136,0,5,0.5,0.5,0.0057566040039062506,-0.14,-0.011,-0.56,0.0033482778230559617,10,1,100,0.09705377550131468,-10,-1,-100,472.5943400012329,-0.011542696403179077,0.00040270749244559405,0.9999332997687493,5.811472816393718,-0.45384034983254345,95.86663727211676,-12.312422168072436,-89.96563720703125,6425.9697265625,True
1598630994.7228248,0,5,0.5,0.5,0.0031296936035156257,-0.14,-0.011,-0.56,0.0035616732834763782,10,1,100,0.10290986875834979,-10,-1,-100,472.1495953606209,-0.011364525169930575,0.00039622517222198065,0.9999353431963862,5.61490845973448,-0.4339771360610178,84.17709088612096,-11.407436347168328,-89.9775390625,6422.8115234375,True
1598630994.8282986,0,5,0.5,0.5,0.0046857971191406255,-0.14,-0.011,-0.56,0.003428331548364465,10,1,100,0.0989238070936009,-10,-1,-100,471.7155325546628,-0.011155983010779738,0.0003887597515429311,0.9999376945134724,5.405281360590543,-0.4136514514677836,73.22347605888156,-10.50184624405031,-89.98931884765625,6419.654296875,True
1598630994.884021,0,5,0.5,0.5,0.012940191650390627,-0.14,-0.011,-0.56,0.002212544810333554,10,1,100,0.06292503478344383,-10,-1,-100,470.9655068682041,-0.010628995860540476,0.00037056698080574783,0.999943441964149,4.948754233092496,-0.37175545410873034,53.5439272104836,-8.688875806291144,-90.01055145263672,6413.3388671875,True
1598630994.9427845,0,5,0.5,0.5,0.007614426422119142,-0.14,-0.011,-0.56,0.0028306721772264026,10,1,100,0.08246380007952678,-10,-1,-100,470.6438676067628,-0.010317879048595956,0.00035931055894296553,0.9999467047137367,4.7036207273398505,-0.3503082313158464,44.82868747804266,-7.781635007949944,-90.01991271972656,6410.1806640625,True
1598630994.9999876,0,5,0.5,0.5,0.007467568206787109,-0.14,-0.011,-0.56,0.002680320740924862,10,1,100,0.07841057698034667,-10,-1,-100,470.3385553169064,-0.009988818210427849,0.00034738397095683765,0.9999500501700752,4.449481682056001,-0.32868030409708565,36.87034787653635,-6.873762233380296,-90.02716064453125,6407.0234375,True
1598630995.0578134,0,5,0.5,0.5,0.0069774833679199216,-0.14,-0.011,-0.56,0.002454214751351012,10,1,100,0.07077753144903816,-10,-1,-100,470.1027921271743,-0.009621986339899507,0.0003345486506894454,0.999953651653953,4.189532712014326,-0.30708921169921805,29.676308101302425,-5.965250674473137,-90.0321044921875,6403.865234375,True
1598630995.1127622,0,5,0.5,0.5,0.006440386199951173,-0.14,-0.011,-0.56,0.0022553276018697404,10,1,100,0.06452238586443584,-10,-1,-100,469.9099059473956,-0.009233708383115458,0.00032114705022057486,0.9999573168361076,3.9302186336452825,-0.2859809149556289,23.260493980069334,-5.056145302833385,-90.0351333618164,6400.7080078125,True
1598630995.216747,0,5,0.5,0.5,0.005453587341308594,-0.14,-0.011,-0.56,0.0027657982451582443,10,1,100,0.08081938468607891,-10,-1,-100,469.79731798521243,-0.009031285034852498,0.00031368991817361995,0.9999591679109977,3.8046855933562,-0.27587989960258674,20.35143140685156,-4.6013683646445855,-90.0359878540039,6399.12890625,True
1598630995.2637017,0,5,0.5,0.5,0.005380802154541016,-0.14,-0.011,-0.56,0.0026574590838582936,10,1,100,0.0778295726858988,-10,-1,-100,469.71436359966174,-0.008822644710231132,0.0003060169092494544,0.9999610328877662,3.686198777253847,-0.26638313978783573,17.649530755796764,-4.146440262489491,-90.03641510009766,6397.5498046875,True
1598630995.3158965,0,5,0.5,0.5,0.0050058654785156255,-0.14,-0.011,-0.56,0.0017236901581200303,10,1,100,0.05026320584675056,-10,-1,-100,469.5759508102201,-0.00838506204229735,0.00029064859488673234,0.9999648025095389,3.4997088083500576,-0.2512748697613415,12.911151596772898,-3.2361277080532904,-90.03607940673828,6394.392578125,True
1598630995.368917,0,5,0.5,0.5,0.004075051116943359,-0.14,-0.011,-0.56,0.0014079953340033699,10,1,100,0.0428448052135357,-10,-1,-100,469.47373149730265,-0.007922690187838215,0.00027390931879006886,0.999968577483249,3.532981615273501,-0.252132220319499,9.252926597606288,-2.3252446023614293,-90.03437042236328,6391.234375,True
1598630995.5237875,0,5,0.5,0.5,0.002985069274902344,-0.14,-0.011,-0.56,0.001222615270087165,10,1,100,0.036418436768487064,-10,-1,-100,469.4078891638201,-0.007447059547904098,0.00025711771798789284,0.9999722372118984,4.765042753533901,-0.3381424621509309,7.50228200497594,-1.4137101816514024,-90.03135681152344,6388.076171875,True
1598630995.625782,0,5,0.5,0.5,-0.00602630615234375,-0.14,-0.011,-0.56,-0.003122404499412247,10,1,100,-0.08525070281320918,-10,-1,-100,469.42981719004456,-0.005911956718551185,0.0002024721212027882,0.9999825037333393,0.6671182237057643,-0.04665553063656955,-0.9559048416953504,1.3247406555755212,-90.01600646972656,6378.60302734375,True
1598630995.7272387,0,5,0.5,0.5,-0.007774150848388673,-0.14,-0.011,-0.56,-0.0017247973944381455,10,1,100,-0.052208340725427016,-10,-1,-100,469.6270853008609,-0.004821082019157456,0.00016565263858846034,0.999988364795995,2.197721310606481,-0.15253027992363832,-7.382227623161677,3.153636810398998,-90.001220703125,6372.287109375,True
1598630995.8449888,0,5,0.5,0.5,-0.008956821441650392,-0.14,-0.011,-0.56,-0.0018741448995897505,10,1,100,-0.056234885073362856,-10,-1,-100,469.97090209822636,-0.0037977698865723207,0.0001309987297289245,0.9999927798655456,3.2236668037257585,-0.222395305389459,-16.909541173884968,4.985028258077488,-89.98773193359375,6365.9716796875,True
1598630995.9530282,0,5,0.5,0.5,-0.006338449859619141,-0.14,-0.011,-0.56,-0.0019278433478553264,10,1,100,-0.06205484861269032,-10,-1,-100,470.4791815528879,-0.002820205595977271,9.920372236441208e-05,0.999996018291582,4.1406947300704395,-0.28437645705076314,-29.434634979627308,6.818888981277137,-89.98074340820312,6359.65625,True
1598630996.0117853,0,5,0.5,0.5,-0.001925952911376953,-0.14,-0.011,-0.56,-0.0019818593417956915,10,1,100,-0.06292338681368291,-10,-1,-100,471.10101930843666,-0.0019297984215581319,7.002206565932931e-05,0.9999981354857429,5.030571782434033,-0.34439063505865025,-45.085157723552506,8.655197084458054,-89.98153686523438,6353.34033203125,True
1598630996.0707314,0,5,0.5,0.5,-0.00012211608886718772,-0.14,-0.011,-0.56,-0.0005758481559301473,10,1,100,-0.020105184859810478,-10,-1,-100,471.48150401667226,-0.0015162336534500795,5.6503502148541956e-05,0.9999988489207686,5.470460823610335,-0.3740741230444593,-54.09826779280431,9.574260661756231,-89.98483276367188,6350.1826171875,True
1598630996.13463,0,5,0.5,0.5,0.0009666328430175781,-0.14,-0.011,-0.56,-0.0006728729809189883,10,1,100,-0.02270737802658208,-10,-1,-100,471.87831586191896,-0.0011234412458188377,4.3565660926132244e-05,0.9999993679907004,5.907510804777158,-0.4036031891344309,-63.90676905391551,10.493926138463646,-89.98910522460938,6347.0244140625,True
1598630996.242895,0,5,0.5,0.5,0.001704997253417969,-0.14,-0.011,-0.56,-0.0008358936063379382,10,1,100,-0.027007144029375933,-10,-1,-100,472.34473848715425,-0.0007342677329145031,3.0560573445881436e-05,0.9999997299584373,6.3418784053275505,-0.4330063133513248,-74.51421040399848,11.414187820938563,-89.99365234375,6343.86669921875,True
1598630996.3528347,0,5,0.5,0.5,0.005018618011474609,-0.14,-0.011,-0.56,-0.0022390210023312167,10,1,100,-0.06915313491632503,-10,-1,-100,473.3309905070346,-4.28352612864598e-06,6.218506701569852e-06,0.9999999999714908,7.202029395468042,-0.49146599651708645,-98.137807745624,13.256495604845442,-90.00209045410156,6337.55078125,True
1598630996.4087918,0,5,0.5,0.5,0.004952134704589844,-0.14,-0.011,-0.56,-0.002335559986169405,10,1,100,-0.07266588817386382,-10,-1,-100,474.48902705463115,0.0006840740490527499,-1.6544916726252844e-05,0.9999997658844532,8.04834729109079,-0.5494098920572255,-124.98423364581555,15.101160190944817,-90.00879669189453,6331.2353515625,True
1598630996.519333,0,5,0.5,0.5,0.002619121551513672,-0.14,-0.011,-0.56,-0.001233690830018804,10,1,100,-0.038827618515705264,-10,-1,-100,475.1213756270008,0.0009948410899644348,-2.6973161482255157e-05,0.9999995047817044,8.465231550403796,-0.5781536427475207,-139.61744174992182,16.024366205290676,-90.0108642578125,6328.078125,True
1598630996.57797,0,5,0.5,0.5,0.0014716499328613283,-0.14,-0.011,-0.56,-0.0023310292105095404,10,1,100,-0.07073713580721676,-10,-1,-100,476.48842804471496,0.0015611641954356022,-4.622060082609573e-05,0.9999987803142618,9.284078490427474,-0.6350780927670007,-171.29063982016729,17.87250895235154,-90.0108871459961,6321.76171875,True
1598630996.6347654,0,5,0.5,0.5,0.00015568389892578103,-0.14,-0.011,-0.56,-0.001386913281731303,10,1,100,-0.04335798259284515,-10,-1,-100,477.23341640341096,0.0018212999473563825,-5.494278884122632e-05,0.9999983399225179,9.685669586809016,-0.6632419922643887,-188.3285714077933,18.797438852296374,-90.0090103149414,6318.6044921875,True
1598630996.6926935,0,5,0.5,0.5,-0.000623064422607422,-0.14,-0.011,-0.56,-0.0013796647800850144,10,1,100,-0.0424394731982314,-10,-1,-100,478.0211906636832,0.002044328663847941,-6.263711745949682e-05,0.9999979083962655,10.081922731862631,-0.6912008115285602,-206.16842835600528,19.722937199924512,-90.00636291503906,6315.4462890625,True
1598630996.7519104,0,5,0.5,0.5,-0.0013019752502441409,-0.14,-0.011,-0.56,-0.0014465402188699088,10,1,100,-0.04436011094674232,-10,-1,-100,478.8520861415891,0.002260120081772343,-7.009279215612912e-05,0.9999974434688402,10.472620093391308,-0.718942650074907,-224.807285718308,20.64900044988353,-90.00323486328125,6312.2890625,True
1598630996.8628035,0,5,0.5,0.5,-0.0019243171691894533,-0.14,-0.011,-0.56,-0.0014343230994214957,10,1,100,-0.04453854813445384,-10,-1,-100,479.6829815811943,0.002454107237497967,-7.663223637824977e-05,0.9999969857380409,10.857802171761936,-0.7464735433898292,-244.24640902216706,21.575624972629452,-89.99980926513672,6309.130859375,True
1598630996.9217176,0,5,0.5,0.5,-0.004897497558593751,-0.14,-0.011,-0.56,-0.0021175668947805114,10,1,100,-0.06228035693566096,-10,-1,-100,481.510757676675,0.0027881389673586466,-8.866746041205342e-05,0.999996109202021,11.611217992799036,-0.8008678972816994,-285.5202899507416,23.43054461354053,-89.9927978515625,6302.81494140625,True
1598630996.976809,0,5,0.5,0.5,-0.003423709106445313,-0.14,-0.011,-0.56,-0.0014515355062926652,10,1,100,-0.04483288323738341,-10,-1,-100,482.4808128894074,0.0029296347970538526,-9.343353043713252e-05,0.999995704245839,11.979381900651285,-0.8277229409045094,-307.35224460239186,24.35883257144864,-89.98928833007812,6299.6572265625,True
1598630997.0358655,0,5,0.5,0.5,-0.003599407958984375,-0.14,-0.011,-0.56,-0.0014697787446590997,10,1,100,-0.043861604190554765,-10,-1,-100,483.4671340674395,0.0030461067395056263,-9.781944707791472e-05,0.9999953558217595,12.341768882036241,-0.8543420726595617,-329.97604910423973,25.28766926959898,-89.98623657226562,6296.49951171875,True
1598630997.0997388,0,5,0.5,0.5,-0.0036595718383789066,-0.14,-0.011,-0.56,-0.0014240520382745039,10,1,100,-0.0441135754901971,-10,-1,-100,484.5068605688866,0.0031515078896715925,-0.00010129636673532996,0.9999950288561775,12.698392955297969,-0.8807201362742486,-353.386114487848,26.217051194422105,-89.98373413085938,6293.341796875,True
1598630997.1477115,0,5,0.5,0.5,-0.003738410186767579,-0.14,-0.011,-0.56,-0.0014607194763944509,10,1,100,-0.04309123578665808,-10,-1,-100,485.58958592277486,0.003235789998117008,-0.00010471349636133508,0.9999947593353536,13.049564449849477,-0.9068657295386096,-377.58337527273,27.14691893014373,-89.98165893554688,6290.18408203125,True
1598630997.2047162,0,5,0.5,0.5,-0.003761991119384766,-0.14,-0.011,-0.56,-0.0013707151858253482,10,1,100,-0.04215776298457968,-10,-1,-100,486.71531075041275,0.00330188675404108,-0.00010693108398445781,0.9999945430399141,13.395318326377252,-0.9327754472552592,-402.5624766878964,28.077325021741547,-89.98001098632812,6287.0263671875,True
1598630997.2679245,0,5,0.5,0.5,-0.0037916824340820314,-0.14,-0.011,-0.56,-0.0013440380521840063,10,1,100,-0.04111947932079913,-10,-1,-100,487.86755503783934,0.0033509532965207717,-0.00010864936198768596,0.9999943796378661,13.736032776557227,-0.9584645687800153,-428.32689244705324,29.00832277971843,-89.97869873046875,6283.86865234375,True
1598630997.3802557,0,5,0.5,0.5,-0.003709668731689454,-0.14,-0.011,-0.56,-0.0013346170545216664,10,1,100,-0.03986617326404123,-10,-1,-100,489.0467155256774,0.003382774958850725,-0.00011007696330901167,0.9999942723419167,14.07186309925159,-0.9839325830827659,-454.87052862041867,29.93985249533538,-89.97781372070312,6280.7109375,True
1598630997.4934928,0,5,0.5,0.5,-0.003822249603271485,-0.14,-0.011,-0.56,-0.0013049050080861091,10,1,100,-0.038258247995491206,-10,-1,-100,491.54990281607024,0.0033958694709865884,-0.00011106154604639405,0.9999942278512757,14.730064753408408,-1.034241795169983,-510.28577615006213,31.804493349845373,-89.97698974609375,6274.39501953125,True
1598630997.5518377,0,5,0.5,0.5,-0.0032401573181152347,-0.14,-0.011,-0.56,-0.001007406437652364,10,1,100,-0.031216360865971488,-10,-1,-100,494.17604478506837,0.003342723917760636,-0.00010921484448198921,0.9999944071188235,15.37247579654083,-1.0837633046360886,-568.7803413541519,33.671217945288134,-89.97720336914062,6268.0791015625,True
1598630997.6090386,0,5,0.5,0.5,-0.0030855804443359375,-0.14,-0.011,-0.56,-0.0010556020992554512,10,1,100,-0.031051526185752132,-10,-1,-100,495.5534769096412,0.0032921034480257187,-0.0001079445467033731,0.9999945751867169,15.688774214165912,-1.1082620809889285,-599.1754432586316,34.60536179869925,-89.97763061523438,6264.92138671875,True
1598630997.7210722,0,5,0.5,0.5,-0.0029997253417968755,-0.14,-0.011,-0.56,-0.0009456770943316869,10,1,100,-0.029079954857024477,-10,-1,-100,496.9575809208909,0.003227703313932209,-0.00010577288769051395,0.9999947853581105,16.002378870457573,-1.1325997311645528,-630.3302091655307,35.540019148494714,-89.97811889648438,6261.763671875,True
1598630997.7791739,0,5,0.5,0.5,-0.0027513916015625,-0.14,-0.011,-0.56,-0.0005281048439417177,10,1,100,-0.016479158457924865,-10,-1,-100,499.8947566540446,0.0030543340715673143,-9.999132325959375e-05,0.9999953305116551,16.623665455675738,-1.180874373510578,-694.9188510245477,37.41086260692989,-89.9788818359375,6255.447265625,True
1598630997.8357275,0,5,0.5,0.5,-0.0030585540771484376,-0.14,-0.011,-0.56,-0.0006930173594808741,10,1,100,-0.022076544030245844,-10,-1,-100,501.41171467583627,0.002947603513409363,-9.6232585848948e-05,0.9999956511769523,16.93229435184017,-1.2048371833157179,-728.3451807114474,38.34704177124651,-89.97906494140625,6252.2900390625,True
1598630997.891716,0,5,0.5,0.5,-0.0032303161621093754,-0.14,-0.011,-0.56,-0.0006467168089175824,10,1,100,-0.020080283372760237,-10,-1,-100,502.9713664354058,0.0028326132767215943,-9.239924118040957e-05,0.9999959838741377,17.24033235782685,-1.2287116531969993,-762.5246012079702,39.28372206499489,-89.97897338867188,6249.1318359375,True
1598630997.94864,0,5,0.5,0.5,-0.0034597106933593755,-0.14,-0.011,-0.56,-0.0005136822041322294,10,1,100,-0.017309108620498632,-10,-1,-100,504.60072022362147,0.002703250724458877,-8.771617167021771e-05,0.9999963423640077,17.548368805150275,-1.252521254976823,-797.4590072142612,40.22090075549953,-89.97857666015625,6245.974609375,True
1598630998.0047712,0,5,0.5,0.5,-0.0037090911865234376,-0.14,-0.011,-0.56,-0.00044365957653966605,10,1,100,-0.014915468862647864,-10,-1,-100,506.2300127897179,0.0025644322573573834,-8.283973451221476e-05,0.9999967084069705,17.85687071934208,-1.2762798579248353,-833.1437670969989,41.15857428361142,-89.9779052734375,6242.81640625,True
1598630998.0630891,0,5,0.5,0.5,-0.0040175811767578125,-0.14,-0.011,-0.56,-0.0003595279920085919,10,1,100,-0.012445611865667687,-10,-1,-100,507.8860692854505,0.0024164954246009,-7.766524053418001e-05,0.9999970772547154,18.16638166709948,-1.3000062700654715,-869.577192089998,42.096739811486664,-89.9769287109375,6239.65869140625,True
1598630998.1207473,0,5,0.5,0.5,-0.004326171875000001,-0.14,-0.011,-0.56,-0.0002643636875300199,10,1,100,-0.009864361736496727,-10,-1,-100,509.60132984421216,0.002259419920497315,-7.212549026141125e-05,0.999997444906504,18.47746012546017,-1.3237186861888852,-906.7578230327106,43.0353940000018,-89.9757080078125,6236.5009765625,True
1598630998.179823,0,5,0.5,0.5,-0.004712103271484375,-0.14,-0.011,-0.56,-0.00018705499584291537,10,1,100,-0.007255641064711646,-10,-1,-100,511.3699958722573,0.002093941501160091,-6.642194377608869e-05,0.9999978054961497,18.790672060268665,-1.3474422633625378,-944.6842698926255,43.974533580137695,-89.97418212890625,6233.3427734375,True
1598630998.2369347,0,5,0.5,0.5,-0.005078585815429687,-0.14,-0.011,-0.56,-4.542283228472046e-05,10,1,100,-0.004678731071672736,-10,-1,-100,513.1385404551402,0.0019212153767500797,-5.998823903045358e-05,0.9999981526647373,19.106548405756847,-1.3711882474452428,-983.354340031231,44.91415547876381,-89.97244262695312,6230.185546875,True
1598630998.3489764,0,5,0.5,0.5,-0.0054773590087890634,-0.14,-0.011,-0.56,3.5195556646618466e-05,10,1,100,-0.0020441352264036865,-10,-1,-100,514.9663493229309,0.0017414870178487831,-5.345011873293033e-05,0.9999984821818739,19.4256819115825,-1.394987086748285,-1022.7691263317108,45.85424290660675,-89.97048950195312,6227.02734375,True
1598630998.409961,0,5,0.5,0.5,-0.007489535522460938,-0.14,-0.011,-0.56,0.0009019872647628155,10,1,100,0.021568935524131597,-10,-1,-100,518.7287794436561,0.0013647844268391777,-3.9674014542268844e-05,0.999999067894286,20.075887592975064,-1.4428144423990792,-1103.8310489084731,47.73585714271181,-89.966064453125,6220.7119140625,True
1598630998.5211542,0,5,0.5,0.5,-0.006755953979492188,-0.14,-0.011,-0.56,0.0003176271800925238,10,1,100,0.005585167213581207,-10,-1,-100,520.6796357607236,0.0011691704647852018,-3.251748178295862e-05,0.9999993159912851,20.40803879088303,-1.4668874275840365,-1145.4775700345929,48.6773782283465,-89.96359252929688,6217.55419921875,True
1598630998.5781798,0,5,0.5,0.5,-0.008614404296875001,-0.14,-0.011,-0.56,0.001185155796453655,10,1,100,0.028431746480541076,-10,-1,-100,524.667163812439,0.0007852601723534288,-1.81828419476354e-05,0.9999996915178753,21.08943829729131,-1.515487435369363,-1231.0329457831538,50.56181659680108,-89.958984375,6211.23828125,True
1598630998.686945,0,5,0.5,0.5,-0.007508462524414063,-0.14,-0.011,-0.56,0.0005503781819456377,10,1,100,0.011965493597389834,-10,-1,-100,526.703896325198,0.0005878052537207993,-1.0989526228535149e-05,0.9999998271820919,21.439619246514017,-1.5400598013602436,-1274.960837881241,51.50472760056388,-89.9569091796875,6208.0810546875,True
1598630998.7437522,0,5,0.5,0.5,-0.008805490112304689,-0.14,-0.011,-0.56,0.0013884591448372612,10,1,100,0.033230335427650214,-10,-1,-100,530.9165827282704,0.0002169071705712582,3.099018046532854e-06,0.9999999764708374,22.160471027243986,-1.5898036151963908,-1365.114091845348,53.39185193136742,-89.95343017578125,6201.76513671875,True
1598630998.9038398,0,5,0.5,0.5,-0.007909561157226562,-0.14,-0.011,-0.56,0.0008286207294025441,10,1,100,0.01699002643212888,-10,-1,-100,533.0764236093964,2.950038138258396e-05,1.0739219290316567e-05,0.9999999995071982,22.531787960532984,-1.6150139336534612,-1411.356514290676,54.3361234371815,-89.95196533203125,6198.607421875,True
1598630998.9607697,0,5,0.5,0.5,-0.009530648803710939,-0.14,-0.011,-0.56,0.0022799752037833436,10,1,100,0.05469096139053687,-10,-1,-100,539.8028322518803,-0.00048143520382608497,3.079862067919585e-05,0.9999998836357878,23.691852847966974,-1.6921331699567062,-1554.7614226001433,57.17160356729668,-89.94851684570312,6189.13330078125,True
1598630999.121714,0,5,0.5,0.5,-0.00837708740234375,-0.14,-0.011,-0.56,0.001063246998590851,10,1,100,0.02200801349050069,-10,-1,-100,542.1181908807484,-0.0006463127048115247,3.787970724829926e-05,0.9999997904224857,24.09450461021413,-1.7183737771978316,-1604.1444514896396,58.11764060059936,-89.94744873046875,6185.9765625,True
1598630999.2297864,0,5,0.5,0.5,-0.009923217773437501,-0.14,-0.011,-0.56,0.0023474823237227133,10,1,100,0.05112721171995215,-10,-1,-100,549.3053541833069,-0.0010584301857878727,5.58971055841153e-05,0.9999994383003701,25.352353704607836,-1.798888847503532,-1757.1522333538192,60.958333943585714,-89.94442749023438,6176.501953125,True
1598630999.2867992,0,5,0.5,0.5,-0.010184747314453124,-0.14,-0.011,-0.56,0.001795533701586944,10,1,100,0.0368847378074677,-10,-1,-100,554.2735335543985,-0.0013008966369596594,6.715349355670055e-05,0.9999991515788141,26.23097871478322,-1.854056302797451,-1863.2406184761048,62.85424355363291,-89.94168090820312,6170.1865234375,True
1598630999.343879,0,5,0.5,0.5,-0.009960089111328127,-0.14,-0.011,-0.56,0.0012183020379578832,10,1,100,0.024097032967346135,-10,-1,-100,556.8139889619779,-0.0014023030179739892,7.202937330579602e-05,0.9999990141785218,26.6817110620781,-1.8820629391257444,-1917.473393828944,63.802822080639736,-89.93984985351562,6167.02880859375,True
1598630999.4021068,0,5,0.5,0.5,-0.010373446655273438,-0.14,-0.011,-0.56,0.0012765678402956876,10,1,100,0.025427211915885456,-10,-1,-100,559.3973517835839,-0.001504067638932998,7.68901318372737e-05,0.9999988659335796,27.14046099808507,-1.9103781975430074,-1972.537273609561,64.75181051708734,-89.93783569335938,6163.87109375,True
1598630999.460705,0,5,0.5,0.5,-0.010854660034179687,-0.14,-0.011,-0.56,0.0013729851660133953,10,1,100,0.026156721180216065,-10,-1,-100,562.0073875152739,-0.0016007826166589952,8.20860629054869e-05,0.9999987153776211,27.606817599871288,-1.9389960700570765,-2028.4201803293934,65.7012062642863,-89.93557739257812,6160.712890625,True
1598630999.5207467,0,5,0.5,0.5,-0.01138883056640625,-0.14,-0.011,-0.56,0.0013817210721312626,10,1,100,0.026511176215100123,-10,-1,-100,564.6604525640141,-0.0016897585123733818,8.679790038234032e-05,0.9999985685901228,28.080403613896088,-1.9678809772225778,-2085.098609682628,66.65100514632647,-89.93304443359375,6157.5556640625,True
1598630999.6329205,0,5,0.5,0.5,-0.011940594482421876,-0.14,-0.011,-0.56,0.001382067837530961,10,1,100,0.027084435160133057,-10,-1,-100,567.3564255794045,-0.0017737866227357652,9.099564374983079e-05,0.999998422699161,28.561180594556404,-1.9970382316996316,-2142.5704784161535,67.60120421524643,-89.93026733398438,6154.3974609375,True
1598630999.7437325,0,5,0.5,0.5,-0.01476880798339844,-0.14,-0.011,-0.56,0.001929008018165562,10,1,100,0.03596348630555821,-10,-1,-100,572.8712958163815,-0.0019290847391206086,9.970405152086096e-05,0.9999981343438454,29.544269539973367,-2.056167688031831,-2259.8943488306327,69.50278773078172,-89.92404174804688,6148.08203125,True
1598630999.8507185,0,5,0.5,0.5,-0.016333337402343752,-0.14,-0.011,-0.56,0.0019364388837177938,10,1,100,0.035740068047547854,-10,-1,-100,578.5148887342075,-0.0020664532379244603,0.00010760746206115364,0.9999978590935332,30.55584923241021,-2.116400866241782,-2380.4011163242267,71.40592737956995,-89.9168701171875,6141.7666015625,True
1598630999.9087398,0,5,0.5,0.5,-0.017329452514648437,-0.14,-0.011,-0.56,0.0019002502538583788,10,1,100,0.034369836356994254,-10,-1,-100,584.3246188336052,-0.002177436114164658,0.00011439356697053233,0.9999976228402149,31.595781154057324,-2.1777637737163205,-2504.1288570741417,73.31059502160667,-89.90975952148438,6135.45068359375,True
1598631000.022459,0,5,0.5,0.5,-0.01552520751953125,-0.14,-0.011,-0.56,0.001573830115907234,10,1,100,0.0284790521316802,-10,-1,-100,587.2724831063533,-0.002223385123780752,0.00011752573939793689,0.9999975213700742,32.126217911153596,-2.2088689983966217,-2567.2242401812814,74.26347397675933,-89.90670776367188,6132.29296875,True
1598631000.0831032,0,5,0.5,0.5,-0.016827075195312503,-0.14,-0.011,-0.56,0.0018378574008328411,10,1,100,0.0318165181188689,-10,-1,-100,593.3072491911007,-0.002294438500644378,0.000122717390891434,0.9999973602427202,33.20687597019297,-2.271897199407659,-2695.89020274626,76.1703678310559,-89.9024658203125,6125.97705078125,True
1598631000.2718792,0,5,0.5,0.5,-0.01554147644042969,-0.14,-0.011,-0.56,0.0015639342758357899,10,1,100,0.02788223941843076,-10,-1,-100,596.3943344376748,-0.0023223630897312507,0.00012489635120615386,0.9999972955116333,33.7565365740583,-2.3037891728678,-2761.4557398577795,77.1243659053774,-89.90097045898438,6122.8193359375,True
1598631000.3909307,0,5,0.5,0.5,-0.017011245727539065,-0.14,-0.011,-0.56,0.0019571670051460213,10,1,100,0.030292939821364204,-10,-1,-100,605.8540754081914,-0.0023688281197716595,0.0001304040063242646,0.9999971858201071,35.43951617468069,-2.4008526116092925,-2963.02382936472,79.98850233033875,-89.89773559570312,6113.34619140625,True
1598631000.4529717,0,5,0.5,0.5,-0.016952816772460938,-0.14,-0.011,-0.56,0.001697634291315271,10,1,100,0.026490225127658473,-10,-1,-100,612.3390967748128,-0.0023757127767012167,0.00013300292823818847,0.9999971691455051,36.58747277916718,-2.4666133399584194,-3101.4536662326855,81.89966321115116,-89.89529418945312,6107.0302734375,True
1598631000.5637236,0,5,0.5,0.5,-0.016783505249023438,-0.14,-0.011,-0.56,0.0015210666920021925,10,1,100,0.025476218481364957,-10,-1,-100,615.6513397422386,-0.00237204883152538,0.00013371413647042518,0.9999971777484528,37.16854624961023,-2.4997808226142184,-3171.8775786785905,82.85574063980243,-89.89364624023438,6103.8720703125,True
1598631000.6229732,0,5,0.5,0.5,-0.01883062744140625,-0.14,-0.011,-0.56,0.0016183890423435432,10,1,100,0.02405029643099137,-10,-1,-100,622.3721392668085,-0.0023551347806174488,0.00013520278692457258,0.9999972175263147,38.343597725256835,-2.5666123843379487,-3315.1314216514875,84.76893517269333,-89.88946533203125,6097.55712890625,True
1598631000.6827,0,5,0.5,0.5,-0.018435446166992192,-0.14,-0.011,-0.56,0.0015324825137829532,10,1,100,0.02430945840604457,-10,-1,-100,625.7968087302288,-0.0023415858903308297,0.00013573494876581508,0.9999972492719877,38.93704992415313,-2.6002544880349476,-3387.9471689538177,85.72603355477504,-89.88674926757812,6094.39892578125,True
1598631000.7417102,0,5,0.5,0.5,-0.019048977661132817,-0.14,-0.011,-0.56,0.0014848424539550408,10,1,100,0.023959992480301416,-10,-1,-100,629.2483951706672,-0.002325716753335138,0.00013575288544374092,0.9999972863026865,39.53414419438583,-2.6340312788453404,-3461.5479263506118,86.68345833695827,-89.88375854492188,6091.2412109375,True
1598631000.7999444,0,5,0.5,0.5,-0.0196963623046875,-0.14,-0.011,-0.56,0.0014812838160863406,10,1,100,0.023503335037314107,-10,-1,-100,632.7427048635436,-0.002306903139752433,0.00013571125351270115,0.9999973298866149,40.134696038029645,-2.667929339367995,-3535.928649478057,87.64120560669116,-89.8804931640625,6088.0830078125,True
1598631000.8588219,0,5,0.5,0.5,-0.020377969360351564,-0.14,-0.011,-0.56,0.0014904010975495287,10,1,100,0.023141348632532997,-10,-1,-100,636.2802284046775,-0.0022863913718832478,0.00013573691096456473,0.9999973769915528,40.738534810843525,-2.7019322685395974,-3611.087899951894,88.59927218795643,-89.876953125,6084.92578125,True
1598631000.9220562,0,5,0.5,0.5,-0.021077203369140627,-0.14,-0.011,-0.56,0.0014785190874386047,10,1,100,0.022699721041155738,-10,-1,-100,639.8441795433173,-0.0022636722354913747,0.00013563566203655356,0.9999974286921829,41.345408544040176,-2.7360420468896067,-3687.0144904869067,89.55765177931883,-89.8731689453125,6081.767578125,True
1598631001.032205,0,5,0.5,0.5,-0.021788751220703128,-0.14,-0.011,-0.56,0.0014886380050537788,10,1,100,0.022298480680698236,-10,-1,-100,643.4512222388294,-0.002239398804826561,0.00013562386383382215,0.9999974833464135,41.95526811690036,-2.770234962801516,-3763.7153412901444,90.51634326579233,-89.86917114257812,6078.60986328125,True
1598631001.0935302,0,5,0.5,0.5,-0.025459594726562503,-0.14,-0.011,-0.56,0.00140634788650138,10,1,100,0.018858854726031514,-10,-1,-100,650.8044660512824,-0.00218613814489331,0.00013485529392392846,0.9999976013041536,43.182923836805976,-2.83888219320665,-3919.390769317974,92.43465159486172,-89.86077880859375,6072.2939453125,True
1598631001.1530218,0,5,0.5,0.5,-0.023898074340820315,-0.14,-0.011,-0.56,0.0014692170785492297,10,1,100,0.02102090630443541,-10,-1,-100,654.5241790754953,-0.002157540459280279,0.00013472408549027859,0.9999976634315639,43.800475089997576,-2.8733186312388153,-3998.360347413261,93.39425959318392,-89.85635375976562,6069.13671875,True
1598631001.2649274,0,5,0.5,0.5,-0.024346792602539066,-0.14,-0.011,-0.56,0.0013959778209136574,10,1,100,0.020826555175500583,-10,-1,-100,658.2971143055474,-0.0021299740732939536,0.00013393742897458978,0.999997722633013,44.42032734301871,-2.9078151603245934,-4078.0791569227936,94.35416584220626,-89.85223388671875,6065.978515625,True
1598631001.320772,0,5,0.5,0.5,-0.027318981933593754,-0.14,-0.011,-0.56,0.0013761917332438655,10,1,100,0.01712878672399784,-10,-1,-100,665.9451576302527,-0.0020715177135274794,0.00013304221017014351,0.9999978455547456,45.66612807226639,-2.976939853298525,-4239.702139098882,96.27484701555123,-89.84475708007812,6059.6630859375,True
1598631001.3794582,0,5,0.5,0.5,-0.02570190124511719,-0.14,-0.011,-0.56,0.0013855082190713732,10,1,100,0.019687683969824652,-10,-1,-100,669.8202045479557,-0.002041896104217374,0.00013231503437976464,0.9999979065743244,46.29206002911175,-3.011559315992378,-4321.611445084403,97.23562653338003,-89.84115600585938,6056.5048828125,True
1598631001.4376903,0,5,0.5,0.5,-0.025999856567382816,-0.14,-0.011,-0.56,0.0013951019617276664,10,1,100,0.019599853378084356,-10,-1,-100,673.7487791380845,-0.002014441353816106,0.00013174429033482838,0.999997962332661,46.91974942232259,-3.046213430261031,-4404.231076838253,98.19669073536625,-89.83792114257812,6053.34716796875,True
1598631001.5470443,0,5,0.5,0.5,-0.02624681091308594,-0.14,-0.011,-0.56,0.0013611373081429678,10,1,100,0.01919065950352495,-10,-1,-100,677.6771708106389,-0.001986045523136703,0.00013092030671148808,0.999998019239565,47.54914508360907,-3.0808818394958717,-4487.555448275579,99.1580362943922,-89.83505249023438,6050.189453125,True
1598631001.6060214,0,5,0.5,0.5,-0.02849284057617188,-0.14,-0.011,-0.56,0.0013207768255172714,10,1,100,0.01612206958734943,-10,-1,-100,685.7326230850304,-0.001932626548387119,0.00012980867261803712,0.9999981240504069,48.80255843272172,-3.149582033803497,-4655.297128157719,101.08156595128409,-89.82962036132812,6043.87353515625,True
1598631001.6658893,0,5,0.5,0.5,-0.027425521850585936,-0.14,-0.011,-0.56,0.001392352456377986,10,1,100,0.018636606460925804,-10,-1,-100,689.8004186163889,-0.0019072448745777334,0.0001294541730303123,0.9999981728276334,49.42471114244701,-3.1834977121594257,-4739.518293134272,102.04374937278769,-89.82687377929688,6040.7158203125,True
1598631001.7258434,0,5,0.5,0.5,-0.027775518798828128,-0.14,-0.011,-0.56,0.0013316151809746777,10,1,100,0.018601321770476964,-10,-1,-100,693.9006847864948,-0.0018841738806204967,0.00012858536316417445,0.9999982166757059,50.04366187714162,-3.2171078486325477,-4823.943945817063,103.00621204668867,-89.82424926757812,6037.55810546875,True
1598631001.782933,0,5,0.5,0.5,-0.028106915283203127,-0.14,-0.011,-0.56,0.0013705906335207737,10,1,100,0.018375484319191927,-10,-1,-100,698.0379382978426,-0.001861470113760605,0.00012815625694598604,0.9999982592509795,50.659325023330176,-3.250407197570098,-4908.547526757961,103.96895453434776,-89.82174682617188,6034.400390625,True
1598631001.8417695,0,5,0.5,0.5,-0.028521554565429694,-0.14,-0.011,-0.56,0.0013402130249663222,10,1,100,0.01837235184478394,-10,-1,-100,702.234517865465,-0.0018410970014216604,0.00012749609033984514,0.9999982970518392,51.27169259308494,-3.283400216355503,-4993.308690642386,104.93197647551345,-89.8192138671875,6031.2421875,True
1598631001.9010715,0,5,0.5,0.5,-0.029002471923828127,-0.14,-0.011,-0.56,0.001372209767297414,10,1,100,0.018296674405604944,-10,-1,-100,706.4578917565523,-0.0018221756893554097,0.00012719338926013647,0.9999983317474079,51.880873116475264,-3.31607477694342,-5078.222919688968,105.89527922053176,-89.81655883789062,6028.0849609375,True
1598631001.958728,0,5,0.5,0.5,-0.029520230102539066,-0.14,-0.011,-0.56,0.001341473645364305,10,1,100,0.018317234875630962,-10,-1,-100,710.7240510453703,-0.0018054412266444533,0.00012664491811529527,0.9999983621701797,52.486774497864204,-3.3484084896559336,-5163.2591229938635,106.85886270923626,-89.81375122070312,6024.9267578125,True
1598631002.069779,0,5,0.5,0.5,-0.030032852172851565,-0.14,-0.011,-0.56,0.0013394664789429193,10,1,100,0.018322201805237394,-10,-1,-100,715.0332404907094,-0.0017905151203462632,0.00012613387673620418,0.9999983890716269,53.08942199489365,-3.3804228123497904,-5248.400861112521,107.8227275498101,-89.81082153320312,6021.7685546875,True
1598631002.1268346,0,5,0.5,0.5,-0.032954403686523435,-0.14,-0.011,-0.56,0.0013299106662752371,10,1,100,0.01715035726705961,-10,-1,-100,723.7746044450905,-0.001766521328804357,0.00012558804187427295,0.9999984318137897,54.285194170133785,-3.44348690807563,-5418.940922893298,109.75130574264092,-89.80435180664062,6015.453125,True
1598631002.1840692,0,5,0.5,0.5,-0.031931759643554686,-0.14,-0.011,-0.56,0.0013800885154519956,10,1,100,0.018566720500860456,-10,-1,-100,728.1800461182138,-0.001757810202278097,0.00012555358721817923,0.9999984471685891,54.87842910903179,-3.4745253443299906,-5504.302503253586,110.71602053411361,-89.80068969726562,6012.2958984375,True
1598631002.2938318,0,5,0.5,0.5,-0.03246089172363282,-0.14,-0.011,-0.56,0.0013456008259152144,10,1,100,0.01879522060603575,-10,-1,-100,732.628516929457,-0.0017521757566838713,0.0001252136191891172,0.9999984570996433,55.46861517221441,-3.5052445658205515,-5589.697607481766,111.68102197179752,-89.79705810546875,6009.1376953125,True
1598631002.3998916,0,5,0.5,0.5,-0.03554724731445313,-0.14,-0.011,-0.56,0.0013871234406856894,10,1,100,0.018765467290584696,-10,-1,-100,741.6646805919008,-0.0017469470949047503,0.00012528621298190962,0.99999846623843,56.64031444385602,-3.5657185776999034,-5760.522083377598,113.61188620826404,-89.789794921875,6002.822265625,True
1598631002.457152,0,5,0.5,0.5,-0.03720302429199219,-0.14,-0.011,-0.56,0.0013743379768699018,10,1,100,0.019860732013424587,-10,-1,-100,750.8561778422445,-0.0017522964432947056,0.00012523976490434865,0.9999984568848975,57.801395472284746,-3.6249357242109435,-5931.303528249966,115.54390943459973,-89.78167724609375,5996.505859375,True
1598631002.567681,0,5,0.5,0.5,-0.035694677734375006,-0.14,-0.011,-0.56,0.0014059908726861924,10,1,100,0.020034114406513565,-10,-1,-100,755.4869606638094,-0.0017588555794384973,0.00012548833443058662,0.9999984453386559,58.378344166420675,-3.6540792803017306,-6016.644114006727,116.51035859554143,-89.77740478515625,5993.3486328125,True
1598631002.6251385,0,5,0.5,0.5,-0.038456466674804686,-0.14,-0.011,-0.56,0.0014879881079401863,10,1,100,0.021582260813331814,-10,-1,-100,764.9304720585933,-0.001778985774662403,0.00012646216152267144,0.9999984096072029,59.52578877984217,-3.711471316615192,-6187.152975662325,118.44414700961525,-89.77011108398438,5987.033203125,True
1598631002.683327,0,5,0.5,0.5,-0.03671177368164063,-0.14,-0.011,-0.56,0.0014481593120499766,10,1,100,0.021076060349333688,-10,-1,-100,769.6735594890779,-0.0017927405944902974,0.00012698631885176226,0.9999983849765136,60.09668216279643,-3.7397250818254637,-6272.2998457147805,119.41148859473205,-89.766845703125,5983.875,True
1598631002.7960348,0,5,0.5,0.5,-0.03707407531738282,-0.14,-0.011,-0.56,0.0014517621417190773,10,1,100,0.021385963621440053,-10,-1,-100,774.4864708115347,-0.0018080890378028638,0.00012749576675738972,0.9999983572780811,60.6659223284468,-3.767724333034923,-6357.362644035109,120.37913116782687,-89.7637939453125,5980.71728515625,True
1598631002.8536563,0,5,0.5,0.5,-0.0397138671875,-0.14,-0.011,-0.56,0.0015473796996516881,10,1,100,0.024093825019710913,-10,-1,-100,784.2085457609501,-0.0018466566827884244,0.0001288273782449456,0.9999982866298334,61.80059539800868,-3.8229044545922335,-6527.219335098797,122.31532727002003,-89.75765991210938,5974.4013671875,True
1598631002.966727,0,5,0.5,0.5,-0.03877258911132812,-0.14,-0.011,-0.56,0.0015016278005814366,10,1,100,0.022712526235911516,-10,-1,-100,789.1339448672952,-0.0018691098787749012,0.00012961955914980435,0.9999982448119752,62.366245108637365,-3.8501080527141758,-6611.983037745822,123.28388491937265,-89.75418090820312,5971.24365234375,True
1598631003.0250301,0,5,0.5,0.5,-0.041856951904296884,-0.14,-0.011,-0.56,0.0016151648821993523,10,1,100,0.02592064574812143,-10,-1,-100,799.0974747224245,-0.0019185933356463607,0.0001313682138804974,0.9999981508692927,63.49523980260168,-3.9038102481503762,-6781.161400707191,125.22193195155944,-89.7470703125,5964.927734375,True
1598631003.0832012,0,5,0.5,0.5,-0.04054020080566406,-0.14,-0.011,-0.56,0.001562465466726621,10,1,100,0.024068595423670288,-10,-1,-100,804.1354224692332,-0.0019465953088223422,0.00013247352837986417,0.9999980966069225,64.05912182975247,-3.9303397247357212,-6865.581757845647,126.19142528562328,-89.74334716796875,5961.77001953125,True
1598631003.1401749,0,5,0.5,0.5,-0.041120523071289064,-0.14,-0.011,-0.56,0.0016102973075309995,10,1,100,0.02438603725269775,-10,-1,-100,809.20010366512,-0.0019747607378351765,0.00013390659474188217,0.9999980411926076,64.62269382061397,-3.956637008459837,-6949.867585679912,127.16123512409554,-89.7396240234375,5958.6123046875,True
1598631003.2007084,0,5,0.5,0.5,-0.04171831359863282,-0.14,-0.011,-0.56,0.001580405480822701,10,1,100,0.024923221806973688,-10,-1,-100,814.3343037015293,-0.0020050420659375977,0.00013492980175385948,0.9999979807980927,65.1862881907044,-3.982743273154488,-7034.027749849479,128.1313635935556,-89.73587036132812,5955.45458984375,True
1598631003.3098135,0,5,0.5,0.5,-0.04246511230468751,-0.14,-0.011,-0.56,0.0016317685301758889,10,1,100,0.025433413879035638,-10,-1,-100,819.4848000945058,-0.0020369788870288684,0.00013631811763445919,0.9999979160650211,65.74995807532378,-4.008655160910573,-7118.052208356786,129.101812617803,-89.73187255859375,5952.296875,True
1598631003.3768775,0,5,0.5,0.5,-0.04638604736328126,-0.14,-0.011,-0.56,0.0017568115306745597,10,1,100,0.02966803273557174,-10,-1,-100,829.9090831909562,-0.0021042560564370877,0.00013870713227298877,0.999997776430918,66.87828634124803,-4.059927561948456,-7285.670602994401,131.04368303939245,-89.72314453125,5945.98095703125,True
1598631003.4241073,0,5,0.5,0.5,-0.04498934631347657,-0.14,-0.011,-0.56,0.0016964281718418112,10,1,100,0.026924325248781043,-10,-1,-100,835.172067200765,-0.0021401786239448493,0.00014031889234521766,0.9999976999703879,67.4432482916783,-4.0853162903781275,-7369.251041445935,132.01511015094883,-89.71823120117188,5942.8232421875,True
1598631003.482706,0,5,0.5,0.5,-0.04592294921875,-0.14,-0.011,-0.56,0.001683557222211103,10,1,100,0.02727101662586843,-10,-1,-100,840.4888839263003,-0.0021756713905350137,0.00014165499962015253,0.9999976231911062,68.00917331317206,-4.110560429591397,-7452.69631941665,132.98686804205818,-89.71304321289062,5939.6650390625,True
1598631003.59181,0,5,0.5,0.5,-0.04668373107910157,-0.14,-0.011,-0.56,0.0017147269409381943,10,1,100,0.02783019274608931,-10,-1,-100,845.821813689312,-0.002212686795480142,0.000143140131646828,0.9999975417610024,68.57621141294898,-4.135656077559742,-7536.010915400258,133.9589589268452,-89.7078857421875,5936.5078125,True
1598631003.6510124,0,5,0.5,0.5,-0.051028033447265635,-0.14,-0.011,-0.56,0.0019148588387532198,10,1,100,0.032523290731045804,-10,-1,-100,856.6533842541976,-0.0022886689361001434,0.00014629662096630423,0.9999973702924423,69.71387738849315,-4.185465494008506,-7702.217761419655,135.90415199335501,-89.6976318359375,5930.19189453125,True
1598631003.7128742,0,5,0.5,0.5,-0.04904372863769532,-0.14,-0.011,-0.56,0.0017830927848594747,10,1,100,0.029220743668651003,-10,-1,-100,862.1253521069884,-0.0023273390369535326,0.00014795312252877902,0.9999972807977433,70.28475108001875,-4.210208443514283,-7785.099997116084,136.8772579488402,-89.69235229492188,5927.0341796875,True
1598631003.824844,0,5,0.5,0.5,-0.04956534423828125,-0.14,-0.011,-0.56,0.0017947421123607225,10,1,100,0.029516783715173668,-10,-1,-100,867.6242360373726,-0.002364813360241995,0.00014954985882772355,0.9999971926423649,70.85727289023691,-4.234845675039321,-7867.849585341288,137.85070724566873,-89.68746948242188,5923.8759765625,True
1598631003.9389453,0,5,0.5,0.5,-0.05295932922363282,-0.14,-0.011,-0.56,0.0020339411763687907,10,1,100,0.0343882636709929,-10,-1,-100,878.7236893038498,-0.002442786910055845,0.0001531604502900666,0.9999970046625082,72.00800069619008,-4.283897310150129,-8032.998998727581,139.79864315733897,-89.67880249023438,5917.560546875,True
1598631004.0451722,0,5,0.5,0.5,-0.054239611816406255,-0.14,-0.011,-0.56,0.002071994465913623,10,1,100,0.03514255200829205,-10,-1,-100,890.0324313801248,-0.0025201036437055005,0.00015677124165574223,0.9999968122451205,73.16635754403565,-4.33264355994952,-8197.64728911857,141.74797822812585,-89.67013549804688,5911.2451171875,True
1598631004.104777,0,5,0.5,0.5,-0.05509805297851563,-0.14,-0.011,-0.56,0.0021086259466700213,10,1,100,0.03558255637778881,-10,-1,-100,901.4533558801049,-0.0025939233853117323,0.00016036693686786744,0.9999966229162561,74.33360480184618,-4.381216382584206,-8361.857652931933,143.69873232169704,-89.66207885742188,5904.92919921875,True
1598631004.165149,0,5,0.5,0.5,-0.05307704772949219,-0.14,-0.011,-0.56,0.0019172704481977873,10,1,100,0.03211272569828666,-10,-1,-100,907.2366023695795,-0.002628982012868939,0.00016187429269347604,0.999996531119128,74.92101775892762,-4.405452832500712,-8443.8571662786,144.67464693401217,-89.65863037109375,5901.771484375,True
1598631004.27485,0,5,0.5,0.5,-0.05328900451660156,-0.14,-0.011,-0.56,0.0019452987790497353,10,1,100,0.03232239886861207,-10,-1,-100,913.0568971753819,-0.0026622825885998748,0.0001634783581241193,0.9999964427567954,75.51098601546046,-4.42968299109291,-8525.800988011846,145.6509226882236,-89.65567016601562,5898.61328125,True
1598631004.3900032,0,5,0.5,0.5,-0.05578030700683594,-0.14,-0.011,-0.56,0.002126207754724955,10,1,100,0.036200568537046,-10,-1,-100,924.8155893833609,-0.0027273372871913473,0.000166560172416498,0.9999962669375476,76.69819819508477,-4.478076757571319,-8689.509283133564,147.6045633100077,-89.64984130859375,5892.2978515625,True
1598631004.5038915,0,5,0.5,0.5,-0.057776708984375,-0.14,-0.011,-0.56,0.002220936211107303,10,1,100,0.03653183434078923,-10,-1,-100,936.7136249453761,-0.002788987915129755,0.00017020034849232147,0.9999960962815058,77.89463647815954,-4.526404480409453,-8852.93835589104,149.5596703006618,-89.64242553710938,5885.98193359375,True
1598631004.670792,0,5,0.5,0.5,-0.06001912536621094,-0.14,-0.011,-0.56,0.0021666439252440014,10,1,100,0.03658605801885052,-10,-1,-100,948.7674212611746,-0.002845002972947365,0.00017299143303808962,0.9999959380077741,79.10111696100422,-4.574742813361393,-9016.196092078168,151.51625903676668,-89.63339233398438,5879.666015625,True
1598631004.785127,0,5,0.5,0.5,-0.06560553588867188,-0.14,-0.011,-0.56,0.002361326063355992,10,1,100,0.03895400872753599,-10,-1,-100,967.1612254881766,-0.002916946819190654,0.00017727435223337715,0.9999957299884126,80.93093981685725,-4.647395448556559,-9261.081188003483,154.4539463086698,-89.6182861328125,5870.19287109375,True
1598631004.8921797,0,5,0.5,0.5,-0.0649179656982422,-0.14,-0.011,-0.56,0.0021913502121956585,10,1,100,0.03618172165694205,-10,-1,-100,979.6060124682263,-0.0029566116989680285,0.00017959602446426768,0.9999956130866422,82.16400326620689,-4.69598595571496,-9424.455596024492,156.41429157036555,-89.6072998046875,5863.876953125,True
1598631005.0017443,0,5,0.5,0.5,-0.06528386230468751,-0.14,-0.011,-0.56,0.002213446895590032,10,1,100,0.035664806292429324,-10,-1,-100,992.2329278315883,-0.0029874334515075933,0.0001818801998271747,0.9999955210704524,83.4072148668248,-4.74469134299667,-9588.038185947815,158.37615807008882,-89.59811401367188,5857.5615234375,True
1598631005.1130097,0,5,0.5,0.5,-0.06480010986328126,-0.14,-0.011,-0.56,0.0021555760883635836,10,1,100,0.03543800220287596,-10,-1,-100,1004.9889319456415,-0.0030128962379644838,0.0001834045157736342,0.9999954443991447,84.66021499111437,-4.793525873459327,-9751.936070409007,160.33955455179657,-89.59158325195312,5851.24609375,True
1598631005.2279742,0,5,0.5,0.5,-0.06507450561523438,-0.14,-0.011,-0.56,0.00219969395630811,10,1,100,0.03516265660595414,-10,-1,-100,1017.9106465198565,-0.0030330930905948595,0.00018516711700253133,0.9999953830190631,85.92200041080999,-4.842453351034087,-9916.142379164672,162.30448883646525,-89.58609008789062,5844.9306640625,True
1598631005.3406794,0,5,0.5,0.5,-0.06629029541015626,-0.14,-0.011,-0.56,0.002185349748648424,10,1,100,0.03508009869827356,-10,-1,-100,1031.0147333026398,-0.003050304094093302,0.00018661653424995462,0.9999953303986988,87.19251679584465,-4.891498493931161,-10080.711656024258,164.27096933998592,-89.580078125,5838.6142578125,True
1598631005.4538765,0,5,0.5,0.5,-0.06875646362304688,-0.14,-0.011,-0.56,0.002182681410357346,10,1,100,0.03503308171588463,-10,-1,-100,1044.2308325010817,-0.003065140013723601,0.0001878874357253692,0.9999952847963873,88.46106159599668,-4.940014058515786,-10243.134513961893,166.20569000593136,-89.57186889648438,5832.3720703125,True
1598631005.6149735,0,5,0.5,0.5,-0.07202735595703126,-0.14,-0.011,-0.56,0.0022100976236981503,10,1,100,0.035122663339061756,-10,-1,-100,1057.6284061587648,-0.0030790753577571886,0.00018926984893557043,0.9999952417246122,89.67348333910543,-4.984846160458602,-10392.013872409538,167.97933278270352,-89.56076049804688,5826.48486328125,True
1598631005.7289095,0,5,0.5,0.5,-0.08051645812988281,-0.14,-0.011,-0.56,0.0022034941002146086,10,1,100,0.035964139368689294,-10,-1,-100,1077.9443709009793,-0.003099073872538368,0.00019044591102543112,0.9999951797241262,91.33191506544314,-5.042212804625565,-10580.985637134218,170.27222527676173,-89.53988647460938,5818.46142578125,True
1598631005.8357403,0,5,0.5,0.5,-0.07974912414550783,-0.14,-0.011,-0.56,0.0022055303078070505,10,1,100,0.035425427612125686,-10,-1,-100,1091.63793838548,-0.0031120750645912175,0.00019151516430111474,0.9999951391435531,92.31508618793906,-5.073142699795144,-10684.733936422519,171.61687713991122,-89.52444458007812,5813.5166015625,True
1598631005.9448,0,5,0.5,0.5,-0.07931781921386719,-0.14,-0.011,-0.56,0.002151708019835526,10,1,100,0.03561896336961701,-10,-1,-100,1105.442606775323,-0.0031254109532604167,0.0001919810794508469,0.9999950974628017,93.28728642759062,-5.102992269498331,-10779.644135663284,172.78535252954723,-89.51287841796875,5808.9580078125,True
1598631006.0567548,0,5,0.5,0.5,-0.07641741027832032,-0.14,-0.011,-0.56,0.002179145777261301,10,1,100,0.03580220884465984,-10,-1,-100,1119.3176019721432,-0.0031390108435200145,0.00019264070308427637,0.9999950547380141,94.17025476903277,-5.127554822913299,-10857.290931691885,173.79167442071468,-89.5079345703125,5804.75390625,True
1598631006.2197187,0,5,0.5,0.5,-0.07350180969238283,-0.14,-0.011,-0.56,0.002161640271169562,10,1,100,0.03610018149677072,-10,-1,-100,1133.2357086498523,-0.0031539174050074278,0.0001930693611696328,0.9999950077521509,95.0091902749631,-5.149375146957725,-10924.459531112598,174.67353183192694,-89.50830078125,5800.822265625,True
1598631006.331789,0,5,0.5,0.5,-0.07043043823242189,-0.14,-0.011,-0.56,0.0022516300169448085,10,1,100,0.03729815770648166,-10,-1,-100,1154.2814063808182,-0.0031782081683083578,0.00019426696697123866,0.9999949306137429,96.21049466002736,-5.178450918192052,-11010.060075794676,175.79991723349016,-89.51312255859375,5795.353515625,True
1598631006.3888564,0,5,0.5,0.5,-0.07165749206542969,-0.14,-0.011,-0.56,0.002163710135768143,10,1,100,0.03686898506514168,-10,-1,-100,1168.382375543355,-0.0031962388273603453,0.0001945465529154583,0.999994873091356,96.95220210693759,-5.194324884545405,-11056.216020037007,176.4585267359116,-89.51535034179688,5791.91015625,True
1598631006.444691,0,5,0.5,0.5,-0.07326057434082033,-0.14,-0.011,-0.56,0.0021803187976041365,10,1,100,0.03611331684941947,-10,-1,-100,1175.4671568298945,-0.0032056123102312544,0.00019494318303060979,0.9999948430101386,97.32176948703723,-5.202070705335008,-11076.700044055098,176.7296136863733,-89.51495361328125,5790.3154296875,True
1598631006.5577989,0,5,0.5,0.5,-0.07434905700683594,-0.14,-0.011,-0.56,0.002173656883363357,10,1,100,0.03626295814680273,-10,-1,-100,1182.5251745394198,-0.003215352844439076,0.00019523562332512164,0.9999948116811093,97.67494724325334,-5.208884240969928,-11094.567569598554,176.98373372722907,-89.51318359375,5788.7578125,True
1598631006.6687279,0,5,0.5,0.5,-0.07810074462890625,-0.14,-0.011,-0.56,0.002176714147207889,10,1,100,0.037563601111522106,-10,-1,-100,1196.722687257803,-0.0032358953453702575,0.00019552259127544658,0.9999947453623095,98.332192369058,-5.219742082107418,-11122.363024537663,177.43746442627247,-89.50650024414062,5785.7607421875,True
1598631006.7779112,0,5,0.5,0.5,-0.08123233032226564,-0.14,-0.011,-0.56,0.002178563325957136,10,1,100,0.03797010337429406,-10,-1,-100,1210.9359606433427,-0.003258123257707792,0.0001957945976349716,0.9999946731344688,98.99621294354178,-5.230840701266651,-11149.633184504568,177.86487238290468,-89.49676513671875,5782.8232421875,True
1598631006.9441516,0,5,0.5,0.5,-0.08315537414550782,-0.14,-0.011,-0.56,0.0021564066182168597,10,1,100,0.0383318339257642,-10,-1,-100,1225.1919393952703,-0.00328147431995058,0.0001958355890854377,0.9999945967727573,99.65250043971214,-5.24137660301113,-11174.139144963141,178.25106625924101,-89.48629760742188,5779.97509765625,True
1598631007.0569227,0,5,0.5,0.5,-0.0846414276123047,-0.14,-0.011,-0.56,0.0022401937559553835,10,1,100,0.04004018611537857,-10,-1,-100,1246.602886381559,-0.0033180790334811,0.00019663062763368045,0.9999944758287038,100.60283328800989,-5.255104835192208,-11203.390767619176,178.7484286673657,-89.47586059570312,5775.88330078125,True
1598631007.1687198,0,5,0.5,0.5,-0.07967055053710938,-0.14,-0.011,-0.56,0.002193510728611895,10,1,100,0.039117956836318336,-10,-1,-100,1260.9293490916025,-0.003342796990444461,0.0001969247719306123,0.9999943934487406,101.20760096705982,-5.262613319982609,-11217.851891703114,179.03995728802204,-89.47467041015625,5773.24365234375,True
1598631007.2817013,0,5,0.5,0.5,-0.07557994384765626,-0.14,-0.011,-0.56,0.002230504964936183,10,1,100,0.039222207828434295,-10,-1,-100,1275.2550296937115,-0.0033660303365695486,0.00019752459246818356,0.999994315395747,101.8092831030383,-5.269858674496486,-11230.295884369672,179.29329934580883,-89.4796142578125,5770.6875,True
1598631007.3897955,0,5,0.5,0.5,-0.071992724609375,-0.14,-0.011,-0.56,0.00220002245165483,10,1,100,0.0394398361845081,-10,-1,-100,1289.60783933755,-0.0033889371699825153,0.000197788719898601,0.9999942379756396,102.39010989315666,-5.275937911594507,-11238.919855087383,179.5113939740816,-89.48873901367188,5768.208984375,True
1598631007.498848,0,5,0.5,0.5,-0.07123341369628906,-0.14,-0.011,-0.56,0.0022317270054309137,10,1,100,0.0396323499066011,-10,-1,-100,1303.9766449270537,-0.0034113201169208994,0.00019831385736701092,0.9999941617662944,102.96041204547707,-5.281416033713946,-11245.236502848287,179.70271233582338,-89.49716186523438,5765.7900390625,True
1598631007.6622186,0,5,0.5,0.5,-0.07321448059082031,-0.14,-0.011,-0.56,0.0022176802448156474,10,1,100,0.0398483248727798,-10,-1,-100,1318.3723119936185,-0.003433436130839636,0.00019866013241956156,0.999994086007756,103.52234538855973,-5.28642032831355,-11249.672390104875,179.87136481654596,-89.5010986328125,5763.42041015625,True
1598631007.7737267,0,5,0.5,0.5,-0.08011265563964844,-0.14,-0.011,-0.56,0.00223399344840027,10,1,100,0.04118078867389812,-10,-1,-100,1339.965813959483,-0.0034654477927571923,0.00019911985072775058,0.9999939754932929,104.35311162773398,-5.293239848387523,-11253.45919752385,180.08755197849368,-89.49441528320312,5759.94873046875,True
1598631007.9426835,0,5,0.5,0.5,-0.08467919921875001,-0.14,-0.011,-0.56,0.0022289690382963794,10,1,100,0.040300909457899846,-10,-1,-100,1354.3779828828992,-0.003486323042583788,0.00019948856889115738,0.9999939028593893,104.89490193682748,-5.297147567285796,-11253.963120682429,180.21446415259655,-89.48257446289062,5757.6728515625,True
1598631008.0509038,0,5,0.5,0.5,-0.09080659179687502,-0.14,-0.011,-0.56,0.002194698747673724,10,1,100,0.041400501614138496,-10,-1,-100,1376.0140900207916,-0.0035150691732126686,0.0001995086136907615,0.9999938022233041,105.70400120944926,-5.30280080155489,-11253.150987892313,180.37447832189375,-89.46438598632812,5754.3271484375,True
1598631008.1597445,0,5,0.5,0.5,-0.0852068328857422,-0.14,-0.011,-0.56,0.0022516306553936683,10,1,100,0.04049566147324811,-10,-1,-100,1390.4529950100696,-0.0035327426125803703,0.00020004102265507766,0.9999937398370164,106.23131321662937,-5.305979332368282,-11250.810638052122,180.46715587000168,-89.4578857421875,5752.12890625,True
1598631008.2692177,0,5,0.5,0.5,-0.0789490234375,-0.14,-0.011,-0.56,0.0021967418301654697,10,1,100,0.04049940498594169,-10,-1,-100,1404.8915179695468,-0.0035486149818549227,0.0002000222183627727,0.9999936836414631,106.75816023502128,-5.309143612709962,-11247.988336538781,180.54792024061706,-89.461669921875,5749.95703125,True
1598631008.3797114,0,5,0.5,0.5,-0.07129983825683593,-0.14,-0.011,-0.56,0.0022165657627224973,10,1,100,0.04064840944276418,-10,-1,-100,1419.330294305575,-0.0035641894163043805,0.00020018225785598743,0.9999936282201344,107.27770172926854,-5.311950096677874,-11244.023286536263,180.61786961195924,-89.47564697265625,5747.81005859375,True
1598631008.4919682,0,5,0.5,0.5,-0.06652215270996094,-0.14,-0.011,-0.56,0.0022192877159642036,10,1,100,0.04075092709561921,-10,-1,-100,1433.795683404198,-0.0035790787058972424,0.00020034953198299328,0.9999935750072007,107.79320999180537,-5.314572625062899,-11239.37989856742,180.67970158296927,-89.49365234375,5745.681640625,True
1598631008.6039138,0,5,0.5,0.5,-0.06614355163574219,-0.14,-0.011,-0.56,0.0022237036269519665,10,1,100,0.0409502029808374,-10,-1,-100,1448.2505766117247,-0.0035942323423297116,0.00020053917588969207,0.999993520617963,108.30544563735708,-5.317049785196565,-11234.188163334276,180.73454319521665,-89.50857543945312,5743.5703125,True
1598631008.7130377,0,5,0.5,0.5,-0.07048391418457033,-0.14,-0.011,-0.56,0.0022004806040586133,10,1,100,0.04112431121105402,-10,-1,-100,1462.7159683784703,-0.0036094045455681554,0.00020049796063675949,0.9999934659783504,108.8147418019392,-5.3194057061327715,-11228.525818935306,180.78337034555005,-89.5142822265625,5741.47265625,True
1598631008.8248398,0,5,0.5,0.5,-0.07774108276367188,-0.14,-0.011,-0.56,0.002211750876402673,10,1,100,0.04129911785568155,-10,-1,-100,1477.1974747747881,-0.0036246065321645844,0.00020056096369788518,0.9999934109796857,109.32162185355237,-5.321658593857348,-11222.478845613652,180.82691553196187,-89.50845336914062,5739.388671875,True
1598631008.992187,0,5,0.5,0.5,-0.08487227478027345,-0.14,-0.011,-0.56,0.002233876592896265,10,1,100,0.041493736728184474,-10,-1,-100,1491.6361358232098,-0.0036400219911828873,0.00020081765405677909,0.9999933549340083,109.82609711487925,-5.3238130399576,-11216.073247194787,180.8657912798418,-89.49359130859375,5737.3154296875,True
1598631009.1008348,0,5,0.5,0.5,-0.09466566162109376,-0.14,-0.011,-0.56,0.002186795487222783,10,1,100,0.042600117367080866,-10,-1,-100,1513.3588240793906,-0.0036639353468272884,0.00020062145541935186,0.9999932676417407,110.57923152718858,-5.326929363825678,-11205.939049995637,180.9165417045216,-89.46771240234375,5734.22509765625,True
1598631009.2097056,0,5,0.5,0.5,-0.08860657043457032,-0.14,-0.011,-0.56,0.002221655137343188,10,1,100,0.04201856131313203,-10,-1,-100,1527.8405809580581,-0.003680226422100624,0.00020075896903503244,0.9999932077915922,111.07732882178624,-5.328846130696853,-11198.72675356992,180.94673698814205,-89.4556884765625,5732.173828125,True
1598631009.315765,0,5,0.5,0.5,-0.0808787109375,-0.14,-0.011,-0.56,0.002216573410884423,10,1,100,0.04210801673771908,-10,-1,-100,1542.3058532052673,-0.003695699578710004,0.00020083664721298576,0.9999931507111761,111.57445697826309,-5.330742233929054,-11191.37157891317,180.97392402291777,-89.45712280273438,5730.130859375,True
1598631009.4780514,0,5,0.5,0.5,-0.07021121520996093,-0.14,-0.011,-0.56,0.002210905708434585,10,1,100,0.04234170211997019,-10,-1,-100,1556.7873638588935,-0.0037117423545879693,0.00020085501587561942,0.9999930912891127,112.06818201757267,-5.332500193986469,-11183.605669116201,180.99735890302355,-89.4735107421875,5728.09765625,True
1598631009.6438344,0,5,0.5,0.5,-0.053057077026367194,-0.14,-0.011,-0.56,0.0022023243946640756,10,1,100,0.043370845975697396,-10,-1,-100,1578.5099337925203,-0.0037355342519175185,0.00020079294562781554,0.9999930027085419,112.80577185037481,-5.335040892305316,-11171.669315280686,181.02894676868053,-89.5111083984375,5725.05810546875,True
1598631009.7486434,0,5,0.5,0.5,-0.05072375793457032,-0.14,-0.011,-0.56,0.002248466915884889,10,1,100,0.04369085541497189,-10,-1,-100,1600.2325072607491,-0.0037599166581781377,0.0002011554404247541,0.9999929112564809,113.5409780345326,-5.337523352284786,-11159.573641335803,181.05803027177978,-89.54446411132812,5722.02734375,True
1598631009.8583746,0,5,0.5,0.5,-0.06607863159179689,-0.14,-0.011,-0.56,0.0021938185819380036,10,1,100,0.042991025574331404,-10,-1,-100,1614.7142647014698,-0.0037755559944526226,0.00020098744546932497,0.9999928523649455,114.02945737108236,-5.339126222196946,-11151.366821955915,181.07546281068866,-89.54913330078125,5720.0126953125,True
1598631009.9668326,0,5,0.5,0.5,-0.08270516052246094,-0.14,-0.011,-0.56,0.002186454863529373,10,1,100,0.04310014697610307,-10,-1,-100,1629.1957755276235,-0.003790600745943603,0.00020076737237014763,0.999992795493271,114.51855311806813,-5.340774813797916,-11143.236627372886,181.0912390499456,-89.529052734375,5718.0029296875,True
1598631010.1298862,0,5,0.5,0.5,-0.0976980682373047,-0.14,-0.011,-0.56,0.0021981787430530027,10,1,100,0.04328224098728314,-10,-1,-100,1643.677287313738,-0.0038057684690366994,0.0002006736417195345,0.9999927379018559,115.00711703565862,-5.342424488463265,-11135.080304052879,181.10551233845013,-89.49154663085938,5715.99755859375,True
1598631010.2604337,0,5,0.5,0.5,-0.11452452697753907,-0.14,-0.011,-0.56,0.0022170933278442776,10,1,100,0.04430061010169208,-10,-1,-100,1665.4428300432628,-0.003828650516582439,0.00020076028037342358,0.9999926505382587,115.73804904200556,-5.3448643964038265,-11122.742153829939,181.1249880849895,-89.43753051757812,5712.9970703125,True
