Timestamp,Input Throttle,horizon,dT,dt,Input Roll,Roll P,Roll I,Roll D,Input Pitch,Pitch P,Pitch I,Pitch D,Input Yaw,Yaw P,Yaw I,Yaw D,Altitude,Direction X,Direction Y,Direction Z,Drag X,Drag Y,Drag Z,Vertical Velocity,Roll,Mass,Has Fuel
1598623335.178006,0,5,0.5,0.5,-0.009459228515625001,-0.14,-0.011,-0.56,0.004308867008190516,10,1,100,0.12651198049843146,-10,-1,-100,478.47435228084214,-0.011741445621049607,0.0004139729973323361,0.9999309811587425,5.398759072986006,-0.44211087280333766,112.66910388409738,-14.239950322285448,-89.92230224609375,6440.1796875,True
1598623335.2130516,0,5,0.5,0.5,-0.009403704833984375,-0.14,-0.011,-0.56,0.004279991861396722,10,1,100,0.12338949258116856,-10,-1,-100,477.5985296337167,-0.011785090092036585,0.00041487176631724635,0.9999304673490754,5.585839723785434,-0.4578993976789444,121.47257921748077,-14.823334153612613,-89.92453002929688,6440.1796875,True
1598623335.258208,0,5,0.5,0.5,-0.009324368286132813,-0.14,-0.011,-0.56,0.004204145597378129,10,1,100,0.12057130966352245,-10,-1,-100,476.9955943765817,-0.011788433320871566,0.0004146221613885255,0.9999304280440229,5.71026058187475,-0.4684270888786258,127.52508415845227,-15.212210917107923,-89.92654418945312,6440.1796875,True
1598623335.2972662,0,5,0.5,0.5,-0.007691912841796876,-0.14,-0.011,-0.56,0.004079247242186011,10,1,100,0.11880255870171628,-10,-1,-100,476.41430753667373,-0.011764676308049792,0.00041288287898667955,0.9999307085588955,6.0080184949775175,-0.4870229530365694,123.53324667543188,-14.309630153078203,-89.93060302734375,6437.0224609375,True
1598623335.3359122,0,5,0.5,0.5,-0.005555114746093751,-0.14,-0.011,-0.56,0.004115499171033215,10,1,100,0.1172950804729548,-10,-1,-100,475.8755262013292,-0.01171867951585212,0.00041125592808453356,0.9999312493461568,5.859146995475928,-0.4694973707208116,110.51958848942071,-13.406498774639154,-89.93701171875,6433.8642578125,True
1598623335.3753285,0,5,0.5,0.5,-0.0031463745117187494,-0.14,-0.011,-0.56,0.003971561122676151,10,1,100,0.1138632063757539,-10,-1,-100,475.4056500799488,-0.011635012049774364,0.00040809448507198704,0.9999322276802027,5.686068371898964,-0.45055511231661266,97.99133955759385,-12.502812139837395,-89.9456787109375,6430.70654296875,True
1598623335.4157903,0,5,0.5,0.5,-0.0045562255859375005,-0.14,-0.011,-0.56,0.0041022241809785896,10,1,100,0.11720041712599867,-10,-1,-100,475.1392398396274,-0.01157871171284247,0.0004060372969678106,0.9999328820319814,5.594728498984092,-0.4409053916401241,91.99983806495759,-12.050764818250062,-89.95068359375,6429.1279296875,True
1598623335.4552832,0,5,0.5,0.5,0.004506958007812501,-0.14,-0.011,-0.56,0.0034919541886434726,10,1,100,0.0992718171642191,-10,-1,-100,474.47272003802937,-0.011354016214421985,0.00039825009212736016,0.999935461773742,5.302431803253125,-0.4113298756737897,75.13616724353143,-10.693797276849224,-89.96771240234375,6424.390625,True
1598623335.4980445,0,5,0.5,0.5,0.0038647521972656252,-0.14,-0.011,-0.56,0.003530248657975612,10,1,100,0.10108413091857604,-10,-1,-100,474.0790628506802,-0.011155901326157134,0.00039115690100076345,0.9999376944899516,5.091796212275837,-0.39105861063998065,64.81222248061347,-9.788455606972972,-89.98046875,6421.23291015625,True
1598623335.5382051,0,5,0.5,0.5,0.005650518798828125,-0.14,-0.011,-0.56,0.0033981013156900355,10,1,100,0.09694741404269519,-10,-1,-100,473.6856483955635,-0.010928048636748209,0.0003831516087730787,0.9999402136867171,4.869044783355876,-0.3703855782038123,55.22875392399647,-8.882547771000297,-89.99325561523438,6418.0751953125,True
1598623335.5804603,0,5,0.5,0.5,0.0027442352294921877,-0.14,-0.011,-0.56,0.003732551427941635,10,1,100,0.10671364379975504,-10,-1,-100,473.552372167469,-0.010799759145407232,0.00037856620630585884,0.9999416092402739,4.75338887225642,-0.35991776858810887,50.71644195210937,-8.42937964411943,-89.99934387207031,6416.49609375,True
1598623335.6213512,0,5,0.5,0.5,0.011168824768066408,-0.14,-0.011,-0.56,0.002492059652671813,10,1,100,0.07174235118712727,-10,-1,-100,473.09516781615093,-0.010366067571778494,0.0003631526486432301,0.999946204934671,4.391511339265045,-0.328143526802195,38.30658438143028,-7.0690103586059685,-90.01612854003906,6411.75927734375,True
1598623335.661996,0,5,0.5,0.5,0.008828939819335939,-0.14,-0.011,-0.56,0.0027376301518510864,10,1,100,0.07827727450033636,-10,-1,-100,472.8348077661358,-0.010032500919072686,0.0003514197999585374,0.9999496114452132,4.1408723998438095,-0.30686277085830493,30.98083614631221,-6.161366845680206,-90.02606964111328,6408.6015625,True
1598623335.7023475,0,5,0.5,0.5,0.0033714012145996098,-0.14,-0.011,-0.56,0.0039045947841773575,10,1,100,0.1114583465307373,-10,-1,-100,472.8348077661358,-0.010032500919072686,0.0003514197999585374,0.9999496114452132,4.1408723998438095,-0.30686277085830493,30.98083614631221,-6.161366845680206,-90.02606964111328,6408.6015625,True
1598623335.812099,0,5,0.5,0.5,0.01149261932373047,-0.14,-0.011,-0.56,0.0018026925345395958,10,1,100,0.05180480291846905,-10,-1,-100,472.5175552748842,-0.009491770682042044,0.0003323674732154924,0.9999548968934461,3.764313175696744,-0.2757383427752768,21.442869501934652,-4.798790889833078,-90.03752136230469,6403.86474609375,True
1598623335.84405,0,5,0.5,0.5,0.007075439453125,-0.14,-0.011,-0.56,0.002926900559751799,10,1,100,0.08407185793340965,-10,-1,-100,472.4306940884562,-0.009295559065635294,0.00032533896590998887,0.9999567424324987,3.6450971781330117,-0.2660324462382389,18.663064405837353,-4.344405884250337,-90.04021453857422,6402.2861328125,True
1598623335.8805332,0,5,0.5,0.5,0.008571183013916017,-0.14,-0.011,-0.56,0.0019924290413251148,10,1,100,0.05812328449021733,-10,-1,-100,472.28398015047424,-0.008883415522131172,0.00031052945048216305,0.9999604934696777,3.44315254920904,-0.24954523093171033,13.748471891075692,-3.4351810461512464,-90.04435729980469,6399.12890625,True
1598623335.9164252,0,5,0.5,0.5,0.007876342010498048,-0.14,-0.011,-0.56,0.0017393152089733971,10,1,100,0.050494888997837994,-10,-1,-100,472.1738270333735,-0.008441840792824623,0.0002948520451141109,0.9999643235567457,3.394887207723352,-0.24443956788589674,9.835630815734449,-2.525159304188128,-90.0465316772461,6395.970703125,True
1598623336.019391,0,5,0.5,0.5,0.006894927978515626,-0.14,-0.011,-0.56,0.001496385208427105,10,1,100,0.04421436777718016,-10,-1,-100,472.100141457282,-0.007985961005468686,0.0002784854020900184,0.9999680729266811,4.1057497921207755,-0.29381435858388116,7.512963912185291,-1.6145577776426046,-90.04674530029297,6392.8134765625,True
1598623336.0591311,0,5,0.5,0.5,0.005582486724853515,-0.14,-0.011,-0.56,0.0012681426816715275,10,1,100,0.03690410322350483,-10,-1,-100,472.0628636716865,-0.007507949648585048,0.00026163413227843875,0.9999717807216637,10.04998544361263,-0.7150918331759939,7.919495889707542,-0.7033184611110956,-90.04493713378906,6389.65576171875,True
1598623336.0972877,0,5,0.5,0.5,0.005546410369873047,-0.14,-0.011,-0.56,0.0020007674429541418,10,1,100,0.0573752304616751,-10,-1,-100,472.057851382182,-0.007262604207208892,0.0002530854916218398,0.9999735949153175,15.793846778609849,-1.1207446029726078,4.3547467365396715,-0.24743573374731417,-90.0433578491211,6388.076171875,True
1598623336.134421,0,5,0.5,0.5,0.0014537429809570318,-0.14,-0.011,-0.56,-0.00015707782063193983,10,1,100,-0.0018130084893056703,-10,-1,-100,472.0976543290308,-0.0065047035927109234,0.00022581129836931642,0.9999788186958904,0.5496240528043297,-0.03870814586574981,-0.6763582308950383,1.121206230102206,-90.03617858886719,6383.33984375,True
1598623336.169264,0,5,0.5,0.5,0.0033225692749023444,-0.14,-0.011,-0.56,0.0015330575232114989,10,1,100,0.0445330808372705,-10,-1,-100,472.12926310882904,-0.006240541449753524,0.00021650629976584815,0.9999805041936749,0.8795147437164487,-0.06179961143123229,-1.5159828354728855,1.5777520600471313,-90.03307342529297,6381.7607421875,True
1598623336.2041714,0,5,0.5,0.5,0.0001131103515624992,-0.14,-0.011,-0.56,0.00038937273614084037,10,1,100,0.012810586881643965,-10,-1,-100,472.21979413030203,-0.005715454974258664,0.00019777272433495527,0.9999836470964848,1.7072976135061104,-0.11945357715162686,-4.60677562630805,2.4913177224082927,-90.02599334716797,6378.603515625,True
1598623336.2449138,0,5,0.5,0.5,0.004077870178222656,-0.14,-0.011,-0.56,0.00224736557166777,10,1,100,0.06488752983664853,-10,-1,-100,472.21979413030203,-0.005715454974258664,0.00019777272433495527,0.9999836470964848,1.7072976135061104,-0.11945357715162686,-4.60677562630805,2.4913177224082927,-90.02599334716797,6378.603515625,True
1598623336.2830517,0,5,0.5,0.5,-0.00416463851928711,-0.14,-0.011,-0.56,-0.0009176358779393078,10,1,100,-0.024435302180580973,-10,-1,-100,472.42399693315383,-0.00490686224292729,0.0001691223427466005,0.9999879469776435,2.579982095665423,-0.17949693642139014,-10.670975371113851,3.8627490148986343,-90.01423645019531,6373.8671875,True
1598623336.3220458,0,5,0.5,0.5,-0.006512092590332032,-0.14,-0.011,-0.56,-0.0013362541476217838,10,1,100,-0.036544463914735925,-10,-1,-100,472.71066012163647,-0.004065684377608912,0.0001394129357811313,0.9999917253530527,3.304765455923842,-0.22883017629542568,-18.348999166012508,5.235670775984446,-90.00151824951172,6369.1298828125,True
1598623336.3633873,0,5,0.5,0.5,-0.005455852508544922,-0.14,-0.011,-0.56,-0.00048389005174278806,10,1,100,-0.012337969943406503,-10,-1,-100,472.90971386106685,-0.0035254160190084016,0.000120308708970242,0.9999937784645,3.762830888635428,-0.2598469147225502,-24.4142465366785,6.151694901139302,-89.992919921875,6365.97216796875,True
1598623336.403654,0,5,0.5,0.5,-0.005890802001953126,-0.14,-0.011,-0.56,-0.0007436490468268524,10,1,100,-0.018946700171948015,-10,-1,-100,473.2015729221748,-0.0029786530770883023,0.00010073846040152739,0.9999955587289419,4.212350504487961,-0.29021618731046,-31.25718029336037,7.068330681474532,-89.98550415039062,6362.814453125,True
1598623336.4471264,0,5,0.5,0.5,-0.006035071563720703,-0.14,-0.011,-0.56,-0.0009231748545772227,10,1,100,-0.025286596417346017,-10,-1,-100,473.5503784765024,-0.0024285125348649395,8.147686067013664e-05,0.999997047839837,4.65686523682844,-0.3202133718302775,-38.887746871289465,7.985602521349179,-89.97946166992188,6359.65673828125,True
1598623336.490038,0,5,0.5,0.5,-0.00599173812866211,-0.14,-0.011,-0.56,-0.0011351217609016134,10,1,100,-0.029871721768533883,-10,-1,-100,473.8487083496293,-0.0018913194815726475,6.220330474011269e-05,0.9999982095190808,5.097820919918378,-0.3499707615681069,-47.3127871915802,8.903473904360162,-89.97479248046875,6356.4990234375,True
1598623336.532762,0,5,0.5,0.5,-0.005759542846679688,-0.14,-0.011,-0.56,-0.001286312933409112,10,1,100,-0.034745008583532785,-10,-1,-100,474.26733966288157,-0.0013635425391029703,4.348095431446068e-05,0.9999990694301424,5.53553892287896,-0.37953866186499613,-56.536429241760324,9.821949074903713,-89.97149658203125,6353.3408203125,True
1598623336.575251,0,5,0.5,0.5,-0.004754032897949219,-0.14,-0.011,-0.56,-0.0004253982642625657,10,1,100,-0.011100602252272971,-10,-1,-100,474.4766861604294,-0.0011033682499179966,3.445288759615914e-05,0.9999993906955662,5.7531623066258515,-0.39425835040457224,-61.44887919943494,10.281417402886893,-89.97039794921875,6351.76220703125,True
1598623336.6154041,0,5,0.5,0.5,-0.00504087142944336,-0.14,-0.011,-0.56,-0.0025434839276179642,10,1,100,-0.06961578615396288,-10,-1,-100,475.1239215680398,-0.0003395601090070537,7.155733105535649e-06,0.9999999423238622,6.400598640368938,-0.43816797590234363,-77.39284793420003,11.660719711241118,-89.96920776367188,6347.025390625,True
1598623336.6578195,0,5,0.5,0.5,-0.004287295532226563,-0.14,-0.011,-0.56,-0.000801802259557375,10,1,100,-0.02171243634949866,-10,-1,-100,475.4030011413852,-8.55612471879181e-05,-1.6531040024536012e-06,0.9999999963382702,6.6143668887750735,-0.4527141548326926,-83.11016522890402,12.120784386869756,-89.96942138671875,6345.4462890625,True
1598623336.702416,0,5,0.5,0.5,-0.002802893829345703,-0.14,-0.011,-0.56,-0.002754370610661855,10,1,100,-0.07602854125311523,-10,-1,-100,476.17710005200934,0.0006340114956559278,-2.7230462903086917e-05,0.9999997986439424,7.248746878461825,-0.4960736215808924,-101.47573114824748,13.501864656780151,-89.9718017578125,6340.70947265625,True
1598623336.7453003,0,5,0.5,0.5,-0.0032640007019042977,-0.14,-0.011,-0.56,-0.0011479755209337873,10,1,100,-0.031236151170380463,-10,-1,-100,476.45642399950884,0.0008759278304540324,-3.570051308281687e-05,0.9999996157378809,7.457538308322533,-0.5104182509691982,-108.00115099733212,13.962518587512031,-89.97311401367188,6339.130859375,True
1598623336.7873392,0,5,0.5,0.5,-0.00037715454101562487,-0.14,-0.011,-0.56,-0.002943208742101565,10,1,100,-0.0815641251154295,-10,-1,-100,477.31286064791493,0.0015488864323090616,-5.956166666694758e-05,0.9999987987008923,8.075145853062141,-0.5531078815504472,-128.7925404229432,15.345355054543885,-89.97833251953125,6334.39404296875,True
1598623336.8323677,0,5,0.5,0.5,-0.0003462036132812502,-0.14,-0.011,-0.56,-0.002319301500838732,10,1,100,-0.06323177733252766,-10,-1,-100,477.9473769296892,0.001989396270104237,-7.541822193591594e-05,0.9999980183053226,8.478710621147998,-0.5812431895198897,-143.66397882609988,16.267970879799847,-89.98257446289062,6331.236328125,True
1598623336.8736699,0,5,0.5,0.5,0.00043670654296875007,-0.14,-0.011,-0.56,-0.0022619633796849576,10,1,100,-0.0633476051721327,-10,-1,-100,478.6389616392553,0.0023863963308715405,-8.915187409509154e-05,0.9999971485781822,8.875152527478605,-0.6091013837623326,-159.3440581095025,17.191162249947038,-89.98709106445312,6328.078125,True
1598623336.9153676,0,5,0.5,0.5,-0.002084197998046875,-0.14,-0.011,-0.56,-0.0009056610372439198,10,1,100,-0.024129089981976028,-10,-1,-100,478.6389616392553,0.0023863963308715405,-8.915187409509154e-05,0.9999971485781822,8.875152527478605,-0.6091013837623326,-159.3440581095025,17.191162249947038,-89.98709106445312,6328.078125,True
1598623336.956501,0,5,0.5,0.5,0.0025435882568359373,-0.14,-0.011,-0.56,-0.003135448387323664,10,1,100,-0.08735471759084049,-10,-1,-100,479.75571443443187,0.0029572859311226317,-0.00010928507256960267,0.9999956212487605,9.455248129129764,-0.6503123467188408,-184.37464988423707,18.577021380469972,-89.99368286132812,6323.341796875,True
1598623337.0005195,0,5,0.5,0.5,0.0017711791992187503,-0.14,-0.011,-0.56,-0.0025313655246305827,10,1,100,-0.07004236573607737,-10,-1,-100,480.5235626678914,0.003314963434061936,-0.00012195743967932653,0.9999944980567711,9.831799882775663,-0.6773827615484221,-202.06804672017745,19.501636308707514,-89.99781799316406,6320.1845703125,True
1598623337.0424087,0,5,0.5,0.5,0.0036299545288085945,-0.14,-0.011,-0.56,-0.0031498101386753068,10,1,100,-0.08764298723555233,-10,-1,-100,481.7163964819629,0.0037961137851983667,-0.000138957805972868,0.9999927850794014,10.380789766411802,-0.717371726927649,-230.12230427308288,20.88961502664573,-90.00373840332031,6315.447265625,True
1598623337.084381,0,5,0.5,0.5,0.0024780578613281252,-0.14,-0.011,-0.56,-0.0025927959439944444,10,1,100,-0.07265175613299257,-10,-1,-100,482.61104511865415,0.004093479572668028,-0.00014921608852528113,0.999991610544582,10.73545968377749,-0.7435772841484733,-249.82588556580595,21.815632944101086,-90.00677490234375,6312.2890625,True
1598623337.128265,0,5,0.5,0.5,0.002239300537109375,-0.14,-0.011,-0.56,-0.002614243333497709,10,1,100,-0.07213623071997288,-10,-1,-100,483.51854110404383,0.004355326384049491,-0.00015860262803702927,0.9999905029435504,11.080810908366324,-0.7694093532844595,-270.3250932279397,22.742205917488388,-90.00880432128906,6309.1318359375,True
1598623337.1693795,0,5,0.5,0.5,0.001811100769042969,-0.14,-0.011,-0.56,-0.0025884725678885427,10,1,100,-0.07279014224237995,-10,-1,-100,484.4258543069009,0.0045959305765196174,-0.0001667821368465952,0.9999894247470094,11.41676963766118,-0.7948543236205327,-291.61650337270464,23.66933143185992,-90.00975799560547,6305.9736328125,True
1598623337.2130601,0,5,0.5,0.5,0.001285308074951172,-0.14,-0.011,-0.56,-0.0025772232515822754,10,1,100,-0.07228882023781767,-10,-1,-100,485.40293034142815,0.00480672236713638,-0.00017399662232181292,0.999988432505727,11.743370773415679,-0.8199168329250698,-313.6973497921119,24.597005802657165,-90.00971221923828,6302.81591796875,True
1598623337.2541976,0,5,0.5,0.5,0.0013454605102539065,-0.14,-0.011,-0.56,-0.0018672181996259906,10,1,100,-0.05153542476962417,-10,-1,-100,485.40293034142815,0.00480672236713638,-0.00017399662232181292,0.999988432505727,11.743370773415679,-0.8199168329250698,-313.6973497921119,24.597005802657165,-90.00971221923828,6302.81591796875,True
1598623337.2961361,0,5,0.5,0.5,-0.0005366142272949217,-0.14,-0.011,-0.56,-0.003187981661092217,10,1,100,-0.08920660049618181,-10,-1,-100,487.4778087072773,0.00514662639547142,-0.00018591394615297325,0.9999867387484447,12.368858736524752,-0.8688933859785615,-360.2165031771945,26.45398716172589,-90.0069808959961,6296.5,True
1598623337.3401995,0,5,0.5,0.5,-0.0008116714477539062,-0.14,-0.011,-0.56,-0.002519168807524327,10,1,100,-0.07073449777332781,-10,-1,-100,488.5312998906011,0.005285192550964057,-0.00019057979453790375,0.999986015111732,12.668076223917407,-0.8928191409146757,-384.6489168054705,27.383289118500418,-90.0043716430664,6293.3427734375,True
1598623337.3861096,0,5,0.5,0.5,-0.0015745231628417969,-0.14,-0.011,-0.56,-0.002418563132750987,10,1,100,-0.06782648114820869,-10,-1,-100,489.6987736776937,0.005382089999165287,-0.000193814670644044,0.9999854976663982,12.958538437114939,-0.9163738928253274,-409.8591016568537,28.313126848320877,-90.00116729736328,6290.1845703125,True
1598623337.431035,0,5,0.5,0.5,-0.002313970947265625,-0.14,-0.011,-0.56,-0.002388063976692791,10,1,100,-0.0672737976206116,-10,-1,-100,490.8155572526157,0.00546294982539912,-0.00019640135695993843,0.9999850586912347,13.240358401834758,-0.9395563696822056,-435.83663861119123,29.243498050303835,-89.9975357055664,6287.0263671875,True
1598623337.4729197,0,5,0.5,0.5,-0.0030203056335449223,-0.14,-0.011,-0.56,-0.002299630287186317,10,1,100,-0.06513760870647618,-10,-1,-100,492.05306750768796,0.005515086144218339,-0.00019788127105407395,0.9999847722179696,13.51401560623754,-0.9623793497093616,-462.5785620644617,30.17439976963047,-89.99362182617188,6283.86865234375,True
1598623337.5183613,0,5,0.5,0.5,-0.003680847930908203,-0.14,-0.011,-0.56,-0.0022231742131960637,10,1,100,-0.0628946644300865,-10,-1,-100,493.2967119202949,0.00554052969303316,-0.00019847802549875738,0.9999846314505009,13.779963016502908,-0.9848658803396225,-490.08132900631136,31.1058290091773,-89.98956298828125,6280.7109375,True
1598623337.5641801,0,5,0.5,0.5,-0.004268018341064453,-0.14,-0.011,-0.56,-0.002120084698457368,10,1,100,-0.060526891701800714,-10,-1,-100,494.54676431941334,0.005540819485225522,-0.00019803856855359647,0.9999846299319591,14.038711454162152,-1.0070259960782995,-518.3406229398589,32.0377475537072,-89.98550415039062,6277.552734375,True
1598623337.6080713,0,5,0.5,0.5,-0.003409249114990235,-0.14,-0.011,-0.56,-0.0021383090299859717,10,1,100,-0.05963980394452191,-10,-1,-100,495.1749642980285,0.005531940777514974,-0.0001977688871259679,0.9999846791419865,14.165511576433733,-1.0179892003589437,-532.750895199799,32.503884577217384,-89.9835205078125,6275.974609375,True
1598623337.6523037,0,5,0.5,0.5,-0.006236572265625,-0.14,-0.011,-0.56,-0.0018632805409919705,10,1,100,-0.053659907281104646,-10,-1,-100,497.1801383384736,0.005468655609746142,-0.0001949952934279243,0.9999850277792449,14.536634533738713,-1.0504341283291654,-577.106275644028,33.90318109358841,-89.97793579101562,6271.23779296875,True
1598623337.696231,0,5,0.5,0.5,-0.005600749969482422,-0.14,-0.011,-0.56,-0.001772659843511083,10,1,100,-0.05215337264423589,-10,-1,-100,498.56339937995654,0.005396826112127842,-0.00019163093038796194,0.9999854186664433,14.77710449734743,-1.0717300344377163,-607.6065200174653,34.83669047870679,-89.97442626953125,6268.07958984375,True
1598623337.7421982,0,5,0.5,0.5,-0.0048064346313476565,-0.14,-0.011,-0.56,-0.0019418042431918014,10,1,100,-0.05459793899868155,-10,-1,-100,499.3122038888978,0.005353213441383447,-0.00019009406370503346,0.9999856533821362,14.89548102801319,-1.0822820792459804,-623.1328407316524,35.30363777337557,-89.97280883789062,6266.5009765625,True
1598623337.7861276,0,5,0.5,0.5,-0.006693999481201173,-0.14,-0.011,-0.56,-0.0013867018223662562,10,1,100,-0.04087095814848132,-10,-1,-100,501.45693291397765,0.005188587017481348,-0.00018364672642436438,0.9999865223284972,15.244328485294917,-1.1136062906602524,-670.8111553052903,36.705098078734586,-89.9688720703125,6261.7646484375,True
1598623337.8302288,0,5,0.5,0.5,-0.006023820495605469,-0.14,-0.011,-0.56,-0.0014081871596381653,10,1,100,-0.042185581519776236,-10,-1,-100,502.97361555160023,0.005050965576885286,-0.0001779871347517858,0.9999872279520978,15.472578445629557,-1.1342479078994745,-703.5121337962458,37.64012969789695,-89.96673583984375,6258.6064453125,True
1598623337.8721173,0,5,0.5,0.5,-0.005954883575439453,-0.14,-0.011,-0.56,-0.0013225411389107624,10,1,100,-0.03906165647122947,-10,-1,-100,504.4965230929665,0.0048977568799223326,-0.00017207783989364001,0.9999879911112743,15.698258234085609,-1.1547184272453253,-736.9380971202884,38.575674243674435,-89.96517944335938,6255.44873046875,True
1598623337.9156227,0,5,0.5,0.5,-0.005845211791992188,-0.14,-0.011,-0.56,-0.0011999000594356342,10,1,100,-0.035199439319914344,-10,-1,-100,506.0765287722461,0.004723878993076307,-0.00016561294704288477,0.9999888287074064,15.92223465080734,-1.1750567003284331,-771.08872676802,39.5117206499636,-89.96414184570312,6252.29150390625,True
1598623337.9572709,0,5,0.5,0.5,-0.0056811065673828135,-0.14,-0.011,-0.56,-0.0010087402098381388,10,1,100,-0.03156033549165916,-10,-1,-100,507.6692298303824,0.004533444704005911,-0.00015802728974950386,0.9999897114003181,16.145338816036865,-1.1952934880128825,-805.9630639198382,40.44826558426403,-89.96359252929688,6249.13330078125,True
1598623338.0003617,0,5,0.5,0.5,-0.005508868408203126,-0.14,-0.011,-0.56,-0.0009140359710088954,10,1,100,-0.027810262917980933,-10,-1,-100,509.31905936833937,0.00432714658598941,-0.0001503070634350274,0.9999906265611744,16.368299847607112,-1.2154512974850005,-841.5533680294692,41.38529921332213,-89.96343994140625,6245.9755859375,True
1598623338.0422175,0,5,0.5,0.5,-0.0053195159912109375,-0.14,-0.011,-0.56,-0.00074929055398398,10,1,100,-0.024014550345449047,-10,-1,-100,510.98161475907546,0.004106199703405243,-0.00014183438254447556,0.9999915594678805,16.592008415818004,-1.235568803983993,-877.860310557307,42.322825476194375,-89.963623046875,6242.81787109375,True
1598623338.0851364,0,5,0.5,0.5,-0.005208956909179688,-0.14,-0.011,-0.56,-0.0005626660307333316,10,1,100,-0.02015062740009363,-10,-1,-100,512.7012073437218,0.0038715084570746876,-0.00013248620834586025,0.9999924969066876,16.817299193134954,-1.2556769086959543,-914.8823320806683,43.26085022748002,-89.96395874023438,6239.65966796875,True
1598623338.1279886,0,5,0.5,0.5,-0.005049160766601562,-0.14,-0.011,-0.56,-0.0004904019166769324,10,1,100,-0.016285284901833036,-10,-1,-100,514.4907464688877,0.003624465253292424,-0.00012338774811486276,0.9999934239919238,17.045020609412575,-1.275803782872184,-952.6178052851099,44.19936177853384,-89.9644775390625,6236.501953125,True
1598623338.1691465,0,5,0.5,0.5,-0.005008834838867188,-0.14,-0.011,-0.56,-0.00027335683515758435,10,1,100,-0.012405040210445181,-10,-1,-100,516.2802240748424,0.003366216807985781,-0.00011320532278402833,0.9999943278683917,17.275995103027807,-1.2959879840392003,-991.0652470992884,45.13835752152621,-89.9649658203125,6233.34423828125,True
1598623338.2110858,0,5,0.5,0.5,-0.004970465087890625,-0.14,-0.011,-0.56,-0.00013883380103214696,10,1,100,-0.008572620814568693,-10,-1,-100,518.1395264199236,0.0030984116783203176,-0.00010279553466478488,0.999995194627529,17.51109608945906,-1.3162555306577088,-1030.2264794663386,46.07780449479916,-89.96542358398438,6230.1865234375,True
1598623338.2539709,0,5,0.5,0.5,-0.0050169830322265635,-0.14,-0.011,-0.56,-1.804528931328075e-05,10,1,100,-0.004731549988515535,-10,-1,-100,519.9988284058636,0.0028219338032413775,-9.230751462417348e-05,0.9999960140765227,17.751032914607666,-1.3366414931459702,-1070.0969145555657,47.01773049963238,-89.96572875976562,6227.0283203125,True
1598623338.2990534,0,5,0.5,0.5,-0.0051249023437500004,-0.14,-0.011,-0.56,0.00014865003993067298,10,1,100,-0.0009666723356576701,-10,-1,-100,521.8643558608601,0.0025383905124833094,-8.133542943060683e-05,0.9999967749738765,17.996730707121333,-1.3571814445418136,-1110.6846720833128,47.95812728567916,-89.9658203125,6223.87109375,True
1598623338.3414352,0,5,0.5,0.5,-0.005303640747070314,-0.14,-0.011,-0.56,0.0002797194305303514,10,1,100,0.0027587529595721333,-10,-1,-100,523.8568981064018,0.0022489012603533758,-7.025175971324282e-05,0.9999974687507022,18.2488712652347,-1.3779007634835159,-1151.985475729601,48.89899357939884,-89.96563720703125,6220.712890625,True
1598623338.382386,0,5,0.5,0.5,-0.005519891357421876,-0.14,-0.011,-0.56,0.0004464126855004023,10,1,100,0.006421127670647973,-10,-1,-100,525.8493796399562,0.001954684877164313,-5.874699509530203e-05,0.9999980878760828,18.50825439338974,-1.3988299418144803,-1194.0053312439975,49.84036304354034,-89.96517944335938,6217.55517578125,True
1598623338.4331546,0,5,0.5,0.5,-0.005838580322265625,-0.14,-0.011,-0.56,0.0005643917476441127,10,1,100,0.0100019201265883,-10,-1,-100,527.848269266542,0.0016570071063264724,-4.730583605464413e-05,0.9999986260438597,18.77557033397726,-1.4200064540407784,-1236.7446431692445,50.7822025645839,-89.96435546875,6214.3974609375,True
1598623338.4750717,0,5,0.5,0.5,-0.0061879150390625,-0.14,-0.011,-0.56,0.0007366003189012852,10,1,100,0.013470680253762947,-10,-1,-100,529.9105748122092,0.001357284167571996,-3.543288739478118e-05,0.9999990782616747,19.051551721956987,-1.4414558997659215,-1280.208466511055,51.724482540808374,-89.96319580078125,6211.23974609375,True
1598623338.517213,0,5,0.5,0.5,-0.0065857238769531255,-0.14,-0.011,-0.56,0.0008549088051873644,10,1,100,0.016842684989833608,-10,-1,-100,531.9792896604631,0.0010566531943180418,-2.3660494642441136e-05,0.9999994414619481,19.336757945022846,-1.463205307119698,-1324.3943481333097,52.6672226510475,-89.96170043945312,6208.08203125,True
1598623338.5583022,0,5,0.5,0.5,-0.007032543945312501,-0.14,-0.011,-0.56,0.0009843149181086896,10,1,100,0.020103502845118543,-10,-1,-100,534.1177062492352,0.0007562674701870899,-1.188083267166852e-05,0.9999997139591389,19.631855740523193,-1.4852759088394514,-1369.3108522144976,53.6104422849281,-89.95986938476562,6204.923828125,True
1598623338.6032546,0,5,0.5,0.5,-0.006738540649414063,-0.14,-0.011,-0.56,0.0004889265705694618,10,1,100,0.0068020486802007046,-10,-1,-100,535.2092231849674,0.0006067193022792098,-5.776949417180208e-06,0.9999998159291406,19.78331770528103,-1.496444621567054,-1392.046074391376,54.082222496478956,-89.95883178710938,6203.34521484375,True
1598623338.6450195,0,5,0.5,0.5,-0.0069332763671875,-0.14,-0.011,-0.56,0.0005382065262842686,10,1,100,0.008556882291983137,-10,-1,-100,536.3132523023523,0.0004573220236246663,1.22372799428458e-07,0.9999998954282704,19.937443904894796,-1.5077070910278219,-1414.9637369827224,54.55411571659415,-89.95773315429688,6201.76611328125,True
1598623338.687001,0,5,0.5,0.5,-0.00987264404296875,-0.14,-0.011,-0.56,0.002550410982341314,10,1,100,0.05942347415940093,-10,-1,-100,540.7805164647289,-0.0001385162560789935,2.3684599044623828e-05,0.9999999901261432,20.581997910814035,-1.5537079662104187,-1508.4850688454005,56.44281091817986,-89.95266723632812,6195.4501953125,True
1598623338.7304058,0,5,0.5,0.5,-0.009186328125,-0.14,-0.011,-0.56,0.0014953316088320897,10,1,100,0.03280624233008906,-10,-1,-100,543.052417324041,-0.00043552126639828507,3.5407726677745946e-05,0.9999999045337551,20.921680305213084,-1.5773067135276653,-1556.339171238671,57.38782321434191,-89.94961547851562,6192.29296875,True
1598623338.7742953,0,5,0.5,0.5,-0.009674124145507813,-0.14,-0.011,-0.56,0.0015631994736482356,10,1,100,0.033687761264967496,-10,-1,-100,545.3877346649533,-0.0007108360735702799,4.6575965882450695e-05,0.9999997462713457,21.273821573237544,-1.6013439309441508,-1604.9339051448494,58.3332685292096,-89.94650268554688,6189.134765625,True
1598623338.8168063,0,5,0.5,0.5,-0.010045513916015627,-0.14,-0.011,-0.56,0.0017127404243737453,10,1,100,0.03759260974328025,-10,-1,-100,547.7291551945964,-0.000993930214135006,5.798216677914538e-05,0.999999504370276,21.63918477684451,-1.6258735067287984,-1654.3166086854453,59.27915407488169,-89.94351196289062,6185.97705078125,True
1598623338.8580594,0,5,0.5,0.5,-0.01044532470703125,-0.14,-0.011,-0.56,0.0018036282132084889,10,1,100,0.03928843398334414,-10,-1,-100,550.1341133088572,-0.0012640245485659749,6.907157552747963e-05,0.999999198735208,22.017706718767244,-1.650884432014937,-1704.4804872579357,60.225472476769156,-89.94058227539062,6182.8193359375,True
1598623338.9009457,0,5,0.5,0.5,-0.009834878540039062,-0.14,-0.011,-0.56,0.0013027151391703231,10,1,100,0.026982917133497403,-10,-1,-100,551.3652179109631,-0.0013950410342728921,7.449330334236187e-05,0.999999024155154,22.21194317409331,-1.6635771882795196,-1729.8545070613372,60.69878900476682,-89.93914794921875,6181.24072265625,True
1598623338.9452698,0,5,0.5,0.5,-0.010040774536132812,-0.14,-0.011,-0.56,0.0013372272178995724,10,1,100,0.02834329616972789,-10,-1,-100,552.5453580943868,-0.0015240118986977805,7.963596008003241e-05,0.9999988355222452,22.409482640766818,-1.6763884186133509,-1755.4211361395976,61.17222156175109,-89.937744140625,6179.6611328125,True
1598623338.987779,0,5,0.5,0.5,-0.013083483886718752,-0.14,-0.011,-0.56,0.003129076820831479,10,1,100,0.07044457723667426,-10,-1,-100,557.558644636767,-0.0020216509986989953,0.0001005067385457298,0.9999979514107192,23.233451434906335,-1.7289174137176435,-1859.6550113311343,63.067014289577955,-89.93231201171875,6173.345703125,True
1598623339.0301547,0,5,0.5,0.5,-0.012058499145507813,-0.14,-0.011,-0.56,0.002128010476341718,10,1,100,0.0470641862373838,-10,-1,-100,560.1033122905064,-0.0022589757910075627,0.00011027739986353196,0.9999974424303648,23.665671024109177,-1.755931729259563,-1912.9366111860827,64.01504199856184,-89.92947387695312,6170.1884765625,True
1598623339.072046,0,5,0.5,0.5,-0.012295870971679689,-0.14,-0.011,-0.56,0.002149590365686873,10,1,100,0.04704582255418241,-10,-1,-100,562.7113957634429,-0.002471953482265078,0.00011925049610168924,0.9999969376079612,24.111709286320714,-1.7834788592138655,-1967.0076502842096,64.96348671372806,-89.92691040039062,6167.0302734375,True
1598623339.11635,0,5,0.5,0.5,-0.012475039672851563,-0.14,-0.011,-0.56,0.002295893537855615,10,1,100,0.04944485388808578,-10,-1,-100,565.3257661280222,-0.0026847159632565863,0.00012862958686218236,0.9999963878707893,24.572045990331507,-1.8115883023704729,-2021.923001556285,65.91234336668133,-89.92465209960938,6163.8720703125,True
1598623339.1573741,0,5,0.5,0.5,-0.012651119995117187,-0.14,-0.011,-0.56,0.0023018274143014566,10,1,100,0.04999236108330973,-10,-1,-100,568.0036735617323,-0.0028807990116534684,0.00013711457280503144,0.999995841089676,25.0461650585043,-1.8402493890553155,-2077.668012921918,66.86160864217192,-89.92263793945312,6160.71435546875,True
1598623339.1999354,0,5,0.5,0.5,-0.01283460388183594,-0.14,-0.011,-0.56,0.0023690040414015958,10,1,100,0.05061026924425972,-10,-1,-100,570.6878677380737,-0.00306245069552722,0.00014534643223023432,0.9999953001240316,25.53391772469945,-1.8694526833149878,-2134.2460769216336,67.81127921129925,-89.92080688476562,6157.556640625,True
1598623339.2408264,0,5,0.5,0.5,-0.013012405395507815,-0.14,-0.011,-0.56,0.0023902767012902847,10,1,100,0.05122566383613043,-10,-1,-100,573.4355992358178,-0.0032310452547731306,0.00015293353728272705,0.9999947684652629,26.035080974623764,-1.8991891995318777,-2191.6593661847273,68.76135117754255,-89.91912841796875,6154.39892578125,True
1598623339.284047,0,5,0.5,0.5,-0.013210125732421876,-0.14,-0.011,-0.56,0.0023875924800802212,10,1,100,0.05164269403727133,-10,-1,-100,576.2466242787195,-0.0033860704786064775,0.00015972018407353478,0.9999942544915829,26.549490163462696,-1.9294564046686034,-2249.918364649872,69.71181968167147,-89.91754150390625,6151.2412109375,True
1598623339.3260705,0,5,0.5,0.5,-0.013436276245117187,-0.14,-0.011,-0.56,0.0024718664755674974,10,1,100,0.0518836650586702,-10,-1,-100,579.0643021364231,-0.003527264013258564,0.00016657358238002064,0.9999937653114755,27.07689233972974,-1.9602613580897914,-2309.02965040085,70.66267364739693,-89.91598510742188,6148.08349609375,True
1598623339.3680723,0,5,0.5,0.5,-0.01310286865234375,-0.14,-0.011,-0.56,0.0021339528486255628,10,1,100,0.045144515381446246,-10,-1,-100,580.4412194929319,-0.003592418390441165,0.00016964829306913778,0.9999935328538704,27.345335072795653,-1.9758588008117903,-2338.9042347013856,71.13824292152059,-89.91525268554688,6146.50439453125,True
1598623339.4095008,0,5,0.5,0.5,-0.013251510620117188,-0.14,-0.011,-0.56,0.0021765510044936963,10,1,100,0.04563544349614514,-10,-1,-100,581.888144268305,-0.0036542322557482983,0.00017274891117350993,0.9999933083498284,27.616915096869217,-1.9915861915957362,-2368.9950704477983,71.61391710363827,-89.91448974609375,6144.92529296875,True
1598623339.4515598,0,5,0.5,0.5,-0.015044186401367189,-0.14,-0.011,-0.56,0.0030598385607651874,10,1,100,0.06323729864933009,-10,-1,-100,587.7197264004499,-0.0038689593790046015,0.00018353186707756382,0.999992498706554,28.733651152341864,-2.0557399705062163,-2491.527581789931,73.51756375742792,-89.91134643554688,6138.6103515625,True
1598623339.4931054,0,5,0.5,0.5,-0.014585610961914065,-0.14,-0.011,-0.56,0.002501408844344024,10,1,100,0.051607404900216605,-10,-1,-100,590.6768078308087,-0.003956975926438394,0.00018819132550722584,0.9999921534319869,29.3093717219101,-2.0885410074988635,-2554.0835232916406,74.46995383036351,-89.90951538085938,6135.4521484375,True
1598623339.533152,0,5,0.5,0.5,-0.014903817749023439,-0.14,-0.011,-0.56,0.0024815453117154893,10,1,100,0.05046383231659819,-10,-1,-100,593.6973652363522,-0.004025244834759698,0.00019218394575629052,0.9999918802017099,29.89632333248126,-2.1218316657312624,-2617.5152278052615,75.42271671233217,-89.90762329101562,6132.2939453125,True
1598623339.5725832,0,5,0.5,0.5,-0.015251528930664063,-0.14,-0.011,-0.56,0.002527433126684798,10,1,100,0.05035050659098737,-10,-1,-100,596.7243314685766,-0.00408505858220851,0.0001961729857925302,0.9999916368712988,30.494167014854728,-2.1555869686009737,-2681.84689292329,76.37585007667572,-89.9056396484375,6129.13623046875,True
1598623339.6141632,0,5,0.5,0.5,-0.015569299316406252,-0.14,-0.011,-0.56,0.0024392411770246913,10,1,100,0.04935215091512042,-10,-1,-100,599.8147740048589,-0.004129263974135407,0.00019894395136221303,0.9999914547636575,31.102225159128142,-2.189792349820801,-2747.0753462271005,77.3293482149526,-89.90362548828125,6125.978515625,True
1598623339.6551836,0,5,0.5,0.5,-0.015976992797851565,-0.14,-0.011,-0.56,0.002472732189063933,10,1,100,0.048348393828931524,-10,-1,-100,602.9684484866448,-0.004159355799395771,0.0002017187496994342,0.9999913294968512,31.719890360687785,-2.224425999194422,-2813.197827314701,78.28320715769877,-89.90145874023438,6122.8203125,True
1598623339.697865,0,5,0.5,0.5,-0.016385223388671877,-0.14,-0.011,-0.56,0.002437733408140013,10,1,100,0.047300531070944465,-10,-1,-100,606.128836337477,-0.004176342060428381,0.00020387877271358442,0.9999912582620111,32.34654461157356,-2.2594588919933267,-2880.213408771602,79.23742136544172,-89.899169921875,6119.6630859375,True
1598623339.741035,0,5,0.5,0.5,-0.01683267822265625,-0.14,-0.011,-0.56,0.0023793627025080746,10,1,100,0.04616765139270883,-10,-1,-100,609.2953282027738,-0.0041807667810360456,0.0002052716430492124,0.9999912394879641,32.98164039531421,-2.2948802512318993,-2948.1285747057823,80.19199249865042,-89.896728515625,6116.5048828125,True
1598623339.7832067,0,5,0.5,0.5,-0.017281106567382812,-0.14,-0.011,-0.56,0.002393043045965046,10,1,100,0.04487060266814133,-10,-1,-100,612.5252351461677,-0.004172403808848966,0.00020662707551242015,0.9999912741377834,33.624538106842266,-2.3306598435914734,-3016.9407135980114,81.14690608955787,-89.8941650390625,6113.3466796875,True
1598623339.823571,0,5,0.5,0.5,-0.017748638916015625,-0.14,-0.011,-0.56,0.0023201869131265845,10,1,100,0.04358399866430225,-10,-1,-100,615.8187403897755,-0.004152577447354531,0.00020716334128731092,0.9999913565545923,34.274591681699846,-2.3667772392131865,-3086.648810972484,82.10216332011555,-89.8914794921875,6110.189453125,True
1598623339.863986,0,5,0.5,0.5,-0.0172527099609375,-0.14,-0.011,-0.56,0.002258318590427054,10,1,100,0.044040359877303314,-10,-1,-100,617.4685446503572,-0.004138249179576322,0.00020705713048529425,0.9999914159736935,34.60210595685088,-2.3849509676150857,-3121.8389386102676,82.57992339945908,-89.89007568359375,6108.6103515625,True
1598623339.9034917,0,5,0.5,0.5,-0.01952342224121094,-0.14,-0.011,-0.56,0.002278820951128589,10,1,100,0.03896539042383934,-10,-1,-100,622.4816779119428,-0.004078842586745939,0.0002071255737049224,0.9999916600362971,35.593693617632354,-2.4398933227811765,-3228.758136294178,84.01370745757588,-89.8857421875,6103.8740234375,True
1598623339.9470632,0,5,0.5,0.5,-0.01930177001953125,-0.14,-0.011,-0.56,0.0021792046083860183,10,1,100,0.039068462631005565,-10,-1,-100,625.8512935688486,-0.004025662825455914,0.0002062649787449267,0.9999918757137852,36.26141232265381,-2.4768469728395623,-3301.153989773885,84.96997816240471,-89.88262939453125,6100.71630859375,True
1598623339.9883306,0,5,0.5,0.5,-0.019829141235351563,-0.14,-0.011,-0.56,0.0021379839440629255,10,1,100,0.03758238470563761,-10,-1,-100,629.2841414693976,-0.003963807408606458,0.00020509508543927645,0.9999921230523935,36.933682674409454,-2.5140410290137476,-3374.442306392667,85.92656794135877,-89.87942504882812,6097.55810546875,True
1598623340.0310898,0,5,0.5,0.5,-0.020263861083984376,-0.14,-0.011,-0.56,0.0021083404553453784,10,1,100,0.03587185772366985,-10,-1,-100,632.78089304897,-0.003892135194519612,0.00020375394880975604,0.999992404855135,37.60980215461759,-2.5514337194431356,-3448.6130196731187,86.8834799493098,-89.87628173828125,6094.400390625,True
1598623340.0732198,0,5,0.5,0.5,-0.020734002685546878,-0.14,-0.011,-0.56,0.0020712177872202345,10,1,100,0.03423568661749678,-10,-1,-100,636.2836256425362,-0.0038123199250932834,0.00020219288216592022,0.9999927126408608,38.2891387757946,-2.5889926390763733,-3523.6635617348243,87.84071864935335,-89.87313842773438,6091.24267578125,True
1598623340.115465,0,5,0.5,0.5,-0.02120521850585938,-0.14,-0.011,-0.56,0.001978210259212599,10,1,100,0.03256930486419784,-10,-1,-100,639.7927667757031,-0.003724927151379633,0.00019992777666012144,0.9999930424490968,38.9710346057119,-2.6267098854004187,-3599.5876645583044,88.79827170781029,-89.8699951171875,6088.0849609375,True
1598623340.158043,0,5,0.5,0.5,-0.02056653442382813,-0.14,-0.011,-0.56,0.00209839652311291,10,1,100,0.03616789181842366,-10,-1,-100,641.5759323096136,-0.0036786039793229573,0.0001989647840503558,0.999993214119865,39.31274581705195,-2.6456088402712488,-3637.875719223741,89.27716481018429,-89.86843872070312,6086.505859375,True
1598623340.199583,0,5,0.5,0.5,-0.022973141479492188,-0.14,-0.011,-0.56,0.0017185248481525917,10,1,100,0.024368826511207642,-10,-1,-100,647.0016006067162,-0.0035296842862983,0.00019464169086820128,0.999993751702205,40.34000086677516,-2.7024372572748168,-3754.0322703147185,90.71429701742952,-89.86380004882812,6081.76904296875,True
1598623340.2420275,0,5,0.5,0.5,-0.0214983642578125,-0.14,-0.011,-0.56,0.0019888010158740418,10,1,100,0.0333173788259413,-10,-1,-100,648.848242656095,-0.0034762375132485093,0.00019317955803156874,0.9999939392088383,40.68283244865221,-2.7214160532742286,-3793.1760715029345,91.19349462442234,-89.86224365234375,6080.1904296875,True
1598623340.2845356,0,5,0.5,0.5,-0.024012823486328126,-0.14,-0.011,-0.56,0.0016052009279531314,10,1,100,0.020483943047386093,-10,-1,-100,654.3500217802357,-0.003311596794247385,0.00018837578536558155,0.9999944989054869,41.71177257526993,-2.7784218309195263,-3911.895826614556,92.63153516855041,-89.85745239257812,6075.453125,True
1598623340.3246565,0,5,0.5,0.5,-0.023608645629882814,-0.14,-0.011,-0.56,0.0017021990564800651,10,1,100,0.023779872408508457,-10,-1,-100,658.0623485954711,-0.003192637909697774,0.0001849075035150378,0.9999948864231221,42.39715290358033,-2.816436614700899,-3992.0836820510845,93.59059661442245,-89.854248046875,6072.294921875,True
1598623340.365083,0,5,0.5,0.5,-0.022959695434570316,-0.14,-0.011,-0.56,0.0018523662176836231,10,1,100,0.029205977679758185,-10,-1,-100,659.9786925193621,-0.00313462733955226,0.00018313987427111207,0.9999950702734631,42.739554286909545,-2.8354413888967462,-4032.4941265579923,94.07023646409037,-89.8526611328125,6070.716796875,True
1598623340.4050732,0,5,0.5,0.5,-0.02424021911621094,-0.14,-0.011,-0.56,0.001599399386661368,10,1,100,0.021723544250507307,-10,-1,-100,663.7544346881332,-0.0030146783677776063,0.0001792542629532262,0.9999954397807261,43.423055943623815,-2.873396452267558,-4113.907111089248,95.02973108356056,-89.849609375,6067.55908203125,True
1598623340.4481757,0,5,0.5,0.5,-0.02465753784179688,-0.14,-0.011,-0.56,0.001541992352958024,10,1,100,0.01991881261683487,-10,-1,-100,667.5999397120904,-0.0028900900413498343,0.00017522349856010505,0.9999958083293541,44.10465600871417,-2.9112970517906236,-4196.116961125754,95.98950971804891,-89.84661865234375,6064.40087890625,True
1598623340.4880314,0,5,0.5,0.5,-0.026305157470703125,-0.14,-0.011,-0.56,0.0013031161906577264,10,1,100,0.01152975572293485,-10,-1,-100,673.4317355725216,-0.002701474722973832,0.00016941350259112826,0.9999963366599831,45.12291487820505,-2.967994661207053,-4320.940993588793,97.42969054506342,-89.8419189453125,6059.6640625,True
1598623340.5276704,0,5,0.5,0.5,-0.02592934265136719,-0.14,-0.011,-0.56,0.0013907235720368783,10,1,100,0.01631675306352827,-10,-1,-100,677.3470036122017,-0.0025745342686393333,0.00016495791824966419,0.9999966722755556,45.798109323187354,-3.005645030822607,-4405.131489096698,98.39015121169682,-89.8387451171875,6056.505859375,True
1598623340.5680788,0,5,0.5,0.5,-0.02632260437011719,-0.14,-0.011,-0.56,0.0013684894700897255,10,1,100,0.015246478819874008,-10,-1,-100,681.3258708898211,-0.0024504499014681505,0.00016073704961100496,0.9999969847248947,46.4695982079822,-3.043129830067923,-4490.056740207155,99.35089422727384,-89.835693359375,6053.3486328125,True
1598623340.6085293,0,5,0.5,0.5,-0.026679058837890627,-0.14,-0.011,-0.56,0.0012900666011580655,10,1,100,0.01374432117261137,-10,-1,-100,685.3109635146102,-0.002325106456408192,0.0001562217136168809,0.9999972847336849,47.133737116940615,-3.0802072976886485,-4575.367851904986,100.31190613471797,-89.83279418945312,6050.1904296875,True
1598623340.6495447,0,5,0.5,0.5,-0.027097686767578125,-0.14,-0.011,-0.56,0.0012771306168069742,10,1,100,0.012646324867031234,-10,-1,-100,689.3594711390324,-0.0022022711561483104,0.0001520341901074412,0.9999975634407116,47.78922339588895,-3.116798178530044,-4660.942553392597,101.2731872407111,-89.82992553710938,6047.033203125,True
1598623340.6896844,0,5,0.5,0.5,-0.02753484802246094,-0.14,-0.011,-0.56,0.001222103589140408,10,1,100,0.011633384908066233,-10,-1,-100,693.4145102188922,-0.0020825523075188273,0.00014776450972727646,0.9999978205683929,48.4358612733127,-3.152886765096327,-4746.758737820237,102.2347370689922,-89.82705688476562,6043.875,True
1598623340.7303228,0,5,0.5,0.5,-0.02794853210449219,-0.14,-0.011,-0.56,0.0011966549495828734,10,1,100,0.010624471320398458,-10,-1,-100,697.539189907955,-0.001965662362046616,0.00014368855018172938,0.9999980577606533,49.07339846684298,-3.1884517744572745,-4832.78886311334,103.19655526876755,-89.82421875,6040.716796875,True
1598623340.7722118,0,5,0.5,0.5,-0.027396237182617193,-0.14,-0.011,-0.56,0.0013556827002210664,10,1,100,0.015882629441460815,-10,-1,-100,699.5953041240573,-0.0019083156450339467,0.00014146631101279134,0.9999981691576648,49.3886995400255,-3.2060303607626532,-4875.87665652812,103.67756539432536,-89.82278442382812,6039.138671875,True
1598623340.811643,0,5,0.5,0.5,-0.028676660156250002,-0.14,-0.011,-0.56,0.0011192405272722732,10,1,100,0.009212227899789663,-10,-1,-100,703.7833998856368,-0.001796657080729526,0.00013733450434445712,0.9999983765799664,50.012258841929516,-3.2407774632983553,-4962.176727388955,104.63978735287613,-89.81985473632812,6035.98046875,True
1598623340.8515368,0,5,0.5,0.5,-0.029183633422851567,-0.14,-0.011,-0.56,0.0010434022981393066,10,1,100,0.008325967906294047,-10,-1,-100,707.977964745718,-0.0016881996780455908,0.00013292698688895246,0.9999985661551036,50.626237431639275,-3.2749568865234426,-5048.612974049949,105.6022785199552,-89.81683349609375,6032.822265625,True
1598623340.891115,0,5,0.5,0.5,-0.031006558227539064,-0.14,-0.011,-0.56,0.0008403708039737941,10,1,100,0.0020981360668207855,-10,-1,-100,714.4188904782059,-0.0015340780137588967,0.00012711286335669007,0.999998815222782,51.52961327873244,-3.3251718949514317,-5178.512578204344,107.04651425591167,-89.81185913085938,6028.0859375,True
1598623340.9330034,0,5,0.5,0.5,-0.029471630859375,-0.14,-0.011,-0.56,0.0012357639614275307,10,1,100,0.012020687029782453,-10,-1,-100,716.5511157502187,-0.001485233688351749,0.00012546023488533499,0.9999988891696933,51.82593111695734,-3.3416171462179576,-5221.858339826589,107.52806378024333,-89.81011962890625,6026.5068359375,True
1598623340.9742818,0,5,0.5,0.5,-0.032203314208984375,-0.14,-0.011,-0.56,0.0007767607930506139,10,1,100,0.001841180282714662,-10,-1,-100,723.0680300507229,-0.0013492790589903507,0.00011982099627464415,0.999999082544054,52.70045307593461,-3.3900701712174146,-5351.973403902243,108.9731211785005,-89.80487060546875,6021.7705078125,True
1598623341.0163746,0,5,0.5,0.5,-0.03179715576171875,-0.14,-0.011,-0.56,0.0009406917084822259,10,1,100,0.005838574015720195,-10,-1,-100,727.4659031007905,-0.0012630249488186551,0.00011622189318097292,0.9999991956299017,53.27139799627952,-3.4216189673744166,-5438.72101875781,109.93683389840874,-89.80130004882812,6018.6123046875,True
1598623341.05943,0,5,0.5,0.5,-0.032353039550781254,-0.14,-0.011,-0.56,0.0009309867258945525,10,1,100,0.006113342929244551,-10,-1,-100,731.8635319820605,-0.001188075549246962,0.0001128981176363256,0.9999992878649985,53.833203172012155,-3.4525799537952895,-5525.475143688245,110.9008220379116,-89.79769897460938,6015.45458984375,True
1598623341.1041756,0,5,0.5,0.5,-0.03282855224609375,-0.14,-0.011,-0.56,0.0009131001414352771,10,1,100,0.005773337641509559,-10,-1,-100,736.324515372864,-0.0011177707702995604,0.0001097494764392629,0.9999993692715798,54.385815462214325,-3.482928092265703,-5612.178451246033,111.86508696556305,-89.794189453125,6012.296875,True
1598623341.146136,0,5,0.5,0.5,-0.03337740173339844,-0.14,-0.011,-0.56,0.0009388654818232468,10,1,100,0.005827894102288979,-10,-1,-100,740.8490972265135,-0.001055230376842844,0.00010715586483935837,0.9999994375030781,54.92966966892599,-3.512691246117817,-5698.816864212736,112.82962997712997,-89.7906494140625,6009.13916015625,True
1598623341.1898606,0,5,0.5,0.5,-0.03390993347167969,-0.14,-0.011,-0.56,0.0008936980876998258,10,1,100,0.0059948205385667265,-10,-1,-100,745.3800264430465,-0.0010007206521985392,0.00010442063497045258,0.9999994938271256,55.46518000504532,-3.541859669962259,-5785.3766898241975,113.79445314985647,-89.787109375,6005.98095703125,True
1598623341.2324142,0,5,0.5,0.5,-0.03444478149414063,-0.14,-0.011,-0.56,0.0009134481512688171,10,1,100,0.006113189559666451,-10,-1,-100,749.9807191650616,-0.0009530675254344736,0.000102147286282113,0.9999995406140065,55.992730039815314,-3.570458173353601,-5871.836747593752,114.7595592315502,-89.7835693359375,6002.8232421875,True
1598623341.2754555,0,5,0.5,0.5,-0.035001663208007815,-0.14,-0.011,-0.56,0.0008765566780530069,10,1,100,0.006401064476835196,-10,-1,-100,754.5814118278213,-0.0009131304454007618,9.977721700717178e-05,0.9999995781185593,56.512649317126204,-3.5984880271615367,-5958.168942592841,115.72495007788206,-89.77999877929688,5999.66552734375,True
1598623341.317098,0,5,0.5,0.5,-0.03558478393554688,-0.14,-0.011,-0.56,0.0009253581871546353,10,1,100,0.006810896210791326,-10,-1,-100,759.2454587700777,-0.0008812543604357566,9.80963948125871e-05,0.9999996068838476,57.02550354240175,-3.6259650570308652,-6044.363532314135,116.69062776105868,-89.7763671875,5996.5078125,True
1598623341.3580723,0,5,0.5,0.5,-0.0361322479248047,-0.14,-0.011,-0.56,0.0009121881575794794,10,1,100,0.007262958838353723,-10,-1,-100,763.9160363187548,-0.0008569792376757038,9.647502570186697e-05,0.9999996281395087,57.53171674649918,-3.6528954395918496,-6130.397205204191,117.65659523113557,-89.77273559570312,5993.349609375,True
1598623341.4005387,0,5,0.5,0.5,-0.03670315551757813,-0.14,-0.011,-0.56,0.0009262409445947307,10,1,100,0.007778504526248084,-10,-1,-100,768.649785348447,-0.0008401688636480373,9.515515658242684e-05,0.9999996425308244,58.03184220275136,-3.6793037320765243,-6216.256852287346,118.62285473366622,-89.76907348632812,5990.19189453125,True
1598623341.4430983,0,5,0.5,0.5,-0.03729795227050781,-0.14,-0.011,-0.56,0.0009470762921310028,10,1,100,0.008429233126520086,-10,-1,-100,773.4537246740656,-0.0008312652474393062,9.416711130571303e-05,0.9999996500652605,58.526440647836104,-3.7052045977014085,-6301.929781381964,119.58940987227811,-89.76535034179688,5987.0341796875,True
1598623341.4847505,0,5,0.5,0.5,-0.03785873718261719,-0.14,-0.011,-0.56,0.0009095682792802705,10,1,100,0.009150768068468621,-10,-1,-100,778.2574195956113,-0.0008301229682685186,9.294795619358041e-05,0.9999996511282067,59.01603795351961,-3.7306234773973483,-6387.395090458459,120.55626193823117,-89.76162719726562,5983.8759765625,True
1598623341.5254805,0,5,0.5,0.5,-0.03846238098144532,-0.14,-0.011,-0.56,0.0009986460885614522,10,1,100,0.009881412249300264,-10,-1,-100,783.1245915279724,-0.000836052163921707,9.2667568140964e-05,0.999999646214688,59.50124450631588,-3.755568189949261,-6472.64594274605,121.52341482540952,-89.75784301757812,5980.71875,True
1598623341.5671241,0,5,0.5,0.5,-0.03905350952148438,-0.14,-0.011,-0.56,0.0010133920376977888,10,1,100,0.010737326506074972,-10,-1,-100,788.0044584831921,-0.0008494794883101738,9.256225300191423e-05,0.9999996349083474,59.982721134967086,-3.7800707946929455,-6557.673632641877,122.49087073609341,-89.7540283203125,5977.560546875,True
1598623341.6100926,0,5,0.5,0.5,-0.039627850341796875,-0.14,-0.011,-0.56,0.0010117006946115108,10,1,100,0.011631882829608715,-10,-1,-100,792.9416373387212,-0.000870005523321389,9.246440304002777e-05,0.9999996172702885,60.4609879952337,-3.8041537833699106,-6642.463292779985,123.45863336534342,-89.75021362304688,5974.40283203125,True
1598623341.6520355,0,5,0.5,0.5,-0.04024521789550782,-0.14,-0.011,-0.56,0.0010525434903448858,10,1,100,0.012604591959324313,-10,-1,-100,797.8850417217473,-0.0008976271973552512,9.275761597400751e-05,0.9999995928306368,60.93671846254953,-3.8278620554478,-6727.011963136045,124.42670465760692,-89.746337890625,5971.2451171875,True
1598623341.6932278,0,5,0.5,0.5,-0.03946158752441406,-0.14,-0.011,-0.56,0.0010437548766232024,10,1,100,0.011600220278062276,-10,-1,-100,800.4169853895437,-0.0009136575587637249,9.295281276225389e-05,0.999999578294731,61.17381152561964,-3.839577953744272,-6769.192016528762,124.91085644645909,-89.74441528320312,5969.666015625,True
1598623341.7391436,0,5,0.5,0.5,-0.04252563171386719,-0.14,-0.011,-0.56,0.0011665959976211479,10,1,100,0.016401270093836202,-10,-1,-100,807.9685056968592,-0.0009718760428117703,9.425320585540911e-05,0.9999995232865317,61.8830644867542,-3.8741921566703774,-6895.359572997727,126.363789217177,-89.73855590820312,5964.92919921875,True
1598623341.7840405,0,5,0.5,0.5,-0.042169885253906254,-0.14,-0.011,-0.56,0.0011598025856384571,10,1,100,0.015810661904241203,-10,-1,-100,813.0450885003665,-0.0010193503886933334,9.537711691203229e-05,0.9999994759138581,62.35492661815635,-3.8968926209388703,-6979.148617862678,127.33280896688797,-89.73443603515625,5961.771484375,True
1598623341.826202,0,5,0.5,0.5,-0.042831521606445315,-0.14,-0.011,-0.56,0.001214786205261424,10,1,100,0.01675097438263646,-10,-1,-100,818.1341835383791,-0.0010709095700701498,9.689970342261655e-05,0.9999994218814029,62.826758880544055,-3.919300633645799,-7062.678900665743,128.30214992477883,-89.73025512695312,5958.61328125,True
1598623341.8696249,0,5,0.5,0.5,-0.04196418762207032,-0.14,-0.011,-0.56,0.001125544944445606,10,1,100,0.014737135491809352,-10,-1,-100,820.7360125583364,-0.001099264162581171,9.747100283678554e-05,0.9999993910586669,63.062889064413305,-3.93041055856896,-7104.350499288336,128.78694179037953,-89.72821044921875,5957.03466796875,True
1598623341.911107,0,5,0.5,0.5,-0.045111120605468756,-0.14,-0.011,-0.56,0.0013723993835096514,10,1,100,0.022080305016986844,-10,-1,-100,828.490657155402,-0.0011915535160790384,0.0001002314936670386,0.9999992850766775,63.77293820877081,-3.963391781207736,-7228.986761282719,130.24181207454427,-89.72213745117188,5952.2978515625,True
1598623341.9615233,0,5,0.5,0.5,-0.043206317138671874,-0.14,-0.011,-0.56,0.0011902389099603563,10,1,100,0.016581663697208256,-10,-1,-100,831.098772647325,-0.0012251367067629211,0.00010107840508275374,0.9999992444113174,64.01043615641879,-3.9742865856319596,-7270.406297030877,130.72693427412395,-89.72006225585938,5950.71923828125,True
1598623341.996477,0,5,0.5,0.5,-0.046550488281249996,-0.14,-0.011,-0.56,0.001492030114172803,10,1,100,0.024838622830996616,-10,-1,-100,839.0499505331973,-0.0013303764317437621,0.0001045842347381154,0.9999991095799475,64.7260660612615,-4.006692201063746,-7394.266289015695,132.1828023954793,-89.71368408203125,5945.982421875,True
1598623342.0393753,0,5,0.5,0.5,-0.045928363037109385,-0.14,-0.011,-0.56,0.0014264721674695495,10,1,100,0.022754198511635328,-10,-1,-100,844.3424143294105,-0.0014066624179653936,0.00010716444219865441,0.9999990049078171,65.20675154692775,-4.028139464987496,-7476.550837761907,133.15380400714454,-89.70953369140625,5942.82421875,True
1598623342.082357,0,5,0.5,0.5,-0.04649007873535157,-0.14,-0.011,-0.56,0.0014914663258624146,10,1,100,0.023635933798826878,-10,-1,-100,849.691885104985,-0.0014835412199643962,0.00011008757765802626,0.9999988934924746,65.69084151228293,-4.0494651541488,-7558.60523118244,134.125145301373,-89.70547485351562,5939.6669921875,True
1598623342.1250167,0,5,0.5,0.5,-0.04701781616210938,-0.14,-0.011,-0.56,0.0015199634156712624,10,1,100,0.024970884952118355,-10,-1,-100,855.111241045408,-0.0015650343104274037,0.00011298828347236836,0.9999987689498697,66.17887610150683,-4.070729562798221,-7640.449435357427,135.0968308646276,-89.7015380859375,5936.5087890625,True
1598623342.166005,0,5,0.5,0.5,-0.04622757873535156,-0.14,-0.011,-0.56,0.0013869417877536644,10,1,100,0.021438220200736238,-10,-1,-100,857.7891196311684,-0.0016064116433342425,0.00011439778716732837,0.9999987031765483,66.42446723110884,-4.0813420100869715,-7681.291910290348,135.58280350090115,-89.6995849609375,5934.9296875,True
1598623342.2083945,0,5,0.5,0.5,-0.04791107177734376,-0.14,-0.011,-0.56,0.0016166333492669193,10,1,100,0.026606065792622192,-10,-1,-100,863.2720129855443,-0.0016904309644480387,0.0001177489460116744,0.9999985642881394,66.91903398276524,-4.102540843714143,-7762.819341361452,136.55501143729,-89.6956787109375,5931.7724609375,True
1598623342.2482877,0,5,0.5,0.5,-0.04856466674804688,-0.14,-0.011,-0.56,0.001632333562460495,10,1,100,0.02783420147045378,-10,-1,-100,868.7611929578707,-0.0017773669620083637,0.00012091784523638545,0.9999984131715194,67.41852844782126,-4.123709388565447,-7844.156047158577,137.5275706059096,-89.69168090820312,5928.6142578125,True
1598623342.2900834,0,5,0.5,0.5,-0.050961224365234384,-0.14,-0.011,-0.56,0.001876776391072125,10,1,100,0.03387715313701193,-10,-1,-100,877.0677168231923,-0.0019106933773119711,0.00012599903557185233,0.9999981666858498,68.17725285418888,-4.155481950794466,-7965.749589947611,138.98707386592176,-89.68511962890625,5923.87744140625,True
1598623342.332162,0,5,0.5,0.5,-0.05051729125976563,-0.14,-0.011,-0.56,0.0017897419337098443,10,1,100,0.03053468873607091,-10,-1,-100,882.6265988711966,-0.0020007755064751225,0.00012980114259831507,0.9999979900224981,68.69024084226811,-4.176712217151686,-8046.5879506277915,139.96052389679318,-89.68057250976562,5920.7197265625,True
1598623342.3750458,0,5,0.5,0.5,-0.051156884765625,-0.14,-0.011,-0.56,0.0017852490449539703,10,1,100,0.031361274870056334,-10,-1,-100,888.2553050450515,-0.0020894471142138583,0.00013318987758919936,0.9999978082332048,69.20941480124665,-4.1980162625292445,-8127.2693963686725,140.9343345240578,-89.67608642578125,5917.5615234375,True
1598623342.416097,0,5,0.5,0.5,-0.05172649841308594,-0.14,-0.011,-0.56,0.0018657557039336151,10,1,100,0.032489167824214536,-10,-1,-100,893.9474873851286,-0.002179525502280101,0.00013697323223299418,0.9999976154506162,69.73523303604762,-4.219436278670092,-8207.846317681719,141.90850850427324,-89.6717529296875,5914.40380859375,True
1598623342.460104,0,5,0.5,0.5,-0.049345864868164065,-0.14,-0.011,-0.56,0.0014906591393036217,10,1,100,0.0235662439246439,-10,-1,-100,893.9474873851286,-0.002179525502280101,0.00013697323223299418,0.9999976154506162,69.73523303604762,-4.219436278670092,-8207.846317681719,141.90850850427324,-89.6717529296875,5914.40380859375,True
1598623342.503125,0,5,0.5,0.5,-0.055411593627929696,-0.14,-0.011,-0.56,0.002343191438898128,10,1,100,0.043032260503580715,-10,-1,-100,905.4017991751898,-0.0023557866865574224,0.0001446964269656403,0.9999972146621368,70.8066547908642,-4.262653188438827,-8368.64330383155,143.85795554610576,-89.66314697265625,5908.087890625,True
1598623342.5446203,0,5,0.5,0.5,-0.053949975585937504,-0.14,-0.011,-0.56,0.0020273875388380587,10,1,100,0.035431477593329555,-10,-1,-100,911.1700313227484,-0.0024461331499285284,0.0001488151059499474,0.9999969971388301,71.35254376514708,-4.284470877401191,-8448.888334953584,144.83323291122923,-89.65841674804688,5904.9306640625,True
1598623342.5922065,0,5,0.5,0.5,-0.05463827819824219,-0.14,-0.011,-0.56,0.0020098857498790645,10,1,100,0.03547535666151076,-10,-1,-100,916.9955145040294,-0.002527864200122544,0.00015236768256107427,0.9999967933381962,71.90510679920764,-4.306441185847538,-8529.003189461491,145.80888306900292,-89.65371704101562,5901.7724609375,True
1598623342.6681058,0,5,0.5,0.5,-0.05521851806640626,-0.14,-0.011,-0.56,0.002090976239156299,10,1,100,0.03668335403522959,-10,-1,-100,922.833692979184,-0.002612309265008376,0.0001562999658415338,0.9999965756994494,72.46529273453876,-4.328614884746897,-8609.10941662694,146.78490744032996,-89.64920043945312,5898.615234375,True
1598623342.717378,0,5,0.5,0.5,-0.05910631408691407,-0.14,-0.011,-0.56,0.002542948960759431,10,1,100,0.04579672683682159,-10,-1,-100,934.7004180441145,-0.002771088278282187,0.00016394856536577107,0.9999961470878884,73.60754049510885,-4.37356980454276,-8769.24736107052,148.73808410355463,-89.64010620117188,5892.298828125,True
1598623342.793122,0,5,0.5,0.5,-0.05736006774902344,-0.14,-0.011,-0.56,0.002219050647644386,10,1,100,0.038274149514326256,-10,-1,-100,940.6653663752368,-0.0028461423862208993,0.00016791818870482328,0.9999959356302403,74.18930322292168,-4.3963604008804245,-8849.28771287747,149.71523962454856,-89.63540649414062,5889.1416015625,True
1598623342.8435287,0,5,0.5,0.5,-0.06123433227539063,-0.14,-0.011,-0.56,0.0026118834431329194,10,1,100,0.045826609741805066,-10,-1,-100,952.7413196698762,-0.00298218171458871,0.0001750600361055547,0.9999955379631477,75.37434615667988,-4.44262219612827,-9009.456414085993,151.67069597787955,-89.62619018554688,5882.826171875,True
1598623342.917082,0,5,0.5,0.5,-0.05912374267578126,-0.14,-0.011,-0.56,0.0022646962367398223,10,1,100,0.03934340196204186,-10,-1,-100,958.8460375337163,-0.003046023391281496,0.0001783552328721849,0.9999953449546205,75.97771206276106,-4.466136797621587,-9089.677764935428,152.64899780965658,-89.62191772460938,5879.66796875,True
