Timestamp,Input Throttle,horizon,dT,dt,Input Roll,Roll P,Roll I,Roll D,Input Pitch,Pitch P,Pitch I,Pitch D,Input Yaw,Yaw P,Yaw I,Yaw D,Altitude,Direction X,Direction Y,Direction Z,Drag X,Drag Y,Drag Z,Vertical Velocity,Roll,Mass,Has Fuel
1598625215.4313545,0,5,0.5,0.5,-0.009232788085937502,-0.14,-0.011,-0.56,0.004327364954385311,10,1,100,0.12833404430970305,-10,-1,-100,478.2014646824682,-0.01176731908544549,0.00041450329766558645,0.9999306767914252,5.460954172613337,-0.4473766273542866,115.56840929509328,-14.43431787835575,-89.92330932617188,6440.1796875,True
1598625215.4784577,0,5,0.5,0.5,-0.009176156616210938,-0.14,-0.011,-0.56,0.004311171179085904,10,1,100,0.12385942354738255,-10,-1,-100,477.32567284605466,-0.011812860001667154,0.000415636823780709,0.9999301393520509,5.647847447268485,-0.4631662842734779,124.48209191303675,-15.017674766088806,-89.9256591796875,6440.1796875,True
1598625215.5246933,0,5,0.5,0.5,-0.008501705932617188,-0.14,-0.011,-0.56,0.004023889375010539,10,1,100,0.11776488286619459,-10,-1,-100,476.73574101459235,-0.011788116955674534,0.0004136777976448801,0.9999304321648176,6.093232935666676,-0.49687452924398856,130.63058230042785,-14.76086699825045,-89.92861938476562,6438.60107421875,True
1598625215.5712721,0,5,0.5,0.5,-0.0066277099609375,-0.14,-0.011,-0.56,0.004140340273423478,10,1,100,0.11795986528612948,-10,-1,-100,476.1422853592085,-0.011756679374993674,0.00041257943860002153,0.9999308027400098,5.936492265727914,-0.47843572863329603,116.96956996015372,-13.85799689947374,-89.93377685546875,6435.443359375,True
1598625215.6183221,0,5,0.5,0.5,-0.0043763366699218756,-0.14,-0.011,-0.56,0.004010465247998567,10,1,100,0.11520389690137547,-10,-1,-100,475.6088522950886,-0.01169235760780877,0.0004100251761111964,0.9999315579843083,5.77471319879926,-0.4601215662941031,104.1733380811931,-12.95457994804201,-89.94122314453125,6432.28515625,True
1598625215.667431,0,5,0.5,0.5,-0.0019885986328124997,-0.14,-0.011,-0.56,0.003905515545512312,10,1,100,0.11137856203193192,-10,-1,-100,475.13924005336594,-0.011588478086456818,0.0004063762809386519,0.999932768756959,5.59490879704129,-0.44090606922076775,92.00049669029436,-12.050626195117626,-89.95068359375,6429.126953125,True
1598625215.7153952,0,5,0.5,0.5,0.0003283691406249997,-0.14,-0.011,-0.56,0.0037503315477806767,10,1,100,0.10742041996443707,-10,-1,-100,474.6757594925584,-0.011447524068171948,0.0004012789069106524,0.9999343944319286,5.403325702241751,-0.4213037671942183,80.57502837848307,-11.146127405692324,-89.96163940429688,6425.9697265625,True
1598625215.7621057,0,5,0.5,0.5,0.002460855102539063,-0.14,-0.011,-0.56,0.0036293369523304293,10,1,100,0.10314522996999398,-10,-1,-100,474.27590693731327,-0.011270111847901517,0.00039518018064755,0.9999364121840751,5.198998660517842,-0.40124720962247484,69.88248311892184,-10.241068967455654,-89.9735107421875,6422.8115234375,True
1598625215.8095815,0,5,0.5,0.5,0.004350051879882813,-0.14,-0.011,-0.56,0.003468182132088465,10,1,100,0.09859543002389684,-10,-1,-100,473.88234086637385,-0.011057220637374878,0.00038781158551466855,0.9999387918637572,4.982307393527675,-0.3807712845703,59.92826035088826,-9.33544530527543,-89.98574829101562,6419.65380859375,True
1598625215.8562965,0,5,0.5,0.5,0.0058767333984375,-0.14,-0.011,-0.56,0.003282545015011673,10,1,100,0.09379918341306417,-10,-1,-100,473.5523721042555,-0.010810028912581841,0.0003790726965245194,0.9999414980781626,4.753919306013635,-0.3599250824106176,50.71748869489741,-8.429252542741072,-89.99774169921875,6416.49609375,True
1598625215.90535,0,5,0.5,0.5,0.0031793945312500005,-0.14,-0.011,-0.56,0.0036866641071112696,10,1,100,0.10468309380744056,-10,-1,-100,473.355466195615,-0.010674426503707427,0.00037445745037390334,0.9999429565732412,4.635665062265928,-0.3493862451538457,46.39249636444545,-7.975941028958237,-90.00348663330078,6414.9169921875,True
1598625215.9548724,0,5,0.5,0.5,0.010987926483154298,-0.14,-0.011,-0.56,0.002372093114999666,10,1,100,0.06799240978375537,-10,-1,-100,472.9618598453235,-0.010218593452316948,0.0003583475319880484,0.9999477246010927,4.26740849828926,-0.3174983279187506,34.54841889054021,-6.615136208087818,-90.01911163330078,6410.1806640625,True
1598625216.0018463,0,5,0.5,0.5,0.005587794494628907,-0.14,-0.011,-0.56,0.0033418826504577974,10,1,100,0.09469435263476778,-10,-1,-100,472.83480844681617,-0.01004839403747058,0.000352570501315793,0.9999494514580771,4.141416648821101,-0.3068658839928516,30.980591989638246,-6.161240795613106,-90.02375030517578,6408.6015625,True
1598625216.1419766,0,5,0.5,0.5,0.01130858840942383,-0.14,-0.011,-0.56,0.0018128387264677362,10,1,100,0.051925986603195265,-10,-1,-100,472.51755521050654,-0.00950644553543068,0.0003334738080286776,0.9999547571207915,3.7645750588651756,-0.2757214493534865,21.440598247123212,-4.79866533901893,-90.03548431396484,6403.86474609375,True
1598625216.185808,0,5,0.5,0.5,0.008657252502441407,-0.14,-0.011,-0.56,0.0021027668737982454,10,1,100,0.061179537673781995,-10,-1,-100,472.35277544974815,-0.009099933937708434,0.00031882080240755125,0.9999585439185094,3.534778099128857,-0.25703330058989715,16.087574343730132,-3.8895334329122417,-90.04092407226562,6400.70703125,True
1598625216.2283044,0,5,0.5,0.5,0.008022447204589844,-0.14,-0.011,-0.56,0.0019569223534812103,10,1,100,0.0560412789145461,-10,-1,-100,472.2245858060196,-0.00868602324530434,0.0003042569419979212,0.9999622295006423,3.380942691556596,-0.24418862446211081,11.631083689640526,-2.979796301815509,-90.0442123413086,6397.548828125,True
1598625216.2844574,0,5,0.5,0.5,0.0069354484558105485,-0.14,-0.011,-0.56,0.0016924941160856067,10,1,100,0.048201395938709625,-10,-1,-100,472.13252899609506,-0.008241107729557698,0.0002887060115936982,0.9999659998181082,3.537468696796495,-0.2538774908634369,8.345293101834544,-2.069445284244892,-90.0451431274414,6394.3916015625,True
1598625216.331245,0,5,0.5,0.5,0.005699635314941408,-0.14,-0.011,-0.56,0.0014367985002183114,10,1,100,0.04154983054648977,-10,-1,-100,472.07700202439446,-0.00777908522653022,0.0002723466355322627,0.999969705371292,5.63075757228645,-0.40171887007135243,7.348174105332403,-1.1584704734607305,-90.04399108886719,6391.2333984375,True
1598625216.3804493,0,5,0.5,0.5,0.005530429077148439,-0.14,-0.011,-0.56,0.0021279049694254717,10,1,100,0.061331286847313975,-10,-1,-100,472.06289530859794,-0.007542069850713979,0.0002638689284193094,0.9999715233723186,9.728439537821343,-0.6921140206035051,7.657924115650312,-0.7027483888338895,-90.04271697998047,6389.654296875,True
1598625216.4234326,0,5,0.5,0.5,0.001911301422119141,-0.14,-0.011,-0.56,0.0001094053243306573,10,1,100,0.003774853336829448,-10,-1,-100,472.0754761202261,-0.006806556614228137,0.000237924600322213,0.999976806820509,1.119355572870012,-0.07900928645479614,-0.8211687110941976,0.665395107645,-90.03643798828125,6384.91796875,True
1598625216.4684305,0,5,0.5,0.5,0.0012937721252441413,-0.14,-0.011,-0.56,0.000638122352479666,10,1,100,0.01991991276256104,-10,-1,-100,472.1294162586564,-0.006288321005200708,0.00021927368239548208,0.9999802042730584,0.8806822585036923,-0.061870909010606115,-1.5179367080109596,1.5783233103638994,-90.03047180175781,6381.759765625,True
1598625216.5153224,0,5,0.5,0.5,-0.00016336059570312526,-0.14,-0.011,-0.56,0.0005233024519269444,10,1,100,0.015315429717861581,-10,-1,-100,472.2199782576645,-0.005779326156131693,0.00020141556133704597,0.999983279270685,1.7089221044753844,-0.11954438951299332,-4.610043097577628,2.4918900648572135,-90.02357482910156,6378.6025390625,True
1598625216.561364,0,5,0.5,0.5,-0.0014391212463378909,-0.14,-0.011,-0.56,0.00022858493233877475,10,1,100,0.007402593135585903,-10,-1,-100,472.34697795275133,-0.005248704385590251,0.00018264432107916706,0.9999862087765635,2.318139644827627,-0.16153285903165096,-8.480102471937766,3.4059835906735483,-90.01622772216797,6375.4443359375,True
1598625216.6074936,0,5,0.5,0.5,-0.002598824310302735,-0.14,-0.011,-0.56,3.368370150642224e-05,10,1,100,0.0013865844605662134,-10,-1,-100,472.5106919086538,-0.0047159933240995605,0.0001639622061828345,0.9999888661997003,2.832249777324234,-0.19666920324683745,-13.050012075998547,4.320700153316449,-90.00870513916016,6372.287109375,True
1598625216.6554646,0,5,0.5,0.5,-0.003558609771728516,-0.14,-0.011,-0.56,-0.0002168584677720545,10,1,100,-0.00465298625236972,-10,-1,-100,472.7108134391019,-0.004181160309182544,0.00014485491073986043,0.9999912484194667,3.307913086113107,-0.22898526064072802,-18.353906215719277,5.236086478347288,-90.00135803222656,6369.12939453125,True
1598625216.7033389,0,5,0.5,0.5,-0.00431029281616211,-0.14,-0.011,-0.56,-0.000409416183270134,10,1,100,-0.010618409437865267,-10,-1,-100,472.90971501974855,-0.003645188969961229,0.00012589226827959936,0.9999933483521326,3.7666059265204006,-0.2600239205383363,-24.418214143152937,6.15209289919007,-89.99446868896484,6365.9716796875,True
1598625216.7544105,0,5,0.5,0.5,-0.00483818588256836,-0.14,-0.011,-0.56,-0.0006210264175429954,10,1,100,-0.016383776859288997,-10,-1,-100,473.2015738968039,-0.0031101124434519483,0.00010689192270753449,0.9999951578756298,4.217153354207121,-0.2904358941424961,-31.26089172425579,7.068744186190243,-89.98828125,6362.8134765625,True
1598625216.8012812,0,5,0.5,0.5,-0.005110084533691406,-0.14,-0.011,-0.56,-0.0007702386720388548,10,1,100,-0.021887585505244306,-10,-1,-100,473.55037925287616,-0.002578309154649468,8.842769177286421e-05,0.9999966722456863,4.662966642655216,-0.32048907311101066,-38.89115269704082,7.9860068516838965,-89.9830322265625,6359.6552734375,True
1598625216.8493562,0,5,0.5,0.5,-0.005185684204101563,-0.14,-0.011,-0.56,-0.0009991841714979824,10,1,100,-0.027141249845776597,-10,-1,-100,473.8487091080751,-0.0020518190127077206,6.972790360422589e-05,0.9999978925861587,5.105471045962456,-0.35031347586434736,-47.31597883536878,8.90388898400572,-89.97882080078125,6356.498046875,True
1598625216.8964403,0,5,0.5,0.5,-0.005012439727783204,-0.14,-0.011,-0.56,-0.0011781652974975495,10,1,100,-0.0321750433610697,-10,-1,-100,474.2673400234198,-0.0015324209888380185,5.127748687348142e-05,0.9999988245275753,5.54503893071893,-0.379962997879614,-56.53973029417309,9.822351760281498,-89.97579956054688,6353.34033203125,True
1598625216.9453692,0,5,0.5,0.5,-0.004647623443603517,-0.14,-0.011,-0.56,-0.0013178916249577304,10,1,100,-0.03690924758030588,-10,-1,-100,474.6923802171368,-0.0010219974157137696,3.340382060812002e-05,0.9999994772025969,5.98148895007781,-0.40945059979831055,-66.56518145846081,10.741415233451821,-89.9739990234375,6350.1826171875,True
1598625216.9935691,0,5,0.5,0.5,-0.00417141342163086,-0.14,-0.011,-0.56,-0.0014533603484549208,10,1,100,-0.041337217887892255,-10,-1,-100,475.1239216183312,-0.0005225092769768371,1.6092471845805528e-05,0.9999998633625345,6.414528504859561,-0.4387849501036518,-77.39575389672319,11.661098742582872,-89.97332763671875,6347.0244140625,True
1598625217.042324,0,5,0.5,0.5,-0.0035089118957519535,-0.14,-0.011,-0.56,-0.001666372460468235,10,1,100,-0.0454445202442948,-10,-1,-100,475.61872614198364,-3.586896295701606e-05,-1.4131161477911966e-06,0.9999999993557103,6.843611929208802,-0.46795010271281184,-89.03273761793052,12.58137607899533,-89.97381591796875,6343.86669921875,True
1598625217.0906932,0,5,0.5,0.5,-0.0028249740600585936,-0.14,-0.011,-0.56,-0.001750478432155969,10,1,100,-0.049286805919119714,-10,-1,-100,476.1770994889084,0.0004367222509933811,-1.792456185074311e-05,0.9999999044761883,7.268150993742664,-0.49693115806166654,-101.47709373004045,13.502243863556322,-89.97525024414062,6340.708984375,True
1598625217.1383073,0,5,0.5,0.5,-0.0020628242492675784,-0.14,-0.011,-0.56,-0.0018874950599126069,10,1,100,-0.05278782341925782,-10,-1,-100,476.7418515642639,0.0008934937722449132,-3.401522113482012e-05,0.9999996002558421,7.687604549667352,-0.5257112939025705,-114.73023737696583,14.423698006847161,-89.9775390625,6337.55078125,True
1598625217.185552,0,5,0.5,0.5,-0.0013199821472167968,-0.14,-0.011,-0.56,-0.0020241113871707584,10,1,100,-0.05597638392324908,-10,-1,-100,477.3128600488417,0.001333114201526747,-4.972245061189635e-05,0.999999110166706,8.10136378236597,-0.5542666060093077,-128.79215327158204,15.345731738422602,-89.98046875,6334.3935546875,True
1598625217.23145,0,5,0.5,0.5,-0.000604791259765625,-0.14,-0.011,-0.56,-0.00210906171551622,10,1,100,-0.05882607573710428,-10,-1,-100,477.9473758484237,0.0017541496962984722,-6.461437610429575e-05,0.9999984593907261,8.508882190300797,-0.5825770990628745,-143.66291006425703,16.268328459580065,-89.98385620117188,6331.2353515625,True
1598625217.2790525,0,5,0.5,0.5,5.6845092773437616e-05,-0.14,-0.011,-0.56,-0.0021972774565277254,10,1,100,-0.0613595929434423,-10,-1,-100,478.6389598120004,0.0021555191551124314,-7.879853665311633e-05,0.9999976737612755,8.909593753633212,-0.6106204941657499,-159.34150636032788,17.191503304065208,-89.98751831054688,6328.078125,True
1598625217.3255985,0,5,0.5,0.5,0.00059583740234375,-0.14,-0.011,-0.56,-0.0022472777471172134,10,1,100,-0.06355197286387679,-10,-1,-100,479.3431785822613,0.0025360277275747424,-9.199575231337948e-05,0.9999967800448891,9.303063518240238,-0.6383821661348889,-175.82813507155805,18.115267211434116,-89.9912109375,6324.919921875,True
1598625217.3741162,0,5,0.5,0.5,0.0010142822265625001,-0.14,-0.011,-0.56,-0.0023339563106187546,10,1,100,-0.06540592100377773,-10,-1,-100,480.11108716065064,0.002894627915866595,-0.00010463418653098036,0.999995805081659,9.688844995636769,-0.6658422179173381,-193.1212258755844,19.03960032001307,-89.99474334716797,6321.76171875,True
1598625217.421366,0,5,0.5,0.5,0.0013160346984863285,-0.14,-0.011,-0.56,-0.002399730769039793,10,1,100,-0.06694885737890366,-10,-1,-100,480.87881287233904,0.0032306301914469654,-0.00011657988392044108,0.9999947747051966,10.06659293942146,-0.6929843734366801,-211.2197951942375,19.964497588455938,-89.99797058105469,6318.6044921875,True
1598625217.4695106,0,5,0.5,0.5,0.0014791221618652346,-0.14,-0.011,-0.56,-0.002411270798595582,10,1,100,-0.06811923781278363,-10,-1,-100,481.71633289242163,0.0035428606026397013,-0.00012740816935725023,0.9999937159332095,10.435968416093214,-0.7197961058893599,-230.12105039369177,20.889906012926264,-90.00074768066406,6315.44677734375,True
1598625217.5203638,0,5,0.5,0.5,0.0014815132141113283,-0.14,-0.011,-0.56,-0.002476105223171722,10,1,100,-0.06898514294229452,-10,-1,-100,482.61745073925704,0.0038308825050108177,-0.00013771101394031158,0.999992652660463,10.796605651781972,-0.7462584646747381,-249.82073554686727,21.815874315850074,-90.0029296875,6312.2890625,True
1598625217.5684118,0,5,0.5,0.5,0.0013437080383300781,-0.14,-0.011,-0.56,-0.002461619043705631,10,1,100,-0.06956281941140294,-10,-1,-100,483.5185383101925,0.004094456973732848,-0.00014682163656813696,0.9999916068975266,11.14851316801987,-0.7723746378640536,-270.3212087997742,22.742444608289503,-90.00443267822266,6309.130859375,True
1598625217.6177037,0,5,0.5,0.5,0.0010895538330078125,-0.14,-0.011,-0.56,-0.002513140472765358,10,1,100,-0.06975160878904825,-10,-1,-100,484.4258509821957,0.004332461180801705,-0.00015545521824423264,0.999990602762742,11.491447430147442,-0.7981237876388104,-291.61630917855666,23.669566559634475,-90.0052261352539,6305.97314453125,True
1598625217.66435,0,5,0.5,0.5,0.0007183982849121095,-0.14,-0.011,-0.56,-0.00248050249027653,10,1,100,-0.06967258789143194,-10,-1,-100,485.40292682370637,0.004544983935969103,-0.00016289681992977628,0.9999896582393478,11.825391581746294,-0.8235086158566536,-313.70396978470995,24.597241823510746,-90.00528717041016,6302.8154296875,True
1598625217.7142956,0,5,0.5,0.5,0.00024688873291015624,-0.14,-0.011,-0.56,-0.0024244594238457947,10,1,100,-0.06931005021340855,-10,-1,-100,486.4371925598243,0.004731970762017032,-0.000169049544158793,0.999988789874646,12.150346671296159,-0.8485254150439178,-336.58041458905,25.525462738648788,-90.00462341308594,6299.6572265625,True
1598625217.7617152,0,5,0.5,0.5,-0.00028782348632812505,-0.14,-0.011,-0.56,-0.0024349116017949907,10,1,100,-0.06862894636891548,-10,-1,-100,487.4778053704649,0.004893059822505468,-0.0001746430085592059,0.9999880136608603,12.46635881176088,-0.8731693256135996,-360.2410259707752,26.45422582887485,-90.0032958984375,6296.5,True
1598625217.8094935,0,5,0.5,0.5,-0.0008889068603515626,-0.14,-0.011,-0.56,-0.002388541473521789,10,1,100,-0.0676393189180726,-10,-1,-100,488.5312962703174,0.005028019136426027,-0.000179219298237183,0.9999873433719082,12.773590079229402,-0.8974467292290577,-384.6824078047183,27.38352885708504,-90.00135040283203,6293.341796875,True
1598625217.8555217,0,5,0.5,0.5,-0.0015026008605957034,-0.14,-0.011,-0.56,-0.002332354355678813,10,1,100,-0.06641339420737524,-10,-1,-100,489.69876989291515,0.005137299204975784,-0.00018278947546774982,0.9999867872851551,13.072275787622868,-0.9213619376646388,-409.900880016981,28.313367551807776,-89.9989013671875,6290.18408203125,True
1598625217.903526,0,5,0.5,0.5,-0.002118601989746094,-0.14,-0.011,-0.56,-0.0023016898510739526,10,1,100,-0.06492978424056794,-10,-1,-100,490.8155840234831,0.00522111856642358,-0.00018568527264555115,0.999986352627822,13.362658868202061,-0.9449242858208391,-435.8913725092234,29.243737066960513,-89.99605560302734,6287.0263671875,True
1598625217.9522972,0,5,0.5,0.5,-0.0027220573425292974,-0.14,-0.011,-0.56,-0.002203561265075193,10,1,100,-0.06314909161880988,-10,-1,-100,492.05306417145766,0.005279320336291979,-0.00018736291439926808,0.9999860467386158,13.645079302765263,-0.9681387995598448,-462.64952619936025,30.17463633677282,-89.992919921875,6283.86865234375,True
1598625217.9987898,0,5,0.5,0.5,-0.003303177642822266,-0.14,-0.011,-0.56,-0.002158252917318522,10,1,100,-0.06117914466906702,-10,-1,-100,493.23957977071404,0.00531274382778045,-0.00018842164488209372,0.999985869525317,13.91995197006699,-0.991022003504432,-490.17167579842084,31.106066095743195,-89.98959350585938,6280.7109375,True
1598625218.045322,0,5,0.5,0.5,-0.0038049079895019536,-0.14,-0.011,-0.56,-0.002071835362983245,10,1,100,-0.05897162862207039,-10,-1,-100,494.54676130320877,0.005321713345685664,-0.0001885524124353038,0.9999858218070165,14.187704996513043,-1.0135847108504723,-518.4524433466983,32.03802054391536,-89.98623657226562,6277.552734375,True
1598625218.0932846,0,5,0.5,0.5,-0.0042735321044921875,-0.14,-0.011,-0.56,-0.0019449463585878115,10,1,100,-0.05653016961308676,-10,-1,-100,495.8601984624984,0.005306556683361504,-0.00018747981855656614,0.999985902554373,14.448812231331322,-1.0358404885363124,-547.4859862156154,32.970496169347555,-89.98291015625,6274.39501953125,True
1598625218.1423268,0,5,0.5,0.5,-0.004678328704833984,-0.14,-0.011,-0.56,-0.001871840747748549,10,1,100,-0.05392762036332949,-10,-1,-100,497.1801358470693,0.0052682328194303294,-0.00018581102347707285,0.9999861055020834,14.70390798578787,-1.0578137044733915,-577.2709150787387,33.90349072932194,-89.97970581054688,6271.2373046875,True
1598625218.1896062,0,5,0.5,0.5,-0.0049414535522460945,-0.14,-0.011,-0.56,-0.0017828291610513841,10,1,100,-0.051111852698857735,-10,-1,-100,498.56339603534434,0.005207137556285463,-0.00018346390970433446,0.9999864259376043,14.953530920399992,-1.0795199187999651,-607.8004247437262,34.83700093833753,-89.976806640625,6268.0791015625,True
1598625218.2366085,0,5,0.5,0.5,-0.005207037353515626,-0.14,-0.011,-0.56,-0.001647680687952693,10,1,100,-0.04817609241103456,-10,-1,-100,500.0101025564363,0.0051244757082696745,-0.00018008844345954278,0.9999868535720198,15.19835040368272,-1.1009864257132271,-639.0709356396868,35.77102305943408,-89.97415161132812,6264.921875,True
1598625218.286348,0,5,0.5,0.5,-0.005375814819335937,-0.14,-0.011,-0.56,-0.0015218256498724788,10,1,100,-0.04504683467719721,-10,-1,-100,501.4633698485559,0.00502067039805156,-0.00017587075067727537,0.9999873808894955,15.439027999930515,-1.1222313573953002,-671.0779767995458,36.70555554524343,-89.97183227539062,6261.763671875,True
1598625218.333678,0,5,0.5,0.5,-0.005455281829833985,-0.14,-0.011,-0.56,-0.0014153992259289786,10,1,100,-0.041786271663765494,-10,-1,-100,502.973613179056,0.004896667132947872,-0.00017107201570078218,0.9999879966206369,15.676302877152928,-1.1432856809753342,-703.8186200173565,37.64059508947071,-89.96990966796875,6258.60595703125,True
1598625218.383856,0,5,0.5,0.5,-0.00552135238647461,-0.14,-0.011,-0.56,-0.001278127749343993,10,1,100,-0.038437790730584113,-10,-1,-100,504.49652110692114,0.004753714912617441,-0.00016547225908025847,0.9999886873427425,15.910895018095344,-1.164166722528427,-737.2880263460789,38.57613828164745,-89.96832275390625,6255.4482421875,True
1598625218.43276,0,5,0.5,0.5,-0.005496316528320312,-0.14,-0.011,-0.56,-0.0011467196704105335,10,1,100,-0.03498788260492342,-10,-1,-100,506.0830271069426,0.0045928204599508665,-0.0001592053278109012,0.9999894402711892,16.14361037750394,-1.1849133209658265,-771.4846416580077,39.51218288451374,-89.96713256835938,6252.2900390625,True
1598625218.4826584,0,5,0.5,0.5,-0.005456323242187501,-0.14,-0.011,-0.56,-0.0010340983763406659,10,1,100,-0.03140197125364487,-10,-1,-100,507.6692279736744,0.004414577672402668,-0.00015250988542593065,0.9999902440747657,16.37520853101815,-1.2055475437940424,-806.4041618357672,40.44872604780483,-89.96627807617188,6249.13232421875,True
1598625218.531488,0,5,0.5,0.5,-0.00540933837890625,-0.14,-0.011,-0.56,-0.0008778780328894419,10,1,100,-0.027808744076710086,-10,-1,-100,509.32549732748885,0.004220689587709787,-0.00014503558173499737,0.9999910823322797,16.606502334861776,-1.2261060327017255,-842.0444347594823,41.385760715666315,-89.9656982421875,6245.974609375,True
1598625218.579892,0,5,0.5,0.5,-0.0053635711669921884,-0.14,-0.011,-0.56,-0.0007230066970574755,10,1,100,-0.024116861683763847,-10,-1,-100,510.98161341960076,0.004011866056014907,-0.00013687239971813133,0.9999919430658903,16.838287682636466,-1.2466122843724392,-878.4025645323283,42.32328848782334,-89.96533203125,6242.81640625,True
1598625218.6268642,0,5,0.5,0.5,-0.005306002807617189,-0.14,-0.011,-0.56,-0.0006031039458962914,10,1,100,-0.020404548623526503,-10,-1,-100,512.7075541000813,0.003789455172678629,-0.00012840730689118638,0.9999928117446936,17.071452567246286,-1.2671005245672824,-915.4795570029947,43.26129697159523,-89.96514892578125,6239.65869140625,True
1598625218.6753182,0,5,0.5,0.5,-0.005262200927734376,-0.14,-0.011,-0.56,-0.00044263153375098,10,1,100,-0.016679113204023398,-10,-1,-100,514.4907454624772,0.003554740209147213,-0.0001193051130440844,0.9999936747741636,17.306716545625445,-1.2876002076462678,-953.2691410431333,44.19976757316389,-89.965087890625,6236.5009765625,True
1598625218.721376,0,5,0.5,0.5,-0.0052409118652343755,-0.14,-0.011,-0.56,-0.00030587357604259765,10,1,100,-0.012928517671805521,-10,-1,-100,516.286571030505,0.003308768825959525,-0.00010984546338269753,0.9999945199764,17.54495002531944,-1.3081400687018758,-991.7734431760167,45.1387337427999,-89.965087890625,6233.34375,True
1598625218.767525,0,5,0.5,0.5,-0.005293606567382814,-0.14,-0.011,-0.56,-0.0001550792328892357,10,1,100,-0.009204082930889826,-10,-1,-100,518.0823360601207,0.003052950622582675,-9.993878146193058e-05,0.9999953347414856,17.786990684993405,-1.3287591465413267,-1030.9948765880563,46.07820627961648,-89.96502685546875,6230.185546875,True
1598625218.8154016,0,5,0.5,0.5,-0.005373724365234376,-0.14,-0.011,-0.56,-1.9333080660995962e-05,10,1,100,-0.005457202143756574,-10,-1,-100,520.0051145759644,0.0027881149030620266,-8.976768012208149e-05,0.9999961091709563,18.033593523781743,-1.3494838767375315,-1070.9306912218815,47.01815723731201,-89.96487426757812,6227.02734375,True
1598625218.8626611,0,5,0.5,0.5,-0.0054647125244140626,-0.14,-0.011,-0.56,0.0001228745357857178,10,1,100,-0.0018144258649688584,-10,-1,-100,521.8707035044208,0.0025161558757178086,-7.930234087777465e-05,0.9999968313303537,18.285563158657258,-1.3703474872332528,-1111.5816439279984,47.95855931606189,-89.96463012695312,6223.8701171875,True
1598625218.9515486,0,5,0.5,0.5,-0.005673852539062501,-0.14,-0.011,-0.56,0.0002857361156816267,10,1,100,0.0018336255307228044,-10,-1,-100,523.8568980081473,0.0022377904372957768,-6.838617258226242e-05,0.9999974938055045,18.54361319116133,-1.3913813774820993,-1152.9468235285512,48.89943298637308,-89.96414184570312,6220.7119140625,True
1598625218.9993975,0,5,0.5,0.5,-0.006535906982421876,-0.14,-0.011,-0.56,0.0016472844303951958,10,1,100,0.03714947709075633,-10,-1,-100,527.854494979023,0.0016658186882051295,-4.616723413915399e-05,0.9999986114573782,19.08103495203182,-1.4340723962250348,-1237.8375065139624,50.78263186738127,-89.9625244140625,6214.396484375,True
1598625219.0473187,0,5,0.5,0.5,-0.006531491088867188,-0.14,-0.011,-0.56,0.0006883770681093864,10,1,100,0.012257653647838887,-10,-1,-100,529.9169223614736,0.0013746325466803338,-3.478221398555075e-05,0.9999990545873326,19.361714136440636,-1.455784966194835,-1281.3605379313453,51.724927133259634,-89.96124267578125,6211.23828125,True
1598625219.0943751,0,5,0.5,0.5,-0.0068440093994140624,-0.14,-0.011,-0.56,0.0007546417559976746,10,1,100,0.01423852837331219,-10,-1,-100,531.985636894824,0.00109449724509988,-2.3930019744881043e-05,0.9999994007513878,19.651427252628213,-1.4777909908817541,-1325.6150690654597,52.66768221791478,-89.95977783203125,6208.0810546875,True
1598625219.1429534,0,5,0.5,0.5,-0.007204733276367188,-0.14,-0.011,-0.56,0.0009326385734078964,10,1,100,0.01850260625440501,-10,-1,-100,534.1177061754279,0.0008037165982085462,-1.2548910622336797e-05,0.9999996769410251,19.950927499045015,-1.5001301451177165,-1370.6259417917854,53.61087253853417,-89.95809936523438,6204.9228515625,True
1598625219.1897268,0,5,0.5,0.5,-0.007618371582031251,-0.14,-0.011,-0.56,0.0010617164190460462,10,1,100,0.02101896980291664,-10,-1,-100,536.3195997813018,0.0005192088311158371,-1.1343386381032563e-06,0.9999998652104424,20.260293152565435,-1.5228050040244114,-1416.3759086480666,54.554510823377285,-89.9561767578125,6201.765625,True
1598625219.2373009,0,5,0.5,0.5,-0.0080255126953125,-0.14,-0.011,-0.56,0.001147890746152101,10,1,100,0.023823048048022755,-10,-1,-100,538.5215543861268,0.0002378333600560746,9.918519980885934e-06,0.9999999716684576,20.58003369445655,-1.5458292367161242,-1462.866929718168,55.49862002619838,-89.95407104492188,6198.607421875,True
1598625219.287328,0,5,0.5,0.5,-0.007627474975585938,-0.14,-0.011,-0.56,0.0006575961322729566,10,1,100,0.011307499396542244,-10,-1,-100,539.6255835018819,9.860695180238915e-05,1.540047315982608e-05,0.9999999950197473,20.743943832830606,-1.5574798875455433,-1486.3914730693623,55.97084480305878,-89.95297241210938,6197.0283203125,True
1598625219.3337917,0,5,0.5,0.5,-0.00954625244140625,-0.14,-0.011,-0.56,0.001958138640487283,10,1,100,0.04317852416944072,-10,-1,-100,543.0588262086967,-0.00031501333211751074,3.2102326802063945e-05,0.9999999498680192,21.252475190786466,-1.593022789203716,-1558.087794255594,57.38818520550874,-89.94937133789062,6192.29150390625,True
1598625219.3833537,0,5,0.5,0.5,-0.0093838623046875,-0.14,-0.011,-0.56,0.0014966588321955235,10,1,100,0.03252817760887366,-10,-1,-100,545.3940206306288,-0.000591389414007556,4.297976821333315e-05,0.9999998242056349,21.605903329215348,-1.617227785806185,-1606.8191584458132,58.33362943795903,-89.94674682617188,6189.1337890625,True
1598625219.4337518,0,5,0.5,0.5,-0.009813690185546876,-0.14,-0.011,-0.56,0.0015983871667463426,10,1,100,0.03372069640050576,-10,-1,-100,547.7353803247679,-0.0008506564362954113,5.368198880213887e-05,0.9999996367508698,21.9713008983915,-1.6418462946500658,-1656.2982287283353,59.279511008070685,-89.94406127929688,6185.9765625,True
1598625219.4836411,0,5,0.5,0.5,-0.010190393066406251,-0.14,-0.011,-0.56,0.00169138475794003,10,1,100,0.03671305678725583,-10,-1,-100,550.1404603628907,-0.0011107493265515613,6.414574183791905e-05,0.9999993810604372,22.349285338970144,-1.6669290127256018,-1706.5545838560088,60.22581579720206,-89.94140625,6182.818359375,True
1598625219.5336852,0,5,0.5,0.5,-0.010563964843750002,-0.14,-0.011,-0.56,0.0017894366398685242,10,1,100,0.038561422821161796,-10,-1,-100,552.5518273659982,-0.001361476583442882,7.444934081890818e-05,0.9999990704189722,22.739895795904047,-1.692481495917709,-1757.585015133233,61.172550724983275,-89.93878173828125,6179.6611328125,True
1598625219.5837374,0,5,0.5,0.5,-0.010913378906250002,-0.14,-0.011,-0.56,0.0018775335306918384,10,1,100,0.04034004139643643,-10,-1,-100,555.0266709905118,-0.001603092341182831,8.451782839565164e-05,0.9999987114750111,23.143361853175772,-1.7185044914147203,-1809.3974333680128,62.11971386725296,-89.93621826171875,6176.50244140625,True
1598625219.631299,0,5,0.5,0.5,-0.011255456542968752,-0.14,-0.011,-0.56,0.0019472669712803296,10,1,100,0.04202502971469791,-10,-1,-100,557.5649911590153,-0.0018356087514885412,9.420635033609513e-05,0.9999983108314109,23.559793274576304,-1.7450150314437298,-1861.9937918539963,63.06729911842389,-89.9337158203125,6173.3447265625,True
1598625219.6796017,0,5,0.5,0.5,-0.011568533325195314,-0.14,-0.011,-0.56,0.0020019768977135033,10,1,100,0.04354595241272679,-10,-1,-100,560.1096586752683,-0.002058414489612452,0.0001034144102850195,0.999997876115369,23.989352153394616,-1.7720272773072128,-1915.3851995073512,64.01531163905972,-89.93130493164062,6170.18701171875,True
1598625219.7253723,0,5,0.5,0.5,-0.011869329833984376,-0.14,-0.011,-0.56,0.0020905568854839482,10,1,100,0.04491567510033051,-10,-1,-100,562.7176809269004,-0.002271073891139015,0.00011249560217384285,0.9999974147807186,24.432072345988537,-1.7995431811983023,-1969.5770984352396,64.9637396240189,-89.92898559570312,6167.029296875,True
1598625219.7727835,0,5,0.5,0.5,-0.012157543945312502,-0.14,-0.011,-0.56,0.0021641991213707987,10,1,100,0.04605521320608197,-10,-1,-100,565.3320510075428,-0.002472479232350727,0.00012132745414247822,0.9999969360583534,24.88798126253392,-1.827565978082164,-2024.5765455185979,65.91257990907552,-89.9267578125,6163.87109375,True
1598625219.8223968,0,5,0.5,0.5,-0.012434182739257813,-0.14,-0.011,-0.56,0.002190120644522315,10,1,100,0.04709213367439645,-10,-1,-100,568.0100195639534,-0.0026626641957240935,0.00012949576343263084,0.9999964467188012,25.35705534745043,-1.8560966833883383,-2080.391973695352,66.86182902850656,-89.92462158203125,6160.7138671875,True
1598625219.8685913,0,5,0.5,0.5,-0.012696392822265624,-0.14,-0.011,-0.56,0.0022434593167516737,10,1,100,0.047923229201436886,-10,-1,-100,570.6942746130517,-0.0028409808027969703,0.00013731785668337233,0.9999959549777611,25.839178903996917,-1.8851388579156267,-2137.0267934741473,67.81148194427914,-89.92257690429688,6157.5556640625,True
1598625219.9154,0,5,0.5,0.5,-0.012945147705078125,-0.14,-0.011,-0.56,0.0023032384351726136,10,1,100,0.048589579826648244,-10,-1,-100,573.441823068657,-0.0030070994591026075,0.0001448865351801731,0.9999954681700988,26.334266584756914,-1.9146958587453797,-2194.490796789978,68.7615357999633,-89.92062377929688,6154.39794921875,True
1598625219.9623811,0,5,0.5,0.5,-0.013223004150390627,-0.14,-0.011,-0.56,0.0023261903867848235,10,1,100,0.0490580345179753,-10,-1,-100,576.1960243762005,-0.003160414695644517,0.00015189289287703204,0.999994994341222,26.84215214548667,-1.9447677151222142,-2252.7911600705083,69.71198706663765,-89.918701171875,6151.240234375,True
1598625220.0527873,0,5,0.5,0.5,-0.013474420166015627,-0.14,-0.011,-0.56,0.0023541788891814543,10,1,100,0.0494154667762972,-10,-1,-100,579.0134577273857,-0.0033011782354227313,0.0001584369797586558,0.9999945385450769,27.362603125144606,-1.9753430057301227,-2311.9330272708735,70.66283142801906,-89.91683959960938,6148.08203125,True
1598625220.1014836,0,5,0.5,0.5,-0.015083639526367189,-0.14,-0.011,-0.56,0.0029635407314534366,10,1,100,0.0622409682401951,-10,-1,-100,584.7816857674625,-0.0035439771924820162,0.00016984945036356837,0.9999937056686024,28.440245686846232,-2.037999043193435,-2432.771432099726,72.56568357206193,-89.9130859375,6141.7666015625,True
1598625220.1485658,0,5,0.5,0.5,-0.014416946411132813,-0.14,-0.011,-0.56,0.002402368066354849,10,1,100,0.04933383869079523,-10,-1,-100,587.7324193665991,-0.003645601534949277,0.00017504527975625817,0.9999933394521177,28.996765965382046,-2.07005747143736,-2494.47618531325,73.51768327925161,-89.91107177734375,6138.60888671875,True
1598625220.1975555,0,5,0.5,0.5,-0.01465975036621094,-0.14,-0.011,-0.56,0.0024124050484225913,10,1,100,0.04847302228044677,-10,-1,-100,590.6895008262945,-0.0037285162491132004,0.00017978651637802823,0.9999930328974241,29.564739958639912,-2.1025922254021387,-2557.0577355659384,74.47005488618119,-89.90914916992188,6135.451171875,True
1598625220.2446978,0,5,0.5,0.5,-0.014910562133789065,-0.14,-0.011,-0.56,0.002356857933347712,10,1,100,0.04854872606172922,-10,-1,-100,593.7101799965603,-0.003803063203856152,0.000183522328527963,0.9999927514886408,30.143742843196684,-2.1356043261200033,-2620.5290663450187,75.42280026225833,-89.90728759765625,6132.29296875,True
1598625220.2916417,0,5,0.5,0.5,-0.015259136962890624,-0.14,-0.011,-0.56,0.00239393388241172,10,1,100,0.047718189382416724,-10,-1,-100,596.7370851618471,-0.00386189011170807,0.00018719100572270914,0.9999925253542111,30.73319477874309,-2.1690661342515667,-2684.888793749695,76.37591527523583,-89.90533447265625,6129.13525390625,True
1598625220.3833315,0,5,0.5,0.5,-0.01559886474609375,-0.14,-0.011,-0.56,0.0023913050220926296,10,1,100,0.04699512270021669,-10,-1,-100,599.8272837010445,-0.003907532684572216,0.0001904423921226864,0.9999923474307262,31.33244233974655,-2.2029454362441343,-2750.1241343280262,77.32939601825737,-89.9033203125,6125.9775390625,True
1598625220.4293234,0,5,0.5,0.5,-0.017634625244140625,-0.14,-0.011,-0.56,0.0026019860650785065,10,1,100,0.04849741205959568,-10,-1,-100,606.077991964994,-0.003961551409998659,0.0001952580741237282,0.999992133961418,32.558424337929885,-2.271901923295946,-2883.2427593462985,79.2374434723048,-89.89883422851562,6119.662109375,True
1598625220.478768,0,5,0.5,0.5,-0.016942968750000002,-0.14,-0.011,-0.56,0.0023027788576891607,10,1,100,0.044157952061400635,-10,-1,-100,609.3016733946279,-0.003970191005305287,0.0001968632284052809,0.9999920993829154,33.18409655646189,-2.306949505093421,-2951.131024979079,80.1919978749425,-89.89627075195312,6116.50390625,True
1598625220.524631,0,5,0.5,0.5,-0.017307281494140625,-0.14,-0.011,-0.56,0.00230022514954842,10,1,100,0.04299228166546238,-10,-1,-100,612.5316413025139,-0.0039665726414880535,0.0001982519925024811,0.9999921134677149,33.81748499987507,-2.3423484029100177,-3019.908125020325,81.14689949080147,-89.89373779296875,6113.34619140625,True
1598625220.5724206,0,5,0.5,0.5,-0.017710717773437502,-0.14,-0.011,-0.56,0.0022540557513348256,10,1,100,0.041869929809445844,-10,-1,-100,615.8250247963006,-0.003952347150285106,0.0001990526388801527,0.9999921696343681,34.45806021286045,-2.3780704558435346,-3089.580338755389,82.10213222491255,-89.89117431640625,6110.1884765625,True
1598625220.618323,0,5,0.5,0.5,-0.01816192321777344,-0.14,-0.011,-0.56,0.0022120354287642296,10,1,100,0.040583484463922195,-10,-1,-100,619.1247553784633,-0.0039271279561277905,0.0001993615729645565,0.999992268930605,35.1050648718893,-2.414088175954506,-3160.1351997426827,83.05770641375896,-89.88851928710938,6107.0302734375,True
1598625220.663269,0,5,0.5,0.5,-0.018603375244140626,-0.14,-0.011,-0.56,0.0021627719506091465,10,1,100,0.03924582105318207,-10,-1,-100,622.488023799262,-0.0038916925206474613,0.00019916774312842193,0.9999924075019444,35.75800566559999,-2.450389659815355,-3231.581013806009,84.01362843223332,-89.88580322265625,6103.873046875,True
1598625220.7124443,0,5,0.5,0.5,-0.01909686889648438,-0.14,-0.011,-0.56,0.0021353682265030675,10,1,100,0.037829614920652316,-10,-1,-100,625.8575780681567,-0.003846380168109893,0.00019872047990972418,0.9999925829073801,36.41616015697184,-2.4869382063989294,-3303.906179869801,84.96988208569945,-89.88296508789062,6100.71484375,True
1598625220.7594652,0,5,0.5,0.5,-0.019565734863281253,-0.14,-0.011,-0.56,0.0020983644037427937,10,1,100,0.03641363854223084,-10,-1,-100,629.2905481338967,-0.0037922074588000935,0.00019796026590078583,0.9999927899611689,37.07892228732485,-2.5237040308851215,-3377.107693311233,85.9264633203423,-89.88006591796875,6097.55712890625,True
1598625220.8069508,0,5,0.5,0.5,-0.020087011718750002,-0.14,-0.011,-0.56,0.002043449951727382,10,1,100,0.03492878890386422,-10,-1,-100,632.7299876555335,-0.003729470777028812,0.00019675681456763556,0.9999930261429222,37.74575659015547,-2.560683144197578,-3451.187781097944,86.88336729873186,-89.87704467773438,6094.3994140625,True
1598625220.853336,0,5,0.5,0.5,-0.020562466430664065,-0.14,-0.011,-0.56,0.0020057317901470747,10,1,100,0.03345733387904218,-10,-1,-100,636.2328427474713,-0.0036591809473153366,0.0001953111793332735,0.9999932861016307,38.415972112569065,-2.597824194035097,-3526.135225722491,87.84058899448267,-89.87399291992188,6091.2412109375,True
1598625220.8997552,0,5,0.5,0.5,-0.021064697265625,-0.14,-0.011,-0.56,0.0019712997454361886,10,1,100,0.0318967131322023,-10,-1,-100,639.7991739042336,-0.0035813194150929573,0.00019367952072538123,0.9999935682990619,39.088984119918884,-2.6351206216750387,-3601.946206935144,88.79811685717557,-89.87088012695312,6088.083984375,True
1598625220.9507635,0,5,0.5,0.5,-0.02153123779296875,-0.14,-0.011,-0.56,0.001907674650777659,10,1,100,0.03036309301088811,-10,-1,-100,643.3717306762701,-0.0034969398683287614,0.0001916192198153092,0.9999938673280111,39.76418972370109,-2.6725270966690466,-3678.6138987828417,89.75595683457774,-89.86776733398438,6084.92578125,True
1598625220.9985232,0,5,0.5,0.5,-0.02201974487304688,-0.14,-0.011,-0.56,0.0018402458567097484,10,1,100,0.028832170496390364,-10,-1,-100,647.0079470131313,-0.003406743940354037,0.00018913799723152633,0.9999941791443302,40.44104101332188,-2.7100312168533987,-3756.1337294571445,90.7141085396292,-89.8646240234375,6081.76806640625,True
1598625221.0483346,0,5,0.5,0.5,-0.022491833496093752,-0.14,-0.011,-0.56,0.0017825731027975595,10,1,100,0.027281680516323573,-10,-1,-100,650.6504497417482,-0.0033111612139228933,0.0001863663280245865,0.9999945007243826,41.118932981364225,-2.747609808136051,-3834.4939753021854,91.67256305622269,-89.86148071289062,6078.6103515625,True
1598625221.0977063,0,5,0.5,0.5,-0.022964559936523438,-0.14,-0.011,-0.56,0.0017548066131985306,10,1,100,0.025762416278973486,-10,-1,-100,654.3564293250674,-0.003211039229497182,0.00018360573912270056,0.9999948277446234,41.79734106570295,-2.7852362768080625,-3913.6912395555387,92.63132036249077,-89.85833740234375,6075.4521484375,True
1598625221.1893368,0,5,0.5,0.5,-0.02234834594726563,-0.14,-0.011,-0.56,0.0018643744351356801,10,1,100,0.030047459436277246,-10,-1,-100,656.2156443273416,-0.003159625171200779,0.0001821065074420891,0.9999949917904577,42.13655718859264,-2.8040589847610793,-3953.5981632747853,93.110809284555,-89.85675048828125,6073.87353515625,True
1598625221.2373626,0,5,0.5,0.5,-0.02696038208007813,-0.14,-0.011,-0.56,0.0010997278617276896,10,1,100,0.005391357157447534,-10,-1,-100,665.6835341886617,-0.002889404249623276,0.00017380774727935726,0.9999958105581989,43.830406837705326,-2.898130458518492,-4156.181432959268,95.50933973966262,-89.84893798828125,6065.97900390625,True
1598625221.2871637,0,5,0.5,0.5,-0.02499402770996094,-0.14,-0.011,-0.56,0.0015546077570307844,10,1,100,0.019666493319697945,-10,-1,-100,669.5289175604703,-0.002774392809590083,0.0001704213395729295,0.9999961368430906,44.50590052118346,-2.935690092713444,-4238.623223341679,96.46925181927726,-89.84555053710938,6062.82080078125,True
1598625221.3344915,0,5,0.5,0.5,-0.02535670166015625,-0.14,-0.011,-0.56,0.0015228918113807939,10,1,100,0.019285976324836744,-10,-1,-100,673.3873016425641,-0.0026673029956513603,0.00016707949572147514,0.999996428783209,45.17949232437488,-2.9731854819231103,-4321.852833961619,97.42944391213241,-89.84237670898438,6059.6630859375,True
1598625221.3805795,0,5,0.5,0.5,-0.025646911621093754,-0.14,-0.011,-0.56,0.0014344629039226091,10,1,100,0.017284003467302817,-10,-1,-100,677.3596985298209,-0.0025527144731671016,0.0001632645360785751,0.9999967284914036,45.85031596775941,-3.0105418904639496,-4405.8014321474875,98.38991115308511,-89.8394775390625,6056.5048828125,True
1598625221.4274542,0,5,0.5,0.5,-0.026026675415039065,-0.14,-0.011,-0.56,0.001381642440849793,10,1,100,0.01633298381207178,-10,-1,-100,681.2814369086409,-0.002440903334473992,0.000159345338232781,0.9999970082955123,46.51833670370876,-3.0477661416649835,-4490.47003200723,99.35065117513773,-89.836669921875,6053.34765625,True
1598625221.4727454,0,5,0.5,0.5,-0.026478735351562505,-0.14,-0.011,-0.56,0.0013795761889430895,10,1,100,0.015267888679114555,-10,-1,-100,685.3235972624971,-0.002330610903617571,0.00015579485988517324,0.9999972719866678,47.18010326740349,-3.084628501227269,-4575.5378888163195,100.31166219072749,-89.83383178710938,6050.189453125,True
1598625221.5225925,0,5,0.5,0.5,-0.0269134033203125,-0.14,-0.011,-0.56,0.001300732037904422,10,1,100,0.014200743014152238,-10,-1,-100,689.3150987562258,-0.002221704032216359,0.00015188295488693297,0.9999975204783065,47.834292438619045,-3.121044290705909,-4660.88385489393,101.2729420908825,-89.83099365234375,6047.03173828125,True
1598625221.567402,0,5,0.5,0.5,-0.027369097900390625,-0.14,-0.011,-0.56,0.0012890236497611449,10,1,100,0.013195510318325703,-10,-1,-100,693.4270833386108,-0.002114636615442414,0.0001482541059439071,0.9999977531638282,48.48047233395013,-3.156986726440089,-4746.469874007316,102.23448846072023,-89.828125,6043.8740234375,True
1598625221.6146324,0,5,0.5,0.5,-0.027892849731445315,-0.14,-0.011,-0.56,0.0012722710747825844,10,1,100,0.012251462119118369,-10,-1,-100,697.5455376452301,-0.002009808093471925,0.00014483750369778821,0.9999979698447017,49.118484907295795,-3.1924550637846076,-4832.274649057835,103.19630607351928,-89.82513427734375,6040.7158203125,True
1598625221.6597672,0,5,0.5,0.5,-0.028369436645507815,-0.14,-0.011,-0.56,0.0011686608811754453,10,1,100,0.011405886542702602,-10,-1,-100,701.6702173860976,-0.0019079144147459057,0.00014082483465527424,0.9999981700138015,49.74815206712056,-3.227422899911273,-4918.272228406259,104.15839791225322,-89.82211303710938,6037.55859375,True
1598625221.708467,0,5,0.5,0.5,-0.02887323608398438,-0.14,-0.011,-0.56,0.0011756314821936664,10,1,100,0.01064053216947912,-10,-1,-100,705.9155030184193,-0.0018094639495624518,0.00013727785160114246,0.9999983534961477,50.369290826834856,-3.261876886311434,-5004.433132761753,105.12076033006092,-89.81903076171875,6034.400390625,True
1598625221.7557256,0,5,0.5,0.5,-0.029423101806640626,-0.14,-0.011,-0.56,0.00112462879756876,10,1,100,0.009976717409132259,-10,-1,-100,710.1165984752588,-0.001714910610938032,0.00013362286977868553,0.9999985206121684,50.981725142534934,-3.2957967407694855,-5090.722321694492,106.08339330295408,-89.81582641601562,6031.2431640625,True
1598625221.8013678,0,5,0.5,0.5,-0.029968493652343754,-0.14,-0.011,-0.56,0.0011077250516963555,10,1,100,0.009399859020189357,-10,-1,-100,714.3744571183342,-0.0016246720288333077,0.00013017994176833396,0.9999986717461087,51.58552107819246,-3.3291893655205356,-5177.125559853939,107.04629871584874,-89.81253051757812,6028.0849609375,True
1598625221.8483338,0,5,0.5,0.5,-0.030505474853515627,-0.14,-0.011,-0.56,0.0010851967507561069,10,1,100,0.008925079977081005,-10,-1,-100,718.6958529537078,-0.0015392686274069533,0.00012687874952669676,0.9999988072762265,52.180613016977496,-3.36203580462398,-5263.607690308125,108.00947476877498,-89.80917358398438,6024.92724609375,True
1598625221.8964634,0,5,0.5,0.5,-0.031072866821289066,-0.14,-0.011,-0.56,0.0010682236129131591,10,1,100,0.008533529755665846,-10,-1,-100,723.0808478551917,-0.001458990938502639,0.00012375644240531967,0.9999989280143177,52.76704340639204,-3.3943277418645126,-5350.14235415521,108.97292267982294,-89.80572509765625,6021.76953125,True
1598625221.944354,0,5,0.5,0.5,-0.03161105651855469,-0.14,-0.011,-0.56,0.0010567620760470078,10,1,100,0.008212698881097713,-10,-1,-100,727.4722510735737,-0.0013839872246353441,0.000120846139137855,0.9999990349873208,53.34492241872819,-3.426070734089184,-5436.705260096265,109.93664728307662,-89.80224609375,6018.611328125,True
1598625221.9932654,0,5,0.5,0.5,-0.032218310546875004,-0.14,-0.011,-0.56,0.0010114885271669386,10,1,100,0.008041007657910115,-10,-1,-100,731.8696356535656,-0.0013151017678897181,0.0001178206027419295,0.9999991283124428,53.9144199628097,-3.457251516578521,-5523.275520466823,110.90064835241846,-89.79864501953125,6015.45361328125,True
1598625222.041298,0,5,0.5,0.5,-0.03277940673828125,-0.14,-0.011,-0.56,0.0010294304441125876,10,1,100,0.007918186784392267,-10,-1,-100,736.3371497992193,-0.0012521862558747382,0.00011526418921981676,0.9999992093715612,54.475676368885104,-3.4878820969568696,-5609.823145411809,111.86492701671469,-89.79501342773438,6012.2958984375,True
1598625222.0927813,0,5,0.5,0.5,-0.03336697692871094,-0.14,-0.011,-0.56,0.0009841890887801498,10,1,100,0.007887113528092949,-10,-1,-100,740.8617924307473,-0.0011954918974943698,0.00011255888271189584,0.9999992790645508,55.028989749538766,-3.517964158800093,-5696.331005968094,112.82948309612357,-89.79132080078125,6009.13818359375,True
1598625222.1398294,0,5,0.5,0.5,-0.03392113952636719,-0.14,-0.011,-0.56,0.0010059476546278217,10,1,100,0.007949026788743863,-10,-1,-100,745.3927220969927,-0.0011452547069690227,0.00011032666250420646,0.9999993381096227,55.5746528811746,-3.5475040598122414,-5782.776028162178,113.79431996287997,-89.78762817382812,6005.97998046875,True
1598625222.1893277,0,5,0.5,0.5,-0.034518765258789066,-0.14,-0.011,-0.56,0.0010100696984670131,10,1,100,0.008118621461140056,-10,-1,-100,749.9870061915135,-0.0011018196305202879,0.00010836257014316428,0.9999993871253399,56.11292497536303,-3.5765117643936413,-5869.133662684033,114.75944367427222,-89.78387451171875,6002.822265625,True
1598625222.2365105,0,5,0.5,0.5,-0.03510431213378907,-0.14,-0.011,-0.56,0.0009920357475581842,10,1,100,0.008347093262391865,-10,-1,-100,754.5876374525251,-0.001065053526777402,0.00010643937324437111,0.9999994271656585,56.644218353218506,-3.6049888308614704,-5955.388406688846,115.72485227719879,-89.78009033203125,5999.66455078125,True
1598625222.286428,0,5,0.5,0.5,-0.03567340698242188,-0.14,-0.011,-0.56,0.0010307355445015325,10,1,100,0.008680656979111459,-10,-1,-100,759.2582151886309,-0.0010352529726941934,0.00010506754103271168,0.9999994586059006,57.16889532461041,-3.6329492771479375,-6041.517952917482,116.6905468006826,-89.77630615234375,5996.5068359375,True
1598625222.33436,0,5,0.5,0.5,-0.03626440124511719,-0.14,-0.011,-0.56,0.001019822992811526,10,1,100,0.009071942264545782,-10,-1,-100,763.9285488746827,-0.0010122545343553514,0.00010374404528014452,0.9999994822888314,57.68739772160676,-3.6604044715608985,-6127.507851427424,117.65653024300846,-89.77249145507812,5993.349609375,True
1598625222.381358,0,5,0.5,0.5,-0.03681744689941407,-0.14,-0.011,-0.56,0.0009829875513223565,10,1,100,0.009550147949134252,-10,-1,-100,768.6624196922639,-0.000996173291264528,0.00010222703122267879,0.9999994985940781,58.20022636720585,-3.6873478033461984,-6213.34583954946,118.62280810960796,-89.76870727539062,5990.19091796875,True
1598625222.4283552,0,5,0.5,0.5,-0.03740931396484375,-0.14,-0.011,-0.56,0.0010164470653058063,10,1,100,0.01011125176440907,-10,-1,-100,773.4600725915516,-0.0009870756664546762,0.00010117167712590734,0.9999995077228391,58.70777892464933,-3.7138286753792413,-6299.008999530152,119.58938176005303,-89.764892578125,5987.033203125,True
1598625222.4762094,0,5,0.5,0.5,-0.03798446044921876,-0.14,-0.011,-0.56,0.0010621462705519235,10,1,100,0.010738816653599409,-10,-1,-100,778.2701152807567,-0.000984871062491251,0.00010064559750563614,0.999999509949607,59.210570511680565,-3.7398528520079295,-6384.485198295989,120.55625096860199,-89.76107788085938,5983.875,True
1598625222.5234866,0,5,0.5,0.5,-0.03855984191894532,-0.14,-0.011,-0.56,0.001097348450762842,10,1,100,0.011408009292168834,-10,-1,-100,783.1372871567728,-0.0009892506562436758,0.00010050297676661275,0.9999995056410231,59.70913912666667,-3.7654287619563793,-6469.762524724797,121.52342028307606,-89.75726318359375,5980.7177734375,True
1598625222.573489,0,5,0.5,0.5,-0.039135424804687506,-0.14,-0.011,-0.56,0.001100591291721544,10,1,100,0.012153443035442354,-10,-1,-100,788.0109283162747,-0.0010002478078662133,0.00010041622120571897,0.999999494710325,60.20408076042691,-3.790588237517724,-6554.836703854441,122.49089539500034,-89.75344848632812,5977.56005859375,True
1598625222.6203904,0,5,0.5,0.5,-0.03971114196777344,-0.14,-0.011,-0.56,0.0011026185041470053,10,1,100,0.012957512418192464,-10,-1,-100,792.9542717901058,-0.0010177324347204557,0.0001003668205010526,0.9999994770734596,60.69587942871745,-3.815342760929037,-6639.691095392064,123.45867680568779,-89.7496337890625,5974.40185546875,True
1598625222.6675558,0,5,0.5,0.5,-0.04028699340820313,-0.14,-0.011,-0.56,0.0011453759903331364,10,1,100,0.013820906292492184,-10,-1,-100,797.8976759938523,-0.0010415925146018087,0.0001007196695912327,0.9999994524701411,61.18514899995943,-3.8397277693964935,-6724.3230668106935,124.42676722017433,-89.74581909179688,5971.244140625,True
1598625222.7167401,0,5,0.5,0.5,-0.04086291198730469,-0.14,-0.011,-0.56,0.001130952409436185,10,1,100,0.014702867249595583,-10,-1,-100,802.9045570363523,-0.00107135607511845,0.00010091626612010772,0.9999994210058661,61.67244398337181,-3.863754819754856,-6808.727675135059,125.39516919218323,-89.74200439453125,5968.0859375,True
1598625222.7636137,0,5,0.5,0.5,-0.04146022644042969,-0.14,-0.011,-0.56,0.0011913413806746613,10,1,100,0.015651831112651914,-10,-1,-100,807.9239498563111,-0.0011070350720265077,0.00010164900189136593,0.999999382070224,62.158248278170724,-3.887449058938204,-6892.889617221884,126.36388689799955,-89.7381591796875,5964.92822265625,True
1598625222.8145726,0,5,0.5,0.5,-0.04204051818847657,-0.14,-0.011,-0.56,0.0012585688136172838,10,1,100,0.01660592749740398,-10,-1,-100,813.0577839300968,-0.0011480788708049133,0.00010292939156393483,0.9999993356600027,62.643242306572596,-3.9108389178605854,-6976.817295422004,127.33292232103055,-89.73431396484375,5961.7705078125,True
1598625222.863427,0,5,0.5,0.5,-0.04129638061523438,-0.14,-0.011,-0.56,0.0012059891330550461,10,1,100,0.014979398102506234,-10,-1,-100,815.6023621434579,-0.001170481307616712,0.00010361612567362822,0.9999993096183653,62.8855838995382,-3.9224296209546963,-7018.6896652589285,127.81756037597623,-89.73236083984375,5960.19140625,True
1598625222.9146478,0,5,0.5,0.5,-0.04432281188964844,-0.14,-0.011,-0.56,0.00136161576650849,10,1,100,0.021038738273620693,-10,-1,-100,823.2934084358858,-0.0012457736080772493,0.00010565395417342538,0.9999992184423742,63.612930856987475,-3.9568223170695087,-7143.948453317499,129.27196007547218,-89.72653198242188,5955.455078125,True
1598625223.0053937,0,5,0.5,0.5,-0.043984759521484375,-0.14,-0.011,-0.56,0.0013573102516434396,10,1,100,0.019799601741791968,-10,-1,-100,828.5033527725609,-0.0013027210964414561,0.00010746330969533369,0.9999991456843259,64.0986885886012,-3.9794590812368282,-7227.143900210955,130.2419690788053,-89.722412109375,5952.296875,True
1598625223.0536883,0,5,0.5,0.5,-0.04744526062011718,-0.14,-0.011,-0.56,0.0015951896471650098,10,1,100,0.027715818603568428,-10,-1,-100,839.0055171051063,-0.00142616819366693,0.00011126452039072853,0.9999989768317216,65.07483824758593,-4.024167436800454,-7392.822516404492,132.18298198101067,-89.7142333984375,5945.9814453125,True
1598625223.1004214,0,5,0.5,0.5,-0.04575370178222657,-0.14,-0.011,-0.56,0.0014885030460577097,10,1,100,0.022899512118594527,-10,-1,-100,844.3549875273602,-0.0014942110253381223,0.00011374050506409008,0.9999988771976243,65.56628152181467,-4.046285764317414,-7475.326255964227,133.1539922255197,-89.71017456054688,5942.8232421875,True
1598625223.1476054,0,5,0.5,0.5,-0.04622000427246094,-0.14,-0.011,-0.56,0.0015068074539090791,10,1,100,0.023643950031435337,-10,-1,-100,849.7044586120173,-0.0015623867049582392,0.00011614569094410543,0.9999987727282283,66.06056470707867,-4.068272407166376,-7557.610343575494,134.12534101333563,-89.70632934570312,5939.66552734375,True
1598625223.1936507,0,5,0.5,0.5,-0.04667779541015626,-0.14,-0.011,-0.56,0.001562365758542692,10,1,100,0.024888408719520545,-10,-1,-100,855.1239364360226,-0.0016351827160770856,0.00011882295463129491,0.9999986560283921,66.55828689929363,-4.090197942300876,-7639.707500746566,135.0970323995197,-89.70266723632812,5936.5078125,True
1598625223.2417564,0,5,0.5,0.5,-0.04723795776367188,-0.14,-0.011,-0.56,0.0015806765162082854,10,1,100,0.025848114609747844,-10,-1,-100,860.5433533007745,-0.0017095458795494895,0.00012140683461202704,0.9999985313555546,67.05960591435654,-4.112043289504587,-7721.608075320841,136.0690693637619,-89.69900512695312,5933.35009765625,True
1598625223.2895741,0,5,0.5,0.5,-0.047883401489257814,-0.14,-0.011,-0.56,0.0016249907879899777,10,1,100,0.026820953625232607,-10,-1,-100,865.9752823833842,-0.0017854125739338717,0.00012414004563935171,0.9999983984443125,67.56484768157372,-4.133831301153026,-7803.305952877291,137.041454078425,-89.69522094726562,5930.1923828125,True
1598625223.335567,0,5,0.5,0.5,-0.04854586791992188,-0.14,-0.011,-0.56,0.0016889731803890937,10,1,100,0.02784647117178812,-10,-1,-100,871.5215911993291,-0.0018630884760684444,0.00012718599464623157,0.9999982563610064,68.07437358847301,-4.155594277217275,-7884.812432650366,138.01418994954818,-89.69131469726562,5927.0341796875,True
1598625223.4244153,0,5,0.5,0.5,-0.04924685363769531,-0.14,-0.011,-0.56,0.0017275874895728125,10,1,100,0.02884714224823949,-10,-1,-100,877.0804119725944,-0.0019421499336082833,0.00013028402691499043,0.9999981055380595,68.58851466762165,-4.177349819122848,-7966.134768511949,138.9872793777903,-89.687255859375,5923.876953125,True
1598625223.5173042,0,5,0.5,0.5,-0.05306905212402344,-0.14,-0.011,-0.56,0.002122503954112797,10,1,100,0.03871978926637802,-10,-1,-100,888.2680611411342,-0.0021030738055130404,0.00013666632601764257,0.999997779198976,69.6319773544646,-4.220919395720938,-8128.284341558239,140.93452903107013,-89.67861938476562,5917.56103515625,True
1598625223.6095936,0,5,0.5,0.5,-0.055185354614257824,-0.14,-0.011,-0.56,0.002254174436695558,10,1,100,0.040585010707908806,-10,-1,-100,899.6524872650625,-0.002265545429260885,0.00014363722743276577,0.9999974233328076,70.69722174972588,-4.264714917639303,-8289.830482924064,142.88322439242123,-89.66876220703125,5911.2451171875,True
1598625223.7002947,0,5,0.5,0.5,-0.05679527282714844,-0.14,-0.011,-0.56,0.002315586586650668,10,1,100,0.04137751505083814,-10,-1,-100,911.1826042731991,-0.0024195761954829927,0.0001504998174299811,0.9999970614961022,71.7867792429218,-4.308909920631489,-8450.96751781854,144.8333840261786,-89.65866088867188,5904.9296875,True
1598625223.7933185,0,5,0.5,0.5,-0.05733064575195313,-0.14,-0.011,-0.56,0.002338583382404016,10,1,100,0.041708840128990045,-10,-1,-100,922.846143468516,-0.002561713112757366,0.0001569119289369898,0.9999967064968637,72.90244068130272,-4.353695722726247,-8612.022240918865,146.78502280348746,-89.64990234375,5898.6142578125,True
1598625223.8829696,0,5,0.5,0.5,-0.05732004089355469,-0.14,-0.011,-0.56,0.0023938758285983715,10,1,100,0.04152758078318962,-10,-1,-100,934.7130520911887,-0.002688310223420048,0.00016320453306888013,0.9999963731696346,74.043756240663,-4.399177085883483,-8773.160684374,148.7381536342468,-89.64300537109375,5892.2978515625,True
1598625223.9746506,0,5,0.5,0.5,-0.057287158203125,-0.14,-0.011,-0.56,0.0024205453112915907,10,1,100,0.040992687502887204,-10,-1,-100,946.7129550621612,-0.002797512272821135,0.00016912475135678716,0.999996072653239,75.20910067292837,-4.4453554810094875,-8934.475202441441,150.69278453221486,-89.63763427734375,5885.982421875,True
1598625224.064548,0,5,0.5,0.5,-0.05787566223144532,-0.14,-0.011,-0.56,0.0024085623232753426,10,1,100,0.04038401479322889,-10,-1,-100,958.8587316892808,-0.0028901968116827347,0.00017435210282134995,0.9999958081730812,76.39663637817692,-4.492226156022161,-9096.061925507378,152.64892563295206,-89.63259887695312,5879.66650390625,True
1598625224.155467,0,5,0.5,0.5,-0.05942270812988282,-0.14,-0.011,-0.56,0.0024538499250361845,10,1,100,0.03957703691653222,-10,-1,-100,971.1442177619319,-0.002966046001830462,0.00017946781392495166,0.9999955851714641,77.60435966160841,-4.539788085744874,-9258.00326305701,154.6065850565803,-89.62646484375,5873.3515625,True
1598625224.2422495,0,5,0.5,0.5,-0.06191655273437501,-0.14,-0.011,-0.56,0.002415849442237972,10,1,100,0.03874720005048733,-10,-1,-100,983.6264802982332,-0.0030263825364299,0.00018372270347707346,0.9999954036167923,78.83016963832694,-4.587967304600677,-9420.353102587658,156.56576979834824,-89.61810302734375,5867.03564453125,True
1598625224.334319,0,5,0.5,0.5,-0.06498353576660157,-0.14,-0.011,-0.56,0.002378431760368289,10,1,100,0.03789125786808061,-10,-1,-100,996.24820804107,-0.00307239509889809,0.0001871992271357954,0.9999952626611817,80.07207086214522,-4.636737763372527,-9583.168359470541,158.52648589701818,-89.60714721679688,5860.72021484375,True
1598625224.4244606,0,5,0.5,0.5,-0.06797265625000001,-0.14,-0.011,-0.56,0.0023967484445228926,10,1,100,0.037110818211007666,-10,-1,-100,1009.0159921088489,-0.0031061022995637,0.00019047447740856555,0.9999951579122661,81.32824873981724,-4.686050905873865,-9746.505224692106,160.4887391231627,-89.59423828125,5854.404296875,True
1598625224.5162704,0,5,0.5,0.5,-0.0702786102294922,-0.14,-0.011,-0.56,0.0023529311980136046,10,1,100,0.03631840393573645,-10,-1,-100,1021.9743279032409,-0.0031286295990353794,0.00019300472255064406,0.9999950872009368,82.59704720594786,-4.735824854410564,-9910.411109090403,162.45253422231724,-89.58074951171875,5848.0888671875,True
1598625224.6062708,0,5,0.5,0.5,-0.07153753356933594,-0.14,-0.011,-0.56,0.0023577700358803143,10,1,100,0.035579269040490025,-10,-1,-100,1035.0782930335263,-0.0031416049320803253,0.0001953040553012147,0.9999950460751177,83.87707887486583,-4.7859866472500645,-10074.928693265403,164.41787437205525,-89.56829833984375,5841.77294921875,True
1598625224.696542,0,5,0.5,0.5,-0.07190609741210938,-0.14,-0.011,-0.56,0.002309413634722125,10,1,100,0.03498217449627862,-10,-1,-100,1048.3152497301344,-0.003147316167413266,0.00019691402302950337,0.9999950278005435,85.15223025632696,-4.835612957139142,-10236.596127780575,166.3400244692395,-89.55795288085938,5835.55517578125,True
1598625224.7845373,0,5,0.5,0.5,-0.07176798400878906,-0.14,-0.011,-0.56,0.002297139880069949,10,1,100,0.034490170038672566,-10,-1,-100,1061.6974449995905,-0.0031475030653243786,0.00019822968492738918,0.9999950269523573,86.36678496379525,-4.881418013477443,-10384.20104792958,168.0974297324139,-89.55001831054688,5829.701171875,True
1598625224.8745294,0,5,0.5,0.5,-0.07172073364257812,-0.14,-0.011,-0.56,0.0022523499168388365,10,1,100,0.03407173176394418,-10,-1,-100,1075.2127216737717,-0.003143451540162492,0.00019898671866713116,0.9999950395460472,87.4816305844999,-4.921163047542585,-10511.877827682662,169.65758201742497,-89.54388427734375,5824.28076171875,True
1598625224.9645307,0,5,0.5,0.5,-0.07221265258789061,-0.14,-0.011,-0.56,0.002243600160070804,10,1,100,0.03377674162867127,-10,-1,-100,1088.8615719204536,-0.003136772116724349,0.00019956824067145053,0.9999950604044027,88.51932870244755,-4.956157858152698,-10622.910581425569,171.03397536491462,-89.53842163085938,5819.263671875,True
1598625225.0553846,0,5,0.5,0.5,-0.07348690185546876,-0.14,-0.011,-0.56,0.0022081294270955214,10,1,100,0.03360655144266405,-10,-1,-100,1102.6437541531632,-0.003128928570721388,0.00019975151206846548,0.9999950849405874,89.494212572633,-4.987246934924112,-10719.80337489181,172.24567480051633,-89.53237915039062,5814.6083984375,True
1598625225.1437101,0,5,0.5,0.5,-0.07526947326660156,-0.14,-0.011,-0.56,0.002181229419592475,10,1,100,0.033525939433706846,-10,-1,-100,1116.4387812702917,-0.0031209171628473666,0.00019965513718104818,0.9999951099949885,90.41389947834807,-5.014878764657018,-10804.234367203147,173.31169739311136,-89.525146484375,5810.27197265625,True
