Timestamp,Input Throttle,horizon,dT,dt,Input Roll,Roll P,Roll I,Roll D,Input Pitch,Pitch P,Pitch I,Pitch D,Input Yaw,Yaw P,Yaw I,Yaw D,Altitude,Direction X,Direction Y,Direction Z,Drag X,Drag Y,Drag Z,Vertical Velocity,Roll,Mass,Has Fuel
1598627767.5695055,0,5,0.5,0.5,-0.0096258544921875,-0.14,-0.011,-0.56,0.004293242120008701,10,1,100,0.126384922780736,-10,-1,-100,478.8127601777669,-0.011738535809429828,0.0004144591899810239,0.9999310151208584,5.336073591579062,-0.436853520823842,109.80977793802063,-14.045368099596766,-89.92160034179688,6440.1796875,True
1598627767.6123948,0,5,0.5,0.5,-0.009566830444335938,-0.14,-0.011,-0.56,0.004300475957527314,10,1,100,0.12333283817348517,-10,-1,-100,477.93339759879746,-0.011781932413959318,0.00041549953669665093,0.9999305042995378,5.5233003880166756,-0.45263898687051046,118.50280558459028,-14.628778800951743,-89.92373657226562,6440.1796875,True
1598627767.6551423,0,5,0.5,0.5,-0.01003524169921875,-0.14,-0.011,-0.56,0.004148905650366566,10,1,100,0.11876063802240824,-10,-1,-100,477.65388738003094,-0.011769107569054556,0.0004146896677033081,0.9999306556654354,5.585634751185649,-0.457905180865475,121.47481852863976,-14.82323103144792,-89.92489624023438,6440.1796875,True
1598627767.6975603,0,5,0.5,0.5,-0.006003475952148439,-0.14,-0.011,-0.56,0.004009806890503849,10,1,100,0.11628760835983384,-10,-1,-100,476.83164474368095,-0.01172426734260041,0.00041231189837633237,0.9999311834092273,5.808838776731105,-0.46786244176790287,111.17473053158128,-13.469146840577139,-89.93170166015625,6435.443359375,True
1598627767.741596,0,5,0.5,0.5,-0.004527700805664062,-0.14,-0.011,-0.56,0.004042255504751357,10,1,100,0.11472038814172203,-10,-1,-100,476.28676755167544,-0.01165859761898417,0.00041007044830098966,0.9999319521566385,5.644106587014227,-0.44946515647567076,98.7062582336789,-12.56574460119748,-89.93936157226562,6432.28515625,True
1598627767.7841733,0,5,0.5,0.5,-0.0020693786621093753,-0.14,-0.011,-0.56,0.0038617735188321485,10,1,100,0.11101444463922183,-10,-1,-100,475.8120590632316,-0.01155460874965669,0.00040601922977113894,0.9999331608487776,5.461448574290116,-0.4301723444797095,86.86470435818039,-11.661798902299319,-89.9490966796875,6429.126953125,True
1598627767.8274798,0,5,0.5,0.5,0.0002629333496093752,-0.14,-0.011,-0.56,0.0037447380343836887,10,1,100,0.10697661158064528,-10,-1,-100,475.40717201132793,-0.011412861650872234,0.00040090323649467853,0.999934790806647,5.267158408247879,-0.41050039352940576,75.770668011784,-10.75730226459697,-89.96029663085938,6425.9697265625,True
1598627767.8684502,0,5,0.5,0.5,0.0024494842529296876,-0.14,-0.011,-0.56,0.0036116344150515906,10,1,100,0.10274617060943783,-10,-1,-100,474.9879102924606,-0.01123516676892005,0.00039467784312533665,0.9999368056317732,5.060330354223716,-0.3903864934667482,65.41036494049222,-9.85225130302857,-89.97244262695312,6422.8115234375,True
1598627767.9142933,0,5,0.5,0.5,-2.4676513671874952e-05,-0.14,-0.011,-0.56,0.003850341219414657,10,1,100,0.11040513841368066,-10,-1,-100,474.79280598880723,-0.011133039159212163,0.00039082965842639433,0.9999379494204916,4.952412981730662,-0.38017984927083215,60.50787403055268,-9.399516792992742,-89.97866821289062,6421.23291015625,True
1598627767.958383,0,5,0.5,0.5,0.009448471069335938,-0.14,-0.011,-0.56,0.00289620971335392,10,1,100,0.08231024135491571,-10,-1,-100,474.262696900405,-0.010774666777889665,0.00037830208622823425,0.9999418800327132,4.611302606714595,-0.3490129877707146,46.912989849664385,-8.04044628325001,-89.9972152709961,6416.49609375,True
1598627768.001212,0,5,0.5,0.5,0.003299472808837891,-0.14,-0.011,-0.56,0.0036611069359908915,10,1,100,0.10400192927572326,-10,-1,-100,474.12298121582717,-0.010636275715260289,0.00037352308435730826,0.9999433634558582,4.4924541078414055,-0.3384872303425288,42.756095450493085,-7.58713514163013,-90.0032730102539,6414.9169921875,True
1598627768.0455873,0,5,0.5,0.5,0.011890441894531251,-0.14,-0.011,-0.56,0.002330450725212762,10,1,100,0.0677533298612888,-10,-1,-100,473.7181749838637,-0.010181934991006152,0.00035711887719995955,0.9999480989861155,4.123722058847357,-0.3067299079857469,31.41672675634717,-6.22632571985743,-90.020263671875,6410.1806640625,True
1598627768.090192,0,5,0.5,0.5,0.009189614868164064,-0.14,-0.011,-0.56,0.002606820947456269,10,1,100,0.07447442853796776,-10,-1,-100,473.52303074055817,-0.00983145340912943,0.00034477149149503506,0.9999516106574773,3.8734745325702,-0.2858081164398084,24.815168264845116,-5.3183830815468465,-90.02984619140625,6407.0224609375,True
1598627768.1891923,0,5,0.5,0.5,0.006838781738281251,-0.14,-0.011,-0.56,0.0031654701363789768,10,1,100,0.08974200221306484,-10,-1,-100,473.397626648657,-0.009653391417342316,0.00033868878636822674,0.9999533475738003,3.7502172241303664,-0.2756475441210112,21.808381578160798,-4.864188664974199,-90.03398895263672,6405.443359375,True
1598627768.2226973,0,5,0.5,0.5,0.007082675933837891,-0.14,-0.011,-0.56,0.0030305178070446745,10,1,100,0.08684754163877269,-10,-1,-100,473.30933160788845,-0.009467086215883427,0.0003319991451790056,0.9999551310209617,3.6308648159952552,-0.26587637284611043,19.001662071435394,-4.409843069963766,-90.03749084472656,6403.86474609375,True
1598627768.2593188,0,5,0.5,0.5,0.008946599578857423,-0.14,-0.011,-0.56,0.0021154967269483424,10,1,100,0.061101075744826296,-10,-1,-100,473.16029872198123,-0.00906565135316047,0.0003176702536453125,0.9999588556791488,3.423728840564797,-0.24891512058022097,14.023702610179742,-3.5006998555964155,-90.04280090332031,6400.70703125,True
1598627768.2975533,0,5,0.5,0.5,0.008506003570556642,-0.14,-0.011,-0.56,0.0018715534148883624,10,1,100,0.05396439105847466,-10,-1,-100,473.047459555557,-0.008638094305715037,0.0003025066393924333,0.9999626452105592,3.3490336482880383,-0.24184547487413408,10.01769334278955,-2.5909478909853094,-90.04627227783203,6397.548828125,True
1598627768.3993506,0,5,0.5,0.5,0.007708700561523439,-0.14,-0.011,-0.56,0.001621185112776663,10,1,100,0.04761582462298927,-10,-1,-100,472.9711497405078,-0.008194214356210374,0.0002865349115043479,0.9999663858094574,3.9027754060135473,-0.2800529406007712,7.4772090623620535,-1.6805823303083098,-90.04777526855469,6394.3916015625,True
1598627768.514225,0,5,0.5,0.5,0.006506623840332032,-0.14,-0.011,-0.56,0.001362528237066601,10,1,100,0.04028078126641236,-10,-1,-100,472.93109478999395,-0.007726769419248807,0.000269762044492016,0.9999701116847349,8.85113627892659,-0.6313868473911632,7.673966706004338,-0.7695930461817693,-90.0471420288086,6391.2333984375,True
1598627768.5522165,0,5,0.5,0.5,0.005062017059326172,-0.14,-0.011,-0.56,0.0010941605769081337,10,1,100,0.03313382487119784,-10,-1,-100,472.92772228480317,-0.0072399437545454,0.0002521843390374868,0.9999737594644622,7.091661680877061,-0.5030848397342147,-1.1222987493643615,0.14204159529723145,-90.04446411132812,6388.076171875,True
1598627768.5871782,0,5,0.5,0.5,0.005193031311035157,-0.14,-0.011,-0.56,0.0018989540653754087,10,1,100,0.054186296522207314,-10,-1,-100,472.9396473269444,-0.0069919744589363375,0.00024363556374415433,0.9999755261679546,1.2128757738905669,-0.08581581732845002,-0.8040046389580416,0.5981039268866322,-90.04243469238281,6386.4970703125,True
1598627768.6283827,0,5,0.5,0.5,0.002708948516845704,-0.14,-0.011,-0.56,0.0007318604940253976,10,1,100,0.02276603876271374,-10,-1,-100,472.9909321089508,-0.006484222120802088,0.0002253720878475912,0.9999789518139419,0.8080304549000609,-0.056892554833295694,-1.3396583823266637,1.5107230411747004,-90.03720092773438,6383.3388671875,True
1598627768.669228,0,5,0.5,0.5,0.0010602516174316409,-0.14,-0.011,-0.56,0.0004659250099435597,10,1,100,0.014902906259132258,-10,-1,-100,473.0786862828536,-0.005954507620529488,0.000206471102440292,0.9999822504468172,1.6479824428367502,-0.11551615917916386,-4.344553759403313,2.4239913401666033,-90.03063201904297,6380.181640625,True
1598627768.70838,0,5,0.5,0.5,-0.0005528060913085938,-0.14,-0.011,-0.56,0.0002819039241266487,10,1,100,0.009273891604360276,-10,-1,-100,473.203031017445,-0.005425300619591561,0.00018774119709809783,0.9999852653246597,2.2639661733155534,-0.1580522699414455,-8.151511683481292,3.3378792175036387,-90.0230712890625,6377.02294921875,True
1598627768.7485,0,5,0.5,0.5,0.0008707313537597654,-0.14,-0.011,-0.56,0.0010985792348205325,10,1,100,0.03217866034388237,-10,-1,-100,473.2789214696968,-0.0051562722352779655,0.00017827555651083856,0.9999866904486588,2.5297850577991956,-0.17627844027193543,-10.316885372254037,3.79505410476023,-90.01907348632812,6375.4443359375,True
1598627768.7942717,0,5,0.5,0.5,-0.005477042388916016,-0.14,-0.011,-0.56,-0.0011890737795800343,10,1,100,-0.031209845255543746,-10,-1,-100,473.5614639945561,-0.004339360756798646,0.0001490133318357506,0.9999905738271982,3.256480683336138,-0.22577431948899074,-17.899732522836096,5.167527430151397,-90.0068359375,6370.70751953125,True
1598627768.837276,0,5,0.5,0.5,-0.00445276107788086,-0.14,-0.011,-0.56,-0.0004323558572865186,10,1,100,-0.011542972896063389,-10,-1,-100,473.8235676197801,-0.0037798003347185058,0.00012944388771725672,0.9999928481512804,3.7149896169272587,-0.25682134890272107,-23.899133560049332,6.083282169755266,-89.99856567382812,6367.5498046875,True
1598627768.882433,0,5,0.5,0.5,-0.005257191467285156,-0.14,-0.011,-0.56,-0.0006019944276534617,10,1,100,-0.015113393525988242,-10,-1,-100,474.06211191264447,-0.0032430673034381493,0.00011026864492590388,0.9999947351637865,4.16507137403309,-0.2872160004551799,-30.675686029764243,6.99965079727806,-89.99087524414062,6364.3916015625,True
1598627768.9312477,0,5,0.5,0.5,-0.0010131408691406252,-0.14,-0.011,-0.56,0.0012979032248239776,10,1,100,0.038064794896770185,-10,-1,-100,474.06211191264447,-0.0032430673034381493,0.00011026864492590388,0.9999947351637865,4.16507137403309,-0.2872160004551799,-30.675686029764243,6.99965079727806,-89.99087524414062,6364.3916015625,True
1598627768.9755676,0,5,0.5,0.5,-0.009513144683837892,-0.14,-0.011,-0.56,-0.0029715998308317525,10,1,100,-0.08216999602553895,-10,-1,-100,474.734026893042,-0.0021540998424315304,7.159997478318462e-05,0.9999976773609589,5.052377451100167,-0.34703644777575604,-46.597520843968184,8.834218403442025,-89.97882080078125,6358.07666015625,True
1598627769.0183585,0,5,0.5,0.5,-0.006167383575439454,-0.14,-0.011,-0.56,-0.0012969738621469904,10,1,100,-0.03508490858299472,-10,-1,-100,475.0977870688075,-0.001596799167277837,5.183467833625977e-05,0.9999987237719783,5.491528714570645,-0.3766543032033287,-55.75502047838591,9.75241024609398,-89.97406005859375,6354.91845703125,True
1598627769.060299,0,5,0.5,0.5,-0.005947795867919922,-0.14,-0.011,-0.56,-0.0013253772793623366,10,1,100,-0.035293436792581415,-10,-1,-100,475.54595954017714,-0.0010931711836797446,3.3782378578377566e-05,0.9999994019175782,5.927637488896303,-0.40611654172350053,-65.71580474825522,10.671202813850924,-89.97067260742188,6351.7607421875,True
1598627769.1012144,0,5,0.5,0.5,-0.0053416557312011715,-0.14,-0.011,-0.56,-0.0015476397247625433,10,1,100,-0.04308544715497938,-10,-1,-100,475.9793928473955,-0.0005693920597843356,1.5524801757818426e-05,0.9999998377758184,6.360106386188975,-0.43540815740398037,-76.48017376922905,11.590592472360672,-89.96893310546875,6348.6025390625,True
1598627769.1453428,0,5,0.5,0.5,-0.004606301879882813,-0.14,-0.011,-0.56,-0.0017178237766420088,10,1,100,-0.046541397470919656,-10,-1,-100,476.49742142355535,-6.670704933518425e-05,-2.4465355500645945e-06,0.999999997772092,6.788505696229473,-0.46452091583674654,-88.04996401314233,12.510576552893099,-89.96868896484375,6345.4453125,True
1598627769.1944542,0,5,0.5,0.5,-0.0038030853271484384,-0.14,-0.011,-0.56,-0.0018383214565080924,10,1,100,-0.050185856181002866,-10,-1,-100,477.01538941299077,0.0004185393179191131,-1.9706650435424316e-05,0.9999999122182397,7.212311016755733,-0.49344364690226084,-100.42715778048814,13.43115047243072,-89.9697265625,6342.287109375,True
1598627769.2317448,0,5,0.5,0.5,-0.0029216979980468756,-0.14,-0.011,-0.56,-0.0019709164294910413,10,1,100,-0.05386531435751898,-10,-1,-100,477.5886557949707,0.0008880539883429872,-3.642308898837245e-05,0.9999996050166583,7.63095153977044,-0.5221574639320058,-113.61304234217228,14.352309772536506,-89.97189331054688,6339.12890625,True
1598627769.2774253,0,5,0.5,0.5,-0.0019731964111328127,-0.14,-0.011,-0.56,-0.002081303516566889,10,1,100,-0.05724369136700347,-10,-1,-100,478.17647952912375,0.0013408458299553302,-5.245479171826562e-05,0.9999990996900723,8.043790629605734,-0.5506400748523438,-127.60757978132357,15.274052264632324,-89.97503662109375,6335.9716796875,True
1598627769.326866,0,5,0.5,0.5,-0.0010676818847656254,-0.14,-0.011,-0.56,-0.002210642762298833,10,1,100,-0.06013691982662406,-10,-1,-100,478.8197541824775,0.0017741217209043074,-6.80395158162448e-05,0.9999984239301298,8.450251921373827,-0.5788703508662454,-142.4108364477668,16.19637504639543,-89.9788818359375,6332.8134765625,True
1598627769.371238,0,5,0.5,0.5,-0.00022210998535156234,-0.14,-0.011,-0.56,-0.00226181342341471,10,1,100,-0.06278053951110575,-10,-1,-100,479.477280485793,0.0021874807197856273,-8.251053631478643e-05,0.9999976040571857,8.84982292199214,-0.6068291022012148,-158.02291934182892,17.119272395817163,-89.98318481445312,6329.6552734375,True
1598627769.421529,0,5,0.5,0.5,0.0005000213623046878,-0.14,-0.011,-0.56,-0.0023520671397563317,10,1,100,-0.06513428356693826,-10,-1,-100,480.20487567281816,0.002579722439255101,-9.63112440245293e-05,0.9999966678725888,9.241952762112447,-0.6344901578716663,-174.44213948533644,18.042742298247973,-89.9876708984375,6326.498046875,True
1598627769.4622252,0,5,0.5,0.5,0.0011164459228515625,-0.14,-0.011,-0.56,-0.0024499254817939415,10,1,100,-0.06707234606663139,-10,-1,-100,480.9324101075763,0.0029496210957866633,-0.00010959431667117589,0.9999956438527504,9.626207680548298,-0.6618401538831588,-191.66755531006066,18.966781819612113,-89.99212646484375,6323.34033203125,True
1598627769.5101566,0,5,0.5,0.5,0.0015998809814453125,-0.14,-0.011,-0.56,-0.002476794717665336,10,1,100,-0.06871553382657554,-10,-1,-100,481.7297380726086,0.0032966975629393352,-0.00012176734940786053,0.9999945584641404,10.002225280740745,-0.6888615198082993,-209.69815748346875,19.891386597675712,-89.99635314941406,6320.1826171875,True
1598627769.5566385,0,5,0.5,0.5,0.0019314743041992186,-0.14,-0.011,-0.56,-0.002569804374328714,10,1,100,-0.0699273892664356,-10,-1,-100,482.58269970549736,0.0036192477018526566,-0.00013353787629452615,0.9999934415853478,10.369635690388114,-0.7155363047883004,-228.53135731690492,20.81655303590094,-90.00016784667969,6317.0244140625,True
1598627769.6004744,0,5,0.5,0.5,0.0020512817382812502,-0.14,-0.011,-0.56,-0.0025520625027500524,10,1,100,-0.07093210388408411,-10,-1,-100,483.39452340092976,0.003917801015787356,-0.00014394155401527766,0.9999923150284856,10.728212552071254,-0.7418558217018653,-248.1659010717826,21.74227807022822,-90.00334167480469,6313.86669921875,True
1598627769.646235,0,5,0.5,0.5,0.0012306350708007814,-0.14,-0.011,-0.56,-0.0020756932027235302,10,1,100,-0.056797532753742025,-10,-1,-100,483.88359576661605,0.004057094738120225,-0.000148940181017115,0.999991758865596,10.904152511990603,-0.7548809621775892,-258.2834898257471,22.205348762914547,-90.00465393066406,6312.28759765625,True
1598627769.7023182,0,5,0.5,0.5,0.00241407470703125,-0.14,-0.011,-0.56,-0.00304777397953797,10,1,100,-0.08505499308284586,-10,-1,-100,485.2543768429896,0.004437303620123595,-0.0001622040003256605,0.9999901419646322,11.41799274244538,-0.7933803664689522,-289.82451481481337,23.59538986258587,-90.00733947753906,6307.55078125,True
1598627769.7415369,0,5,0.5,0.5,0.0015206008911132817,-0.14,-0.011,-0.56,-0.0026209943536967596,10,1,100,-0.07238245310262445,-10,-1,-100,486.20597065321635,0.0046645165588230265,-0.00017026785681547514,0.9999891065877317,11.749085373727574,-0.8185820566805904,-311.8448199574766,24.52277123655881,-90.0081558227539,6304.3935546875,True
1598627769.7903373,0,5,0.5,0.5,0.0011052192687988282,-0.14,-0.011,-0.56,-0.0025343299173164434,10,1,100,-0.0708931491029406,-10,-1,-100,487.2129846715834,0.0048545131297082315,-0.00017670367414357902,0.9999882011694363,12.070919917939143,-0.8434002245798919,-334.6548193544762,25.450697899653118,-90.00816345214844,6301.2353515625,True
1598627769.8302417,0,5,0.5,0.5,0.0005563743591308594,-0.14,-0.011,-0.56,-0.002605820314136309,10,1,100,-0.07099877233023645,-10,-1,-100,488.2754172801506,0.0050253971403894674,-0.00018310554426901102,0.9999873558480332,12.383431487501872,-0.867825096021614,-358.2467708357404,26.379167387118112,-90.00733947753906,6298.0771484375,True
1598627769.876227,0,5,0.5,0.5,-0.0001519187927246094,-0.14,-0.011,-0.56,-0.0024975269343940195,10,1,100,-0.06982434950265684,-10,-1,-100,489.35219342273194,0.005167489745830227,-0.00018784949092360637,0.9999866307917799,12.686896264742282,-0.891868701995548,-382.6192770044508,27.308176366557767,-90.00563049316406,6294.919921875,True
1598627769.926583,0,5,0.5,0.5,-0.0008734352111816406,-0.14,-0.011,-0.56,-0.002450438598085218,10,1,100,-0.0685334079844317,-10,-1,-100,490.49903744249605,0.005282576493968349,-0.0001916508773277957,0.9999860287301652,12.981485782621895,-0.9155373992059164,-407.76691425058544,28.237721668384822,-90.00320434570312,6291.76171875,True
1598627769.966432,0,5,0.5,0.5,-0.0016281562805175783,-0.14,-0.011,-0.56,-0.0024146726155863316,10,1,100,-0.067023319350045,-10,-1,-100,491.64563677005935,0.005371351863419324,-0.00019470694098101736,0.9999855552298575,13.267506703835135,-0.9388316554792869,-433.6863697549324,29.167800955636935,-90.00016784667969,6288.6044921875,True
1598627770.0172923,0,5,0.5,0.5,-0.0011304908752441407,-0.14,-0.011,-0.56,-0.002224805581077616,10,1,100,-0.06212161673506099,-10,-1,-100,492.2190580354072,0.005405609762510828,-0.00019569280799607315,0.999985370436698,13.407457494325435,-0.9503484598835386,-446.9356611365401,29.633039088534076,-89.99844360351562,6287.025390625,True
1598627770.060287,0,5,0.5,0.5,-0.00416156234741211,-0.14,-0.011,-0.56,-0.002340569835335042,10,1,100,-0.06602122932122834,-10,-1,-100,494.07884922996163,0.005470580365140392,-0.00019758494856509905,0.9999850167430794,13.815242329046413,-0.9843597543321675,-487.8211866796064,31.02954563279276,-89.99273681640625,6282.2890625,True
1598627770.1045437,0,5,0.5,0.5,-0.0039040626525878915,-0.14,-0.011,-0.56,-0.002172336658341204,10,1,100,-0.06110225450661584,-10,-1,-100,495.35093555110507,0.0054835149788986515,-0.00019772691711467878,0.9999849458704577,14.077821300970816,-1.0066162644952388,-516.0275164143412,31.961206408488547,-89.98855590820312,6279.130859375,True
1598627770.1561952,0,5,0.5,0.5,-0.004507097625732422,-0.14,-0.011,-0.56,-0.002079015401865311,10,1,100,-0.05839504111052389,-10,-1,-100,496.6518604934681,0.005469365942131889,-0.00019696325279533626,0.9999850235086863,14.33353360674223,-1.0285547608912615,-544.9869737764993,32.89338875039643,-89.984375,6275.97265625,True
1598627770.2032855,0,5,0.5,0.5,-0.004925424957275391,-0.14,-0.011,-0.56,-0.0019732610353475084,10,1,100,-0.055907871748498136,-10,-1,-100,498.0082660046173,0.005432954312396409,-0.00019527600985261789,0.9999852223281699,14.582936665368269,-1.0501955951012552,-574.6947241643281,33.82608936536071,-89.98046875,6272.81494140625,True
1598627770.2522693,0,5,0.5,0.5,-0.005374581909179688,-0.14,-0.011,-0.56,-0.0018588523247658616,10,1,100,-0.05301680138966988,-10,-1,-100,499.3644578825915,0.005372871793235195,-0.00019267933876027972,0.9999855474572449,14.826643632213019,-1.0715607697716958,-605.1457808080194,34.759306194829435,-89.97674560546875,6269.6572265625,True
1598627770.2953818,0,5,0.5,0.5,-0.005695396423339844,-0.14,-0.011,-0.56,-0.0017238065296446502,10,1,100,-0.04989324681809986,-10,-1,-100,500.79071743704844,0.005289384135471157,-0.00018907651629830973,0.9999859932346745,15.065306634988854,-1.0926701903653346,-636.3354895451556,35.69303550404146,-89.97335815429688,6266.4990234375,True
1598627770.343181,0,5,0.5,0.5,-0.00595067138671875,-0.14,-0.011,-0.56,-0.0016375550677093205,10,1,100,-0.04670943183159496,-10,-1,-100,502.2314724045573,0.00518430250399464,-0.00018501169079526193,0.9999865442985828,15.29962402019132,-1.1135464159491315,-668.2592740908656,36.62727490199492,-89.9703369140625,6263.3408203125,True
1598627770.3914459,0,5,0.5,0.5,-0.00609203338623047,-0.14,-0.011,-0.56,-0.0015171020636288134,10,1,100,-0.043396491464877326,-10,-1,-100,503.7275249763625,0.005058640824083861,-0.000180223947391876,0.9999871887541067,15.530337095295883,-1.1342171825925063,-700.913271795464,37.56202161250201,-89.9677734375,6260.18359375,True
1598627770.441566,0,5,0.5,0.5,-0.006148097229003907,-0.14,-0.011,-0.56,-0.0013656041066135096,10,1,100,-0.039915315710463375,-10,-1,-100,505.27887520962395,0.004912959458824738,-0.00017450458735223686,0.9999879161157423,15.758225661031341,-1.154715828468822,-734.2941148387611,38.49727264037502,-89.9656982421875,6257.025390625,True
1598627770.489322,0,5,0.5,0.5,-0.0060920196533203125,-0.14,-0.011,-0.56,-0.0012190878812300293,10,1,100,-0.036380493791391966,-10,-1,-100,506.8447208198486,0.0047488038296927,-0.0001679915692251049,0.9999887102567807,15.984085956096502,-1.175063280257958,-768.3989601147978,39.433025204978684,-89.96417236328125,6253.8681640625,True
1598627770.5363684,0,5,0.5,0.5,-0.006001544189453125,-0.14,-0.011,-0.56,-0.0011188276656072676,10,1,100,-0.03270245292252199,-10,-1,-100,508.42521510797087,0.004566731800703682,-0.0001611843700936607,0.999989559435627,16.208731709692017,-1.1952953991087496,-803.2247050900032,40.369276080575794,-89.963134765625,6250.7099609375,True
1598627770.5814462,0,5,0.5,0.5,-0.0058802978515625,-0.14,-0.011,-0.56,-0.0009364533052731276,10,1,100,-0.029040707511582355,-10,-1,-100,510.0610679438105,0.004368744860218248,-0.00015337114995155691,0.9999904452271715,16.432982182926956,-1.2154359604231717,-838.768526466801,41.306022798604246,-89.9625244140625,6247.552734375,True
1598627770.633727,0,5,0.5,0.5,-0.005716671752929687,-0.14,-0.011,-0.56,-0.0008112720646588973,10,1,100,-0.025224937549694144,-10,-1,-100,511.7666834065458,0.004155081342049488,-0.00014517053469602695,0.9999913570749284,16.657645906223163,-1.2355231300027691,-875.027203443656,42.24326279565293,-89.96231079101562,6244.39453125,True
1598627770.671568,0,5,0.5,0.5,-0.0055785888671874995,-0.14,-0.011,-0.56,-0.0006638267738549166,10,1,100,-0.021446704824343684,-10,-1,-100,513.4724214451853,0.003927689014029323,-0.000136422102472872,0.9999922772941895,16.883614598256177,-1.2555877137547247,-912.001266041248,43.18099259519618,-89.96237182617188,6241.236328125,True
1598627770.7172897,0,5,0.5,0.5,-0.005397689819335938,-0.14,-0.011,-0.56,-0.0004996011434098399,10,1,100,-0.01748820211552146,-10,-1,-100,515.2477390005952,0.0036863507505656675,-0.00012702952554539382,0.9999931973176835,17.11170365882609,-1.2756578892574333,-949.6878339665125,44.11920959743826,-89.96270751953125,6238.07861328125,True
1598627770.7623703,0,5,0.5,0.5,-0.005280685424804688,-0.14,-0.011,-0.56,-0.00036016162162987183,10,1,100,-0.013739084200797329,-10,-1,-100,517.0378883108497,0.0034344026400490975,-0.00011728286887988203,0.9999940955441861,17.342736664519304,-1.295770969767013,-988.0851872346539,45.05791089615357,-89.96316528320312,6234.9208984375,True
1598627770.8084762,0,5,0.5,0.5,-0.0055482452392578135,-0.14,-0.011,-0.56,-0.0013276479234392076,10,1,100,-0.03874839710291212,-10,-1,-100,517.0378883108497,0.0034344026400490975,-0.00011728286887988203,0.9999940955441861,17.342736664519304,-1.295770969767013,-988.0851872346539,45.05791089615357,-89.96316528320312,6234.9208984375,True
1598627770.8538623,0,5,0.5,0.5,-0.0049366271972656256,-0.14,-0.011,-0.56,0.0009606554883579545,10,1,100,0.02019857129644062,-10,-1,-100,520.7286606885027,0.002900111927204023,-9.654168224710363e-05,0.9999957900063946,17.817047616633573,-1.3362430388788993,-1067.0141387797737,46.936754269519696,-89.96405029296875,6228.60498046875,True
1598627770.8982887,0,5,0.5,0.5,-0.005201342773437501,-0.14,-0.011,-0.56,0.00011250480797030094,10,1,100,-0.0009012872078559345,-10,-1,-100,522.6439929506741,0.002608172291835633,-8.5472593552779e-05,0.9999965950600692,18.061806646579093,-1.3566585537704812,-1107.5385075599902,47.87689094739517,-89.96438598632812,6225.44775390625,True
1598627770.9509404,0,5,0.5,0.5,-0.005305325317382813,-0.14,-0.011,-0.56,0.00019396667800995488,10,1,100,0.0005919260892808392,-10,-1,-100,524.5736686988967,0.002331293218042207,-7.47501613701229e-05,0.9999972797384725,18.312736124811607,-1.3772321400153775,-1148.7623147539705,48.81750020385831,-89.96450805664062,6222.28955078125,True
1598627770.9993806,0,5,0.5,0.5,-0.005480126953125001,-0.14,-0.011,-0.56,0.00040064862737971413,10,1,100,0.005778641287989796,-10,-1,-100,526.5588256467599,0.002034630749706875,-6.320833385330589e-05,0.9999979281390632,18.57101535633684,-1.3980316390614678,-1190.715421760229,49.758579295355865,-89.96435546875,6219.1318359375,True
1598627771.084262,0,5,0.5,0.5,-0.005756494140625,-0.14,-0.011,-0.56,0.0005143879417544885,10,1,100,0.009036667768728066,-10,-1,-100,528.5583867621608,0.0017376210841689498,-5.177083874028371e-05,0.9999984889952326,18.837091893321222,-1.4190640642522874,-1233.3913590982886,50.700124997164295,-89.96383666992188,6215.9736328125,True
1598627771.1374538,0,5,0.5,0.5,-0.006959884643554688,-0.14,-0.011,-0.56,0.001998604735423254,10,1,100,0.04562787870411391,-10,-1,-100,532.7382355635054,0.0011373568558819185,-2.7972599887103197e-05,0.9999993528182487,19.395161359125208,-1.4619445255557375,-1320.9032492305323,52.58460263400866,-89.96170043945312,6209.658203125,True
1598627771.2192743,0,5,0.5,0.5,-0.006939193725585938,-0.14,-0.011,-0.56,0.0009106983848134265,10,1,100,0.01912033967706231,-10,-1,-100,534.8775039605098,0.0008353831163088751,-1.6334438603218367e-05,0.9999996509340566,19.688738333130466,-1.4838656310230867,-1365.7427847926317,53.52675392593366,-89.96002197265625,6206.50244140625,True
1598627771.2724001,0,5,0.5,0.5,-0.009078009033203126,-0.14,-0.011,-0.56,0.0022725393268899934,10,1,100,0.05343211935824557,-10,-1,-100,539.2105186122935,0.0002517474522296427,6.516909615673311e-06,0.9999999682903747,20.307102422288093,-1.5286529088190537,-1455.0853748713014,55.32033811689643,-89.95562744140625,6200.40673828125,True
1598627771.354158,0,5,0.5,0.5,-0.008440655517578126,-0.14,-0.011,-0.56,0.0012948334463135762,10,1,100,0.02754462911459225,-10,-1,-100,541.4746751032071,-4.036723717432371e-05,1.828122141382462e-05,0.9999999990181414,20.61064525128814,-1.5499174220860725,-1497.3902546467068,56.149788119647205,-89.95303344726562,6197.51904296875,True
1598627771.4053812,0,5,0.5,0.5,-0.010972552490234376,-0.14,-0.011,-0.56,0.0025496169142395246,10,1,100,0.05796064609395518,-10,-1,-100,546.0317006163532,-0.0005792764092837531,4.025993267484015e-05,0.9999998314089756,21.198400713800105,-1.5897098935839968,-1576.5171106302437,57.67817988615996,-89.94735717773438,6192.0517578125,True
1598627771.4893813,0,5,0.5,0.5,-0.0097765625,-0.14,-0.011,-0.56,0.001544330865857136,10,1,100,0.03357478511047652,-10,-1,-100,548.3656117520295,-0.0008438553940340349,5.095839447087372e-05,0.9999996426555942,21.477194021783657,-1.6078950015393814,-1612.3936586898424,58.35984029939256,-89.94454956054688,6189.5126953125,True
1598627771.5412886,0,5,0.5,0.5,-0.011900064086914063,-0.14,-0.011,-0.56,0.002638442304684907,10,1,100,0.0600618356646354,-10,-1,-100,553.1181413556915,-0.001321769505825519,7.049664547777672e-05,0.9999991239774144,22.032123004674794,-1.6430401701514639,-1681.1627241162748,59.65034457066541,-89.93930053710938,6184.60791015625,True
1598627771.620081,0,5,0.5,0.5,-0.010526290893554687,-0.14,-0.011,-0.56,0.0017524467251219013,10,1,100,0.037969588579745264,-10,-1,-100,555.4812059379183,-0.001551825595957266,8.006239636163344e-05,0.9999987927129375,22.30243691608346,-1.6596234262367322,-1713.1791097628152,60.24272636154696,-89.93710327148438,6182.2802734375,True
1598627771.6711905,0,5,0.5,0.5,-0.011825357055664062,-0.14,-0.011,-0.56,0.0027527066811521483,10,1,100,0.060061457991789656,-10,-1,-100,560.3734015201917,-0.00195827256453744,9.771106716747655e-05,0.9999980778087078,22.827007465720072,-1.6908106682334607,-1772.6587227717216,61.33304988054202,-89.93353271484375,6177.84765625,True
1598627771.7192192,0,5,0.5,0.5,-0.010714242553710937,-0.14,-0.011,-0.56,0.001876297138681285,10,1,100,0.04089006818892384,-10,-1,-100,562.8471327695297,-0.002149854534753141,0.00010564166351303446,0.9999976834799761,23.08262595610515,-1.7055733096923387,-1800.3037397515805,61.833095954464305,-89.93231201171875,6175.73828125,True
1598627771.7992978,0,5,0.5,0.5,-0.010770281982421876,-0.14,-0.011,-0.56,0.0019258177087595424,10,1,100,0.04103378157759219,-10,-1,-100,565.3358424124308,-0.0023217923788290164,0.00011315838128038643,0.9999972982340155,23.328336417656697,-1.7193878667751727,-1826.5365183747726,62.31903593096513,-89.93130493164062,6173.6611328125,True
1598627771.8492255,0,5,0.5,0.5,-0.011072882080078127,-0.14,-0.011,-0.56,0.00272596954426436,10,1,100,0.05851355915368987,-10,-1,-100,570.3676300049992,-0.0026338618975582356,0.00012713756777241612,0.999996523297728,23.81280187490541,-1.7461054541755605,-1874.5335145124513,63.161915015360556,-89.93011474609375,6169.8115234375,True
1598627771.8985474,0,5,0.5,0.5,-0.010738348388671876,-0.14,-0.011,-0.56,0.002045519862646438,10,1,100,0.042871075545424145,-10,-1,-100,572.9114972179523,-0.002772203204497049,0.00013352958383557506,0.9999961485222046,24.048400097062146,-1.758755627209788,-1897.076098797466,63.55980346710637,-89.9296875,6167.9423828125,True
1598627771.945326,0,5,0.5,0.5,-0.01080533447265625,-0.14,-0.011,-0.56,0.0020684320729833262,10,1,100,0.042935490487633024,-10,-1,-100,575.4699765160913,-0.002895804573319027,0.0001394333342831277,0.9999957974282783,24.275173706850797,-1.7706201679162081,-1918.4158581135882,63.94607870362794,-89.92929077148438,6166.1005859375,True
1598627771.9924288,0,5,0.5,0.5,-0.010801544189453127,-0.14,-0.011,-0.56,0.002090002357091016,10,1,100,0.043665203987850114,-10,-1,-100,578.027974491124,-0.003012207361035394,0.00014488633535200067,0.9999954527970435,24.506631447584045,-1.782790808820195,-1938.7478105481152,64.28215367170935,-89.92901611328125,6164.3759765625,True
1598627772.0732598,0,5,0.5,0.5,-0.010860171508789065,-0.14,-0.011,-0.56,0.002136968123457126,10,1,100,0.043588569852784115,-10,-1,-100,580.5864689474693,-0.0031151196477753537,0.00015017545565187057,0.9999951367266305,24.71652713102169,-1.7932937913213622,-1956.9609980870848,64.60873939606688,-89.92874145507812,6162.673828125,True
1598627772.1192355,0,5,0.5,0.5,-0.011150997924804689,-0.14,-0.011,-0.56,0.0025644166668006355,10,1,100,0.052373054254825836,-10,-1,-100,585.7729630253743,-0.0032864704355086588,0.00015877944535380148,0.9999945869359315,25.13644166468532,-1.8141140192144103,-1991.666931610216,65.20863434735324,-89.92813110351562,6159.3955078125,True
1598627772.170166,0,5,0.5,0.5,-0.010821487426757814,-0.14,-0.011,-0.56,0.0017128459765951471,10,1,100,0.035434445574463645,-10,-1,-100,585.7729630253743,-0.0032864704355086588,0.00015877944535380148,0.9999945869359315,25.13644166468532,-1.8141140192144103,-1991.666931610216,65.20863434735324,-89.92813110351562,6159.3955078125,True
1598627772.214509,0,5,0.5,0.5,-0.011429501342773438,-0.14,-0.011,-0.56,0.002510661760507125,10,1,100,0.049051113152621284,-10,-1,-100,591.0293984485324,-0.0034086813727286815,0.0001659607551630084,0.9999941766572078,25.549535016696694,-1.8342354852332798,-2024.047899516469,65.75447671353407,-89.92727661132812,6156.244140625,True
1598627772.2618117,0,5,0.5,0.5,-0.011299664306640625,-0.14,-0.011,-0.56,0.002119338586923777,10,1,100,0.04194000521362852,-10,-1,-100,593.7131288229721,-0.0034538172354758668,0.0001688696900588065,0.9999940212968934,25.740108044892974,-1.8431197003267406,-2038.2354945254292,66.00181309336713,-89.92678833007812,6154.728515625,True
1598627772.3062265,0,5,0.5,0.5,-0.011416824340820314,-0.14,-0.011,-0.56,0.002099430526929502,10,1,100,0.041075980557116074,-10,-1,-100,596.3415164820617,-0.0034858096477316286,0.00017127571393999702,0.99999390987932,25.933521545569207,-1.8521548834095252,-2052.570743337221,66.2492555502977,-89.92623901367188,6153.212890625,True
1598627772.3501546,0,5,0.5,0.5,-0.011542025756835937,-0.14,-0.011,-0.56,0.0020395975317921656,10,1,100,0.040197991344939205,-10,-1,-100,598.9696529797511,-0.0035058537412453474,0.00017286623811923116,0.9999938395344287,26.126395926441237,-1.8611790664478116,-2066.2082093579293,66.47034459298074,-89.92562866210938,6151.75927734375,True
1598627772.3975017,0,5,0.5,0.5,-0.01165377197265625,-0.14,-0.011,-0.56,0.0020764446773273485,10,1,100,0.03938033373671819,-10,-1,-100,601.6533135874197,-0.0035158496735979124,0.00017460557172308493,0.999993804137789,26.31046601080069,-1.8695759673866454,-2078.8370800198877,66.67955018952671,-89.92498779296875,6150.3330078125,True
1598627772.4781535,0,5,0.5,0.5,-0.011770025634765625,-0.14,-0.011,-0.56,0.0020000119122227603,10,1,100,0.03834049987042889,-10,-1,-100,604.3514366147574,-0.0035148078074347952,0.00017545459896392164,0.9999938076517076,26.490361988817348,-1.8776868877268293,-2090.8401418787216,66.87686729176177,-89.92431640625,6148.9345703125,True
1598627772.529257,0,5,0.5,0.5,-0.012382186889648438,-0.14,-0.011,-0.56,0.0020186486440124133,10,1,100,0.03496317342067995,-10,-1,-100,609.6779890332837,-0.003482594958439593,0.00017636312014033295,0.9999939201957206,26.837963458072142,-1.8930931953666736,-2113.1540609799345,67.24024888530171,-89.92291259765625,6146.21142578125,True
1598627772.6112401,0,5,0.5,0.5,-0.01211546325683594,-0.14,-0.011,-0.56,0.001932157452758751,10,1,100,0.034911246007086526,-10,-1,-100,612.3761848052964,-0.0034524108577772836,0.0001763741496667751,0.999994024857863,27.008410760462176,-1.900584542398499,-2123.8422645112737,67.41220418476509,-89.92218017578125,6144.873046875,True
1598627772.6565778,0,5,0.5,0.5,-0.012417480468750002,-0.14,-0.011,-0.56,0.0018289724727609856,10,1,100,0.03111756395207981,-10,-1,-100,616.4306582965655,-0.003390176119211485,0.00017542231424172927,0.9999942379498455,27.254354582392942,-1.9112106920282022,-2138.6033099639562,67.64547691898477,-89.92117309570312,6142.92333984375,True
1598627772.7061727,0,5,0.5,0.5,-0.012416589355468752,-0.14,-0.011,-0.56,0.0017231860227064151,10,1,100,0.02841454259861062,-10,-1,-100,620.5261840159073,-0.003308931884862218,0.00017358018442856612,0.9999945104047827,27.491599752904058,-1.9212943721048719,-2152.4927777717016,67.86596373637407,-89.92037963867188,6141.00390625,True
1598627772.78538,0,5,0.5,0.5,-0.012301214599609374,-0.14,-0.011,-0.56,0.0017068652086044802,10,1,100,0.029651602259251016,-10,-1,-100,623.2387758641271,-0.0032462990674147485,0.00017174369470742315,0.9999947160092739,27.646627388493492,-1.92784954429932,-2161.3241743429794,68.00183262949308,-89.919921875,6139.75,True
1598627772.835282,0,5,0.5,0.5,-0.012458840942382813,-0.14,-0.011,-0.56,0.001454281743610599,10,1,100,0.019908200474061784,-10,-1,-100,628.6906545752427,-0.003100931382874705,0.00016777268806139934,0.9999951780268161,27.94071850676634,-1.939973584176114,-2177.451751816757,68.25179775409666,-89.91934204101562,6137.2939453125,True
1598627772.9152133,0,5,0.5,0.5,-0.012249136352539063,-0.14,-0.011,-0.56,0.0015480345482584948,10,1,100,0.02535586698539584,-10,-1,-100,631.4033236122923,-0.0030186239887164306,0.0001650159775181744,0.9999954303290299,28.083606285791458,-1.9458108566644454,-2185.116843457489,68.36826618924138,-89.919189453125,6136.08544921875,True
1598627772.9685261,0,5,0.5,0.5,-0.012278253173828127,-0.14,-0.011,-0.56,0.001199013174981103,10,1,100,0.014252880066629038,-10,-1,-100,636.9250864946516,-0.0028432875544555877,0.0001593426461185589,0.999995945154681,28.357729061783303,-1.9568185481150664,-2199.3841221071375,68.5827589083988,-89.91903686523438,6133.71240234375,True
1598627773.052258,0,5,0.5,0.5,-0.012200054931640626,-0.14,-0.011,-0.56,0.0014142266158091521,10,1,100,0.021214674098210026,-10,-1,-100,639.6232326234458,-0.0027477821655844574,0.00015615385211916404,0.9999962126474006,28.489152896459615,-1.9620059964495942,-2206.0201001123646,68.68123063038992,-89.91903686523438,6132.546875,True
1598627773.1342247,0,5,0.5,0.5,-0.012206600952148438,-0.14,-0.011,-0.56,0.0009637695473184038,10,1,100,0.009319124046809346,-10,-1,-100,645.159527779906,-0.0025535159638779815,0.00014917665851489276,0.9999967286459226,28.74046995681334,-1.971723950630014,-2218.331886419157,68.86230160069927,-89.91903686523438,6130.25341796875,True
1598627773.1814585,0,5,0.5,0.5,-0.012233770751953126,-0.14,-0.011,-0.56,0.0008061151481579067,10,1,100,0.006166103247449272,-10,-1,-100,650.6957202889025,-0.002349120402190236,0.00014142442246450437,0.9999972308124001,28.97605078492444,-1.9805506899765422,-2229.443153518253,69.0260473385952,-89.91900634765625,6128.0,True
1598627773.23212,0,5,0.5,0.5,-0.012242340087890626,-0.14,-0.011,-0.56,0.0011569845024540929,10,1,100,0.015497092762050255,-10,-1,-100,653.4084470168455,-0.0022491638640216123,0.00013759841900109465,0.9999974611610711,29.091831892615364,-1.9848924755739186,-2234.875519607621,69.1024276114635,-89.91897583007812,6126.88671875,True
1598627773.3131607,0,5,0.5,0.5,-0.012314224243164064,-0.14,-0.011,-0.56,0.0011263402968843656,10,1,100,0.014359336547150584,-10,-1,-100,656.1618812974775,-0.0021490449064544624,0.00013387690101160254,0.9999976818387958,29.20163129401061,-1.988870179360472,-2239.743897936247,69.17048588520869,-89.91885375976562,6125.79296875,True
1598627773.359915,0,5,0.5,0.5,-0.012440676879882814,-0.14,-0.011,-0.56,0.0005678353100812926,10,1,100,0.0020859274551781083,-10,-1,-100,661.7536778476788,-0.0019475795271143555,0.0001254541533349728,0.9999980955958071,29.40498321791379,-1.9958389632150586,-2248.2168908538256,69.29333297112275,-89.9185791015625,6123.63623046875,True
1598627773.41015,0,5,0.5,0.5,-0.012438385009765627,-0.14,-0.011,-0.56,0.0009639562824343576,10,1,100,0.01114196426133656,-10,-1,-100,664.5363007286796,-0.001847994382640924,0.00012144196067860418,0.9999982850828355,29.503857062690198,-1.9991895794560735,-2252.339440042591,69.35227272433163,-89.91836547851562,6122.56396484375,True
1598627773.4941947,0,5,0.5,0.5,-0.01249136657714844,-0.14,-0.011,-0.56,0.0009339626939548874,10,1,100,0.010584018272968565,-10,-1,-100,667.3045122716576,-0.001753661382938799,0.00011756757267211826,0.9999984554236171,29.6001126910858,-2.002398402327031,-2256.246021697993,69.40661159957239,-89.91812133789062,6121.50244140625,True
1598627773.5445464,0,5,0.5,0.5,-0.012676425170898438,-0.14,-0.011,-0.56,0.00043734666540166207,10,1,100,-0.0009377886113570745,-10,-1,-100,672.8405869936105,-0.0015643852024429395,0.00010957635160245563,0.9999987703452248,29.7795557766004,-2.0080323745356443,-2263.143088915026,69.50666881784878,-89.91766357421875,6119.39990234375,True
1598627773.6256,0,5,0.5,0.5,-0.012592654418945314,-0.14,-0.011,-0.56,0.0007510478585479746,10,1,100,0.007808042776330428,-10,-1,-100,675.6088682103436,-0.0014731455407768386,0.00010521383386401582,0.9999989093855376,29.866218435564747,-2.0106893273762037,-2266.4392819469645,69.55406577488787,-89.91741943359375,6118.35546875,True
1598627773.6771462,0,5,0.5,0.5,-0.012756787109374999,-0.14,-0.011,-0.56,0.0003479557864944086,10,1,100,-0.001990617202083352,-10,-1,-100,681.2150077588158,-0.001302367250379966,9.763264327608771e-05,0.9999991471533424,30.031189454538602,-2.01552247791592,-2272.4873648068838,69.64154283780367,-89.9169921875,6116.283203125,True
1598627773.765244,0,5,0.5,0.5,-0.012647952270507815,-0.14,-0.011,-0.56,0.0006498517535482237,10,1,100,0.005774277945949525,-10,-1,-100,683.9830470226007,-0.0012190182285605664,9.353836172286328e-05,0.9999992526222874,30.109478310757336,-2.017694705660959,-2275.2340500749992,69.68181220843292,-89.91680908203125,6115.25537109375,True
1598627773.8476863,0,5,0.5,0.5,-0.012740124511718751,-0.14,-0.011,-0.56,0.0002894143473745024,10,1,100,-0.0022963692421655267,-10,-1,-100,689.5891891727224,-0.001071090050410355,8.659016416089089e-05,0.9999994226339569,30.25820309514516,-2.0215844240936813,-2280.2091536857665,69.7560613567828,-89.91653442382812,6113.21533203125,True
1598627773.8984852,0,5,0.5,0.5,-0.01265312194824219,-0.14,-0.011,-0.56,0.00024232594653238052,10,1,100,-0.0022438051549974383,-10,-1,-100,695.125514536514,-0.0009382495895678543,7.989539387717272e-05,0.9999995566521186,30.396866786819565,-2.02487012604415,-2284.5627721053875,69.82439804927871,-89.91644287109375,6111.189453125,True
1598627773.9839122,0,5,0.5,0.5,-0.012626000976562501,-0.14,-0.011,-0.56,0.000567908767123536,10,1,100,0.004694166721922897,-10,-1,-100,697.9636174645275,-0.0008817497461143602,7.682154019291572e-05,0.9999996083078413,30.46314385530862,-2.0263273376025284,-2286.4776132752986,69.85406655518445,-89.91641235351562,6110.1875,True
1598627774.032487,0,5,0.5,0.5,-0.012547509765625001,-0.14,-0.011,-0.56,0.00028271364932643016,10,1,100,-0.0007320818338349359,-10,-1,-100,703.5142834510189,-0.0007822088062500581,7.148631337345266e-05,0.9999996915194976,30.588293247852437,-2.028781702994652,-2289.838302291138,69.91031995250809,-89.91650390625,6108.1904296875,True
1598627774.0816362,0,5,0.5,0.5,-0.012558337402343751,-0.14,-0.011,-0.56,0.0005333637382723437,10,1,100,0.0042951538393838674,-10,-1,-100,706.3379277673084,-0.0007384786131489219,6.896380601886866e-05,0.9999997249466279,30.647783098160144,-2.0298157887793686,-2291.295173660764,69.93617831919724,-89.91656494140625,6107.1982421875,True
1598627774.16672,0,5,0.5,0.5,-0.012551773071289064,-0.14,-0.011,-0.56,0.000533243171430774,10,1,100,0.004602889691674312,-10,-1,-100,709.1205528770806,-0.0007025301415046131,6.671722886583232e-05,0.9999997510000749,30.705764174420736,-2.030752674276565,-2292.620780735681,69.96001716349656,-89.9166259765625,6106.2099609375,True
1598627774.2481835,0,5,0.5,0.5,-0.012544873046875002,-0.14,-0.011,-0.56,0.00032204502517188885,10,1,100,0.001413117701183424,-10,-1,-100,714.726581827621,-0.000641807359406628,6.280113043690605e-05,0.9999997920696443,30.814974040407776,-2.0321836324917246,-2294.7625459739506,70.00392828601127,-89.91668701171875,6104.2431640625,True
1598627774.2987561,0,5,0.5,0.5,-0.012558764648437502,-0.14,-0.011,-0.56,0.00034910381592762616,10,1,100,0.0026197116478577157,-10,-1,-100,720.3330401290441,-0.0005984125732355318,5.952955289126664e-05,0.9999998191792959,30.919475783032926,-2.033298203563212,-2296.5861743704804,70.0451654027453,-89.91671752929688,6102.2841796875,True
1598627774.3810892,0,5,0.5,0.5,-0.012597988891601564,-0.14,-0.011,-0.56,0.0005204462171610699,10,1,100,0.005313387323903406,-10,-1,-100,723.1010797262425,-0.0005842459401054428,5.8154580843691896e-05,0.9999998276373482,30.97069262077533,-2.0337820827186497,-2297.415262958673,70.06454574548557,-89.91668701171875,6101.30712890625,True
1598627774.4654884,0,5,0.5,0.5,-0.012645321655273439,-0.14,-0.011,-0.56,0.00042360015584221207,10,1,100,0.004861461794796106,-10,-1,-100,728.7072295760736,-0.0005679116063682723,5.606007666339105e-05,0.9999998371668244,31.068209993387672,-2.03440728356071,-2298.628318566133,70.09939886698606,-89.91659545898438,6099.36376953125,True
1598627774.516405,0,5,0.5,0.5,-0.0126583740234375,-0.14,-0.011,-0.56,0.00045465570301056067,10,1,100,0.006398185738403677,-10,-1,-100,734.3133837783244,-0.0005676243448419973,5.4472376278338426e-05,0.9999998374176684,31.16161193601811,-2.0347318726194588,-2299.464888881413,70.13118030107694,-89.91650390625,6097.427734375,True
1598627774.5983582,0,5,0.5,0.5,-0.012671224975585938,-0.14,-0.011,-0.56,0.000521677104657031,10,1,100,0.007017476339499333,-10,-1,-100,737.1514314815868,-0.0005734508086513154,5.3667495750424456e-05,0.9999998341369712,31.207809128322236,-2.034844750818776,-2299.814315762283,70.14610230143607,-89.91641235351562,6096.462890625,True
1598627774.648767,0,5,0.5,0.5,-0.012705438232421876,-0.14,-0.011,-0.56,0.00057978291790746,10,1,100,0.008850693926067677,-10,-1,-100,742.7576447366737,-0.0005957448436112409,5.348786438925815e-05,0.999999821113549,31.296999980568554,-2.034826022367644,-2300.1642222125943,70.1730160066087,-89.91629028320312,6094.53955078125,True
1598627774.696198,0,5,0.5,0.5,-0.012679937744140625,-0.14,-0.011,-0.56,0.0005965604151223409,10,1,100,0.008357372451980389,-10,-1,-100,745.5955726148095,-0.0006117874119035643,5.349829828633648e-05,0.9999998114270297,31.340876760198544,-2.0347499340787802,-2300.237264949277,70.18546647274381,-89.91622924804688,6093.5810546875,True
1598627774.7783487,0,5,0.5,0.5,-0.012646060180664062,-0.14,-0.011,-0.56,0.0006018653171510015,10,1,100,0.008822971468100895,-10,-1,-100,748.3782644832972,-0.0006307592117652689,5.35723627703838e-05,0.9999997996363894,31.38410249303244,-2.0346193012700544,-2300.2364715328963,70.1975977135277,-89.91622924804688,6092.62255859375,True
1598627774.8306196,0,5,0.5,0.5,-0.012667791748046877,-0.14,-0.011,-0.56,0.0006637481282127941,10,1,100,0.012020982755124445,-10,-1,-100,753.984416927211,-0.0006771770591591995,5.421625735030538e-05,0.9999997692458873,31.46998155486027,-2.0342753921709718,-2300.0424984027177,70.21893158447237,-89.91619873046875,6090.7138671875,True
1598627774.9112926,0,5,0.5,0.5,-0.012651171875000002,-0.14,-0.011,-0.56,0.0006738481730802013,10,1,100,0.010331806013357642,-10,-1,-100,756.8224673421355,-0.0007040419983033886,5.490479916858826e-05,0.9999997506551328,31.512608484913862,-2.0340628330915664,-2299.8747120351654,70.22916669583468,-89.91619873046875,6089.7607421875,True
1598627774.9624653,0,5,0.5,0.5,-0.012608984375,-0.14,-0.011,-0.56,0.0007651501353940612,10,1,100,0.014191840955219592,-10,-1,-100,762.4286823244765,-0.0007634993200523994,5.6367942598306263e-05,0.9999997069456787,31.597589145235034,-2.0335728258709156,-2299.3993525920296,70.24837556930254,-89.916259765625,6087.8583984375,True
1598627775.0442264,0,5,0.5,0.5,-0.012622305297851563,-0.14,-0.011,-0.56,0.0007159968522126742,10,1,100,0.011906674937403331,-10,-1,-100,765.2113130888902,-0.0007966271153469732,5.725409915121271e-05,0.9999996810535526,31.640149074259572,-2.0333100821718073,-2299.1044327424697,70.25738120420193,-89.91629028320312,6086.90869140625,True
1598627775.095392,0,5,0.5,0.5,-0.01257574462890625,-0.14,-0.011,-0.56,0.0008460048299878458,10,1,100,0.016134975661002058,-10,-1,-100,770.8730089737801,-0.000864989316579082,5.924240534425875e-05,0.9999996241418392,31.72551468705297,-2.032754478187122,-2298.3964158540252,70.27406201201964,-89.9163818359375,6085.013671875,True
1598627775.1421475,0,5,0.5,0.5,-0.012627249145507813,-0.14,-0.011,-0.56,0.0006997231643439721,10,1,100,0.011345393391965759,-10,-1,-100,772.2293819414917,-0.0008833250446077501,5.971723007873732e-05,0.9999996080852822,31.74693183426477,-2.032612849021104,-2298.1975542143496,70.27800972952967,-89.9163818359375,6084.54052734375,True
1598627775.225446,0,5,0.5,0.5,-0.012584658813476564,-0.14,-0.011,-0.56,0.0008786891912750055,10,1,100,0.015611991105059774,-10,-1,-100,776.4791651000269,-0.0009384941395712433,6.177108476054506e-05,0.9999995577064437,31.811386446498016,-2.0321737134221225,-2297.548540217172,70.28932385152685,-89.91644287109375,6083.1220703125,True
1598627775.3063917,0,5,0.5,0.5,-0.012554718017578126,-0.14,-0.011,-0.56,0.00097152191758891,10,1,100,0.018677553368311436,-10,-1,-100,782.0997825313825,-0.001016184752539507,6.447479235685112e-05,0.9999994816056405,31.897700362334056,-2.031565085388154,-2296.461162852373,70.30021846540612,-89.91653442382812,6081.2421875,True
1598627775.360202,0,5,0.5,0.5,-0.012541632080078125,-0.14,-0.011,-0.56,0.0009983999691240313,10,1,100,0.01960527350643819,-10,-1,-100,787.7060633498477,-0.0010948641838491458,6.716706616020537e-05,0.9999993983803211,31.9849769535895,-2.030965921850685,-2295.3432330083756,70.31255921290395,-89.9166259765625,6079.359375,True
1598627775.4412045,0,5,0.5,0.5,-0.012571102905273438,-0.14,-0.011,-0.56,0.0008853786811605061,10,1,100,0.01604550669194804,-10,-1,-100,790.5441138555761,-0.0011335902623880476,6.857469539279185e-05,0.9999993551351061,32.02987103770761,-2.0307261355907227,-2294.8209536637723,70.31877319759728,-89.91665649414062,6078.41796875,True
1598627775.489339,0,5,0.5,0.5,-0.012566360473632814,-0.14,-0.011,-0.56,0.0010803941834300111,10,1,100,0.02053158664433639,-10,-1,-100,796.1646734972019,-0.0012091212142172861,7.161358804975469e-05,0.9999992664484225,32.12078717316458,-2.0302878002636406,-2293.7233887774896,70.33029222427466,-89.91668701171875,6076.5380859375,True
1598627775.5703032,0,5,0.5,0.5,-0.012582913208007813,-0.14,-0.011,-0.56,0.0009310457378897971,10,1,100,0.017177019919022266,-10,-1,-100,798.9883814348141,-0.0012468060691455036,7.300268884144674e-05,0.9999992200723125,32.16709046573697,-2.0301058675322277,-2293.1758512725673,70.33575543639009,-89.91668701171875,6075.59912109375,True
1598627775.6222343,0,5,0.5,0.5,-0.012582376098632813,-0.14,-0.011,-0.56,0.001108148265151784,10,1,100,0.021166972120768606,-10,-1,-100,804.6090022556018,-0.0013168438990317206,7.585907809111861e-05,0.9999991300833946,32.260952312360935,-2.029793622056894,-2292.0558954101,70.34610300625374,-89.91668701171875,6073.7236328125,True
1598627775.7022645,0,5,0.5,0.5,-0.012581906127929688,-0.14,-0.011,-0.56,0.0010141256474337378,10,1,100,0.01803552674021473,-10,-1,-100,807.4470537799643,-0.0013515439276696288,7.758332530657187e-05,0.9999990836544999,32.30865154698588,-2.0296741329276276,-2291.495068569126,70.35096597639,-89.91668701171875,6072.7861328125,True
1598627775.753214,0,5,0.5,0.5,-0.0125814697265625,-0.14,-0.011,-0.56,0.0011218720211034073,10,1,100,0.021612515106443485,-10,-1,-100,813.0532094481168,-0.0014151030144767861,8.011185414838515e-05,0.99999899553227,32.405320056853945,-2.0294938777712046,-2290.359860060313,70.36011647441417,-89.91668701171875,6070.9150390625,True
1598627775.8313808,0,5,0.5,0.5,-0.012602496337890626,-0.14,-0.011,-0.56,0.001036175105262849,10,1,100,0.018732808757155977,-10,-1,-100,815.8357798076468,-0.0014462047504916811,8.16124816343884e-05,0.9999989509150609,32.45437173315769,-2.0294422448552822,-2289.7951944733945,70.36445129412496,-89.91665649414062,6069.9794921875,True
1598627775.879532,0,5,0.5,0.5,-0.012585104370117188,-0.14,-0.011,-0.56,0.0011730020542200566,10,1,100,0.02178462919963514,-10,-1,-100,821.5119429413462,-0.0015017111693405927,8.420066501986082e-05,0.9999988688862663,32.55385622798861,-2.0294119324450186,-2288.6767819592715,70.37269920769295,-89.91665649414062,6068.111328125,True
1598627775.9602587,0,5,0.5,0.5,-0.012584869384765626,-0.14,-0.011,-0.56,0.0010671839933984778,10,1,100,0.019209628231963066,-10,-1,-100,824.2799260552274,-0.0015282504349246123,8.55711861080402e-05,0.9999988285634039,32.60421609999209,-2.0294305528664647,-2288.1178704433873,70.37651723318469,-89.91665649414062,6067.1787109375,True
1598627776.0112479,0,5,0.5,0.5,-0.012563372802734377,-0.14,-0.011,-0.56,0.001188629547925152,10,1,100,0.02173347285320185,-10,-1,-100,829.956150479964,-0.0015748555677555416,8.790198632594469e-05,0.9999987560508171,32.706319326171425,-2.029547375057013,-2287.032636309279,70.38401955942759,-89.91668701171875,6065.3125,True
1598627776.0905147,0,5,0.5,0.5,-0.0125376708984375,-0.14,-0.011,-0.56,0.0010526594656513932,10,1,100,0.019541582233585097,-10,-1,-100,832.7387210972374,-0.0015968612361654101,8.87659540304912e-05,0.999998721076581,32.75801517823388,-2.0296422720005824,-2286.503200283991,70.3876075014986,-89.916748046875,6064.38134765625,True
1598627776.1382093,0,5,0.5,0.5,-0.012529025268554688,-0.14,-0.011,-0.56,0.0012025564516100862,10,1,100,0.021454980193983293,-10,-1,-100,838.4148846265161,-0.0016338397607472948,9.089572339912369e-05,0.9999986611519057,32.86246874929498,-2.0299048496493617,-2285.463721964899,70.39448689273961,-89.91680908203125,6062.5185546875,True
1598627776.1874988,0,5,0.5,0.5,-0.012520346069335938,-0.14,-0.011,-0.56,0.001102078242638169,10,1,100,0.019637033335995802,-10,-1,-100,841.1829288771842,-0.00165054370388864,9.190090989327273e-05,0.9999986336289186,32.91524802740727,-2.030070628893451,-2284.9583697128237,70.39778004521757,-89.9168701171875,6061.587890625,True
1598627776.26829,0,5,0.5,0.5,-0.012511599731445314,-0.14,-0.011,-0.56,0.0010648756383394692,10,1,100,0.01955375883909555,-10,-1,-100,844.0211017415859,-0.0016646050316500942,9.245933010246384e-05,0.9999986102697148,32.96833673831099,-2.0302592132270907,-2284.4586807003934,70.40090261529865,-89.91693115234375,6060.65771484375,True
1598627776.3193994,0,5,0.5,0.5,-0.012502786254882813,-0.14,-0.011,-0.56,0.0011781972711351727,10,1,100,0.02091824781415354,-10,-1,-100,849.6416636358481,-0.0016894763556313812,9.398209036167911e-05,0.9999985684174806,33.075333609451114,-2.030691796634296,-2283.5004478937954,70.40753166116664,-89.9169921875,6058.796875,True
1598627776.404465,0,5,0.5,0.5,-0.012515267944335938,-0.14,-0.011,-0.56,0.0011160304819326076,10,1,100,0.019598141277972547,-10,-1,-100,852.4796535719652,-0.0016997784703509406,9.478635727271049e-05,0.9999985508832991,33.12948919753153,-2.0309538115446926,-2283.055408054098,70.41081941057884,-89.91702270507812,6057.8671875,True
1598627776.4543061,0,5,0.5,0.5,-0.012489263916015627,-0.14,-0.011,-0.56,0.0011648051055840017,10,1,100,0.020344114910930897,-10,-1,-100,858.0858094721334,-0.0017156668117993667,9.594757422218412e-05,0.9999985236396373,33.238001016110935,-2.031502000453847,-2282.147862080327,70.41681851651195,-89.91708374023438,6056.009765625,True
1598627776.500373,0,5,0.5,0.5,-0.012501611328125,-0.14,-0.011,-0.56,0.001091869595247827,10,1,100,0.019446217482040125,-10,-1,-100,860.9239829585422,-0.0017217030891613764,9.632714399811511e-05,0.9999985132286717,33.292589614098766,-2.031801634156972,-2281.707017017591,70.41963026843779,-89.9171142578125,6055.08154296875,True
1598627776.5812569,0,5,0.5,0.5,-0.012518197631835938,-0.14,-0.011,-0.56,0.0010952524145949577,10,1,100,0.019346582433476922,-10,-1,-100,863.7066754056141,-0.0017260848482127918,9.669193626213696e-05,0.9999985056397664,33.3471660605176,-2.0321072548456387,-2281.262906310597,70.42239524886297,-89.9171142578125,6054.15380859375,True
1598627776.6305103,0,5,0.5,0.5,-0.012496331787109375,-0.14,-0.011,-0.56,0.0011269772875447618,10,1,100,0.019479217845264858,-10,-1,-100,869.3825939191738,-0.0017310941925364341,9.730186375610587e-05,0.9999984969214922,33.456848282059816,-2.0327647386899845,-2280.3940559221383,70.42727125983666,-89.91714477539062,6052.30078125,True
1598627776.7111628,0,5,0.5,0.5,-0.012512918090820313,-0.14,-0.011,-0.56,0.001093516763211044,10,1,100,0.019050771800775534,-10,-1,-100,872.1652872022241,-0.0017316111427673143,9.75436113681073e-05,0.999998496002916,33.51164123146873,-2.0330995825854856,-2279.958817853803,70.42967563685818,-89.91714477539062,6051.3740234375,True
1598627776.7631812,0,5,0.5,0.5,-0.012491119384765626,-0.14,-0.011,-0.56,0.0010803670767452617,10,1,100,0.01877444270668264,-10,-1,-100,877.826985600288,-0.0017294465149339956,9.763585963174911e-05,0.9999984997398701,33.621736513218316,-2.0338132958048827,-2279.138395813072,70.43460992545859,-89.91717529296875,6049.521484375,True
1598627776.8441453,0,5,0.5,0.5,-0.012507806396484376,-0.14,-0.011,-0.56,0.0010959441310376718,10,1,100,0.018696642389312425,-10,-1,-100,880.6097389898496,-0.001726684480605625,9.785520387750664e-05,0.9999985044914135,33.67686030885313,-2.0341837939442615,-2278.740141450236,70.43702787822288,-89.91717529296875,6048.595703125,True
1598627776.8912835,0,5,0.5,0.5,-0.012464746093750001,-0.14,-0.011,-0.56,0.0010589308949256696,10,1,100,0.01807075655013324,-10,-1,-100,886.2856593026081,-0.0017184144501539165,9.771271077810052e-05,0.9999985187509047,33.78710649101222,-2.034943704997136,-2277.965885341977,70.44191518700627,-89.917236328125,6046.7451171875,True
1598627776.9681637,0,5,0.5,0.5,-0.012498590087890627,-0.14,-0.011,-0.56,0.0010838866807571148,10,1,100,0.018270987183530044,-10,-1,-100,889.0682296889136,-0.0017126676014846034,9.780526657649389e-05,0.9999985286008257,33.84223332397224,-2.0353343797018817,-2277.5914756502293,70.44436860715658,-89.917236328125,6045.81982421875,True
1598627777.019621,0,5,0.5,0.5,-0.012476959228515626,-0.14,-0.011,-0.56,0.0010761779903567532,10,1,100,0.01817184921346856,-10,-1,-100,891.9064642322483,-0.0017065208563793479,9.781585359301655e-05,0.9999985391082458,33.897311255139634,-2.035727866300568,-2277.2231776875783,70.44683568607843,-89.91726684570312,6044.89453125,True
1598627777.1001842,0,5,0.5,0.5,-0.012472418212890626,-0.14,-0.011,-0.56,0.000996252840172417,10,1,100,0.0171527709067202,-10,-1,-100,897.5271466664271,-0.00169166242859865,9.709613179152474e-05,0.9999985644242539,34.00723771892516,-2.036521109690757,-2276.490363141076,70.45138242905496,-89.91729736328125,6043.0458984375,True
1598627777.1893003,0,5,0.5,0.5,-0.012446548461914064,-0.14,-0.011,-0.56,0.0010026712423795046,10,1,100,0.016735117974313797,-10,-1,-100,903.1886011598399,-0.0016743797443063218,9.649914421244266e-05,0.9999985935692045,34.11665024333957,-2.0373050156043133,-2275.767398196842,70.45593975587975,-89.9173583984375,6041.1982421875,True
1598627777.2400026,0,5,0.5,0.5,-0.012416372680664063,-0.14,-0.011,-0.56,0.0009512552047904483,10,1,100,0.01637247898059592,-10,-1,-100,908.8093447596766,-0.0016554145162293655,9.548885334409087e-05,0.9999986252413842,34.22556893151919,-2.0380817059321004,-2275.0551464838577,70.46034328297416,-89.91744995117188,6039.3515625,True
1598627777.32152,0,5,0.5,0.5,-0.012445910644531252,-0.14,-0.011,-0.56,0.0010004688409708845,10,1,100,0.017192690339211916,-10,-1,-100,911.6473349736771,-0.0016456941124486264,9.50188975044278e-05,0.9999986413302258,34.27980100009858,-2.038465174617328,-2274.701224994903,70.46249515867275,-89.91748046875,6038.4287109375,True
1598627777.3732796,0,5,0.5,0.5,-0.012441268920898437,-0.14,-0.011,-0.56,0.0009791091617625829,10,1,100,0.015988068460100667,-10,-1,-100,917.2679567331215,-0.0016259839101833867,9.439956144488742e-05,0.9999986736316435,34.38749817393409,-2.039201068111306,-2273.974325323591,70.46658687126515,-89.91751098632812,6036.58447265625,True
1598627777.452671,0,5,0.5,0.5,-0.012457955932617188,-0.14,-0.011,-0.56,0.0009824798450464613,10,1,100,0.016841073829940458,-10,-1,-100,920.1061301536392,-0.0016159161635158794,9.3870029465998e-05,0.999998690000827,34.44102558129412,-2.0395566808488086,-2273.607380934919,70.46859256327798,-89.91751098632812,6035.662109375,True
1598627777.4980137,0,5,0.5,0.5,-0.012436224365234375,-0.14,-0.011,-0.56,0.0009095728461953671,10,1,100,0.01565639956063397,-10,-1,-100,925.7266909464961,-0.001596097109871194,9.272926934123925e-05,0.9999987219368324,34.54744191850454,-2.040244294841441,-2272.8672885038222,70.4725402028804,-89.91754150390625,6033.81884765625,True
1598627777.5442002,0,5,0.5,0.5,-0.012431549072265626,-0.14,-0.011,-0.56,0.0009550759716438684,10,1,100,0.016517478144129252,-10,-1,-100,928.5646810757462,-0.0015860264912902866,9.211053939965974e-05,0.9999987380170124,34.60032948546253,-2.040573106474556,-2272.4941373729393,70.47448516294403,-89.91757202148438,6032.8984375,True
1598627777.6292572,0,5,0.5,0.5,-0.012448269653320314,-0.14,-0.011,-0.56,0.0009843724392825462,10,1,100,0.01648289422313419,-10,-1,-100,931.3474343474954,-0.0015766773368975644,9.181948204164675e-05,0.9999987528281014,34.653028191481695,-2.04089543949793,-2272.11898102282,70.47635845867632,-89.91757202148438,6031.97705078125,True
1598627777.6774855,0,5,0.5,0.5,-0.01240517578125,-0.14,-0.011,-0.56,0.0008398657314733245,10,1,100,0.01534417731327498,-10,-1,-100,937.0235374676995,-0.0015579497612369033,9.024662872203733e-05,0.9999987823233024,34.757539521251985,-2.0414935609676292,-2271.3437459673873,70.48000262565273,-89.91763305664062,6030.13671875,True
1598627777.7572908,0,5,0.5,0.5,-0.01243895263671875,-0.14,-0.011,-0.56,0.0009414162176485818,10,1,100,0.016200180115093273,-10,-1,-100,939.8061687517911,-0.0015488416007393253,8.97468294193229e-05,0.999998796516877,34.80950155405403,-2.04178033008752,-2270.955088368144,70.48183215562608,-89.91763305664062,6029.21630859375,True
