Timestamp,Input Throttle,horizon,dT,dt,Input Roll,Roll P,Roll I,Roll D,Input Pitch,Pitch P,Pitch I,Pitch D,Input Yaw,Yaw P,Yaw I,Yaw D,Altitude,Direction X,Direction Y,Direction Z,Drag X,Drag Y,Drag Z,Vertical Velocity,Roll,Mass,Has Fuel
1598628989.0438204,0,5,0.5,0.5,-0.009501953125,-0.14,-0.011,-0.56,0.004336088339757084,10,1,100,0.12648385162559436,-10,-1,-100,478.51573229092173,-0.011740866222041301,0.00041431198347389466,0.9999309878216278,5.398777006243834,-0.4421119545131088,112.66939379348484,-14.239951531495356,-89.922119140625,6440.1796875,True
1598628989.0920045,0,5,0.5,0.5,-0.009429541015625003,-0.14,-0.011,-0.56,0.004269899258083317,10,1,100,0.12341276386214173,-10,-1,-100,477.6638959334232,-0.011784775449491525,0.00041508787642841266,0.9999304709676868,5.585834118264873,-0.4578983624684838,121.47231815823467,-14.823335354281607,-89.92434692382812,6440.1796875,True
1598628989.1438534,0,5,0.5,0.5,-0.008752261352539065,-0.14,-0.011,-0.56,0.0040695390053394,10,1,100,0.11746067392190862,-10,-1,-100,477.07661982951686,-0.011759869588217344,0.00041359442420173123,0.9999307648067043,6.0311185172762585,-0.4916250584281041,127.54738432910912,-14.566542006380235,-89.92721557617188,6438.60107421875,True
1598628989.2008517,0,5,0.5,0.5,-0.0068285400390625,-0.14,-0.011,-0.56,0.004096814059869795,10,1,100,0.11759112598380861,-10,-1,-100,476.50644883466884,-0.011727723033450618,0.0004121087004693865,0.9999311429687894,5.8726941254242435,-0.4731388038750179,114.05196588891971,-13.66367954975918,-89.932373046875,6435.443359375,True
1598628989.246716,0,5,0.5,0.5,-0.004535986328124999,-0.14,-0.011,-0.56,0.004009303228551947,10,1,100,0.11487445579069071,-10,-1,-100,475.97548723965883,-0.011663140324603931,0.00040958784524575684,0.9999318993789355,5.709281226602202,-0.45477858984297564,101.41959132848937,-12.760270159044167,-89.93988037109375,6432.28515625,True
1598628989.300281,0,5,0.5,0.5,-0.001991644287109375,-0.14,-0.011,-0.56,0.003877611015940234,10,1,100,0.11104307722505558,-10,-1,-100,475.5146647146903,-0.011558995202033347,0.0004057266041594,0.9999331102708031,5.527897938943712,-0.4355198659117316,89.41225845335232,-11.856318299768141,-89.94961547851562,6429.126953125,True
1598628989.3528185,0,5,0.5,0.5,0.00042668762207031304,-0.14,-0.011,-0.56,0.0037239458538680815,10,1,100,0.10708991978378564,-10,-1,-100,475.0700129290344,-0.011417871845501242,0.0004004505866037293,0.9999347337910848,5.334851797627014,-0.4158815078336575,78.15281019735455,-10.95181629769591,-89.9609375,6425.9697265625,True
1598628989.4089608,0,5,0.5,0.5,0.002631033325195313,-0.14,-0.011,-0.56,0.0036030913952033866,10,1,100,0.10284447952265957,-10,-1,-100,474.6520328124752,-0.011240603090056816,0.0003941914841228917,0.9999367447270081,5.129144675522271,-0.39579072393409126,67.62634345348064,-10.04677314124941,-89.97320556640625,6422.8115234375,True
1598628989.4598064,0,5,0.5,0.5,0.0045540740966796885,-0.14,-0.011,-0.56,0.003438219647518154,10,1,100,0.09829916121971588,-10,-1,-100,474.2610301974928,-0.011027909870453254,0.00038664420099397093,0.9999391160016448,4.911244062506281,-0.3752904772498842,57.839089836712894,-9.141192342883118,-89.98580932617188,6419.654296875,True
1598628989.5201192,0,5,0.5,0.5,0.006132092285156251,-0.14,-0.011,-0.56,0.003276884819879958,10,1,100,0.09351026317099832,-10,-1,-100,473.9393319870578,-0.010780991588670352,0.0003779648595337012,0.9999418119885426,4.681919021602492,-0.3544363519236297,48.79614161344462,-8.23502667254314,-89.9981689453125,6416.49609375,True
1598628989.5777822,0,5,0.5,0.5,0.0073050048828125005,-0.14,-0.011,-0.56,0.0030599281684240854,10,1,100,0.08851286108633281,-10,-1,-100,473.6338986577466,-0.01050128859392651,0.0003677586115024629,0.9999447923217913,4.442358003355802,-0.333312416113019,40.50217982809354,-7.328258603030703,-90.00973510742188,6413.33837890625,True
1598628989.676779,0,5,0.5,0.5,0.008182174682617189,-0.14,-0.011,-0.56,0.002884394480664695,10,1,100,0.08214878375927964,-10,-1,-100,473.3715556715615,-0.010190284784484456,0.0003569267646507713,0.9999480139983757,4.194788831008992,-0.3120743061340541,32.96443438362029,-6.420907117064298,-90.02010345458984,6410.1806640625,True
1598628989.822794,0,5,0.5,0.5,0.013536225128173828,-0.14,-0.011,-0.56,0.0011576312687723769,10,1,100,0.03483587234488161,-10,-1,-100,472.9429676492,-0.009478886209101704,0.00033143465750637386,0.9999550194220251,3.696968366566363,-0.2707553985376251,20.20527373725069,-4.604429632729675,-90.03589630126953,6403.86474609375,True
1598628989.9080534,0,5,0.5,0.5,0.00842200927734375,-0.14,-0.011,-0.56,0.0021605398711040144,10,1,100,0.06200358113264928,-10,-1,-100,472.7859696933301,-0.00908121302353265,0.00031745205627511415,0.9999587145448623,3.478434671015705,-0.25292257799497964,15.042384827420834,-3.695290729654636,-90.04105377197266,6400.70751953125,True
1598628990.0878837,0,5,0.5,0.5,0.006897728729248047,-0.14,-0.011,-0.56,0.00025020234817413854,10,1,100,0.009683258340863615,-10,-1,-100,472.5812267798465,-0.008246458565826292,0.0002874599473511467,0.9999659560644558,3.699162459146275,-0.2654602888087861,7.90875599032311,-1.8751802829207698,-90.04283142089844,6394.3916015625,True
1598628990.1335976,0,5,0.5,0.5,-0.000243663787841796,-0.14,-0.011,-0.56,-0.00038406432748208826,10,1,100,-0.008641387781218507,-10,-1,-100,472.52226676081773,-0.007324109259309564,0.00025453935845784205,0.9999731459560665,14.160124292858278,-1.0044902167850123,0.829484124831746,-0.05257837386172001,-90.03388977050781,6388.076171875,True
1598628990.1818101,0,5,0.5,0.5,-0.0003613807678222655,-0.14,-0.011,-0.56,0.0010334356777675449,10,1,100,0.031986467242346814,-10,-1,-100,472.5475815956015,-0.006858803922638336,0.000237635357007745,0.9999764498917901,0.7053488728629018,-0.04977530986409543,-0.6685881964903974,0.8596996860254218,-90.02643585205078,6384.91796875,True
1598628990.227885,0,5,0.5,0.5,-0.001931025695800781,-0.14,-0.011,-0.56,0.0008800459066996059,10,1,100,0.025975701755823567,-10,-1,-100,472.60924339154735,-0.006385300355716883,0.00022102164434303548,0.9999795893361023,1.0743937857895198,-0.07545731599433461,-2.0797801120311896,1.7726413867997102,-90.01812744140625,6381.759765625,True
1598628990.3147628,0,5,0.5,0.5,-0.003071492004394532,-0.14,-0.011,-0.56,0.0005744496089041752,10,1,100,0.018488289892176255,-10,-1,-100,472.70758720859885,-0.005891189098604532,0.00020329754815859552,0.9999826261296301,1.8445447570498046,-0.12898085424895947,-5.363222820295333,2.6862134026392295,-90.00978088378906,6378.6025390625,True
1598628990.360638,0,5,0.5,0.5,-0.009404681396484375,-0.14,-0.011,-0.56,-0.0015078129403080232,10,1,100,-0.04195949628812255,-10,-1,-100,473.0138352330541,-0.004897141463928632,0.00016842175268248045,0.9999879947477346,2.930434558993423,-0.20335213637213637,-14.102804494398946,4.515229372129342,-89.9940185546875,6372.287109375,True
1598628990.4109488,0,5,0.5,0.5,-0.0055170349121093755,-0.14,-0.011,-0.56,-3.439509977519505e-05,10,1,100,0.0012037309319410522,-10,-1,-100,473.23861518863123,-0.004391203725428157,0.00015030168544253903,0.9999903473230354,3.401942889145779,-0.23529918358273308,-19.56143146900775,5.43066707030235,-89.98696899414062,6369.12890625,True
1598628990.4580452,0,5,0.5,0.5,-0.005460900878906251,-0.14,-0.011,-0.56,-0.00013252417924758267,10,1,100,-0.002412075712020449,-10,-1,-100,473.479875197052,-0.003903943979908529,0.00013313450261653414,0.9999923707192001,3.859718537713266,-0.26618253094474514,-25.784982371513067,6.346720323442391,-89.9814453125,6365.97119140625,True
1598628990.510827,0,5,0.5,0.5,-0.005101813507080078,-0.14,-0.011,-0.56,-0.0004134795612163555,10,1,100,-0.010018245206713877,-10,-1,-100,473.74789988726843,-0.003397548434761268,0.00011517728044957198,0.9999942216827193,4.310859940045118,-0.2965284992337191,-32.787769612547706,7.263381613258749,-89.97760009765625,6362.8134765625,True
1598628990.554742,0,5,0.5,0.5,-0.0047216033935546875,-0.14,-0.011,-0.56,-0.0005958753754481268,10,1,100,-0.014570336995603547,-10,-1,-100,474.0749459558865,-0.0029013346845232525,9.739098687482374e-05,0.9999957863771448,4.758376889619584,-0.326573430659163,-40.578843675896884,8.180646417218721,-89.97515869140625,6359.6552734375,True
1598628990.6027713,0,5,0.5,0.5,-0.004260030364990235,-0.14,-0.011,-0.56,-0.0007269487349691097,10,1,100,-0.019689366264396505,-10,-1,-100,474.4287264361046,-0.0024093127167169473,8.023010860158939e-05,0.9999970943834601,5.203481194868777,-0.35642914514193635,-49.164845006850314,9.098515182476168,-89.97396850585938,6356.49755859375,True
1598628990.6537251,0,5,0.5,0.5,-0.0036479133605957035,-0.14,-0.011,-0.56,-0.00097177168670898,10,1,100,-0.024597294515808363,-10,-1,-100,474.8094538577134,-0.0019227089853793887,6.259203773624075e-05,0.9999981496344852,5.646416113576624,-0.3861410492587231,-58.549875686631616,10.017003493173032,-89.9739990234375,6353.33935546875,True
1598628990.7007906,0,5,0.5,0.5,-0.0029832023620605472,-0.14,-0.011,-0.56,-0.0010575824412915632,10,1,100,-0.029324185715889666,-10,-1,-100,475.2327846789267,-0.0014422805825935329,4.595182765401088e-05,0.9999989588570333,6.087063970520422,-0.4157264137022851,-68.73743869118478,10.936092258736545,-89.97506713867188,6350.18212890625,True
1598628990.7487826,0,5,0.5,0.5,-0.002249302673339844,-0.14,-0.011,-0.56,-0.0012497721560076698,10,1,100,-0.03374344629106818,-10,-1,-100,475.6992986968253,-0.0009702765051411727,2.9251442472158873e-05,0.9999995288538175,6.525022627889771,-0.44517946913493317,-79.72970586227338,11.855777326200242,-89.97705078125,6347.02392578125,True
1598628990.7947898,0,5,0.5,0.5,-0.001504081726074219,-0.14,-0.011,-0.56,-0.0014269448412729147,10,1,100,-0.037883939896562566,-10,-1,-100,476.19245482748374,-0.0005084637872714196,1.263294989703744e-05,0.9999998706524845,6.95978251672049,-0.4744897136932917,-91.52836130837166,12.776055740378903,-89.97976684570312,6343.8662109375,True
1598628990.8449225,0,5,0.5,0.5,-0.00077232666015625,-0.14,-0.011,-0.56,-0.0015139221931530036,10,1,100,-0.041757181645344484,-10,-1,-100,476.7551305470988,-5.8316141774838616e-05,-3.0921423717450757e-06,0.9999999982948331,7.390840382735107,-0.50364475302451,-104.13539821457772,13.696923343988658,-89.9830322265625,6340.70849609375,True
1598628990.8969188,0,5,0.5,0.5,-9.227294921874962e-05,-0.14,-0.011,-0.56,-0.0016776837989987002,10,1,100,-0.04531222640916463,-10,-1,-100,477.3341639320133,0.00037882864714573294,-1.8720500946458947e-05,0.9999999280691969,7.81759354714862,-0.5326231562024138,-117.55141291374518,14.618371843218517,-89.98663330078125,6337.55078125,True
1598628990.9408746,0,5,0.5,0.5,0.0005396820068359377,-0.14,-0.011,-0.56,-0.0017754929521739643,10,1,100,-0.04851218370000536,-10,-1,-100,477.9399009832414,0.0008009871284697374,-3.36636172374385e-05,0.9999996786431389,8.239459516656666,-0.5614033010348762,-131.77671992081946,15.540393547626799,-89.99041748046875,6334.392578125,True
1598628990.9892595,0,5,0.5,0.5,0.001079336547851563,-0.14,-0.011,-0.56,-0.001896576021386355,10,1,100,-0.05151636624686094,-10,-1,-100,478.5884237807477,0.0012078011063644484,-4.8197388931301674e-05,0.9999992694464829,8.65588907986702,-0.5899667339480759,-146.81177618731257,16.462999415047285,-89.99420166015625,6331.2353515625,True
1598628991.0411916,0,5,0.5,0.5,0.0014671661376953128,-0.14,-0.011,-0.56,-0.0019615877198393603,10,1,100,-0.05411316009038353,-10,-1,-100,479.2638330862392,0.001597052530717913,-6.185240166676745e-05,0.9999987227979317,9.066370995118367,-0.6182916711231289,-162.6566440668414,17.386189936592523,-89.99775695800781,6328.0771484375,True
1598628991.089747,0,5,0.5,0.5,0.0017120559692382815,-0.14,-0.011,-0.56,-0.002069801033378467,10,1,100,-0.05646410309905034,-10,-1,-100,479.98218040389474,0.001968200228195087,-7.510504028705404e-05,0.999998060271666,9.470438623748874,-0.6463611709617,-179.31109109251312,18.30995202662002,-90.00091552734375,6324.9189453125,True
1598628991.1419277,0,5,0.5,0.5,0.001826078796386719,-0.14,-0.011,-0.56,-0.002137551452582512,10,1,100,-0.05845660420653365,-10,-1,-100,480.74325284571387,0.0023197413151106283,-8.762759270836167e-05,0.999997305557188,9.867594193902605,-0.6741525826175063,-196.77316970216077,19.23428244042659,-90.0035629272461,6321.76171875,True
1598628991.1898987,0,5,0.5,0.5,0.0017699455261230472,-0.14,-0.011,-0.56,-0.0021761985346282547,10,1,100,-0.06017992448473196,-10,-1,-100,481.55782271164935,0.0026511338963806593,-9.922650508228936e-05,0.9999964808153897,10.257459329037355,-0.7016522426385394,-215.04187668687823,20.159178084370414,-90.00555419921875,6318.603515625,True
1598628991.2399702,0,5,0.5,0.5,0.0012010643005371095,-0.14,-0.011,-0.56,-0.0016458137320690485,10,1,100,-0.044761855291327785,-10,-1,-100,481.9652303343173,0.002808514328068855,-0.00010481731055101602,0.9999960506225014,10.449557957811924,-0.7152867726911643,-224.47838938750562,20.62183661358016,-90.00628662109375,6317.0244140625,True
1598628991.29205,0,5,0.5,0.5,0.0015867698669433596,-0.14,-0.011,-0.56,-0.002839417051045373,10,1,100,-0.07787613248948426,-10,-1,-100,483.24631918244995,0.0032491910670111733,-0.00012062891955598578,0.9999947140890665,11.014096655572194,-0.755717762024316,-253.9936761156565,22.010649316598908,-90.00737762451172,6312.2880859375,True
1598628991.3439841,0,5,0.5,0.5,0.0008833465576171878,-0.14,-0.011,-0.56,-0.002333574980746031,10,1,100,-0.06419986587037094,-10,-1,-100,484.14694826165214,0.0035220605378265394,-0.00013028339813100698,0.9999937890386139,11.380373986644377,-0.7822622732156003,-274.6727272059076,22.937218085894855,-90.0072021484375,6309.1298828125,True
1598628991.3939066,0,5,0.5,0.5,0.0003993743896484376,-0.14,-0.011,-0.56,-0.002287920079565197,10,1,100,-0.06339265620767379,-10,-1,-100,485.1170051166555,0.003759530535561806,-0.0001385295238650557,0.999992923344822,11.738395709984083,-0.8084685939948584,-296.15199683113804,23.8643380608391,-90.00633239746094,6305.97265625,True
1598628991.4468205,0,5,0.5,0.5,-0.0002027359008789063,-0.14,-0.011,-0.56,-0.00231516150074353,10,1,100,-0.0644254797554786,-10,-1,-100,486.08715307945386,0.003981728291311714,-0.00014616473379497702,0.9999920622063381,12.087893241659632,-0.8343180123369448,-318.42436246428053,24.792006820683003,-90.00474548339844,6302.814453125,True
1598628991.5010722,0,5,0.5,0.5,-0.0008043457031250001,-0.14,-0.011,-0.56,-0.002349477940602646,10,1,100,-0.06414204985102089,-10,-1,-100,487.1001475774683,0.004178258032713976,-0.00015331552762402697,0.9999912592888804,12.428940961570072,-0.8598180457597169,-341.4881953955941,25.720220281065988,-90.00259399414062,6299.65673828125,True
1598628991.5467913,0,5,0.5,0.5,-0.0014434600830078126,-0.14,-0.011,-0.56,-0.002288073304113728,10,1,100,-0.06366862536359258,-10,-1,-100,488.18281343812123,0.004349917159624549,-0.00015916246337445246,0.9999905263991328,12.761554315409171,-0.8849598475566667,-365.3394429286435,26.648975855106087,-89.99994659423828,6296.49853515625,True
1598628991.595983,0,5,0.5,0.5,-0.002100078582763672,-0.14,-0.011,-0.56,-0.0022849339474716544,10,1,100,-0.06300568791147027,-10,-1,-100,489.2656625403324,0.004497441603043133,-0.00016436085621290435,0.9999898729509896,13.085835345208404,-0.9097496322761804,-389.97480187160596,27.578268940256052,-89.99688720703125,6293.3408203125,True
1598628991.6479006,0,5,0.5,0.5,-0.002719744110107422,-0.14,-0.011,-0.56,-0.002224535452447952,10,1,100,-0.06206330975867807,-10,-1,-100,490.39117455203086,0.004620688348966601,-0.00016845644900589436,0.9999893103736692,13.401952422620022,-0.9341884728738726,-415.3904816526305,28.508097631231415,-89.99356079101562,6290.18359375,True
1598628991.6957989,0,5,0.5,0.5,-0.003281893920898438,-0.14,-0.011,-0.56,-0.002190783913998741,10,1,100,-0.060878941582657366,-10,-1,-100,491.57045802276116,0.004719872091811514,-0.00017179940223516741,0.9999888465840019,13.710106551096297,-0.9582815601405343,-441.58199293389515,29.43845916455447,-89.9901123046875,6287.025390625,True
1598628991.7467697,0,5,0.5,0.5,-0.0037816680908203133,-0.14,-0.011,-0.56,-0.0021339181430450843,10,1,100,-0.059472324339756695,-10,-1,-100,492.7655799720669,0.004795371030193765,-0.00017425551371024343,0.9999884869595743,14.010594730869174,-0.9820374159212998,-468.5458268315769,30.369349906882785,-89.98666381835938,6283.8681640625,True
1598628991.7952018,0,5,0.5,0.5,-0.004200592041015626,-0.14,-0.011,-0.56,-0.002086705593537358,10,1,100,-0.05779480296004957,-10,-1,-100,494.0037923634518,0.0048469500009965414,-0.00017599601168918845,0.9999882379813735,14.303734306877002,-1.005460749492572,-496.27681727572605,31.30076632086041,-89.98333740234375,6280.7099609375,True
1598628991.8457463,0,5,0.5,0.5,-0.004543198394775391,-0.14,-0.011,-0.56,-0.0019793379274026224,10,1,100,-0.055925775765472543,-10,-1,-100,495.2952883859398,0.00487539631001747,-0.00017655187916688342,0.9999880995993173,14.589908501497282,-1.0285720337070552,-524.7703914496174,32.232705669051676,-89.980224609375,6277.5517578125,True
1598628991.8977768,0,5,0.5,0.5,-0.004816403961181641,-0.14,-0.011,-0.56,-0.0019149004301967432,10,1,100,-0.05383806193394476,-10,-1,-100,496.60323272505775,0.0048810470690478875,-0.00017642935555288369,0.9999880720549581,14.869586982451882,-1.0513798839416266,-554.0234043387132,33.165165602176934,-89.97738647460938,6274.39453125,True
1598628991.9477923,0,5,0.5,0.5,-0.00498923568725586,-0.14,-0.011,-0.56,-0.0018363113000184595,10,1,100,-0.05155994377253067,-10,-1,-100,497.96452114067506,0.004864454397123152,-0.0001755690694188197,0.999988153059285,15.14322425245747,-1.0738995412535095,-584.0298448734776,34.098142085394684,-89.97491455078125,6271.236328125,True
1598628991.996026,0,5,0.5,0.5,-0.005090409088134767,-0.14,-0.011,-0.56,-0.0017322929469053643,10,1,100,-0.04909398634910993,-10,-1,-100,499.3421061068075,0.004826149876882466,-0.00017381463850898443,0.9999883389649287,15.411369276925834,-1.0961512467575931,-614.785946357469,35.03163301990191,-89.97283935546875,6268.07861328125,True
1598628992.0447423,0,5,0.5,0.5,-0.005157318878173829,-0.14,-0.011,-0.56,-0.0016315518865935362,10,1,100,-0.04647287887995182,-10,-1,-100,500.78914848552085,0.004766910343449343,-0.00017128523794185852,0.9999886235488605,15.674606211135371,-1.1181500372378923,-646.287215420968,35.96563450745808,-89.97113037109375,6264.9208984375,True
1598628992.0960317,0,5,0.5,0.5,-0.0051292022705078134,-0.14,-0.011,-0.56,-0.0015443331108791047,10,1,100,-0.04367891425867257,-10,-1,-100,502.2364044333808,0.00468727745905867,-0.00016818186421564248,0.9999890005119468,15.93357691762151,-1.1399246193237131,-678.5305857958863,36.90014268988332,-89.9698486328125,6261.7626953125,True
1598628992.147151,0,5,0.5,0.5,-0.005103402709960939,-0.14,-0.011,-0.56,-0.001412838732380561,10,1,100,-0.04072913651033424,-10,-1,-100,503.75308730150573,0.004587895188394968,-0.0001641617382890932,0.9999894620788081,16.188903882068047,-1.1614915201791793,-711.510874801999,37.83515794289788,-89.96890258789062,6258.60498046875,True
1598628992.1967745,0,5,0.5,0.5,-0.005006625366210939,-0.14,-0.011,-0.56,-0.0013156497756271661,10,1,100,-0.037711409439154395,-10,-1,-100,505.2965032942593,0.004470143599108669,-0.000159627446667851,0.9999899961176021,16.441290570443105,-1.1828795394543867,-745.2253632256101,38.77067654741465,-89.96832275390625,6255.44677734375,True
1598628992.2468262,0,5,0.5,0.5,-0.004940872192382813,-0.14,-0.011,-0.56,-0.001186311850007656,10,1,100,-0.03453214707788714,-10,-1,-100,506.8563984888606,0.004334421340557516,-0.000154340629466151,0.999990594441074,16.69145361199161,-1.2041139024713623,-779.6708806853111,39.70669515643412,-89.96798706054688,6252.2890625,True
1598628992.2965183,0,5,0.5,0.5,-0.004837515258789063,-0.14,-0.011,-0.56,-0.0010593273317238902,10,1,100,-0.03129035478330364,-10,-1,-100,508.4855075945379,0.004181985675278105,-0.00014839813173861142,0.9999912444485732,16.940137765970434,-1.225221557616516,-814.8444416266483,40.643210248124866,-89.9678955078125,6249.13134765625,True
1598628992.3478477,0,5,0.5,0.5,-0.0047605072021484375,-0.14,-0.011,-0.56,-0.0009200865465638253,10,1,100,-0.027988081379624365,-10,-1,-100,510.14159383182414,0.004013991643468573,-0.00014175512473934808,0.9999919338557539,17.188075046151816,-1.2462279755117296,-850.7427740892388,41.58021902452103,-89.96795654296875,6245.9736328125,True
1598628992.3967347,0,5,0.5,0.5,-0.004722732543945313,-0.14,-0.011,-0.56,-0.0007895368868596746,10,1,100,-0.024533069165997536,-10,-1,-100,511.84055743471254,0.003830643689578345,-0.0001345608457921869,0.9999926540041693,17.436034918449977,-1.2671612400576717,-887.363262608395,42.517719223512835,-89.96807861328125,6242.81591796875,True
1598628992.445793,0,5,0.5,0.5,-0.00471588134765625,-0.14,-0.011,-0.56,-0.000681412146835454,10,1,100,-0.02111026114455097,-10,-1,-100,513.5560001822887,0.003633802207100868,-0.0001270757023034208,0.9999933896447945,17.68478140885904,-1.288052980845832,-924.7038697015921,43.45570742716975,-89.96820068359375,6239.658203125,True
1598628992.4933183,0,5,0.5,0.5,-0.004748901367187501,-0.14,-0.011,-0.56,-0.000549260941648474,10,1,100,-0.017653683039086515,-10,-1,-100,515.3244825808797,0.003424550742244414,-0.00011911373669112945,0.9999941291148321,17.935145590528023,-1.3089360559476564,-962.765311518996,44.39418052809858,-89.96826171875,6236.5,True
1598628992.5440931,0,5,0.5,0.5,-0.004830841064453126,-0.14,-0.011,-0.56,-0.00038549120221185486,10,1,100,-0.014141366716910894,-10,-1,-100,517.1359940327238,0.0032036661704775305,-0.00011043649841400246,0.9999948621502254,18.187862271506532,-1.3298332015984942,-1001.5442294513917,45.33313627832297,-89.96820068359375,6233.34228515625,True
1598628992.5927315,0,5,0.5,0.5,-0.004949420166015625,-0.14,-0.011,-0.56,-0.00025331202265383096,10,1,100,-0.01062810435217397,-10,-1,-100,518.9743618840585,0.0029723443966218205,-0.00010140178811111212,0.9999955774334531,18.44371656491125,-1.3507820845159935,-1041.040139232214,46.27257124201724,-89.96798706054688,6230.1845703125,True
1598628992.6461089,0,5,0.5,0.5,-0.004981375122070312,-0.14,-0.011,-0.56,-0.0006355673197321645,10,1,100,-0.02050457437869716,-10,-1,-100,519.9015721674077,0.002853396996141783,-9.672417242383715e-05,0.9999959243767031,18.573034105991404,-1.3612788670227083,-1061.055638281549,46.74246754465293,-89.9677734375,6228.60546875,True
1598628992.7394023,0,5,0.5,0.5,-0.005525219726562501,-0.14,-0.011,-0.56,0.0004896268012766472,10,1,100,0.008451500551155532,-10,-1,-100,522.7797586423112,0.0024836027674269546,-8.23040639406573e-05,0.9999969124669009,18.96789484017497,-1.3929419226067847,-1122.1835267627587,48.15286720752404,-89.96682739257812,6223.869140625,True
1598628992.7899144,0,5,0.5,0.5,-0.006641976928710938,-0.14,-0.011,-0.56,0.0013199608532572303,10,1,100,0.030041549125357146,-10,-1,-100,526.7243159516947,0.001952958973222261,-6.171667701314958e-05,0.9999980910693282,19.513384123612347,-1.4356332753754868,-1206.1763005227901,50.03504497589678,-89.9644775390625,6217.55322265625,True
1598628992.8388934,0,5,0.5,0.5,-0.006504846191406251,-0.14,-0.011,-0.56,0.0004511269151143947,10,1,100,0.006660536777240288,-10,-1,-100,528.7610481847078,0.0016852751474439069,-5.098356465530743e-05,0.9999985786231667,19.795917289292095,-1.457241973691549,-1249.226481583493,50.976831220732315,-89.96279907226562,6214.39501953125,True
1598628992.8890488,0,5,0.5,0.5,-0.006873611450195313,-0.14,-0.011,-0.56,0.0005141001284380548,10,1,100,0.00937568764318989,-10,-1,-100,530.8243908857694,0.001419512762071165,-4.0742264724402485e-05,0.9999989916612847,20.086402201428815,-1.4791032765887733,-1293.0100527091668,51.9190793917141,-89.9609375,6211.2373046875,True
1598628992.9379945,0,5,0.5,0.5,-0.0072487640380859385,-0.14,-0.011,-0.56,0.000692183866454817,10,1,100,0.01344869308829117,-10,-1,-100,532.9308254749049,0.0011432418884872039,-2.9904878859804644e-05,0.9999993460516275,20.38552190579115,-1.5012507368328656,-1337.5459971833927,52.86178520068541,-89.95892333984375,6208.07958984375,True
1598628992.987941,0,5,0.5,0.5,-0.007647628784179688,-0.14,-0.011,-0.56,0.0007839558759653302,10,1,100,0.016028162962022707,-10,-1,-100,535.0639932741178,0.0008710799152870354,-1.9313560684558653e-05,0.9999996204233118,20.69342841687991,-1.5236780851105332,-1382.8177330940268,53.80494584452123,-89.95675659179688,6204.921875,True
1598628993.0378783,0,5,0.5,0.5,-0.008049011230468752,-0.14,-0.011,-0.56,0.0009170048530575512,10,1,100,0.01883046720695946,-10,-1,-100,537.2398855320644,0.0006006960122345607,-8.573519044059254e-06,0.9999998195453816,21.01062299009309,-1.546414326370735,-1428.8234397199042,54.74855881432034,-89.9544677734375,6201.763671875,True
1598628993.0871172,0,5,0.5,0.5,-0.0084914306640625,-0.14,-0.011,-0.56,0.001064145765570931,10,1,100,0.02175484922825508,-10,-1,-100,539.4587470461847,0.000330874313565996,2.427308726837225e-06,0.999999945258147,21.337595657428604,-1.569476448668054,-1475.5639191236373,55.6926200594861,-89.9520263671875,6198.6064453125,True
1598628993.1379702,0,5,0.5,0.5,-0.008893743896484375,-0.14,-0.011,-0.56,0.0011591996815539256,10,1,100,0.024523356220014697,-10,-1,-100,541.70440311532,6.302524381213308e-05,1.318958429373321e-05,0.999999997926927,21.6748816168393,-1.5928830573928554,-1523.0463528673627,56.63712675424975,-89.94952392578125,6195.4482421875,True
1598628993.2348878,0,5,0.5,0.5,-0.009285757446289063,-0.14,-0.011,-0.56,0.0012659666660808184,10,1,100,0.02711725741841885,-10,-1,-100,544.0197612057673,-0.0002014099949015895,2.3839906148060548e-05,0.9999999794328364,22.022898774401746,-1.616661069073462,-1571.2728030827966,57.58207569380869,-89.94699096679688,6192.2900390625,True
1598628993.2926977,0,5,0.5,0.5,-0.011457666015625,-0.14,-0.011,-0.56,0.0025052248460672834,10,1,100,0.057929345651529594,-10,-1,-100,548.7094987081364,-0.0007191384622232136,4.4678396671351536e-05,0.9999997404218228,22.752792394722615,-1.6653972040113696,-1669.981075550612,59.47328566942212,-89.94189453125,6185.974609375,True
1598628993.3360994,0,5,0.5,0.5,-0.01044688415527344,-0.14,-0.011,-0.56,0.0015719704985587026,10,1,100,0.03409842581550039,-10,-1,-100,551.1373452958651,-0.0009702443965247427,5.5022909932799874e-05,0.9999995277990337,23.135332498806157,-1.6903945496973485,-1720.4702203830107,60.419539505740346,-89.93930053710938,6182.8173828125,True
1598628993.4280572,0,5,0.5,0.5,-0.010816375732421876,-0.14,-0.011,-0.56,0.0016256195162551584,10,1,100,0.03568401978439583,-10,-1,-100,553.565130407922,-0.0012102795516345031,6.480860434322437e-05,0.9999992655113561,23.529982826575935,-1.7158210764940245,-1771.7186892092477,61.36622181392171,-89.93673706054688,6179.6591796875,True
1598628993.4799168,0,5,0.5,0.5,-0.0127420166015625,-0.14,-0.011,-0.56,0.0028163501707267674,10,1,100,0.0631856506422573,-10,-1,-100,558.5764016608009,-0.0016758758325338637,8.44242486942626e-05,0.999998592155379,24.357167050438687,-1.7680855923835785,-1876.5865292724006,63.260860541464254,-89.93197631835938,6173.34375,True
1598628993.5298479,0,5,0.5,0.5,-0.011710031127929689,-0.14,-0.011,-0.56,0.0018535666237180241,10,1,100,0.04102750869110919,-10,-1,-100,561.1167968841037,-0.0018948935350732042,9.33902872102009e-05,0.999998200326753,24.78965760399171,-1.794916403258139,-1930.194532971972,64.20880829355654,-89.9296875,6170.185546875,True
1598628993.5798872,0,5,0.5,0.5,-0.011870364379882812,-0.14,-0.011,-0.56,0.001922750211674361,10,1,100,0.04126929575092859,-10,-1,-100,563.7268331319792,-0.002093436660267726,0.00010205808650968424,0.9999978035511361,25.2350432861588,-1.822234255356582,-1984.6063971127028,65.15717095221197,-89.92767333984375,6167.02783203125,True
1598628993.628755,0,5,0.5,0.5,-0.01201343994140625,-0.14,-0.011,-0.56,0.002004338484839583,10,1,100,0.04347248626940989,-10,-1,-100,566.3530437042937,-0.0022912644000893444,0.0001105692777678127,0.9999973689374806,25.693481849084467,-1.8500607071008737,-2039.850844239855,66.10594443804838,-89.9259033203125,6163.8701171875,True
1598628993.6780808,0,5,0.5,0.5,-0.012228576660156252,-0.14,-0.011,-0.56,0.0020399184902895546,10,1,100,0.044091411984384904,-10,-1,-100,569.0327821722021,-0.0024741053424157484,0.00011852186732764571,0.9999969323729556,26.16456318351339,-1.878379374783538,-2095.914535842446,67.05512523179009,-89.92422485351562,6160.71240234375,True
1598628993.7716434,0,5,0.5,0.5,-0.012430056762695313,-0.14,-0.011,-0.56,0.002082683430165655,10,1,100,0.0448802511365578,-10,-1,-100,571.7554281759076,-0.0026449456644086133,0.00012603472587309407,0.9999964941826948,26.648133364289333,-1.9071768307620263,-2152.7924028947095,68.00470858946235,-89.92263793945312,6157.5546875,True
1598628993.8648806,0,5,0.5,0.5,-0.013835363769531251,-0.14,-0.011,-0.56,0.0028685086050265823,10,1,100,0.06212876467970607,-10,-1,-100,577.2704832494492,-0.0029545979248778195,0.0001399058760117107,0.9999956253791555,27.652278040768266,-1.9662140007252584,-2269.0163604421114,69.90507032129392,-89.91940307617188,6151.23876953125,True
1598628993.9184084,0,5,0.5,0.5,-0.01459630126953125,-0.14,-0.011,-0.56,0.0028786332526351197,10,1,100,0.060490150566647576,-10,-1,-100,582.9676055905875,-0.0032187005897947696,0.000152502540234291,0.9999948083412676,28.70466623505453,-2.027173186454629,-2388.565277586672,71.80700038056064,-89.915771484375,6144.9228515625,True
1598628994.0148818,0,5,0.5,0.5,-0.01395853271484375,-0.14,-0.011,-0.56,0.002189839290997187,10,1,100,0.04614815324428358,-10,-1,-100,585.8457073068712,-0.0033261397984908955,0.00015759426792759832,0.9999944559636756,29.24851958437942,-2.058360765948829,-2449.6081571873387,72.7585436862628,-89.913818359375,6141.7646484375,True
1598628994.1118464,0,5,0.5,0.5,-0.015456289672851562,-0.14,-0.011,-0.56,0.0027069748695635705,10,1,100,0.05482488971986045,-10,-1,-100,591.7679264737526,-0.0035005495058090122,0.0001668310971284859,0.999993859141416,30.370730680811654,-2.1221850233801014,-2574.3651751955595,74.66276732054828,-89.91015625,6135.44921875,True
1598628994.2058568,0,5,0.5,0.5,-0.016169122314453124,-0.14,-0.011,-0.56,0.002570269844338317,10,1,100,0.051003461616210284,-10,-1,-100,597.8457233007066,-0.0036222814661066856,0.00017389269390653117,0.9999934243975364,31.534887939761802,-2.18777222482885,-2702.6877625142715,76.568477777787,-89.90625,6129.1337890625,True
1598628994.3027906,0,5,0.5,0.5,-0.01710745544433594,-0.14,-0.011,-0.56,0.0023941926475623126,10,1,100,0.04588986022419668,-10,-1,-100,604.0628015793627,-0.0036846901395102896,0.00017863029060205204,0.9999931955517471,32.736237010577135,-2.2549412083695772,-2834.530631472058,78.47564307793786,-89.90182495117188,6122.818359375,True
1598628994.3614194,0,5,0.5,0.5,-0.017907147216796877,-0.14,-0.011,-0.56,0.0021935657295948006,10,1,100,0.04100651738981371,-10,-1,-100,610.4459556777729,-0.003695404183560596,0.00018103582470428286,0.9999931555835521,33.97095530852949,-2.323563356522046,-2969.983205615861,80.38422823112943,-89.89718627929688,6116.50244140625,True
1598628994.447767,0,5,0.5,0.5,-0.017030648803710937,-0.14,-0.011,-0.56,0.002074373993192597,10,1,100,0.03871446379926778,-10,-1,-100,613.6885577109642,-0.0036828510386711,0.00018206731470429575,0.9999932017067517,34.59915667177017,-2.358355760756598,-3039.060517406221,81.33904306451755,-89.894775390625,6113.3447265625,True
1598628994.4995863,0,5,0.5,0.5,-0.019025949096679692,-0.14,-0.011,-0.56,0.0019979501542512035,10,1,100,0.0337759247631519,-10,-1,-100,620.2861271266593,-0.003625278200589976,0.00018224527249853436,0.999993412050614,35.87364197398034,-2.4287305976264197,-3179.877926267826,83.24969585041111,-89.89004516601562,6107.029296875,True
1598628994.5988982,0,5,0.5,0.5,-0.01816632995605469,-0.14,-0.011,-0.56,0.0019213461071521496,10,1,100,0.03492430168578109,-10,-1,-100,623.6517755902605,-0.0035823325263054247,0.00018165272151496816,0.9999935669272877,36.51857957256677,-2.464259800194912,-3251.600284692621,84.20552527847234,-89.88754272460938,6103.87109375,True
1598628994.6888392,0,5,0.5,0.5,-0.020349710083007816,-0.14,-0.011,-0.56,0.0017541976763853079,10,1,100,0.027486129720064395,-10,-1,-100,630.474685965688,-0.003474819089211229,0.0001795439457996259,0.9999939466798129,37.820759823342556,-2.5358580177148595,-3397.62740531346,86.11817025061306,-89.88247680664062,6097.5556640625,True
1598628994.7827904,0,5,0.5,0.5,-0.02146271667480469,-0.14,-0.011,-0.56,0.0016124702269539421,10,1,100,0.023346032955481513,-10,-1,-100,637.4473758805543,-0.0033389694292981767,0.0001763024110001315,0.9999944100846816,39.13573476996665,-2.608009454166285,-3547.051013150434,88.03210276109264,-89.87689208984375,6091.240234375,True
1598628994.8790169,0,5,0.5,0.5,-0.021689199829101564,-0.14,-0.011,-0.56,0.001616277790933131,10,1,100,0.024382216835618163,-10,-1,-100,642.8229967290536,-0.003224780256615277,0.0001733685391542512,0.9999947853542268,40.12794173229909,-2.6623915057330314,-3661.3321230823867,89.46837754445059,-89.87216186523438,6086.5029296875,True
1598628994.9297254,0,5,0.5,0.5,-0.024704382324218753,-0.14,-0.011,-0.56,0.0012340116286899347,10,1,100,0.012790229664091289,-10,-1,-100,651.9017455839785,-0.003015682361291375,0.00016721189575467034,0.9999954388396368,41.77958233278885,-2.752748631876346,-3854.2830253600114,91.83504854837122,-89.8641357421875,6078.67431640625,True
1598628995.0248976,0,5,0.5,0.5,-0.022567504882812502,-0.14,-0.011,-0.56,0.0015190082337491302,10,1,100,0.02392775898528502,-10,-1,-100,655.5776963272365,-0.0029272844204118772,0.00016420547925683846,0.9999957020120049,42.44495120661981,-2.789221524954723,-3931.883080693307,92.73935530655542,-89.86083984375,6075.6416015625,True
1598628995.079062,0,5,0.5,0.5,-0.0246596923828125,-0.14,-0.011,-0.56,0.0012310184677239426,10,1,100,0.01377440420910973,-10,-1,-100,663.0848424802534,-0.0027552512462340993,0.00015886309112644385,0.9999961916692925,43.62298498673303,-2.8523539753647067,-4067.3435679547756,94.30400474012103,-89.85528564453125,6070.1376953125,True
1598628995.1733253,0,5,0.5,0.5,-0.02326679382324219,-0.14,-0.011,-0.56,0.0014489470657583765,10,1,100,0.020967550005052214,-10,-1,-100,666.9003902005497,-0.0026650946304840294,0.0001560055138986487,0.9999964364600957,44.17593636463861,-2.8815959635114097,-4130.963876303373,95.03537292614384,-89.8529052734375,6067.50341796875,True
1598628995.2237537,0,5,0.5,0.5,-0.0250159423828125,-0.14,-0.011,-0.56,0.0010854656422440879,10,1,100,0.01122416567929814,-10,-1,-100,674.5475397284608,-0.002495494494616271,0.00015012609466943743,0.9999968749798087,45.181174133718166,-2.9336436081231083,-4245.113653925867,96.33868944678785,-89.84857177734375,6062.6015625,True
1598628995.2772963,0,5,0.5,0.5,-0.02409264526367188,-0.14,-0.011,-0.56,0.001384561660000072,10,1,100,0.018554027414774424,-10,-1,-100,678.4328058209503,-0.002409027074644507,0.00014752926027705873,0.999997087407594,45.6600906099651,-2.9581540748172386,-4299.429753413712,96.95338841751118,-89.84649658203125,6060.23583984375,True
1598628995.3358047,0,5,0.5,0.5,-0.02443107604980469,-0.14,-0.011,-0.56,0.001303493511052108,10,1,100,0.018193984427438185,-10,-1,-100,682.3337390703382,-0.002328252893990706,0.00014446307857738885,0.999997279180739,46.12203009402321,-2.981588867737821,-4350.871370501951,97.51815794784007,-89.84442138671875,6057.984375,True
1598628995.4207478,0,5,0.5,0.5,-0.02476903686523438,-0.14,-0.011,-0.56,0.0012764639398619069,10,1,100,0.01703263969338173,-10,-1,-100,686.2351580037503,-0.002245404213661569,0.00014146372606044856,0.9999974690707629,46.539970804024854,-3.0021930344494776,-4396.918689558047,98.03578658179951,-89.84234619140625,6055.841796875,True
1598628995.5167727,0,5,0.5,0.5,-0.02691950378417969,-0.14,-0.011,-0.56,0.0009487931125412176,10,1,100,0.007526604338262383,-10,-1,-100,694.1346477140905,-0.002084786378202677,0.00013579283463280493,0.9999978176106502,47.320244951851365,-3.0398713367945396,-4482.784276082729,99.01331741812254,-89.83767700195312,6051.68896484375,True
1598628995.5647402,0,5,0.5,0.5,-0.02806493530273438,-0.14,-0.011,-0.56,0.0008667514187293754,10,1,100,0.006434586763252922,-10,-1,-100,702.1040427553235,-0.0019299828980591399,0.00012992847209699154,0.9999981291405527,48.051226583513504,-3.0744255617016165,-4562.940772578937,99.92516447612623,-89.83236694335938,6047.68701171875,True
1598628995.6140778,0,5,0.5,0.5,-0.027036322021484375,-0.14,-0.011,-0.56,0.0011541507604991917,10,1,100,0.01397518449772019,-10,-1,-100,706.1178291286342,-0.0018589804385679505,0.00012724944568693884,0.999998263998147,48.41238532338153,-3.0914307294146637,-4601.952398887663,100.35080811025966,-89.82965087890625,6045.755859375,True
1598628995.7097292,0,5,0.5,0.5,-0.027198156738281253,-0.14,-0.011,-0.56,0.0011151702016757603,10,1,100,0.013531764859215516,-10,-1,-100,710.1317789360182,-0.0017914532077011208,0.0001244959279158304,0.9999983875967844,48.74299288693682,-3.10647145407575,-4636.586432533325,100.72998427061249,-89.82730102539062,6043.9306640625,True
1598628995.7658172,0,5,0.5,0.5,-0.028589419555664065,-0.14,-0.011,-0.56,0.0008610761273750724,10,1,100,0.006133491052529673,-10,-1,-100,718.2135480219731,-0.001663840355227505,0.0001197188834042174,0.9999986086503626,49.32217422330147,-3.131313585239565,-4695.82508497023,101.41200318865253,-89.823486328125,6040.455078125,True
1598628995.809214,0,5,0.5,0.5,-0.027620370483398438,-0.14,-0.011,-0.56,0.0010901390538345939,10,1,100,0.01241800883924483,-10,-1,-100,722.2973991191247,-0.001605952842758907,0.00011749409155031233,0.9999987035544622,49.60470264546324,-3.1432841719641065,-4724.516311726792,101.73852495153582,-89.82186889648438,6038.75146484375,True
1598628995.9037185,0,5,0.5,0.5,-0.027731414794921878,-0.14,-0.011,-0.56,0.0010550488509461359,10,1,100,0.012290832730325649,-10,-1,-100,726.3814552571857,-0.0015531345411497575,0.00011518756204082024,0.999998787251726,49.87128941521926,-3.1542375415059203,-4751.51209497315,102.05577613935874,-89.82046508789062,6037.068359375,True
1598628995.9978218,0,5,0.5,0.5,-0.028450198364257814,-0.14,-0.011,-0.56,0.0008501564775306949,10,1,100,0.006882745730384422,-10,-1,-100,734.5755470237928,-0.0014568101669178526,0.00011125982139444034,0.9999989326621254,50.37356645066251,-3.1741109207575913,-4799.412013252979,102.59898582138919,-89.818359375,6033.9111328125,True
1598628996.0950544,0,5,0.5,0.5,-0.02832734069824219,-0.14,-0.011,-0.56,0.0008498431267049099,10,1,100,0.007964084853182356,-10,-1,-100,742.7967072419124,-0.0013799385613758536,0.00010771927165284477,0.9999990420826039,50.83778935511098,-3.191512652140308,-4842.075893722251,103.0896288518068,-89.81689453125,6030.875,True
1598628996.1907535,0,5,0.5,0.5,-0.027964553833007815,-0.14,-0.011,-0.56,0.0009042059220327758,10,1,100,0.009432496252715568,-10,-1,-100,751.0772066144273,-0.0013242665820903518,0.00010502820076066989,0.9999991176431591,51.254389924741936,-3.2058408007609644,-4878.948763102037,103.54033230530801,-89.8162841796875,6027.93017578125,True
1598628996.2842171,0,5,0.5,0.5,-0.027480526733398437,-0.14,-0.011,-0.56,0.0009162651970393687,10,1,100,0.011351810427681864,-10,-1,-100,759.3841489024926,-0.0012919414003591994,0.00010272452565447973,0.9999991601671923,51.65823643283033,-3.219251126141511,-4913.336024458938,103.95494799599082,-89.8165283203125,6025.068359375,True
1598628996.3770752,0,5,0.5,0.5,-0.027149176025390628,-0.14,-0.011,-0.56,0.001060352072652432,10,1,100,0.013354492619398712,-10,-1,-100,767.6914079235867,-0.0012814818414172535,0.00010197021834440591,0.9999991737028409,52.03330671553273,-3.230714143340037,-4943.17881722652,104.32422715538503,-89.81723022460938,6022.310546875,True
1598628996.4705577,0,5,0.5,0.5,-0.027174371337890624,-0.14,-0.011,-0.56,0.0010475956853371721,10,1,100,0.015444956798278665,-10,-1,-100,776.0681305562612,-0.0012915669176931585,0.00010119393386306607,0.9999991608069904,52.38315974756788,-3.240431501032928,-4968.838910338542,104.65180679957446,-89.81777954101562,6019.64794921875,True
1598628996.5648131,0,5,0.5,0.5,-0.027601858520507814,-0.14,-0.011,-0.56,0.00115518479940382,10,1,100,0.017365868141841975,-10,-1,-100,784.4610961292638,-0.0013187138297226248,0.0001014899903822938,0.999999125346426,52.71158049386982,-3.2486396302181118,-4990.758269369276,104.94208323273881,-89.817626953125,6017.0712890625,True
1598628996.6577792,0,5,0.5,0.5,-0.028338818359375,-0.14,-0.011,-0.56,0.0012238899256702403,10,1,100,0.019221476859224214,-10,-1,-100,792.8646878782893,-0.0013606917738874132,0.00010240463921813513,0.9999990690151598,53.02212788889725,-3.255564136558406,-5009.372915673317,105.19922353109678,-89.81646728515625,6014.57080078125,True
1598628996.7521656,0,5,0.5,0.5,-0.029128399658203127,-0.14,-0.011,-0.56,0.0012386795057968357,10,1,100,0.02099055432450919,-10,-1,-100,801.3006336509716,-0.0014152116533410297,0.00010338632911022002,0.9999989932431148,53.31780689884227,-3.2613963423726378,-5025.07283729135,105.4270046333372,-89.81442260742188,6012.1376953125,True
1598628996.7999325,0,5,0.5,0.5,-0.029679193115234377,-0.14,-0.011,-0.56,0.0013528288512103094,10,1,100,0.022551017782951696,-10,-1,-100,809.7470828567166,-0.0014791346126387201,0.0001053293210271834,0.9999989005326615,53.60135070640613,-3.2663165623439676,-5038.221403514445,105.62881611889291,-89.81201171875,6009.7646484375,True
1598628996.8931494,0,5,0.5,0.5,-0.029128799438476564,-0.14,-0.011,-0.56,0.0012480078385241435,10,1,100,0.019961688052619966,-10,-1,-100,813.970302616246,-0.0015137743052958876,0.00010615172105547009,0.9999988486089194,53.74208783701575,-3.2686507626750405,-5044.206167017021,105.72101919100317,-89.81088256835938,6008.5986328125,True
1598628996.9899771,0,5,0.5,0.5,-0.02953009033203125,-0.14,-0.011,-0.56,0.001405164977625564,10,1,100,0.024525609265264082,-10,-1,-100,822.4329900169978,-0.0015867033422460972,0.00010833270243696087,0.9999987353174649,54.00571916157517,-3.272107622937808,-5053.158744137034,105.8793530669276,-89.80941772460938,6006.3251953125,True
1598628997.0850394,0,5,0.5,0.5,-0.029123886108398438,-0.14,-0.011,-0.56,0.0014557418763493008,10,1,100,0.025956833218815957,-10,-1,-100,830.9224894013023,-0.00166582562561415,0.00011077464510781909,0.9999986063760106,54.264445080903954,-3.275132438335387,-5060.8160881358335,106.0261525478913,-89.808837890625,6004.0791015625,True
1598628997.1398633,0,5,0.5,0.5,-0.028743283081054692,-0.14,-0.011,-0.56,0.0014744322853719421,10,1,100,0.024762320612965034,-10,-1,-100,837.2788161883364,-0.0017265852604014407,0.00011315928175939861,0.9999985030480374,54.45794904679192,-3.2772847034385744,-5065.883085268132,106.1269550059824,-89.80892944335938,6002.416015625,True
1598628997.2357385,0,5,0.5,0.5,-0.028418389892578128,-0.14,-0.011,-0.56,0.001423088287024975,10,1,100,0.025449367997307733,-10,-1,-100,843.651506469585,-0.0017876720465566003,0.00011485088349758492,0.999998395517677,54.64982466220287,-3.279267448614318,-5070.289302610253,106.22042506886895,-89.80947875976562,6000.7705078125,True
1598628997.325976,0,5,0.5,0.5,-0.027965490722656253,-0.14,-0.011,-0.56,0.0015803757702114942,10,1,100,0.028409408480379664,-10,-1,-100,852.1408199120779,-0.0018696547745390907,0.00011780687977476521,0.9999982452547419,54.89893155269228,-3.2814100475826913,-5074.6454325246805,106.33066250662577,-89.81057739257812,5998.60986328125,True
1598628997.382382,0,5,0.5,0.5,-0.027819604492187504,-0.14,-0.011,-0.56,0.001617321896770369,10,1,100,0.02919929763480967,-10,-1,-100,860.6735351404641,-0.0019508398033299494,0.00012081492031736279,0.9999980898120839,55.14585998320843,-3.2833161291380297,-5077.991669646322,106.42933703982524,-89.81167602539062,5996.4755859375,True
1598628997.4257133,0,5,0.5,0.5,-0.028163674926757816,-0.14,-0.011,-0.56,0.0014711765137013107,10,1,100,0.025437723284324667,-10,-1,-100,864.9394274364458,-0.0019898735845230416,0.00012220334011915545,0.999998012732756,55.26881886674943,-3.284203837307144,-5079.236946215526,106.4722010305665,-89.81207275390625,5995.42431640625,True
1598628997.482768,0,5,0.5,0.5,-0.028241140747070317,-0.14,-0.011,-0.56,0.0014764157460614223,10,1,100,0.0258335021917776,-10,-1,-100,869.1630363261793,-0.002028384846756665,0.00012349517050505796,0.9999979351997964,55.39046316017841,-3.2849919083044266,-5080.285284353682,106.51518265038705,-89.81228637695312,5994.3720703125,True
1598628997.572739,0,5,0.5,0.5,-0.028341757202148442,-0.14,-0.011,-0.56,0.0014962479181091747,10,1,100,0.026277715025454673,-10,-1,-100,873.429169752053,-0.002066875953463009,0.00012483157347322632,0.9999978562181375,55.51329677769467,-3.2858357154129525,-5081.137843824113,106.55227329271204,-89.81231689453125,5993.333984375,True
1598628997.6638885,0,5,0.5,0.5,-0.028593496704101565,-0.14,-0.011,-0.56,0.0016798673278790562,10,1,100,0.030643918102890536,-10,-1,-100,881.96158594999,-0.0021410263135901715,0.00012769802330360916,0.9999976998471243,55.753923403890404,-3.2871758309361274,-5082.01289034967,106.62253858553946,-89.81198120117188,5991.26708984375,True
1598628997.7588398,0,5,0.5,0.5,-0.028895632934570314,-0.14,-0.011,-0.56,0.0016754552161223906,10,1,100,0.031206267735924532,-10,-1,-100,890.4940646942705,-0.0022129777721803605,0.0001302441891313983,0.9999975428798968,55.995179994831176,-3.2884908722145236,-5082.457989920882,106.68732297466205,-89.811279296875,5989.2138671875,True
1598628997.853088,0,5,0.5,0.5,-0.02920547485351563,-0.14,-0.011,-0.56,0.0017088432568751195,10,1,100,0.03125294773757406,-10,-1,-100,899.0264782801969,-0.0022782432123410424,0.00013284249344832738,0.9999973959769782,56.23839513618327,-3.2898710009885472,-5082.638910686123,106.74729682359495,-89.81027221679688,5987.171875,True
1598628997.947993,0,5,0.5,0.5,-0.029302163696289064,-0.14,-0.011,-0.56,0.0017116295810686876,10,1,100,0.031122293429810655,-10,-1,-100,907.5857484072912,-0.0023358309209740614,0.00013520985682153125,0.9999972628023555,56.48227552862569,-3.291254310414664,-5082.42397191083,106.80110689246794,-89.809326171875,5985.1455078125,True
1598628998.0381095,0,5,0.5,0.5,-0.029199188232421878,-0.14,-0.011,-0.56,0.0017137168247077011,10,1,100,0.030771849613089486,-10,-1,-100,916.1342774321092,-0.002384443670797002,0.0001373609343074693,0.9999971477761097,56.72671445044719,-3.292647416341589,-5081.86687241665,106.84924790531494,-89.8087158203125,5983.1328125,True
1598628998.127829,0,5,0.5,0.5,-0.028879592895507813,-0.14,-0.011,-0.56,0.0016809587017811577,10,1,100,0.030286340460132812,-10,-1,-100,924.6935492409393,-0.0024236808404962144,0.00013899819449461726,0.9999970532210011,56.97163373304705,-3.2940547966161398,-5081.025816512539,106.8922981574434,-89.80868530273438,5981.1328125,True
1598628998.2221432,0,5,0.5,0.5,-0.02850142517089844,-0.14,-0.011,-0.56,0.0016560193531298126,10,1,100,0.02976586501809728,-10,-1,-100,933.2260278334143,-0.002454115739780669,0.00014024062666363057,0.9999969788196874,57.21600557509177,-3.2954383678414674,-5079.8278414496845,106.92962411543301,-89.8092041015625,5979.146484375,True
1598628998.318721,0,5,0.5,0.5,-0.028495599365234377,-0.14,-0.011,-0.56,0.0016085865910117898,10,1,100,0.028106538524857453,-10,-1,-100,937.4924794588005,-0.002466241520158492,0.00014092124379225495,0.9999969488923292,57.33919609730437,-3.2961913774569083,-5079.260504492735,106.9473795781832,-89.80963134765625,5978.1552734375,True
1598628998.415745,0,5,0.5,0.5,-0.027776239013671877,-0.14,-0.011,-0.56,0.0016695267801825802,10,1,100,0.029710371497323737,-10,-1,-100,950.3338941299589,-0.0024914121948556287,0.00014207697208012694,0.9999968863348572,57.706052272794885,-3.2983232074940445,-5077.074826680524,106.99527536845385,-89.81100463867188,5975.197265625,True
1598628998.5088503,0,5,0.5,0.5,-0.028055358886718753,-0.14,-0.011,-0.56,0.0016138241570904245,10,1,100,0.02830898420887304,-10,-1,-100,958.9094669392798,-0.0025011338080052022,0.00014260435413046817,0.9999968619919127,57.9507284579668,-3.2997807838243522,-5075.529340536956,107.02456665050292,-89.81170654296875,5973.23193359375,True
1598628998.5589292,0,5,0.5,0.5,-0.028299560546875,-0.14,-0.011,-0.56,0.0016224726394484927,10,1,100,0.02772219962738285,-10,-1,-100,967.4687399157556,-0.002504242452987138,0.00014314625785161788,0.9999968541344944,58.194808159166264,-3.3012371953796955,-5073.825072964003,107.05026681364623,-89.81192016601562,5971.2763671875,True
1598628998.6495826,0,5,0.5,0.5,-0.028547430419921877,-0.14,-0.011,-0.56,0.0015127740865333715,10,1,100,0.02742063301079671,-10,-1,-100,971.7349490305642,-0.0025039967826932085,0.00014262759417657287,0.9999968548237947,58.316617730078484,-3.3019651579088367,-5072.926815299368,107.06194787961014,-89.81173706054688,5970.30078125,True
1598628998.7417982,0,5,0.5,0.5,-0.02891435852050782,-0.14,-0.011,-0.56,0.001571412303841355,10,1,100,0.027073931069842176,-10,-1,-100,980.3102766857482,-0.002500357047498674,0.00014267789880656345,0.9999968639239085,58.55749962436999,-3.3032931245451045,-5070.826012399819,107.0822178946608,-89.81106567382812,5968.35888671875,True
1598628998.832758,0,5,0.5,0.5,-0.02915701599121094,-0.14,-0.011,-0.56,0.001531096419926501,10,1,100,0.026700981534530703,-10,-1,-100,988.885789345135,-0.0024934558253324863,0.0001423481809751851,0.9999968812026577,58.79738055400038,-3.304601535607082,-5068.675174587142,107.10141453159447,-89.8101806640625,5966.42041015625,True
1598628998.9287567,0,5,0.5,0.5,-0.02915180358886719,-0.14,-0.011,-0.56,0.0015309884944524192,10,1,100,0.026387830831861664,-10,-1,-100,997.4450660396833,-0.002484191867062271,0.00014204096696584617,0.999996904302774,59.03616480969646,-3.305885611341916,-5066.4658404286065,107.11923466460308,-89.80947875976562,5964.4853515625,True
1598628999.0269032,0,5,0.5,0.5,-0.028907434082031253,-0.14,-0.011,-0.56,0.0014628133969386019,10,1,100,0.026046482215728348,-10,-1,-100,1006.0204561568098,-0.0024725762374006224,0.00014113765331390482,0.9999969332187539,59.27299001412803,-3.3070982984113693,-5064.1106144411815,107.13505108739518,-89.80926513671875,5962.556640625,True
1598628999.124195,0,5,0.5,0.5,-0.02853081970214844,-0.14,-0.011,-0.56,0.001484332220931218,10,1,100,0.025837244297064365,-10,-1,-100,1014.5957244125893,-0.0024600699608140833,0.0001405101397949644,0.999996964151736,59.50798621555678,-3.308241464817435,-5061.651051613355,107.14951789874482,-89.80963134765625,5960.63134765625,True
1598628999.214837,0,5,0.5,0.5,-0.02809455871582032,-0.14,-0.011,-0.56,0.0014780374397685377,10,1,100,0.025676896342484785,-10,-1,-100,1023.1711758367019,-0.0024472374968564758,0.00013988220266432933,0.9999969957262889,59.74125330921357,-3.309319481897698,-5059.122316291795,107.16324048488235,-89.810546875,5958.708984375,True
1598628999.264728,0,5,0.5,0.5,-0.02781584167480469,-0.14,-0.011,-0.56,0.0014233476484133002,10,1,100,0.025496915548334022,-10,-1,-100,1031.746688323561,-0.002433952707878464,0.00013881511538882068,0.9999970282978743,59.97253620432033,-3.310325241499878,-5056.49329901863,107.17591806818311,-89.81167602539062,5956.79052734375,True
1598628999.3587258,0,5,0.5,0.5,-0.028105630493164065,-0.14,-0.011,-0.56,0.0015079023243380215,10,1,100,0.02614581074411218,-10,-1,-100,1036.0397546978202,-0.002427826910120961,0.00013861668024375693,0.9999970432165839,60.08757537535256,-3.310806309491198,-5055.154201186067,107.18189630637434,-89.81216430664062,5955.83203125,True
1598628999.4547627,0,5,0.5,0.5,-0.027929956054687503,-0.14,-0.011,-0.56,0.001409933633177255,10,1,100,0.025432542189757344,-10,-1,-100,1044.6152672749013,-0.0024158403861180818,0.00013754928535031629,0.999997072393426,60.31539078231767,-3.311664816459289,-5052.313789228933,107.19252564994086,-89.81280517578125,5953.919921875,True
1598628999.5487862,0,5,0.5,0.5,-0.02820242004394531,-0.14,-0.011,-0.56,0.0014118545515351489,10,1,100,0.02538679136688951,-10,-1,-100,1053.1906589564169,-0.002404607995059274,0.00013660147740726138,0.999997099596007,60.54131794883808,-3.3124439045015985,-5049.403772606818,107.20283919202409,-89.81292724609375,5952.00830078125,True
1598628999.642991,0,5,0.5,0.5,-0.02846173095703125,-0.14,-0.011,-0.56,0.001417305285784274,10,1,100,0.025425398235023707,-10,-1,-100,1061.7660499271005,-0.0023948380554321544,0.0001357948642401756,0.9999971231510836,60.76554831571939,-3.313153690705002,-5046.420568696279,107.21237231426343,-89.81265258789062,5950.099609375,True
1598628999.7358987,0,5,0.5,0.5,-0.028733422851562503,-0.14,-0.011,-0.56,0.001377414333886577,10,1,100,0.0254519654096675,-10,-1,-100,1070.3413192556472,-0.002386293738260686,0.00013470519182972438,0.9999971437242737,60.98799043323743,-3.313782966221787,-5043.368705813876,107.22157843042694,-89.81204223632812,5948.19384765625,True
1598628999.8281302,0,5,0.5,0.5,-0.028838186645507812,-0.14,-0.011,-0.56,0.0014141046907812228,10,1,100,0.02563234252593587,-10,-1,-100,1078.9168327709194,-0.002380263389240947,0.00013405507741848864,0.9999971581836791,61.20855812771998,-3.314331053433841,-5040.227509569584,107.23025016196924,-89.8114013671875,5946.28955078125,True
1598628999.8758943,0,5,0.5,0.5,-0.028733532714843753,-0.14,-0.011,-0.56,0.0013977828444613032,10,1,100,0.025732502393416158,-10,-1,-100,1087.4923467092449,-0.0023757862784526606,0.00013332294379586357,0.9999971689282684,61.427133120785996,-3.3147839759982776,-5036.97270278087,107.23819269865925,-89.81103515625,5944.3876953125,True
1598628999.9667537,0,5,0.5,0.5,-0.02852650756835938,-0.14,-0.011,-0.56,0.0014197216109814127,10,1,100,0.02603944106942971,-10,-1,-100,1091.785291298409,-0.002374594520207931,0.00013286391538867636,0.9999971718200229,61.53597169083193,-3.3149939919204914,-5035.333508478716,107.24211602709225,-89.81103515625,5943.4375,True
1598629000.059908,0,5,0.5,0.5,-0.028311340332031254,-0.14,-0.011,-0.56,0.001420372714741189,10,1,100,0.026037570767136073,-10,-1,-100,1100.3606824887684,-0.0023735718058196945,0.0001324594870748735,0.9999971743016911,61.75186846445079,-3.315326901799302,-5031.931425035337,107.24924688353236,-89.81134033203125,5941.5400390625,True
1598629000.1129987,0,5,0.5,0.5,-0.028011395263671877,-0.14,-0.011,-0.56,0.0013967505075551277,10,1,100,0.026213237829518274,-10,-1,-100,1108.936074867379,-0.0023743060075711695,0.00013188382555662438,0.9999971726348225,61.96646729544545,-3.315598186617436,-5028.481896990194,107.25633792924177,-89.81201171875,5939.642578125,True
1598629000.1719267,0,5,0.5,0.5,-0.028087930297851563,-0.14,-0.011,-0.56,0.0014121283233019667,10,1,100,0.026238853496916542,-10,-1,-100,1113.2452549714362,-0.002375260557685501,0.00013150659640121662,0.9999971704176459,62.07344523584769,-3.3157194501248153,-5026.749004931701,107.2598235608082,-89.81243896484375,5938.69482421875,True
1598629000.2617748,0,5,0.5,0.5,-0.02804917602539063,-0.14,-0.011,-0.56,0.0014191191294073285,10,1,100,0.026319581839053065,-10,-1,-100,1117.511465756921,-0.002376910012129258,0.00013123367730075153,0.9999971665342438,62.179943513892916,-3.3158189402526705,-5024.980166205276,107.26305571851952,-89.81283569335938,5937.748046875,True
1598629000.3568902,0,5,0.5,0.5,-0.02780133972167969,-0.14,-0.011,-0.56,0.0014144132363224128,10,1,100,0.026631660455345044,-10,-1,-100,1126.1032155290013,-0.0023812819857480447,0.00013094852964323818,0.9999971561702499,62.39175028522451,-3.3159551207366698,-5021.373830581133,107.26932242491085,-89.81350708007812,5935.8544921875,True
1598629000.4516032,0,5,0.5,0.5,-0.027813519287109376,-0.14,-0.011,-0.56,0.0013798482498653135,10,1,100,0.02689674453451027,-10,-1,-100,1134.7053410280496,-0.0023876875679478176,0.00013038021639385608,0.9999971409704514,62.60265791346743,-3.316046478891967,-5017.736793205246,107.27562679230186,-89.81402587890625,5933.96240234375,True
1598629000.5439928,0,5,0.5,0.5,-0.02791027526855469,-0.14,-0.011,-0.56,0.0014096950777410075,10,1,100,0.027124125848806985,-10,-1,-100,1143.2809774467023,-0.002395584427793476,0.00013013982519132985,0.9999971221152963,62.812738051909506,-3.3160983112591875,-5014.063979973468,107.28182677357577,-89.81430053710938,5932.072265625,True
1598629000.6010532,0,5,0.5,0.5,-0.028125686645507814,-0.14,-0.011,-0.56,0.001408463413196262,10,1,100,0.02738388976823026,-10,-1,-100,1151.8562475686194,-0.002405116435384711,0.00012991424111738869,0.999997099264404,63.02194116530094,-3.3161018296452327,-5010.343434584886,107.28783947924227,-89.814208984375,5930.1826171875,True
1598629000.687063,0,5,0.5,0.5,-0.028156777954101566,-0.14,-0.011,-0.56,0.0014137103695640845,10,1,100,0.026969702428471527,-10,-1,-100,1156.1654278484639,-0.0024099939637006237,0.00012976062868651428,0.9999970875413959,63.12631191953504,-3.3160943449328646,-5008.471654947973,107.29077772558772,-89.8140869140625,5929.23828125,True
1598629000.823806,0,5,0.5,0.5,-0.028341409301757815,-0.14,-0.011,-0.56,0.0013883290926594305,10,1,100,0.027686688862353773,-10,-1,-100,1164.7406973106554,-0.002420915040945612,0.00012939348060941284,0.9999970612095277,63.334322882335464,-3.3160449909560024,-5004.6765389258335,107.2963668410495,-89.813720703125,5927.3515625,True
1598629000.8787181,0,5,0.5,0.5,-0.028453811645507813,-0.14,-0.011,-0.56,0.0014280434359848378,10,1,100,0.028687762850989104,-10,-1,-100,1177.5987813210813,-0.002439901856046161,0.00012942390405571455,0.999997015059738,63.64514134303934,-3.315911352547929,-4998.925789640845,107.30477892271705,-89.81326293945312,5924.5234375,True
1598629000.9227686,0,5,0.5,0.5,-0.02821671142578125,-0.14,-0.011,-0.56,0.0013840186389207647,10,1,100,0.027521077216143237,-10,-1,-100,1181.8918480674038,-0.0024464960639569463,0.00012905409592724195,0.9999969989965217,63.74855853339588,-3.3158565639599833,-4996.9983284284,107.30749899998729,-89.813232421875,5923.5810546875,True
1598629000.96897,0,5,0.5,0.5,-0.028176916503906253,-0.14,-0.011,-0.56,0.0014439600283430482,10,1,100,0.027641457471206506,-10,-1,-100,1186.201028987416,-0.0024535195370524302,0.0001292654009230416,0.9999969817616139,63.851763478962006,-3.3157946901463413,-4995.061608603106,107.31033811006857,-89.81326293945312,5922.6396484375,True
1598629001.0187902,0,5,0.5,0.5,-0.028129013061523444,-0.14,-0.011,-0.56,0.0014417440084581097,10,1,100,0.02773751661048548,-10,-1,-100,1190.4671177626587,-0.002460706632969618,0.00012943938818888565,0.9999969640795473,63.95501012431947,-3.315734285875316,-4993.115946525698,107.3127780079409,-89.8133544921875,5921.6982421875,True
1598629001.1151476,0,5,0.5,0.5,-0.028072900390625002,-0.14,-0.011,-0.56,0.0014105270486722767,10,1,100,0.027823347595330044,-10,-1,-100,1194.7761758428533,-0.0024679444594648847,0.00012931539905897436,0.9999969462591736,64.057904689205,-3.315657575081797,-4991.144412357642,107.31518955080911,-89.81350708007812,5920.7578125,True
1598629001.2089043,0,5,0.5,0.5,-0.02785927734375,-0.14,-0.011,-0.56,0.0014454853503984293,10,1,100,0.02879716266248675,-10,-1,-100,1203.3518128903816,-0.0024832983819131726,0.00012952196907527845,0.9999969082218233,64.26329690410046,-3.31548641036707,-4987.177552153705,107.32002444902042,-89.81393432617188,5918.8779296875,True
1598629001.261413,0,5,0.5,0.5,-0.027692752075195316,-0.14,-0.011,-0.56,0.00143022586210762,10,1,100,0.02903225751097166,-10,-1,-100,1211.9434405697975,-0.0024993068002033287,0.00012957181760320078,0.9999968683334276,64.46854320259563,-3.3153151902615674,-4983.214600984455,107.32507728011791,-89.81451416015625,5916.998046875,True
1598629001.358528,0,5,0.5,0.5,-0.027782238769531255,-0.14,-0.011,-0.56,0.0014467948019423996,10,1,100,0.028310897887207975,-10,-1,-100,1216.2365078631556,-0.002507207799912519,0.00012976827754307193,0.9999968485296552,64.5711732642131,-3.315230043590373,-4981.236089738446,107.32762084084266,-89.81484985351562,5916.05810546875,True
1598629001.452142,0,5,0.5,0.5,-0.027627725219726566,-0.14,-0.011,-0.56,0.0014301855919657486,10,1,100,0.0292579642039832,-10,-1,-100,1224.8280131721403,-0.0025229074103783507,0.00012979601736459826,0.9999968090405053,64.77617610777882,-3.3150467188821455,-4977.251608665835,107.33240220758661,-89.81533813476562,5914.1806640625,True
1598629001.5458012,0,5,0.5,0.5,-0.02766480102539063,-0.14,-0.011,-0.56,0.001459984051254817,10,1,100,0.029428361238110372,-10,-1,-100,1233.4034056991804,-0.0025386261988878285,0.0001300920982970882,0.9999967692213152,64.98115811540868,-3.3148770622747317,-4973.278044788433,107.33732091487518,-89.815673828125,5912.3037109375,True
