Timestamp,Input Throttle,horizon,dT,dt,Input Roll,Roll P,Roll I,Roll D,Input Pitch,Pitch P,Pitch I,Pitch D,Input Yaw,Yaw P,Yaw I,Yaw D,Altitude,Direction X,Direction Y,Direction Z,Drag X,Drag Y,Drag Z,Vertical Velocity,Roll,Mass,Has Fuel
1598626748.2313929,0,5,0.5,0.5,-0.009813842773437501,-0.14,-0.011,-0.56,0.004292859823790542,10,1,100,0.1253169022727909,-10,-1,-100,478.5333112037042,-0.01174160709410445,0.00041432684316948916,0.9999309791161163,5.398787618860641,-0.44211326771138487,112.66971616154558,-14.239950645626838,-89.92208862304688,6440.1796875,True
1598626748.2778597,0,5,0.5,0.5,-0.009433847045898438,-0.14,-0.011,-0.56,0.004314304086929093,10,1,100,0.12342536330565501,-10,-1,-100,477.6538875515107,-0.01178556283642445,0.00041550505199600964,0.9999304615142897,5.585830456714897,-0.45789855010809055,121.47235744746169,-14.823334519218637,-89.92431640625,6440.1796875,True
1598626748.3234074,0,5,0.5,0.5,-0.008735238647460938,-0.14,-0.011,-0.56,0.004051222772638609,10,1,100,0.11752247311010308,-10,-1,-100,477.0381075865589,-0.01176114581599541,0.0004138067707520275,0.9999307497087243,6.03112501960421,-0.49162588960273546,127.54757384932326,-14.566541879327481,-89.92721557617188,6438.60107421875,True
1598626748.369218,0,5,0.5,0.5,-0.006785882568359377,-0.14,-0.011,-0.56,0.004069087532252694,10,1,100,0.11763863219300957,-10,-1,-100,476.49662332900334,-0.011729312565617257,0.00041204909764421536,0.9999311243492119,5.8727080743640645,-0.4731417662358991,114.05200830906689,-13.663680976522,-89.93243408203125,6435.443359375,True
1598626748.412419,0,5,0.5,0.5,-0.004463354492187499,-0.14,-0.011,-0.56,0.004008765036982753,10,1,100,0.11489732635862743,-10,-1,-100,476.00728789390996,-0.011664789273537627,0.0004095282365913465,0.999931880168758,5.709327609436773,-0.45478470844594027,101.4199652311347,-12.760271316206964,-89.94003295898438,6432.28515625,True
1598626748.4552553,0,5,0.5,0.5,-0.002055563354492188,-0.14,-0.011,-0.56,0.0038824022849022473,10,1,100,0.11111533445964805,-10,-1,-100,475.4770372407511,-0.011561145636862207,0.0004057154940365599,0.9999330854144697,5.527976577753309,-0.4355278532839676,89.41281206020527,-11.856321143063614,-89.94964599609375,6429.126953125,True
1598626748.5022454,0,5,0.5,0.5,0.0003029876708984377,-0.14,-0.011,-0.56,0.0037693577714711293,10,1,100,0.10714910072411293,-10,-1,-100,475.0579597585602,-0.011420357346255268,0.00040085285477916503,0.9999347052458338,5.334945858131537,-0.415889599164782,78.15326843660519,-10.951821105873348,-89.96078491210938,6425.9697265625,True
1598626748.5493526,0,5,0.5,0.5,0.0025028930664062502,-0.14,-0.011,-0.56,0.003596564920378233,10,1,100,0.10288524526365334,-10,-1,-100,474.65310194843914,-0.011243223525748186,0.0003944970178490714,0.99993671514594,5.129282191384844,-0.3958011916105409,67.62696570438735,-10.046762451934114,-89.972900390625,6422.8115234375,True
1598626748.593246,0,5,0.5,0.5,0.00440423583984375,-0.14,-0.011,-0.56,0.003438108403465273,10,1,100,0.0983547504000361,-10,-1,-100,474.2484279483324,-0.011030785350594548,0.00038691983683355113,0.9999390841784257,4.911419528543706,-0.3753019254374866,57.839593320422054,-9.141143975699187,-89.9853515625,6419.65380859375,True
1598626748.63934,0,5,0.5,0.5,0.005955047607421876,-0.14,-0.011,-0.56,0.0032724027795045705,10,1,100,0.09352940268989213,-10,-1,-100,473.91345401783474,-0.010783764952771209,0.000378173330386314,0.9999417820045203,4.6820962027591175,-0.3544474333643555,48.796273022677276,-8.23495538346936,-89.99755096435547,6416.49609375,True
1598626748.6870427,0,5,0.5,0.5,0.007158255767822266,-0.14,-0.011,-0.56,0.0031101256636653076,10,1,100,0.08857065363745098,-10,-1,-100,473.63390005985275,-0.01050431799522528,0.0003684029204444812,0.9999447602656576,4.4425418441402025,-0.33332330614811095,40.50220379750503,-7.328187061627892,-90.009033203125,6413.337890625,True
1598626748.7338831,0,5,0.5,0.5,0.00802827835083008,-0.14,-0.011,-0.56,0.0028828928937503413,10,1,100,0.0822382412878436,-10,-1,-100,473.3687798392493,-0.01019383272982244,0.00035749672615515625,0.9999479776320203,4.194999590899974,-0.3120882831897784,32.96456379656933,-6.420835628340885,-90.01932525634766,6410.1806640625,True
1598626748.7792504,0,5,0.5,0.5,0.008494879150390626,-0.14,-0.011,-0.56,0.0026168408041214175,10,1,100,0.07563673675116614,-10,-1,-100,473.1182462455472,-0.00985300674740152,0.0003452160835553623,0.999951398360886,3.9436045771758046,-0.291030048188762,26.193031159373586,-5.512894846590897,-90.028076171875,6407.0224609375,True
1598626748.9175434,0,5,0.5,0.5,0.008565237426757813,-0.14,-0.011,-0.56,0.0023839499387102395,10,1,100,0.06904279630673205,-10,-1,-100,472.9230712924618,-0.009484954703950004,0.0003319970284947177,0.9999549616918939,3.697219530745783,-0.27077335986881756,20.205428212061136,-4.604358283450134,-90.03501892089844,6403.86474609375,True
1598626748.9603324,0,5,0.5,0.5,0.0067020675659179695,-0.14,-0.011,-0.56,0.0029222543847386893,10,1,100,0.0843115676623804,-10,-1,-100,472.8400251828134,-0.009291209274828764,0.00032494615710270807,0.9999567829862479,3.581958077073036,-0.26137521548923565,17.516855989252626,-4.149864893169404,-90.03775024414062,6402.2861328125,True
1598626749.002218,0,5,0.5,0.5,0.00885286102294922,-0.14,-0.011,-0.56,0.0011892188916521906,10,1,100,0.035386976277047136,-10,-1,-100,472.6455740662059,-0.008672465853941614,0.0003028582986996299,0.99996234759758,3.363098552674628,-0.24288328042813884,10.816064774474793,-2.7854744418219295,-90.04285430908203,6397.548828125,True
1598626749.0683346,0,5,0.5,0.5,0.006807410430908204,-0.14,-0.011,-0.56,0.001629996580561263,10,1,100,0.047530139581017414,-10,-1,-100,472.56123833952006,-0.008222990301155681,0.00028687900386449306,0.9999661494925437,3.700763323007592,-0.2655743021686575,7.911339885357471,-1.8751142451022653,-90.04386901855469,6394.3916015625,True
1598626749.1114428,0,5,0.5,0.5,0.0056843559265136725,-0.14,-0.011,-0.56,0.001447305156162312,10,1,100,0.042363837354122275,-10,-1,-100,472.51361534686293,-0.007770316475692241,0.0002707951536570279,0.9999697739691198,7.119134468838848,-0.5078524112207105,7.732671004180097,-0.9641320955832038,-90.0429458618164,6391.2333984375,True
1598626749.158566,0,5,0.5,0.5,0.004307701110839845,-0.14,-0.011,-0.56,0.0011118329971554872,10,1,100,0.03431646543906466,-10,-1,-100,472.50236952735577,-0.007288794077906822,0.00025323618099035394,0.9999734043224983,14.181906967940709,-1.0060818642542304,0.8297225711788213,-0.052513097585858926,-90.04013061523438,6388.0751953125,True
1598626749.2026525,0,5,0.5,0.5,0.002873664855957031,-0.14,-0.011,-0.56,0.0009609385888584442,10,1,100,0.02778440331332399,-10,-1,-100,472.5276230033487,-0.00679506587084306,0.00023602324181417104,0.9999768854192783,0.7053271602856791,-0.049778095298903986,-0.6686551808931928,0.8597655307537101,-90.0357437133789,6384.91796875,True
1598626749.2478008,0,5,0.5,0.5,0.0014416778564453124,-0.14,-0.011,-0.56,0.0006696309457128375,10,1,100,0.021132174783057733,-10,-1,-100,472.58922313759103,-0.006289373331493518,0.0002178560913422921,0.99998019796485,1.0739581774011486,-0.07543710894001848,-2.0792965883146706,1.7726999768677172,-90.0301284790039,6381.759765625,True
1598626749.2924283,0,5,0.5,0.5,3.254013061523408e-05,-0.14,-0.011,-0.56,0.00045322983107077175,10,1,100,0.014521547080121017,-10,-1,-100,472.6876281017903,-0.00577338799357063,0.0001995100778975672,0.9999833139541902,1.8436123339961865,-0.1289422769471451,-5.362037439175359,2.6862635801104893,-90.02359008789062,6378.6025390625,True
1598626749.33849,0,5,0.5,0.5,-0.0012733459472656248,-0.14,-0.011,-0.56,0.00021006436817205733,10,1,100,0.008043422659142402,-10,-1,-100,472.8224712590454,-0.005249436959573882,0.00018076491296533585,0.9999862052726795,2.42611755016558,-0.1690196853565615,-9.383050514971735,3.6004596429504465,-90.01648712158203,6375.4443359375,True
1598626749.3884044,0,5,0.5,0.5,-0.002419364166259766,-0.14,-0.011,-0.56,-4.524345114407212e-06,10,1,100,0.0016663907190929556,-10,-1,-100,472.99387521727476,-0.004719329883565323,0.00016192254851578498,0.9999888507911169,2.928355024917868,-0.20329041898412664,-14.102182776493954,4.515280083190496,-90.00918579101562,6372.2861328125,True
1598626749.4283793,0,5,0.5,0.5,-0.0034112205505371102,-0.14,-0.011,-0.56,-0.00015470380204159456,10,1,100,-0.004430193332908394,-10,-1,-100,473.19479109102394,-0.004186323254739698,0.0001435824716622906,0.9999912270023577,3.398855284876003,-0.23521102595931231,-19.561675827292163,5.430717153675006,-90.00196838378906,6369.12841796875,True
1598626749.4757874,0,5,0.5,0.5,0.0005911674499511719,-0.14,-0.011,-0.56,0.0016611675147638007,10,1,100,0.04835998094764522,-10,-1,-100,473.19479109102394,-0.004186323254739698,0.0001435824716622906,0.9999912270023577,3.398855284876003,-0.23521102595931231,-19.561675827292163,5.430717153675006,-90.00196838378906,6369.12841796875,True
1598626749.5241976,0,5,0.5,0.5,-0.008650279235839844,-0.14,-0.011,-0.56,-0.00256507262820157,10,1,100,-0.0697334915633766,-10,-1,-100,473.7271159492666,-0.0031168245433660464,0.00010530690293263937,0.9999951371457872,4.304722730265302,-0.29635501293084743,-32.791798684220126,7.263441875961365,-89.98883056640625,6362.8125,True
1598626749.5710511,0,5,0.5,0.5,-0.0055406555175781256,-0.14,-0.011,-0.56,-0.0009486035534012724,10,1,100,-0.024539658078551657,-10,-1,-100,474.0908442939399,-0.0025600479881227626,8.537117031380626e-05,0.9999967194276499,4.750156245327624,-0.32634424441043286,-40.58735360325406,8.18072070909579,-89.98284912109375,6359.6552734375,True
1598626749.6187072,0,5,0.5,0.5,-0.005696483612060548,-0.14,-0.011,-0.56,-0.0009498140642302406,10,1,100,-0.025252164141807386,-10,-1,-100,474.3991535922978,-0.002052146763224334,6.740533963764302e-05,0.9999978920728694,5.192556753354614,-0.3561228946758153,-49.17922121537796,9.0986062769561,-89.97793579101562,6356.49755859375,True
1598626749.6652029,0,5,0.5,0.5,-0.0054060111999511724,-0.14,-0.011,-0.56,-0.0012529936333252945,10,1,100,-0.03335897194178238,-10,-1,-100,474.8328907005489,-0.0015214807126938828,4.848552552331478e-05,0.999998841372126,5.631991601455139,-0.3857267331895158,-58.57022399522269,10.017095111851793,-89.97451782226562,6353.33935546875,True
1598626749.7135215,0,5,0.5,0.5,-0.004990571594238282,-0.14,-0.011,-0.56,-0.001374135414125783,10,1,100,-0.03735069179816418,-10,-1,-100,475.2109643489821,-0.0010075628363883193,3.0354894426912713e-05,0.9999994919477266,6.0683356825839025,-0.41516928187618807,-68.76344032773322,10.93618282277516,-89.97247314453125,6350.181640625,True
1598626749.7595084,0,5,0.5,0.5,-0.0044216682434082034,-0.14,-0.011,-0.56,-0.001552108448276466,10,1,100,-0.04146627676103923,-10,-1,-100,475.71440500265453,-0.0005077520041708568,1.2425021480554969e-05,0.9999998710167523,6.501248826504256,-0.44445534944145965,-79.7619808250277,11.85586667422712,-89.97174072265625,6347.02392578125,True
1598626749.8069985,0,5,0.5,0.5,-0.0037694740295410156,-0.14,-0.011,-0.56,-0.001674766348271202,10,1,100,-0.045644384459309593,-10,-1,-100,476.2323727761395,-2.0182664888341843e-05,-4.819857510252386e-06,0.9999999997847144,6.930156125377566,-0.47356963699697047,-91.56708827560082,12.7761450690597,-89.97216796875,6343.8662109375,True
1598626749.8547282,0,5,0.5,0.5,-0.00298936767578125,-0.14,-0.011,-0.56,-0.0018092516850241047,10,1,100,-0.049444455037912935,-10,-1,-100,476.75040158093907,0.0004528544176333516,-2.1550900771944016e-05,0.9999998972292122,7.3544752657903905,-0.5024925049862937,-104.1798720042715,13.697012587864618,-89.97369384765625,6340.70849609375,True
1598626749.906218,0,5,0.5,0.5,-0.0021952789306640625,-0.14,-0.011,-0.56,-0.0019392376974554674,10,1,100,-0.05294362753824512,-10,-1,-100,477.3237291027326,0.0009099968023822758,-3.777583707805086e-05,0.999999585239317,7.773670874864651,-0.5312087724185967,-117.60189223617488,14.618464849029456,-89.97610473632812,6337.55029296875,True
1598626749.953283,0,5,0.5,0.5,-0.0014162338256835938,-0.14,-0.011,-0.56,-0.002050403714230419,10,1,100,-0.05612108174261302,-10,-1,-100,477.91155262454413,0.0013498337175963497,-5.337150813724724e-05,0.9999990875497923,8.187072940570415,-0.5596910508730296,-131.83227530269158,15.540499257521917,-89.97918701171875,6334.392578125,True
1598626750.0018437,0,5,0.5,0.5,-0.0006466156005859374,-0.14,-0.011,-0.56,-0.002192480966617855,10,1,100,-0.05903462403777295,-10,-1,-100,478.5690177996876,0.0017711393368630198,-6.866195323113015e-05,0.9999984291742591,8.594208402521287,-0.5879251631235531,-146.87234000778298,16.463112842357933,-89.9827880859375,6331.234375,True
1598626750.0512366,0,5,0.5,0.5,4.3148803710937444e-05,-0.14,-0.011,-0.56,-0.002211588581237876,10,1,100,-0.06157203182702779,-10,-1,-100,479.282361279591,0.0021727681852984648,-8.25779099437841e-05,0.9999976361268571,8.99446753072293,-0.6158840583083416,-162.72031635466055,17.386301907291216,-89.98666381835938,6328.0771484375,True
1598626750.1023011,0,5,0.5,0.5,0.0006113098144531252,-0.14,-0.011,-0.56,-0.0023261575622827036,10,1,100,-0.06372717152568438,-10,-1,-100,480.00965109153185,0.002553174939160819,-9.611763489182469e-05,0.9999967360242384,9.38743059387673,-0.6435552092590875,-179.37630275087764,18.31006199682977,-89.99057006835938,6324.9189453125,True
1598626750.1563675,0,5,0.5,0.5,0.0011026550292968754,-0.14,-0.011,-0.56,-0.0023902640379207616,10,1,100,-0.06558071030873318,-10,-1,-100,480.737306944211,0.002911662957333962,-0.00010886060464627169,0.9999957551750865,9.772632015052695,-0.6709165151041429,-196.83854032614192,19.234390983286854,-89.99437713623047,6321.7607421875,True
1598626750.2403936,0,5,0.5,0.5,0.0014064826965332032,-0.14,-0.011,-0.56,-0.002424818131116484,10,1,100,-0.06711042450055323,-10,-1,-100,481.53463514428586,0.0032474375177169758,-0.00012061620878830317,0.9999947197867091,10.149715352320388,-0.6979514731268563,-215.10572323891716,20.1592842730472,-89.9978256225586,6318.603515625,True
1598626750.289851,0,5,0.5,0.5,0.003348432922363282,-0.14,-0.011,-0.56,-0.0036211434497722995,10,1,100,-0.10007175915416933,-10,-1,-100,483.2547790759709,0.00384846743277613,-0.00014204155990227993,0.9999925845338123,10.87830293643908,-0.7509905763363492,-254.04607100596976,22.010750223207754,-90.0033187866211,6312.28759765625,True
1598626750.339286,0,5,0.5,0.5,0.0015940757751464847,-0.14,-0.011,-0.56,-0.002540879882896803,10,1,100,-0.06946259945619025,-10,-1,-100,484.1366097154096,0.004112632976996509,-0.00015155814977849716,0.9999915316042051,11.229395830570525,-0.7769750461402672,-274.71529329770703,22.937316631752964,-90.00515747070312,6309.1298828125,True
1598626750.387783,0,5,0.5,0.5,0.001204186248779297,-0.14,-0.011,-0.56,-0.0024454616299463073,10,1,100,-0.06820927173887431,-10,-1,-100,485.12900581164286,0.004337632478274085,-0.0001592087580098099,0.9999905797541568,11.571376321638601,-0.8025846741254181,-296.17684574474396,23.86443430740257,-90.00601959228516,6305.9716796875,True
1598626750.4342284,0,5,0.5,0.5,0.0006982101440429688,-0.14,-0.011,-0.56,-0.0025184720600348637,10,1,100,-0.06929378379457418,-10,-1,-100,486.08069074025843,0.004548505063523117,-0.00016670244407795577,0.9999896416023429,11.90417903670724,-0.8278062122278422,-318.42419233894105,24.792099949967163,-90.00593566894531,6302.814453125,True
1598626750.4835389,0,5,0.5,0.5,0.00016385498046874998,-0.14,-0.011,-0.56,-0.0024685791331417253,10,1,100,-0.06824164006811996,-10,-1,-100,487.0876733500045,0.004727334735998888,-0.00017294410788905993,0.9999888111357194,12.228052062552754,-0.8526543243642236,-341.45712669675146,25.720310587892367,-90.00505828857422,6299.65625,True
1598626750.5313873,0,5,0.5,0.5,-0.00043787460327148435,-0.14,-0.011,-0.56,-0.002410181659537057,10,1,100,-0.06738819710971872,-10,-1,-100,488.15007577463984,0.0048790781377019395,-0.0001779787592302469,0.9999880813890171,12.543172473474515,-0.8771334144911773,-365.274288154291,26.649063024334925,-90.00345611572266,6296.49853515625,True
1598626750.5803752,0,5,0.5,0.5,-0.0010346466064453125,-0.14,-0.011,-0.56,-0.0024124397244748214,10,1,100,-0.06645401267570153,-10,-1,-100,489.24143879755866,0.005005708700031067,-0.00018247686394348825,0.9999874547126103,12.849671027156292,-0.9012408391310602,-389.8706255587974,27.57835408156134,-90.00128936767578,6293.3408203125,True
1598626750.6282897,0,5,0.5,0.5,-0.0016850624084472658,-0.14,-0.011,-0.56,-0.0023391187923860143,10,1,100,-0.0651650828557297,-10,-1,-100,490.37369527760893,0.005106534448771682,-0.00018580867888744605,0.9999869443053037,13.147779842045066,-0.9249884840616677,-415.2425984891453,28.508181312441057,-89.99860382080078,6290.1826171875,True
1598626750.6775916,0,5,0.5,0.5,-0.002308549499511719,-0.14,-0.011,-0.56,-0.00228096741719381,10,1,100,-0.06364887501602809,-10,-1,-100,491.5348514248617,0.005182089276802581,-0.00018822741538566435,0.9999865551702021,13.4377838792126,-0.9483859177858245,-441.3855077007754,29.43854000289134,-89.99555206298828,6287.025390625,True
1598626750.7246695,0,5,0.5,0.5,-0.0029107421875,-0.14,-0.011,-0.56,-0.0022446414985201426,10,1,100,-0.06187789523492418,-10,-1,-100,492.7370833675377,0.005232611643984754,-0.0001900238794772482,0.999986291739196,13.720029615397202,-0.971438709519904,-468.2950784709868,30.369428387406693,-89.99224853515625,6283.8671875,True
1598626750.7734723,0,5,0.5,0.5,-0.003480841827392578,-0.14,-0.011,-0.56,-0.00213185967643611,10,1,100,-0.05988662004130059,-10,-1,-100,494.0235436888179,0.005258633863184454,-0.00019056864147729783,0.9999861551309028,13.99494317935018,-0.9941627020173385,-495.9675953217896,31.30084387581455,-89.98880004882812,6280.70947265625,True
1598626750.8269494,0,5,0.5,0.5,-0.004000962829589844,-0.14,-0.011,-0.56,-0.002062599274311203,10,1,100,-0.057628427699474793,-10,-1,-100,495.3099428906571,0.005260479435321757,-0.00019039012411113922,0.9999861454578816,14.262981702823247,-1.016570894382256,-524.3983207775012,32.23278274296032,-89.98532104492188,6277.5517578125,True
1598626750.876227,0,5,0.5,0.5,-0.004424394226074219,-0.14,-0.011,-0.56,-0.0019520137397121063,10,1,100,-0.05520150320559314,-10,-1,-100,496.59649408445694,0.0052390507814491765,-0.00018918721075979176,0.9999862581831356,14.524605585892225,-1.0386775918123363,-553.5812106036034,33.16524250153642,-89.98196411132812,6274.3935546875,True
1598626750.9196172,0,5,0.5,0.5,-0.004835376739501953,-0.14,-0.011,-0.56,-0.0018474730041244001,10,1,100,-0.052493964298581976,-10,-1,-100,497.9527468404267,0.005194136725771115,-0.00018711602970526947,0.9999864928744114,14.78041947042519,-1.060504451694955,-583.5131762592308,34.09821976281237,-89.97872924804688,6271.23583984375,True
1598626750.967311,0,5,0.5,0.5,-0.005168648529052735,-0.14,-0.011,-0.56,-0.0017406585660192408,10,1,100,-0.049628696586356824,-10,-1,-100,499.32340397813823,0.00512667093989606,-0.00018424353968599566,0.9999868415631239,15.031007457879355,-1.0820666070594913,-614.1886815288412,35.031712746404914,-89.9757080078125,6268.07861328125,True
1598626751.058229,0,5,0.5,0.5,-0.005410284423828125,-0.14,-0.011,-0.56,-0.0016380741626944354,10,1,100,-0.04669776139063549,-10,-1,-100,500.7498158644885,0.005038330508954091,-0.00018068932742752402,0.9999872912077681,15.277041441887798,-1.1033942291646321,-645.6044476124475,35.965718227715655,-89.97299194335938,6264.919921875,True
1598626751.1065943,0,5,0.5,0.5,-0.006913521575927735,-0.14,-0.011,-0.56,-0.0009707842838379748,10,1,100,-0.0292864559320336,-10,-1,-100,503.7418911943678,0.004799591656318419,-0.00017138948959549355,0.999988467206285,15.758213374394884,-1.1454405140595065,-710.6397836557488,37.83525295301922,-89.96871948242188,6258.6044921875,True
1598626751.161472,0,5,0.5,0.5,-0.005667610168457031,-0.14,-0.011,-0.56,-0.0012316384955345504,10,1,100,-0.0367274735448455,-10,-1,-100,505.3078897841042,0.004650389329533109,-0.0001653165729221147,0.9999891732161478,15.994810981998654,-1.1662107299385887,-744.2517672711815,38.77077690046072,-89.96713256835938,6255.44677734375,True
1598626751.2045507,0,5,0.5,0.5,-0.005539875030517579,-0.14,-0.011,-0.56,-0.0011630920906325222,10,1,100,-0.03391139962015473,-10,-1,-100,506.8737049176125,0.004489564855975855,-0.00015919121963444763,0.9999899091818675,16.229819654106436,-1.1868501351000063,-778.590184547604,39.706801033797944,-89.96609497070312,6252.2890625,True
1598626751.2604628,0,5,0.5,0.5,-0.00531165771484375,-0.14,-0.011,-0.56,-0.0009940161648852859,10,1,100,-0.030078535410501022,-10,-1,-100,508.5096495517064,0.0043091461366731604,-0.00015211205931682197,0.9999907040175394,16.464092467626916,-1.2073930248805569,-813.6583931654854,40.64332331416071,-89.96563720703125,6249.130859375,True
1598626751.318385,0,5,0.5,0.5,-0.0051273071289062505,-0.14,-0.011,-0.56,-0.0008493613134162428,10,1,100,-0.026610096670299593,-10,-1,-100,510.14544160466176,0.004114437371948254,-0.00014439588021486228,0.9999915252415603,16.698280860499978,-1.2278650172448444,-849.4504775457683,41.580340026413815,-89.965576171875,6245.9736328125,True
1598626751.3693407,0,5,0.5,0.5,-0.005011862182617188,-0.14,-0.011,-0.56,-0.0007716650902658414,10,1,100,-0.02308822754163944,-10,-1,-100,511.85099607589655,0.003906452590566188,-0.00013671681787649748,0.9999923604391533,16.9331592519355,-1.2482938957104688,-885.9634076198774,42.51784880621163,-89.96572875976562,6242.8154296875,True
1598626751.4144125,0,5,0.5,0.5,-0.004926602172851563,-0.14,-0.011,-0.56,-0.0005653557877038881,10,1,100,-0.01934203636592051,-10,-1,-100,513.5711383883609,0.003684550166662098,-0.00012790910691490686,0.9999932038415709,17.16948168946936,-1.2687048432920238,-923.1927829668997,43.45584629973553,-89.96600341796875,6239.65771484375,True
1598626751.4654174,0,5,0.5,0.5,-0.0048843444824218755,-0.14,-0.011,-0.56,-0.00044901314995018796,10,1,100,-0.015598067502649166,-10,-1,-100,515.3467615505215,0.0034501977921875377,-0.00011890014397374073,0.9999940409812204,17.408078613485873,-1.289130282993337,-961.1376451323272,44.39433004708542,-89.96630859375,6236.5,True
1598626751.520374,0,5,0.5,0.5,-0.004876644897460938,-0.14,-0.011,-0.56,-0.00031973976226030065,10,1,100,-0.011930445502785894,-10,-1,-100,517.1222013955703,0.0032053935598788017,-0.00010959697948980121,0.9999948567070874,17.649749574687256,-1.3096066399303392,-999.7962549103629,45.33329724205703,-89.96658325195312,6233.341796875,True
1598626751.5722249,0,5,0.5,0.5,-0.00495504150390625,-0.14,-0.011,-0.56,-0.00013317032320523748,10,1,100,-0.00820825083491955,-10,-1,-100,518.9820530933794,0.002950752740235727,-9.951133193135216e-05,0.9999956415683824,17.895333909481092,-1.3301598035961695,-1039.169689708114,46.272744403045245,-89.96670532226562,6230.1845703125,True
1598626751.62213,0,5,0.5,0.5,-0.0050730407714843755,-0.14,-0.011,-0.56,-2.0131371581086268e-05,10,1,100,-0.00452607607002389,-10,-1,-100,520.8275008489145,0.002687684567941806,-8.938873276844817e-05,0.9999963841741217,18.14562998964642,-1.3508235082792044,-1079.2591566783988,47.21266853414278,-89.96664428710938,6227.0263671875,True
1598626751.674128,0,5,0.5,0.5,-0.005254766845703126,-0.14,-0.011,-0.56,0.00013191913227786085,10,1,100,-0.0008132351532777575,-10,-1,-100,522.7571153678,0.002416698500329983,-7.887863872784233e-05,0.9999970766689865,18.401353104194666,-1.3716273680183593,-1120.062804977448,48.153067459271355,-89.96633911132812,6223.86865234375,True
1598626751.7583065,0,5,0.5,0.5,-0.0055119873046875,-0.14,-0.011,-0.56,0.00029889021415433414,10,1,100,0.0028066463827578388,-10,-1,-100,524.7278071576729,0.0021394701438363683,-6.788466879586388e-05,0.9999977090269634,18.663310598687243,-1.3926044674717655,-1161.5838926107815,49.093937720232255,-89.96572875976562,6220.7109375,True
1598626751.8492124,0,5,0.5,0.5,-0.006708679199218751,-0.14,-0.011,-0.56,0.0016564383716109257,10,1,100,0.03798622476507528,-10,-1,-100,528.7270519981394,0.0015697664660139596,-4.563180974522226e-05,0.9999987668747297,19.208740195998843,-1.4351884352417108,-1246.775462943295,50.97707869903043,-89.96353149414062,6214.39501953125,True
1598626751.9423187,0,5,0.5,0.5,-0.008044003295898439,-0.14,-0.011,-0.56,0.0019587853393604445,10,1,100,0.04552112130929632,-10,-1,-100,532.9069614839973,0.000985845317292178,-2.2750129310162978e-05,0.9999995137956029,19.78745831571978,-1.4788043894665108,-1334.8441483198962,52.86206740253442,-89.95986938476562,6208.0791015625,True
1598626751.9903376,0,5,0.5,0.5,-0.00941746826171875,-0.14,-0.011,-0.56,0.0021603520805082385,10,1,100,0.049289779737529224,-10,-1,-100,537.2407080100384,0.00042359155279267363,-2.267637686788672e-07,0.9999999102850685,20.40304084178892,-1.5235416201724115,-1425.1009962394921,54.726605279369736,-89.95498657226562,6201.81640625,True
1598626752.0462685,0,5,0.5,0.5,-0.00857479248046875,-0.14,-0.011,-0.56,0.001093229610706997,10,1,100,0.02309925533159047,-10,-1,-100,539.4490339630283,0.00015371368060872529,1.0423827858015565e-05,0.9999999881317241,20.740205047490704,-1.5474370165748093,-1470.9939137636657,55.61055457102925,-89.95230102539062,6198.7998046875,True
1598626752.1303954,0,5,0.5,0.5,-0.008859030151367188,-0.14,-0.011,-0.56,0.0012057638956256517,10,1,100,0.024896155512056574,-10,-1,-100,541.7125551633071,-0.00010475544439359835,2.1003465622659253e-05,0.9999999942925755,21.05544489152305,-1.5692438115280531,-1512.876458905634,56.40477444251562,-89.94976806640625,6195.9951171875,True
1598626752.2202196,0,5,0.5,0.5,-0.009872708129882814,-0.14,-0.011,-0.56,0.0018350938114443764,10,1,100,0.04080734315787691,-10,-1,-100,545.1232574881287,-0.0004811427609608219,3.6215314089236104e-05,0.9999998835950406,21.481902834688327,-1.5977774712606627,-1569.7395907185353,57.50818183700376,-89.94631958007812,6191.9951171875,True
1598626752.310456,0,5,0.5,0.5,-0.011958596801757813,-0.14,-0.011,-0.56,0.0030220539784940746,10,1,100,0.06848060251456135,-10,-1,-100,551.0083253085613,-0.0010715367371546658,6.070225758332228e-05,0.9999994240619626,22.177707537380257,-1.6425324847279246,-1658.9837902632005,59.220504655885776,-89.94061279296875,6185.63134765625,True
1598626752.4036376,0,5,0.5,0.5,-0.011867669677734376,-0.14,-0.011,-0.56,0.0025869261322721566,10,1,100,0.05769270308142,-10,-1,-100,555.7754932171665,-0.0015065300938683385,7.886175889455167e-05,0.9999988620733021,22.73965194041897,-1.6773256304418185,-1726.7457726363791,60.48107827029614,-89.93621826171875,6180.798828125,True
1598626752.4531114,0,5,0.5,0.5,-0.011555068969726563,-0.14,-0.011,-0.56,0.0025394669872762475,10,1,100,0.055605655160401946,-10,-1,-100,560.6675426046131,-0.001879192514633504,9.478599468510376e-05,0.9999982298239873,23.285979989454773,-1.709943095556596,-1788.4059299929936,61.59215966620067,-89.93319702148438,6176.318359375,True
1598626752.5073082,0,5,0.5,0.5,-0.010433688354492189,-0.14,-0.011,-0.56,0.0017482540523314776,10,1,100,0.03704239713323035,-10,-1,-100,563.155496098334,-0.002045314286886673,0.00010191185087391415,0.9999979031495229,23.55766631971572,-1.7258373553978468,-1817.4692987178878,62.09694723359688,-89.93243408203125,6174.197265625,True
1598626752.5497603,0,5,0.5,0.5,-0.010278051757812502,-0.14,-0.011,-0.56,0.0018139243147922343,10,1,100,0.037186920044829486,-10,-1,-100,565.6434806268662,-0.0021938435750125255,0.00010883254386823069,0.999997587600013,23.80887670373325,-1.7400982487251198,-1843.3111795664881,62.54463758721826,-89.93209838867188,6172.2109375,True
1598626752.6077292,0,5,0.5,0.5,-0.010146002197265627,-0.14,-0.011,-0.56,0.0018064106366811616,10,1,100,0.03765808693050858,-10,-1,-100,568.1875488999067,-0.002329732072232177,0.00011491535464967828,0.999997279567766,24.03506363405883,-1.7523892991496917,-1866.3389121245177,62.96563365607617,-89.93206787109375,6170.2861328125,True
1598626752.6912413,0,5,0.5,0.5,-0.01013813171386719,-0.14,-0.011,-0.56,0.0018584390268616014,10,1,100,0.03815235462295291,-10,-1,-100,570.6756982255029,-0.0024547462510999683,0.0001207930175581257,0.999996979810384,24.268439657365644,-1.7651064810189039,-1888.8696780924267,63.35161982671403,-89.93209838867188,6168.4453125,True
1598626752.7832465,0,5,0.5,0.5,-0.010201760864257814,-0.14,-0.011,-0.56,0.0018420570349724648,10,1,100,0.03841434414882399,-10,-1,-100,573.2341837655986,-0.002568160556847795,0.00012587740229287955,0.9999966943476531,24.48492525916244,-1.776473774396214,-1909.6349714234702,63.72694881992857,-89.93206787109375,6166.62890625,True
1598626752.873496,0,5,0.5,0.5,-0.010783709716796876,-0.14,-0.011,-0.56,0.002916042994756252,10,1,100,0.05858995440726347,-10,-1,-100,580.9648165054386,-0.002852204678752127,0.00014015812116393125,0.9999959226337732,25.135226709804694,-1.8100636144000366,-1968.8434107326461,64.76476177604086,-89.93124389648438,6161.38671875,True
1598626752.9652772,0,5,0.5,0.5,-0.011368051147460938,-0.14,-0.011,-0.56,0.0023193314279535775,10,1,100,0.04615568725377875,-10,-1,-100,586.1515287150396,-0.0029948901343295146,0.00014760761984346186,0.9999955044124319,25.564328527311538,-1.8317183558995183,-2006.1656405863773,65.41136856218819,-89.92977905273438,6158.0,True
1598626753.0543592,0,5,0.5,0.5,-0.012061294555664064,-0.14,-0.011,-0.56,0.0021824568987264927,10,1,100,0.04152876015529795,-10,-1,-100,591.4631707536755,-0.003080255986346979,0.00015303431173573962,0.9999952442904705,25.979926903155803,-1.8522730526764717,-2040.013701844961,65.97397703833441,-89.92764282226562,6154.8095703125,True
1598626753.1482532,0,5,0.5,0.5,-0.012545532226562501,-0.14,-0.011,-0.56,0.0020165342837261627,10,1,100,0.03749153494635655,-10,-1,-100,596.719688733574,-0.0031193331506004862,0.00015637534236130512,0.9999951226418297,26.366161482623262,-1.8706830753152484,-2069.608225360229,66.46486971368901,-89.92526245117188,6151.787109375,True
1598626753.2378795,0,5,0.5,0.5,-0.012741299438476562,-0.14,-0.011,-0.56,0.0018749095333748696,10,1,100,0.032867830651694685,-10,-1,-100,602.1014599369373,-0.0031113579853733558,0.00015805467830547405,0.999995147223328,26.732054407487244,-1.8876609200944443,-2096.177675761503,66.89959140673609,-89.923095703125,6148.8974609375,True
1598626753.2934546,0,5,0.5,0.5,-0.012607147216796875,-0.14,-0.011,-0.56,0.0016796599476787976,10,1,100,0.028599751329273036,-10,-1,-100,607.4423479067627,-0.003064186963626004,0.00015774883412691753,0.9999952929257003,27.078506583186172,-1.9033213062928467,-2120.0818656309716,67.28539031527666,-89.92156982421875,6146.1220703125,True
1598626753.378312,0,5,0.5,0.5,-0.012063677978515626,-0.14,-0.011,-0.56,0.0016785386299768973,10,1,100,0.029497034047945965,-10,-1,-100,610.1404633923667,-0.0030285350843193117,0.00015740983927343705,0.9999954015881202,27.248881497950517,-1.9109846363174943,-2131.459421830341,67.46195389079637,-89.921142578125,6144.77197265625,True
1598626753.463282,0,5,0.5,0.5,-0.01200736999511719,-0.14,-0.011,-0.56,0.0014767252010787627,10,1,100,0.0229829397495952,-10,-1,-100,615.5921926157316,-0.002936146435410669,0.00015522283342083067,0.9999956774656489,27.562171032767484,-1.9244858849292223,-2151.2445768223656,67.77552225685882,-89.9208984375,6142.166015625,True
1598626753.5505192,0,5,0.5,0.5,-0.011754763793945312,-0.14,-0.011,-0.56,0.0013179542407426538,10,1,100,0.01931269273825579,-10,-1,-100,620.9886629849207,-0.002818239586878655,0.00015175463075288646,0.9999960172401502,27.85687731098461,-1.9368159589353653,-2169.0476782250807,68.05780948493735,-89.92108154296875,6139.6337890625,True
1598626753.639338,0,5,0.5,0.5,-0.011719885253906251,-0.14,-0.011,-0.56,0.0012371683963769183,10,1,100,0.016296294809955682,-10,-1,-100,626.4549402911216,-0.0026832992949233883,0.00014783915554852616,0.9999963890177194,28.140236301233077,-1.9484953191125534,-2185.5933882167405,68.31334343232174,-89.92129516601562,6137.1640625,True
1598626753.7282476,0,5,0.5,0.5,-0.01187272644042969,-0.14,-0.011,-0.56,0.0010838640711274383,10,1,100,0.0134974662403272,-10,-1,-100,631.9212238021428,-0.0025350777345691817,0.00014286599172115276,0.9999967764798985,28.407290690459114,-1.95919449107112,-2200.501291764998,68.54108401238189,-89.9212646484375,6134.759765625,True
1598626753.813321,0,5,0.5,0.5,-0.01218704833984375,-0.14,-0.011,-0.56,0.0009569521432084065,10,1,100,0.01118873999555543,-10,-1,-100,637.4429921045667,-0.0023796307383348713,0.00013718872719649736,0.9999971592643663,28.658395021423633,-1.9689450006427505,-2213.880480787644,68.74370270525353,-89.92080688476562,6132.4150390625,True
1598626753.9010043,0,5,0.5,0.5,-0.012602801513671876,-0.14,-0.011,-0.56,0.0009175448616335115,10,1,100,0.009265135151899327,-10,-1,-100,642.923687917064,-0.0022213872971758924,0.00013167880133489973,0.9999975240465195,28.8941593432448,-1.9777851317435255,-2225.8482746092795,68.92380315959485,-89.91986083984375,6130.123046875,True
1598626753.9881542,0,5,0.5,0.5,-0.012936068725585937,-0.14,-0.011,-0.56,0.000806224497999564,10,1,100,0.0077051495150763545,-10,-1,-100,648.4599905583309,-0.0020641287255049492,0.00012567718861895768,0.9999978617866385,29.115330169890075,-1.9857637056478838,-2236.521255400942,69.08387687197066,-89.91864013671875,6127.8779296875,True
1598626754.0416603,0,5,0.5,0.5,-0.013114251708984375,-0.14,-0.011,-0.56,0.0007148745503143387,10,1,100,0.006496031168133543,-10,-1,-100,653.9962357813492,-0.001911133679400153,0.00011941863040163771,0.9999981666519444,29.322701167674083,-1.9929241845521,-2246.006411197902,69.22616698815584,-89.91741943359375,6125.67578125,True
1598626754.1213439,0,5,0.5,0.5,-0.012778698730468751,-0.14,-0.011,-0.56,0.0010036967785572847,10,1,100,0.013557106340280546,-10,-1,-100,656.7643857584335,-0.0018373299793298322,0.00011638981232255892,0.9999983053345434,29.423117818013363,-1.9963263427895686,-2250.4621294505987,69.29133000167711,-89.91693115234375,6124.587890625,True
1598626754.2107298,0,5,0.5,0.5,-0.01289488525390625,-0.14,-0.011,-0.56,0.0006914063015135779,10,1,100,0.0052819341176067874,-10,-1,-100,662.3006314757513,-0.0016961221926818666,0.00011083493611554847,0.9999985554415188,29.609594790940875,-2.002234717267375,-2258.1154157840942,69.4071532620598,-89.9163818359375,6122.4482421875,True
1598626754.2983356,0,5,0.5,0.5,-0.012656591796875002,-0.14,-0.011,-0.56,0.0005713817369774356,10,1,100,0.00406193398523412,-10,-1,-100,667.8923117088852,-0.0015578718516999985,0.00010473625707080848,0.9999987810320621,29.784429320941285,-2.0074492300376403,-2264.8688361808945,69.51161525869126,-89.91629028320312,6120.3349609375,True
1598626754.3874888,0,5,0.5,0.5,-0.012482217407226564,-0.14,-0.011,-0.56,0.0007243793540386931,10,1,100,0.007234277495751756,-10,-1,-100,672.0167737591546,-0.0014622821868881975,0.00010062878770919267,0.9999989258017495,29.910822475205364,-2.011097387695941,-2269.5804554074157,69.58335452639159,-89.91647338867188,6118.76611328125,True
1598626754.4746504,0,5,0.5,0.5,-0.012162579345703127,-0.14,-0.011,-0.56,0.0003835415667357646,10,1,100,0.000537410889648272,-10,-1,-100,679.0346464086324,-0.0013157345746401562,9.38426773531914e-05,0.9999991300176623,30.108102863010114,-2.0163761572796535,-2276.416899297007,69.69093124351637,-89.91708374023438,6116.1796875,True
1598626754.565542,0,5,0.5,0.5,-0.0121244873046875,-0.14,-0.011,-0.56,0.0005067636745347051,10,1,100,0.0035986774061627282,-10,-1,-100,684.5854331456358,-0.0012115824088559622,8.884277480790364e-05,0.9999992620872418,30.2561298157755,-2.0200088872774873,-2281.161268004357,69.76813054933093,-89.91763305664062,6114.1318359375,True
1598626754.6523926,0,5,0.5,0.5,-0.012222476196289063,-0.14,-0.011,-0.56,0.0005312497755942769,10,1,100,0.004386870171587967,-10,-1,-100,690.1915140262572,-0.0011252671881248455,8.45691217917411e-05,0.9999993633107068,30.396286536496792,-2.0231636852542603,-2285.2498663851857,69.83601550827684,-89.91793823242188,6112.1064453125,True
1598626754.740445,0,5,0.5,0.5,-0.01248197937011719,-0.14,-0.011,-0.56,0.0005168885729818211,10,1,100,0.005043003712543503,-10,-1,-100,695.7832559075905,-0.001053903986514526,8.060126230366625e-05,0.9999994413947557,30.5277606546217,-2.02577168113227,-2288.6234025675253,69.8959263830027,-89.91781616210938,6110.1005859375,True
1598626754.8222134,0,5,0.5,0.5,-0.012800390625,-0.14,-0.011,-0.56,0.000547043565154883,10,1,100,0.005984399049306028,-10,-1,-100,701.3339835153893,-0.0009986478365763144,7.73146877333817e-05,0.9999994983623429,30.652417839147315,-2.0279432693701462,-2291.42899012457,69.94931347288642,-89.91726684570312,6108.1103515625,True
1598626754.8728356,0,5,0.5,0.5,-0.013092428588867189,-0.14,-0.011,-0.56,0.0006060699491785983,10,1,100,0.006923269404793306,-10,-1,-100,706.9401322077028,-0.0009579187770359414,7.490746207050732e-05,0.9999995383901379,30.771180045331768,-2.0297337959055826,-2293.728146138931,69.99698835677543,-89.91641235351562,6106.13427734375,True
1598626754.9535253,0,5,0.5,0.5,-0.012914093017578124,-0.14,-0.011,-0.56,0.0007115811894694951,10,1,100,0.00923994311431415,-10,-1,-100,709.7781158025609,-0.0009428195883606685,7.371873289629434e-05,0.9999995528282862,30.828567581992655,-2.030495664088213,-2294.661689184243,70.01760123509212,-89.91598510742188,6105.15380859375,True
1598626755.0382226,0,5,0.5,0.5,-0.013103121948242188,-0.14,-0.011,-0.56,0.0006367826599824296,10,1,100,0.008353286101663797,-10,-1,-100,715.3843270710204,-0.0009218457261690254,7.199687526933309e-05,0.999999572508362,30.93947577136716,-2.031761344712045,-2296.2222306147582,70.05675338273339,-89.91537475585938,6103.1982421875,True
1598626755.1252577,0,5,0.5,0.5,-0.012954693603515626,-0.14,-0.011,-0.56,0.0006382077755330442,10,1,100,0.009160039553660307,-10,-1,-100,720.9906028478872,-0.0009108165887097844,7.047981307787047e-05,0.9999995827227818,31.04643665862546,-2.032754759781128,-2297.421688028705,70.09240714522394,-89.91510009765625,6101.251953125,True
1598626755.2135448,0,5,0.5,0.5,-0.012716744995117189,-0.14,-0.011,-0.56,0.0006761475738996914,10,1,100,0.010131785919762203,-10,-1,-100,726.5966932812007,-0.0009102123900413918,6.947671511077664e-05,0.9999995833431088,31.151060136066864,-2.033577992307521,-2298.375489524148,70.12504898754118,-89.91522216796875,6099.3134765625,True
1598626755.3001463,0,5,0.5,0.5,-0.012423321533203127,-0.14,-0.011,-0.56,0.0006937906916265352,10,1,100,0.011058147682607303,-10,-1,-100,732.2029674242949,-0.0009185864707294875,6.875351991329756e-05,0.9999995757358345,31.253077529189493,-2.0342026148155465,-2299.0414869760048,70.15456585914791,-89.91574096679688,6097.3828125,True
1598626755.383444,0,5,0.5,0.5,-0.012202630615234376,-0.14,-0.011,-0.56,0.00076553087047252,10,1,100,0.012017818357144903,-10,-1,-100,737.8236467131646,-0.0009352845939452896,6.87710615027709e-05,0.999999560256538,31.352983291790313,-2.034662064068789,-2299.4444455057933,70.1811504487822,-89.91647338867188,6095.4599609375,True
1598626755.4360454,0,5,0.5,0.5,-0.012250903320312501,-0.14,-0.011,-0.56,0.0007475838443027603,10,1,100,0.012204082408732941,-10,-1,-100,742.0180063910084,-0.0009524091953512834,6.864210063102624e-05,0.9999995441023893,31.42682901346358,-2.034912831798677,-2299.588936609392,70.199219155232,-89.9169921875,6094.0224609375,True
1598626755.5184119,0,5,0.5,0.5,-0.012286123657226564,-0.14,-0.011,-0.56,0.000820061992772889,10,1,100,0.012751418674389694,-10,-1,-100,746.2124287980841,-0.0009731099426743151,6.919823484386019e-05,0.9999995241342086,31.50012188999766,-2.03511124024205,-2299.632799996515,70.21610590168362,-89.9173583984375,6092.58837890625,True
1598626755.6034346,0,5,0.5,0.5,-0.012363531494140625,-0.14,-0.011,-0.56,0.0008222298822083123,10,1,100,0.014222198230117049,-10,-1,-100,751.8740026389714,-0.00100537297624172,6.973388587535836e-05,0.9999994921810531,31.596426235443978,-2.0352591922837155,-2299.474720706844,70.23640172213909,-89.91754150390625,6090.68212890625,True
1598626755.690335,0,5,0.5,0.5,-0.01261530456542969,-0.14,-0.011,-0.56,0.0008731158804538837,10,1,100,0.015035388904885458,-10,-1,-100,757.4801578823244,-0.0010420895354921053,7.069033298064191e-05,0.9999994545259896,31.692130273036017,-2.035333599397727,-2299.1526137114442,70.25468480919251,-89.91732788085938,6088.78125,True
1598626755.7787337,0,5,0.5,0.5,-0.012857827758789063,-0.14,-0.011,-0.56,0.000899889448875729,10,1,100,0.01570699506714249,-10,-1,-100,763.1008998721372,-0.0010814972174143774,7.180706017936179e-05,0.9999994126035848,31.788015781369538,-2.0353836806407593,-2298.7443505132546,70.27190663826754,-89.91680908203125,6086.8837890625,True
1598626755.8634984,0,5,0.5,0.5,-0.013036364746093751,-0.14,-0.011,-0.56,0.0009096250912086733,10,1,100,0.016329089671102654,-10,-1,-100,768.7071759742685,-0.001122851717716941,7.291251044733111e-05,0.9999993669436925,31.88389796143058,-2.0354019631915055,-2298.211547055109,70.28737019381249,-89.9161376953125,6084.9912109375,True
1598626755.9644084,0,5,0.5,0.5,-0.013044070434570312,-0.14,-0.011,-0.56,0.000958475924108486,10,1,100,0.016868198961225496,-10,-1,-100,774.32779341063,-0.0011651649788189812,7.436073132168516e-05,0.9999993184302947,31.979586542783164,-2.0353778905609303,-2297.4881547214404,70.29935345354578,-89.91558837890625,6083.10693359375,True
1598626756.064276,0,5,0.5,0.5,-0.012885452270507814,-0.14,-0.011,-0.56,0.0009618796839792278,10,1,100,0.017255043475906187,-10,-1,-100,779.9340129760094,-0.0012069171223269247,7.570471091697394e-05,0.999999268809661,32.07516971982785,-2.0353203279866765,-2296.692151752781,70.3115492689202,-89.91537475585938,6081.2236328125,True
1598626756.1624076,0,5,0.5,0.5,-0.012616119384765624,-0.14,-0.011,-0.56,0.0009824832051215592,10,1,100,0.017585052804404665,-10,-1,-100,785.6099926752504,-0.0012476039696547817,7.710815347234293e-05,0.9999992187690286,32.17232260131767,-2.035338465041644,-2295.9304968767156,70.32345532016244,-89.91558837890625,6079.341796875,True
1598626756.2602382,0,5,0.5,0.5,-0.012330032348632815,-0.14,-0.011,-0.56,0.0010010717259375957,10,1,100,0.01786312503811579,-10,-1,-100,791.2162091148784,-0.0012868208352602754,7.854540177231594e-05,0.9999991689610336,32.270204768737536,-2.0353832846604467,-2295.1302049675432,70.33455633079619,-89.91616821289062,6077.46240234375,True
1598626756.364403,0,5,0.5,0.5,-0.012121017456054688,-0.14,-0.011,-0.56,0.0010122784667567163,10,1,100,0.018038705993791967,-10,-1,-100,796.8370131747797,-0.0013237491433702212,7.994498483403837e-05,0.9999991206481158,32.36886670270574,-2.0354576165384834,-2294.3008406995345,70.34488858191908,-89.91693115234375,6075.5859375,True
1598626756.4643157,0,5,0.5,0.5,-0.012121084594726564,-0.14,-0.011,-0.56,0.0010261980602768823,10,1,100,0.018175006643792846,-10,-1,-100,802.4431693177903,-0.0013582218476083446,8.133359948196662e-05,0.9999990743087007,32.46831287403448,-2.0355726282452427,-2293.448478987356,70.35448388707177,-89.91754150390625,6073.71142578125,True
1598626756.5572975,0,5,0.5,0.5,-0.012270419311523438,-0.14,-0.011,-0.56,0.0010453714806462038,10,1,100,0.01821828404273311,-10,-1,-100,808.1191494043451,-0.001389603998810701,8.275924810649695e-05,0.9999990310753472,32.568469631074755,-2.0357219645462905,-2292.5724799126974,70.36330141868483,-89.91781616210938,6071.84033203125,True
1598626756.6482334,0,5,0.5,0.5,-0.012573461914062502,-0.14,-0.011,-0.56,0.0010244961486412514,10,1,100,0.018273862128901683,-10,-1,-100,813.7253052913584,-0.0014182891815756765,8.385367532672392e-05,0.99999899071167,32.66931752535652,-2.0359058230424103,-2291.681838475336,70.37147753118067,-89.9176025390625,6069.970703125,True
1598626756.7392342,0,5,0.5,0.5,-0.012859414672851562,-0.14,-0.011,-0.56,0.001027730909781269,10,1,100,0.018231824286901677,-10,-1,-100,819.3460487292614,-0.001443642458574669,8.486604940788852e-05,0.9999989543465562,32.77085458299061,-2.03613071843927,-2290.785743572144,70.37911985574551,-89.91702270507812,6068.103515625,True
1598626756.8312788,0,5,0.5,0.5,-0.01304716796875,-0.14,-0.011,-0.56,0.0010125425706128427,10,1,100,0.018160597645222397,-10,-1,-100,824.9666088108206,-0.0014657141543392505,8.563644186266289e-05,0.999998922173628,32.873008906179656,-2.0363929791662776,-2289.8874370450117,70.3862966275699,-89.91629028320312,6066.23876953125,True
1598626756.9219763,0,5,0.5,0.5,-0.013064089965820314,-0.14,-0.011,-0.56,0.001045243434400935,10,1,100,0.01808172221321,-10,-1,-100,830.6282461611554,-0.0014847505898009188,8.662251200924468e-05,0.9999988940055017,32.97574564294548,-2.036692810279636,-2288.9925942828727,70.39306157940172,-89.91567993164062,6064.37548828125,True
1598626757.0090587,0,5,0.5,0.5,-0.012871728515625002,-0.14,-0.011,-0.56,0.00106904280452767,10,1,100,0.01797542877545907,-10,-1,-100,836.2488680030219,-0.0015007996038674434,8.772415025211884e-05,0.9999988699518727,33.0789114669568,-2.03702764206485,-2288.0978905888896,70.39945010999344,-89.91546630859375,6062.513671875,True
1598626757.0945323,0,5,0.5,0.5,-0.012538375854492188,-0.14,-0.011,-0.56,0.0010136824152354807,10,1,100,0.017839320422913328,-10,-1,-100,841.8696117084473,-0.0015138851021033767,8.821143653449804e-05,0.9999988501846588,33.18243457313021,-2.0373899886560465,-2287.2056474696874,70.40552001887812,-89.915771484375,6060.6533203125,True
1598626757.1472313,0,5,0.5,0.5,-0.012196377563476564,-0.14,-0.011,-0.56,0.0010200476623871656,10,1,100,0.0176950093908975,-10,-1,-100,847.5311884933617,-0.0015242270173609462,8.870219605343795e-05,0.9999988344312807,33.286344160071614,-2.0377854748212054,-2286.3313792405556,70.41156350805609,-89.91650390625,6058.7939453125,True
1598626757.2272205,0,5,0.5,0.5,-0.012285729980468752,-0.14,-0.011,-0.56,0.0009862935861946027,10,1,100,0.017175422002458977,-10,-1,-100,850.3138803202892,-0.001528689412989204,8.883225238319536e-05,0.9999988276080676,33.33852131712167,-2.038001518639733,-2285.9049386441075,70.41447700824132,-89.91696166992188,6057.865234375,True
1598626757.275361,0,5,0.5,0.5,-0.011986624145507812,-0.14,-0.011,-0.56,0.0010355273633011522,10,1,100,0.017508996964242646,-10,-1,-100,855.9899216183694,-0.0015355923266041818,8.938998586798968e-05,0.9999988169821186,33.44264771882869,-2.0384224002794427,-2285.021723176521,70.41977887723647,-89.91775512695312,6056.0087890625,True
1598626757.3603032,0,5,0.5,0.5,-0.01221710205078125,-0.14,-0.011,-0.56,0.0009899241287630175,10,1,100,0.017142791627543313,-10,-1,-100,858.7726142142201,-0.0015383773173032623,8.947511746165055e-05,0.9999988126940116,33.49470796749308,-2.038636074290007,-2284.5783260080843,70.42232706979337,-89.91806030273438,6055.0810546875,True
1598626757.4509444,0,5,0.5,0.5,-0.012195471191406251,-0.14,-0.011,-0.56,0.001017649841776066,10,1,100,0.017324229988420675,-10,-1,-100,864.4341901354492,-0.0015424233182026819,8.97984564202289e-05,0.99999880643256,33.598746704970296,-2.0390671016378175,-2283.6719475200166,70.42678832375837,-89.9183349609375,6053.2275390625,True
1598626757.538376,0,5,0.5,0.5,-0.012455285644531251,-0.14,-0.011,-0.56,0.0009649094597921014,10,1,100,0.017242358482753142,-10,-1,-100,870.0548129528761,-0.001545244365208243,8.960753856354273e-05,0.999998802094453,33.702675274160555,-2.0395016225301497,-2282.7738223935908,70.43149691337325,-89.91818237304688,6051.37548828125,True
1598626757.6203954,0,5,0.5,0.5,-0.012582183837890625,-0.14,-0.011,-0.56,0.0009981069457527837,10,1,100,0.017105830112905684,-10,-1,-100,874.2493593170075,-0.0015464754210268367,8.973146175787454e-05,0.9999988001802986,33.78073186425998,-2.0398408309397142,-2282.116391617495,70.43507819148778,-89.91787719726562,6049.98583984375,True
1598626757.7057862,0,5,0.5,0.5,-0.012858148193359377,-0.14,-0.011,-0.56,0.0009843891753478706,10,1,100,0.01705459908721818,-10,-1,-100,879.9255237189354,-0.0015470554067495922,8.971568945822679e-05,0.9999987992846108,33.88482517410554,-2.040301845413588,-2281.2560287656675,70.43999277912586,-89.917236328125,6048.1337890625,True
1598626757.7925322,0,5,0.5,0.5,-0.012924795532226563,-0.14,-0.011,-0.56,0.0009452044256464723,10,1,100,0.016928706027712653,-10,-1,-100,885.5462063474115,-0.00154638154339573,8.934231402721704e-05,0.999998800360317,33.98891462940518,-2.040771137145327,-2280.40938967242,70.44487542253403,-89.9166259765625,6046.283203125,True
1598626757.879741,0,5,0.5,0.5,-0.012859432983398436,-0.14,-0.011,-0.56,0.000978091082716432,10,1,100,0.016856222364496274,-10,-1,-100,891.1667670097668,-0.0015450685598270442,8.930038036895773e-05,0.9999988023935766,34.092779223946245,-2.0412375800825657,-2279.55813513611,70.44954150663663,-89.91622924804688,6044.43359375,True
1598626757.967364,0,5,0.5,0.5,-0.012636761474609376,-0.14,-0.011,-0.56,0.0009708085033394656,10,1,100,0.01674064556554377,-10,-1,-100,896.8428087732755,-0.0015427958916307402,8.919506364544551e-05,0.9999988059118259,34.19633492257705,-2.0416926510034927,-2278.697967651582,70.45399243651389,-89.91622924804688,6042.58544921875,True
1598626758.0542717,0,5,0.5,0.5,-0.012337991333007814,-0.14,-0.011,-0.56,0.0009202363007264591,10,1,100,0.016696076947047528,-10,-1,-100,902.44902621035,-0.0015403077795802527,8.863912581159616e-05,0.9999988097968164,34.299518918417846,-2.042136010311195,-2277.827272727428,70.45827502639332,-89.91665649414062,6040.73828125,True
1598626758.141276,0,5,0.5,0.5,-0.012064889526367188,-0.14,-0.011,-0.56,0.0009621632470161404,10,1,100,0.016666770348628703,-10,-1,-100,908.0697090866743,-0.0015377688737609192,8.851505740761348e-05,0.9999988137152842,34.40237986101419,-2.042571124742238,-2276.950924696183,70.46242633116285,-89.91738891601562,6038.892578125,True
1598626758.1925218,0,5,0.5,0.5,-0.011962753295898439,-0.14,-0.011,-0.56,0.0009354523874319839,10,1,100,0.01658554252512262,-10,-1,-100,913.7458120316733,-0.0015347203641231455,8.816023734273724e-05,0.9999988184298901,34.50487936548524,-2.042990877271917,-2276.0677371110182,70.46647312263993,-89.91812133789062,6037.046875,True
1598626758.2734337,0,5,0.5,0.5,-0.012159219360351563,-0.14,-0.011,-0.56,0.00094167902859655,10,1,100,0.016726490389501046,-10,-1,-100,916.5284433555789,-0.0015332336604496825,8.789547482172664e-05,0.9999988207337688,34.55604976112664,-2.043201063624109,-2275.6272962124444,70.46846319180793,-89.91842651367188,6036.125,True
1598626758.360461,0,5,0.5,0.5,-0.01215911865234375,-0.14,-0.011,-0.56,0.0009342391152370452,10,1,100,0.01659773315329445,-10,-1,-100,922.2046072027879,-0.0015307199455607953,8.758887602808378e-05,0.9999988246116278,34.6579341421889,-2.0435974681903617,-2274.7263782404916,70.47227478818715,-89.91867065429688,6034.2822265625,True
1598626758.4464757,0,5,0.5,0.5,-0.01238074951171875,-0.14,-0.011,-0.56,0.0009231933574260026,10,1,100,0.016538732622034015,-10,-1,-100,927.8252901282394,-0.0015279115857591188,8.721156901970393e-05,0.9999988289394784,34.75947425101934,-2.0439815764348754,-2273.8217700879686,70.47607188585627,-89.91854858398438,6032.439453125,True
1598626758.5030923,0,5,0.5,0.5,-0.012610723876953125,-0.14,-0.011,-0.56,0.0009310862871866052,10,1,100,0.016578715299988556,-10,-1,-100,933.4457898932742,-0.001525738886498334,8.694260736694425e-05,0.999998832280235,34.860718427782764,-2.044356285473088,-2272.9167063356394,70.47986878663389,-89.91812133789062,6030.59814453125,True
1598626758.5834143,0,5,0.5,0.5,-0.012562753295898439,-0.14,-0.011,-0.56,0.0009248475273154736,10,1,100,0.016718721184981078,-10,-1,-100,936.2839023123961,-0.001525055864779599,8.664390175841724e-05,0.9999988333480412,34.91127193151517,-2.044541764446515,-2272.466079743056,70.48174830496998,-89.9178466796875,6029.677734375,True
1598626758.6717896,0,5,0.5,0.5,-0.012792123413085938,-0.14,-0.011,-0.56,0.0009211499921218043,10,1,100,0.016631133856542787,-10,-1,-100,941.9047070033848,-0.0015236580744845975,8.634119035096732e-05,0.9999988355049573,35.011911643499836,-2.044888838463998,-2271.5432189566445,70.48536153572378,-89.91729736328125,6027.837890625,True
1598626758.760368,0,5,0.5,0.5,-0.012739678955078127,-0.14,-0.011,-0.56,0.0008948782098330761,10,1,100,0.01668534893145521,-10,-1,-100,947.5806882592151,-0.0015228996844295658,8.582985395067713e-05,0.999998836704217,35.11214312225687,-2.045215154698522,-2270.610297833048,70.48896977683225,-89.91693115234375,6025.9990234375,True
1598626758.8476088,0,5,0.5,0.5,-0.012640640258789063,-0.14,-0.011,-0.56,0.0009308095725982018,10,1,100,0.016710984785423114,-10,-1,-100,953.2013711716281,-0.0015224613796039736,8.569471071163699e-05,0.9999988373832063,35.21214199360435,-2.0455326496806308,-2269.678217321534,70.49258225511339,-89.91677856445312,6024.1611328125,True
1598626758.9326956,0,5,0.5,0.5,-0.012384158325195313,-0.14,-0.011,-0.56,0.0009119612460607712,10,1,100,0.01677210992109403,-10,-1,-100,958.807588609634,-0.0015226348277231493,8.54031815395329e-05,0.999998837144063,35.311789281935006,-2.0458339556399423,-2268.7364942036897,70.49613950110391,-89.91702270507812,6022.3232421875,True
1598626759.0203907,0,5,0.5,0.5,-0.012158120727539063,-0.14,-0.011,-0.56,0.0009074837013702357,10,1,100,0.01686050193796286,-10,-1,-100,964.4836910191225,-0.0015236098298448781,8.510027904576803e-05,0.9999988356848366,35.411081404182084,-2.0461178950195427,-2267.7800655303163,70.49950468946375,-89.91754150390625,6020.48779296875,True
1598626759.1034286,0,5,0.5,0.5,-0.011979315185546877,-0.14,-0.011,-0.56,0.0009017288671542268,10,1,100,0.016930214162409283,-10,-1,-100,970.1042525121011,-0.0015251400433907612,8.47753782479244e-05,0.9999988333798111,35.51003763599646,-2.0463869930124505,-2266.821068036861,70.5030968236546,-89.918212890625,6018.65234375,True
1598626759.18729,0,5,0.5,0.5,-0.01197100524902344,-0.14,-0.011,-0.56,0.0009239521948974712,10,1,100,0.017006602881101694,-10,-1,-100,975.725118601229,-0.0015272329473451848,8.468488058989041e-05,0.9999988301933136,35.608873315081624,-2.046650883429332,-2265.8688156041867,70.5067989033458,-89.91876220703125,6016.8173828125,True
1598626759.2712708,0,5,0.5,0.5,-0.012107623291015626,-0.14,-0.011,-0.56,0.0009084204127960357,10,1,100,0.01709157200628885,-10,-1,-100,981.4010992109543,-0.0015299112038947402,8.446405196842664e-05,0.9999988261180771,35.70748245633453,-2.046906117187931,-2264.9105542404955,70.51044029609677,-89.91900634765625,6014.9833984375,True
1598626759.3582604,0,5,0.5,0.5,-0.012350650024414064,-0.14,-0.011,-0.56,0.0009133055509319046,10,1,100,0.01719483450546616,-10,-1,-100,987.0217214173172,-0.0015332829147340064,8.431020676565046e-05,0.999998820966951,35.80588959069398,-2.0471513779284365,-2263.9492890194933,70.51410988502427,-89.91885375976562,6013.1494140625,True
1598626759.446165,0,5,0.5,0.5,-0.012606192016601564,-0.14,-0.011,-0.56,0.0009033231335498358,10,1,100,0.01727599525557648,-10,-1,-100,992.6978239015443,-0.0015370790731995825,8.40819913329272e-05,0.9999988151583689,35.904100743543076,-2.0473901791507427,-2262.983705585416,70.51777845799792,-89.91836547851562,6011.3173828125,True
1598626759.534326,0,5,0.5,0.5,-0.012780792236328126,-0.14,-0.011,-0.56,0.0009286318692338068,10,1,100,0.017365164184510493,-10,-1,-100,998.3329720967449,-0.0015413298227873063,8.410693118251079e-05,0.999998808613491,36.00211486406747,-2.0476185269590217,-2262.0088371448787,70.52130212918561,-89.917724609375,6009.4853515625,True
1598626759.6202595,0,5,0.5,0.5,-0.012763232421875001,-0.14,-0.011,-0.56,0.0009188404367009729,10,1,100,0.017459032204875973,-10,-1,-100,1003.9537162093911,-0.0015460314210082845,8.404262189471416e-05,0.9999988013611232,36.099905488615505,-2.047834812833688,-2261.0253655987462,70.52478446445863,-89.917236328125,6007.6552734375,True
1598626759.709333,0,5,0.5,0.5,-0.012596270751953126,-0.14,-0.011,-0.56,0.0009217020365294521,10,1,100,0.017531816903880493,-10,-1,-100,1009.6296970727853,-0.0015509462514395978,8.401179820611791e-05,0.999998793753144,36.19754474812179,-2.0480482856968734,-2260.0382675044525,70.52826079448658,-89.91708374023438,6005.826171875,True
1598626759.7924566,0,5,0.5,0.5,-0.01229686279296875,-0.14,-0.011,-0.56,0.0009433303680833995,10,1,100,0.017613352324264607,-10,-1,-100,1015.2504409921821,-0.0015561296148607967,8.418192778743495e-05,0.9999987856862751,36.29503204659405,-2.0482549397538814,-2259.046751601505,70.53172471644352,-89.91738891601562,6003.9970703125,True
1598626759.876285,0,5,0.5,0.5,-0.012018750000000002,-0.14,-0.011,-0.56,0.0008863395470702271,10,1,100,0.01770333295747424,-10,-1,-100,1020.8711238491815,-0.0015616293193754854,8.381960290101441e-05,0.9999987771433239,36.392347258210485,-2.0484552872556465,-2258.0467165310038,70.53507911503985,-89.91802978515625,6002.16943359375,True
1598626759.9581964,0,5,0.5,0.5,-0.011821679687500001,-0.14,-0.011,-0.56,0.0009133098964800106,10,1,100,0.01777687506144898,-10,-1,-100,1026.5471653817222,-0.0015672630521617631,8.373656588630719e-05,0.9999987683365978,36.48961747074822,-2.0486557103662277,-2257.050891539513,70.53851680931385,-89.9188232421875,6000.34228515625,True
1598626760.045541,0,5,0.5,0.5,-0.011816735839843752,-0.14,-0.011,-0.56,0.0009394133505080144,10,1,100,0.017828659760545085,-10,-1,-100,1032.1678484159056,-0.0015728171037694611,8.38993261935203e-05,0.9999987596028612,36.58680784179051,-2.04885372027982,-2256.054551236748,70.54194859692619,-89.91946411132812,5998.51611328125,True
1598626760.1344035,0,5,0.5,0.5,-0.011982589721679688,-0.14,-0.011,-0.56,0.0009315368859272446,10,1,100,0.01788870621055172,-10,-1,-100,1037.843951037852,-0.0015783706782706794,8.397640002606739e-05,0.9999987508462028,36.683928945586906,-2.0490524814382742,-2255.058262494842,70.54536910717444,-89.91973876953125,5996.6904296875,True
1598626760.2214026,0,5,0.5,0.5,-0.012306491088867189,-0.14,-0.011,-0.56,0.0009355446977830251,10,1,100,0.017987064223565403,-10,-1,-100,1043.464634251548,-0.0015842694920497513,8.40833451197467e-05,0.999998741509292,36.78095874452639,-2.0492478070904805,-2254.060371100978,70.54877580617904,-89.91949462890625,5994.8662109375,True
1598626760.3062825,0,5,0.5,0.5,-0.01261767578125,-0.14,-0.011,-0.56,0.0008997244334174592,10,1,100,0.018039206667322855,-10,-1,-100,1049.0854391128523,-0.0015900597208127793,8.385513540308267e-05,0.9999987323383968,36.87796660551218,-2.0494478999301275,-2253.0649393229623,70.55216514362331,-89.91885375976562,5993.0419921875,True
1598626760.3927433,0,5,0.5,0.5,-0.012792309570312502,-0.14,-0.011,-0.56,0.0009248508595786325,10,1,100,0.01810262964667009,-10,-1,-100,1054.775945735746,-0.001595851973457222,8.387630031297134e-05,0.9999987231098073,36.97487494484865,-2.049647970765474,-2252.06752628736,70.55554247146121,-89.9180908203125,5991.2197265625,True
1598626760.4792674,0,5,0.5,0.5,-0.01279190673828125,-0.14,-0.011,-0.56,0.0009451218606418944,10,1,100,0.018127785515565396,-10,-1,-100,1060.3965070063714,-0.0016012967818051548,8.408003263241756e-05,0.9999987143887559,37.07173964674693,-2.0498473714356455,-2251.0715133078606,70.55890710554834,-89.91748046875,5989.3974609375,True
1598626760.5687246,0,5,0.5,0.5,-0.012556652832031253,-0.14,-0.011,-0.56,0.0009287266982579556,10,1,100,0.018178857518837126,-10,-1,-100,1066.0171898078406,-0.0016066606572777485,8.411616289138948e-05,0.9999987057821643,37.16853336583678,-2.0500436620651454,-2250.075424261898,70.56225774622102,-89.91732788085938,5987.576171875,True
1598626760.6553636,0,5,0.5,0.5,-0.012193225097656253,-0.14,-0.011,-0.56,0.0009233760009140413,10,1,100,0.018270097809014205,-10,-1,-100,1071.6934147714637,-0.0016123157154309543,8.410027100125086e-05,0.9999986966817398,37.26524177856548,-2.0502396980286224,-2249.0858206115986,70.56584364646596,-89.917724609375,5985.755859375,True
1598626760.7415533,0,5,0.5,0.5,-0.011838241577148438,-0.14,-0.011,-0.56,0.0009010480501699177,10,1,100,0.018279802954283275,-10,-1,-100,1077.3139753733994,-0.0016174938277085237,8.388291669143842e-05,0.9999986883378266,37.362035142623704,-2.050444071050399,-2248.1090155606803,70.56952292599938,-89.91854858398438,5983.935546875,True
1598626760.8273482,0,5,0.5,0.5,-0.0116155029296875,-0.14,-0.011,-0.56,0.0009247319187322005,10,1,100,0.018336704529227768,-10,-1,-100,1083.0046043964103,-0.0016226677036345976,8.390057220236567e-05,0.9999986799542374,37.45877177724229,-2.0506524899105303,-2247.133711451123,70.57319501144515,-89.91952514648438,5982.1162109375,True
1598626760.9112937,0,5,0.5,0.5,-0.01164891052246094,-0.14,-0.011,-0.56,0.0009421111454479502,10,1,100,0.018379548616335274,-10,-1,-100,1088.6251654027728,-0.0016277103510397577,8.40744665403372e-05,0.9999986717443663,37.55542024479338,-2.050854947132058,-2246.1578060231586,70.57684669566528,-89.92025756835938,5980.29736328125,True
