Timestamp,Input Throttle,horizon,dT,dt,Input Roll,Roll P,Roll I,Roll D,Input Pitch,Pitch P,Pitch I,Pitch D,Input Yaw,Yaw P,Yaw I,Yaw D,Altitude,Direction X,Direction Y,Direction Z,Drag X,Drag Y,Drag Z,Vertical Velocity,Roll,Mass,Has Fuel
1598622462.4890277,0,5,0.5,0.5,0.05108047485351563,-0.14,-0.011,-0.56,0.00782233927404475,10,1,100,0.24798243122700153,-10,-1,-100,460.6289585881168,-0.0128772302880171,0.00044679353099370844,0.9999169852120974,8.263229729456679,-0.6904455059424603,288.8551271212519,-23.368468324585972,-90.0099105834961,6440.1796875,True
1598622462.5328202,0,5,0.5,0.5,0.006349097442626954,-0.14,-0.011,-0.56,0.004787815782227455,10,1,100,0.13798181968843348,-10,-1,-100,459.7055602920009,-0.012949246595103107,0.00044929535934999025,0.9999160540496883,8.381723977479883,-0.7010843170943336,298.1848580171802,-23.75631160770054,-90.01698303222656,6440.1796875,True
1598622462.5757344,0,5,0.5,0.5,0.008655681610107423,-0.14,-0.011,-0.56,0.0046988383286669065,10,1,100,0.13682790031971648,-10,-1,-100,457.7964781774208,-0.012992453746742865,0.00045035241249665055,0.999915493093463,8.962738461116258,-0.7458057734886111,317.30601870077095,-23.88644541279158,-90.02590942382812,6438.60107421875,True
1598622462.6199336,0,5,0.5,0.5,0.0008068321228027341,-0.14,-0.011,-0.56,0.004632414494490129,10,1,100,0.13364428516691199,-10,-1,-100,456.87071648426354,-0.012990979697983747,0.0004503001055806468,0.9999155122690625,8.89335260728368,-0.730270889429114,295.86572635939,-22.983057937123117,-90.02179718017578,6435.443359375,True
1598622462.669159,0,5,0.5,0.5,0.0010989059448242191,-0.14,-0.011,-0.56,0.004607551942323291,10,1,100,0.13238438785543122,-10,-1,-100,456.4115438767476,-0.012966376060191102,0.0004496171669049625,0.9999158319260021,8.858620551359968,-0.7227258756760819,285.5814195917922,-22.53118105347141,-90.01889038085938,6433.8642578125,True
1598622462.7109146,0,5,0.5,0.5,-0.004643864440917969,-0.14,-0.011,-0.56,0.004200496457571076,10,1,100,0.12012608820721972,-10,-1,-100,455.09285962663125,-0.012820782414432056,0.00044488706627758844,0.9999177114211849,8.719327515350255,-0.6981673238224397,255.3613044043391,-21.1748248010226,-90.00833129882812,6429.126953125,True
1598622462.7532196,0,5,0.5,0.5,-0.0037684585571289065,-0.14,-0.011,-0.56,0.0041761878082696565,10,1,100,0.11933684031400253,-10,-1,-100,454.2974078137195,-0.012669594317063283,0.0004399615442897104,0.99991964067803,8.607443798795122,-0.6810676491737733,236.11111368935818,-20.26997692187562,-90.0011215209961,6425.9697265625,True
1598622462.7972374,0,5,0.5,0.5,-0.0022505012512207038,-0.14,-0.011,-0.56,0.004362793190265531,10,1,100,0.12568033495911946,-10,-1,-100,453.9024734017439,-0.012578300912304495,0.0004367802445513386,0.9999207946478449,8.545447157098133,-0.672281444023717,226.75216508887215,-19.817367499382524,-89.99752044677734,6424.390625,True
1598622462.870823,0,5,0.5,0.5,-0.006746789550781251,-0.14,-0.011,-0.56,0.003517072494504488,10,1,100,0.0997756749266151,-10,-1,-100,452.7230720348889,-0.012248375179580735,0.00042580271096903535,0.9999248951783887,8.334679470662795,-0.6449591829899459,199.7488695785437,-18.458786947998643,-89.98822021484375,6419.65380859375,True
1598622462.9127996,0,5,0.5,0.5,-0.007618511962890626,-0.14,-0.011,-0.56,0.0024757459294444733,10,1,100,0.06996558198659066,-10,-1,-100,451.3406881906558,-0.011666306963850202,0.00040596943647460586,0.9999318639140578,7.995144195572323,-0.6062883639696611,166.28312205365296,-16.64555991270286,-89.97955322265625,6413.337890625,True
1598622462.9532316,0,5,0.5,0.5,-0.0038342407226562504,-0.14,-0.011,-0.56,0.003885131812541232,10,1,100,0.11126412498404156,-10,-1,-100,451.0150881467853,-0.011501989606832136,0.00040038272274739087,0.9999337697711583,7.89975063422171,-0.5962233279883042,158.37495406120786,-16.19192818916815,-89.97805786132812,6411.75927734375,True
1598622462.9927127,0,5,0.5,0.5,-0.003800919342041016,-0.14,-0.011,-0.56,0.0038242075930415118,10,1,100,0.10833637860184955,-10,-1,-100,450.74811230727937,-0.011327244533960498,0.00039479222718924006,0.9999357667722288,7.800180858376465,-0.5860018230974299,150.65178862635923,-15.738165422486949,-89.97695922851562,6410.1806640625,True
1598622463.0331514,0,5,0.5,0.5,-0.003165624237060547,-0.14,-0.011,-0.56,0.0014338055543987268,10,1,100,0.040290456860314836,-10,-1,-100,449.5686351231998,-0.010551260635573368,0.00036802857917795105,0.9999442661738529,7.361345879023289,-0.5436239369670975,121.62960118000962,-13.921782647770897,-89.97705078125,6403.86474609375,True
1598622463.0790017,0,5,0.5,0.5,-0.0018820884704589843,-0.14,-0.011,-0.56,0.002468931289505967,10,1,100,0.06955383583243295,-10,-1,-100,449.0457599305082,-0.010114070712341751,0.00035318306388077114,0.9999487891063968,7.118258091715674,-0.5215739481403552,108.24708411516804,-13.012780775541591,-89.97903442382812,6400.70703125,True
1598622463.1158667,0,5,0.5,0.5,-0.0009678237915039063,-0.14,-0.011,-0.56,0.002277131323878784,10,1,100,0.064388505161937,-10,-1,-100,448.52828620083164,-0.009672283147840901,0.0003380317930519058,0.99995316523986,6.859997014214787,-0.49898187842964736,95.62201740165787,-12.103230649321933,-89.98199462890625,6397.548828125,True
1598622463.1568458,0,5,0.5,0.5,-0.002666123962402344,-0.14,-0.011,-0.56,0.0037810998693800116,10,1,100,0.10823785232078696,-10,-1,-100,448.52828620083164,-0.009672283147840901,0.0003380317930519058,0.99995316523986,6.859997014214787,-0.49898187842964736,95.62201740165787,-12.103230649321933,-89.98199462890625,6397.548828125,True
1598622463.2027721,0,5,0.5,0.5,0.003008641052246094,-0.14,-0.011,-0.56,8.021816335637005e-05,10,1,100,0.0008065455064680399,-10,-1,-100,447.6797707544174,-0.008698497176134903,0.0003044845550637142,0.999962121000607,6.302163718915302,-0.4523973934871307,72.67029854162692,-10.282456466797939,-89.99014282226562,6391.2333984375,True
1598622463.2379863,0,5,0.5,0.5,9.983596801757815e-05,-0.14,-0.011,-0.56,0.002416793626979488,10,1,100,0.06872603255659313,-10,-1,-100,447.4878065708326,-0.008434297172440522,0.00029535182200668295,0.9999643870651135,6.154813639270613,-0.44049330276667426,67.41274226224235,-9.826909483581057,-89.99252319335938,6389.654296875,True
1598622463.2785304,0,5,0.5,0.5,0.0005237213134765624,-0.14,-0.011,-0.56,0.0022818299452594284,10,1,100,0.06511926689174356,-10,-1,-100,447.29025763855316,-0.008165093848255965,0.00028595096614151275,0.9999666241802745,6.004590564741745,-0.42850139751812794,62.34792151862602,-9.371219700292448,-89.99504089355469,6388.0751953125,True
1598622463.3188157,0,5,0.5,0.5,0.00663550262451172,-0.14,-0.011,-0.56,-0.0010101785484222,10,1,100,-0.030101135427912082,-10,-1,-100,446.5920111249434,-0.007058435606392521,0.0002476045215440955,0.999975058278351,5.379065058580789,-0.37989321098772544,44.02489174854966,-7.547016852711042,-90.00577545166016,6381.759765625,True
1598622463.3729541,0,5,0.5,0.5,0.004359354400634766,-0.14,-0.011,-0.56,0.0005657682374459322,10,1,100,0.015281952863572396,-10,-1,-100,446.3359523708932,-0.006469145163127847,0.00022721487443154515,0.9999790490476583,5.056253546214172,-0.3554874388946319,36.03535191114314,-6.634038154989813,-90.01107025146484,6378.6025390625,True
1598622463.4367893,0,5,0.5,0.5,0.004528114318847656,-0.14,-0.011,-0.56,0.00038051340618915595,10,1,100,0.011205027998309344,-10,-1,-100,446.07998548378237,-0.005900938938151847,0.00020715212208899763,0.9999825678518832,4.732844660131521,-0.3314009936332366,28.837806912059367,-5.7204664760755755,-90.01549530029297,6375.4443359375,True
1598622463.5534635,0,5,0.5,0.5,0.00420200424194336,-0.14,-0.011,-0.56,0.00010325744062634947,10,1,100,0.0024551683102962338,-10,-1,-100,445.8934164769016,-0.005309776650642462,0.00018656332945892913,0.9999858856334145,4.419106441128144,-0.3083137367784209,22.449804196860992,-4.806296040712748,-90.01850891113281,6372.2861328125,True
1598622463.587885,0,5,0.5,0.5,0.0033130073547363286,-0.14,-0.011,-0.56,0.00101263209764158,10,1,100,0.02827267543460541,-10,-1,-100,445.8065256153932,-0.005011825984932133,0.00017627825599511352,0.9999874251840737,4.272299805146193,-0.2975777272029175,19.569599980760763,-4.348982938732838,-90.01958465576172,6370.70751953125,True
1598622463.656323,0,5,0.5,0.5,0.0033212966918945317,-0.14,-0.011,-0.56,0.0008285588851738293,10,1,100,0.02507379546695056,-10,-1,-100,445.72869843558874,-0.004716519420696254,0.000165415618921834,0.9999888634791025,4.139059106509909,-0.28784879996371693,16.90856580245038,-3.891519043219822,-90.02039337158203,6369.12841796875,True
1598622463.7468073,0,5,0.5,0.5,0.003471414947509766,-0.14,-0.011,-0.56,-0.001509392478183417,10,1,100,-0.04369191017885937,-10,-1,-100,445.5501205800101,-0.0038274213689082222,0.00013444331480117773,0.9999926663584389,3.98378408027276,-0.2759222348580969,10.439012772663578,-2.5182114600313006,-90.02119445800781,6364.3916015625,True
1598622463.861041,0,5,0.5,0.5,0.0029537742614746095,-0.14,-0.011,-0.56,0.0003758040600784615,10,1,100,0.011553527783610504,-10,-1,-100,445.50882441573776,-0.003526695177649677,0.00012360990547409886,0.9999937735514732,4.1884447516253305,-0.2897590010552152,8.956131818401056,-2.060133461412228,-90.02103424072266,6362.8125,True
1598622463.9277396,0,5,0.5,0.5,0.002383201599121094,-0.14,-0.011,-0.56,-0.0008751792230194606,10,1,100,-0.025380514125058352,-10,-1,-100,445.45391150773503,-0.0029222453518799054,0.00010255320773912751,0.9999957249733336,6.701774009019529,-0.462684268957647,7.918809726049327,-1.1435086865646948,-90.0200424194336,6359.6552734375,True
1598622463.987753,0,5,0.5,0.5,-0.0012394813537597656,-0.14,-0.011,-0.56,-0.004615686902036902,10,1,100,-0.12959986837934037,-10,-1,-100,445.4772017095238,-0.0014303077914326046,4.958141145651097e-05,0.9999989758801282,0.7009116952130429,-0.04821871123897281,-0.8270909020217083,1.1508898023809302,-90.01403045654297,6351.7607421875,True
1598622464.0248175,0,5,0.5,0.5,-0.0004367324829101563,-0.14,-0.011,-0.56,-0.0016868620317272661,10,1,100,-0.046384696537849456,-10,-1,-100,445.55067927064374,-0.0008366250132729969,2.8265795070297164e-05,0.9999996496297546,1.481609209220777,-0.10185267581773383,-3.138985616973262,2.0698097938435476,-90.01033782958984,6348.6025390625,True
1598622464.08529,0,5,0.5,0.5,-0.0013972900390625002,-0.14,-0.011,-0.56,-0.0018515532902984222,10,1,100,-0.05237105610676525,-10,-1,-100,445.6609314623056,-0.0002481481375860459,7.590167574432101e-06,0.999999969182445,2.232655356865842,-0.1534309565281109,-6.825707455964435,2.9893585554563136,-90.0060043334961,6345.4453125,True
1598622464.121122,0,5,0.5,0.5,-0.006677215576171876,-0.14,-0.011,-0.56,-0.005133675951390421,10,1,100,-0.14382103646343392,-10,-1,-100,446.09792708442546,0.0011125388462576776,-4.08436773345933e-05,0.9999993802943627,3.5465660527504794,-0.24389814914891003,-19.21317084202033,5.290960686247376,-89.99500274658203,6337.55029296875,True
1598622464.159957,0,5,0.5,0.5,-0.0034067581176757816,-0.14,-0.011,-0.56,-0.002306835179153831,10,1,100,-0.06465242775378617,-10,-1,-100,446.33177837950643,0.0016234364998602563,-5.895044223208049e-05,0.9999986804885175,3.9972374467626617,-0.2751295383670405,-25.470486467129298,6.212683701929984,-89.99090576171875,6334.392578125,True
1598622464.1929667,0,5,0.5,0.5,-0.0023818237304687505,-0.14,-0.011,-0.56,-0.001433617887897004,10,1,100,-0.039448845105331976,-10,-1,-100,446.47081350313965,0.0018524625125580145,-6.724960424410586e-05,0.9999982819285893,4.215969424399729,-0.2903445104914754,-28.89003330958582,6.673775685426415,-89.9891357421875,6332.8134765625,True
1598622464.2291882,0,5,0.5,0.5,-0.003218540191650391,-0.14,-0.011,-0.56,-0.0024616643857760362,10,1,100,-0.06796672731594323,-10,-1,-100,446.7543476735009,0.0023136811910183606,-8.391878527190266e-05,0.9999973199149005,4.643460957176414,-0.32021032791386905,-36.316350827118036,7.596419573012118,-89.986572265625,6329.6552734375,True
1598622464.2672627,0,5,0.5,0.5,-0.0030592102050781256,-0.14,-0.011,-0.56,-0.002593098430720477,10,1,100,-0.07222666911548699,-10,-1,-100,447.1018470120616,0.002765306550876605,-0.00010004077352012763,0.9999961715284332,5.0603637489819535,-0.3495223814130346,-44.53392317694386,8.519674245983028,-89.98480224609375,6326.498046875,True
1598622464.3056824,0,5,0.5,0.5,-0.0021080307006835944,-0.14,-0.011,-0.56,-0.0010043480147301105,10,1,100,-0.02772340592164102,-10,-1,-100,447.1018470120616,0.002765306550876605,-0.00010004077352012763,0.9999961715284332,5.0603637489819535,-0.3495223814130346,-44.53392317694386,8.519674245983028,-89.98480224609375,6326.498046875,True
1598622464.341821,0,5,0.5,0.5,-0.003194638824462891,-0.14,-0.011,-0.56,-0.004199083440498208,10,1,100,-0.11635575924602763,-10,-1,-100,447.8666090905899,0.0035653352158905504,-0.0001288805040462065,0.9999936358670559,5.867064770004564,-0.40687306977594295,-63.36090288331228,10.368002722426407,-89.98330688476562,6320.1826171875,True
1598622464.3782003,0,5,0.5,0.5,-0.0022694717407226567,-0.14,-0.011,-0.56,-0.0028629873494184005,10,1,100,-0.07940387830307705,-10,-1,-100,448.3419772887137,0.0039508100113602495,-0.00014274171850392963,0.9999921853319935,6.257647594579516,-0.4349966036728325,-73.97640063365888,11.293069676110003,-89.98348999023438,6317.0244140625,True
1598622464.410969,0,5,0.5,0.5,-0.00240560531616211,-0.14,-0.011,-0.56,-0.0014960982166421306,10,1,100,-0.04139451053638642,-10,-1,-100,448.3419772887137,0.0039508100113602495,-0.00014274171850392963,0.9999921853319935,6.257647594579516,-0.4349966036728325,-73.97640063365888,11.293069676110003,-89.98348999023438,6317.0244140625,True
1598622464.4485986,0,5,0.5,0.5,-0.0015165588378906253,-0.14,-0.011,-0.56,-0.0034738770309431866,10,1,100,-0.09585929425951559,-10,-1,-100,449.03725379309617,0.004441592195184484,-0.00016056606453068994,0.9999901231898795,6.827339918049366,-0.47651809148975954,-91.4048497361965,12.681789491247482,-89.98480224609375,6312.28759765625,True
1598622464.4870918,0,5,0.5,0.5,-0.0017620491027832033,-0.14,-0.011,-0.56,-0.0023696366682327973,10,1,100,-0.0654065153127111,-10,-1,-100,449.3096207645722,0.004606650971569411,-0.00016657859741028201,0.9999893754527579,7.012858132716861,-0.49018017762383015,-97.61577008834499,13.144993343300367,-89.98553466796875,6310.708984375,True
1598622464.5249653,0,5,0.5,0.5,-0.00028137512207031257,-0.14,-0.011,-0.56,-0.003498229067022811,10,1,100,-0.0959596159196584,-10,-1,-100,450.1328263512114,0.0050312833991413095,-0.0001821901628170243,0.9999873264167413,7.556072012929073,-0.5306327065485361,-117.45337223340455,14.535489900589802,-89.98825073242188,6305.9716796875,True
1598622464.5629559,0,5,0.5,0.5,-0.000267205810546875,-0.14,-0.011,-0.56,-0.003017621942417312,10,1,100,-0.08246619775419144,-10,-1,-100,450.7474456856726,0.005291547398248535,-0.00019190130321711737,0.9999859812517483,7.906846877708352,-0.5571440482539939,-131.68136610495054,15.463221343741,-89.99044799804688,6302.814453125,True
1598622464.6022058,0,5,0.5,0.5,-0.0007271881103515624,-0.14,-0.011,-0.56,-0.002501040125588321,10,1,100,-0.06909417334853636,-10,-1,-100,451.08939298579935,0.005403460734762156,-0.0001959200946105993,0.9999853820068593,8.078828209455708,-0.5702651427955343,-139.09656143449715,15.927305766496001,-89.99154663085938,6301.2353515625,True
1598622464.6411653,0,5,0.5,0.5,-0.0005465454101562498,-0.14,-0.011,-0.56,-0.0025385431261448236,10,1,100,-0.06981173316441754,-10,-1,-100,451.42546213569585,0.005508914512151874,-0.00019981265832851592,0.9999848058524687,8.260605187932724,-0.5841110572852337,-146.71134431086153,16.369561462766807,-89.99267578125,6299.708984375,True
1598622464.6758497,0,5,0.5,0.5,0.00032515258789062506,-0.14,-0.011,-0.56,-0.002979496469560969,10,1,100,-0.08110670300730746,-10,-1,-100,452.10901219653897,0.00570496893747673,-0.00020726931766239744,0.9999837050516637,8.588300293830653,-0.6094296413269511,-161.76989926772615,17.23245727107649,-89.99481201171875,6296.708984375,True
1598622464.7139773,0,5,0.5,0.5,0.0005818298339843751,-0.14,-0.011,-0.56,-0.002959878931989431,10,1,100,-0.08052573827157941,-10,-1,-100,452.7926710419124,0.005875246315277617,-0.00021377227712969187,0.999982717741736,8.885356456688706,-0.6327612277052658,-176.75111779859785,18.062495517311117,-89.99687194824219,6293.78857421875,True
1598622464.7552752,0,5,0.5,0.5,0.00014280242919921884,-0.14,-0.011,-0.56,-0.0026167065852030695,10,1,100,-0.07184493574238397,-10,-1,-100,453.1986988984281,0.005949027625649931,-0.00021648713551728036,0.9999822809448322,9.023552073069968,-0.643769090609056,-184.27301168784166,18.47202360981744,-89.99787139892578,6292.34228515625,True
1598622464.794952,0,5,0.5,0.5,0.0018900367736816408,-0.14,-0.011,-0.56,-0.00328110059802957,10,1,100,-0.08886721930906392,-10,-1,-100,454.7575671544764,0.006169033015127044,-0.0002249280928798623,0.9999809460379789,9.56013068426137,-0.6868978285739868,-214.3750407067696,19.981951378783673,-90.00114440917969,6286.865234375,True
1598622464.8320544,0,5,0.5,0.5,0.0008402732849121095,-0.14,-0.011,-0.56,-0.002769919281124509,10,1,100,-0.0750050467452025,-10,-1,-100,455.5748422469478,0.006241001597704072,-0.00022787987271545812,0.999980498794762,9.785442565226733,-0.7055396007964825,-228.8359589706414,20.6854656297241,-90.00223541259766,6284.25146484375,True
1598622464.8704712,0,5,0.5,0.5,0.0006116470336914063,-0.14,-0.011,-0.56,-0.0026127346648373738,10,1,100,-0.07195424752275248,-10,-1,-100,456.39157035876997,0.006277057216749535,-0.0002290731635014033,0.9999802728445114,10.01289512197393,-0.7243749685173442,-243.3165035438246,21.341449489405406,-90.00275421142578,6281.75146484375,True
1598622464.9111164,0,5,0.5,0.5,0.00034006118774414066,-0.14,-0.011,-0.56,-0.002499655042851968,10,1,100,-0.06851572624272423,-10,-1,-100,456.39157035876997,0.006277057216749535,-0.0002290731635014033,0.9999802728445114,10.01289512197393,-0.7243749685173442,-243.3165035438246,21.341449489405406,-90.00275421142578,6281.75146484375,True
1598622464.9489377,0,5,0.5,0.5,-0.00015133972167968748,-0.14,-0.011,-0.56,-0.0025851559582405026,10,1,100,-0.06860468863314606,-10,-1,-100,458.1594294687966,0.006276733444100999,-0.0002298078236406769,0.9999802747082744,10.368572721312182,-0.7548537084336732,-269.3592933860076,22.509913372300325,-90.00202941894531,6277.09619140625,True
1598622464.9868958,0,5,0.5,0.5,-0.0005017593383789063,-0.14,-0.011,-0.56,-0.0023548803553303348,10,1,100,-0.06426971791300673,-10,-1,-100,459.09933870995883,0.006236134656923015,-0.00022834782144953906,0.9999805290513476,10.515196738719863,-0.7678601029331008,-281.68949417660883,23.06121151550295,-90.00093078613281,6274.8486328125,True
1598622465.024946,0,5,0.5,0.5,-0.0009282958984375001,-0.14,-0.011,-0.56,-0.0022434468978007665,10,1,100,-0.061027035099886814,-10,-1,-100,460.0498402721714,0.0061689907576217935,-0.0002259780355465641,0.9999809460619536,10.67450613086671,-0.7817725652947984,-294.27867832635206,23.583580500204825,-89.99942779541016,6272.669921875,True
1598622465.0651376,0,5,0.5,0.5,-7.919387817382814e-05,-0.14,-0.011,-0.56,-0.0024830420258200683,10,1,100,-0.06780743265455597,-10,-1,-100,460.0498402721714,0.0061689907576217935,-0.0002259780355465641,0.9999809460619536,10.67450613086671,-0.7817725652947984,-294.27867832635206,23.583580500204825,-89.99942779541016,6272.669921875,True
1598622465.105012,0,5,0.5,0.5,-0.0013398330688476562,-0.14,-0.011,-0.56,-0.002171376385406627,10,1,100,-0.05793338484843098,-10,-1,-100,461.00051749229897,0.006078804848638707,-0.00022312770361745628,0.9999814990016767,10.8041915231311,-0.7934366154437763,-305.7172638153387,24.063209242837907,-89.99761962890625,6270.5947265625,True
1598622465.14357,0,5,0.5,0.5,-0.003381246948242188,-0.14,-0.011,-0.56,-0.0014704017434053474,10,1,100,-0.03896265995728625,-10,-1,-100,462.96075158333406,0.005824171470067894,-0.00021415549109417596,0.9999830164378358,11.025857944411595,-0.8138457901237763,-327.18752204988215,24.956379372334393,-89.99325561523438,6266.6015625,True
1598622465.177088,0,5,0.5,0.5,-0.0009424766540527344,-0.14,-0.011,-0.56,-0.00236738983129107,10,1,100,-0.06441351219880938,-10,-1,-100,462.96075158333406,0.005824171470067894,-0.00021415549109417596,0.9999830164378358,11.025857944411595,-0.8138457901237763,-327.18752204988215,24.956379372334393,-89.99325561523438,6266.6015625,True
1598622465.2201395,0,5,0.5,0.5,-0.0036214424133300784,-0.14,-0.011,-0.56,-0.0013865368102865014,10,1,100,-0.03749341677984387,-10,-1,-100,464.45669112959877,0.0055797568403909885,-0.0002052484387230305,0.999984411971847,11.180468141238032,-0.8281731565301852,-342.8991333603057,25.593011218791524,-89.98944091796875,6263.6875,True
1598622465.2612228,0,5,0.5,0.5,-0.0032937194824218755,-0.14,-0.011,-0.56,-0.0014970433864803633,10,1,100,-0.04012293286887217,-10,-1,-100,465.52963448129594,0.005382067545818889,-0.00019817629765465377,0.9999854969323743,11.278500089242812,-0.83716620469665,-352.5694129495868,25.965114334835313,-89.98687744140625,6261.8701171875,True
1598622465.3007483,0,5,0.5,0.5,-0.00277285385131836,-0.14,-0.011,-0.56,-0.0017956119505955755,10,1,100,-0.04881203524829966,-10,-1,-100,466.0106974779628,0.005282155472085349,-0.00019448942623521935,0.9999860304061412,11.318771393881642,-0.840996946238529,-357.17100631071366,26.151234353818683,-89.985595703125,6260.9619140625,True
1598622465.3409667,0,5,0.5,0.5,-0.002885722351074219,-0.14,-0.011,-0.56,-0.0017261876669058263,10,1,100,-0.04706191621567989,-10,-1,-100,466.5499305661069,0.0051763205972534644,-0.0001905380348542505,0.9999865846101795,11.367102097798288,-0.8453702634727259,-361.79311270485164,26.321372755252042,-89.98443603515625,6260.0908203125,True
1598622465.3841403,0,5,0.5,0.5,-0.0037082977294921873,-0.14,-0.011,-0.56,-0.0012136432418176704,10,1,100,-0.03249052171479888,-10,-1,-100,467.6286664592335,0.004948640227259058,-0.00018232206590601053,0.9999877387841141,11.442417346500193,-0.8524590215394161,-370.25905358522994,26.652453119879937,-89.98236083984375,6258.37158203125,True
1598622465.426786,0,5,0.5,0.5,-0.0038056289672851566,-0.14,-0.011,-0.56,-0.0010449260465104368,10,1,100,-0.02790405966147823,-10,-1,-100,468.7130766650662,0.004701133412624558,-0.00017336105213712981,0.9999889345840695,11.510721854151308,-0.8589197952125172,-378.31699445914217,26.969708013255087,-89.9805908203125,6256.685546875,True
1598622465.4662135,0,5,0.5,0.5,-0.004800470733642578,-0.14,-0.011,-0.56,0.0002483292425790788,10,1,100,0.006706001780332781,-10,-1,-100,470.8765505303163,0.004162824711072184,-0.00015350564334043305,0.9999913236255815,11.643957119491551,-0.8712667597987405,-393.8927452731361,27.57426057853317,-89.977783203125,6253.3857421875,True
1598622465.504146,0,5,0.5,0.5,-0.0038287963867187505,-0.14,-0.011,-0.56,-0.0005828094074280833,10,1,100,-0.01501891299568741,-10,-1,-100,472.02485155989416,0.0038727761767579807,-0.00014307696160914305,0.9999924905386378,11.707267746861396,-0.8769997503548719,-401.2036724225978,27.854218918867915,-89.97695922851562,6251.78955078125,True
1598622465.5437765,0,5,0.5,0.5,-0.003582357788085938,-0.14,-0.011,-0.56,-0.0004270730511021961,10,1,100,-0.012130288919109274,-10,-1,-100,473.1091651673196,0.003584840952750614,-0.00013225333019774253,0.9999935656915,11.771036169266736,-0.88261599331674,-408.13497645854676,28.111194270659723,-89.9766845703125,6250.248046875,True
1598622465.5821571,0,5,0.5,0.5,-0.003404052734375,-0.14,-0.011,-0.56,-0.0008801451273018415,10,1,100,-0.023868137195805272,-10,-1,-100,473.712554630707,0.0034318251248205323,-0.00012660695884455378,0.9999941032561094,11.795162968624878,-0.8847878824656957,-411.1962322313217,28.232148266901667,-89.97674560546875,6249.4951171875,True
1598622465.6210527,0,5,0.5,0.5,-0.0028582489013671874,-0.14,-0.011,-0.56,0.0004797194423122276,10,1,100,0.011882506854177056,-10,-1,-100,475.4059046070324,0.0029698888320162983,-0.00010919107837448121,0.999995583909066,11.873728864404233,-0.8915580253850864,-420.08076346927515,28.567674615281415,-89.97760009765625,6247.302734375,True
1598622465.6589797,0,5,0.5,0.5,-0.0026448333740234377,-0.14,-0.011,-0.56,4.6881126891906624e-05,10,1,100,0.0011182848860934597,-10,-1,-100,476.5543831947725,0.002650175918275368,-9.738067841491685e-05,0.99999648353612,11.92046976080047,-0.8954938254245544,-425.54984564121924,28.779875472885593,-89.97860717773438,6245.8681640625,True
1598622465.6989596,0,5,0.5,0.5,-0.002342041015625,-0.14,-0.011,-0.56,0.00016683229998658094,10,1,100,0.003699267639405028,-10,-1,-100,477.7027249551611,0.002338547873142184,-8.564511835012469e-05,0.9999972619256308,11.970230689242449,-0.8995291924963037,-430.87919235354275,28.98073348520824,-89.9798583984375,6244.4619140625,True
1598622465.7361293,0,5,0.5,0.5,-0.0020877319335937503,-0.14,-0.011,-0.56,0.0003418077021818194,10,1,100,0.008322391270492033,-10,-1,-100,478.8513159811264,0.0020158972605557194,-7.348469127843428e-05,0.9999979653770478,12.015672583642234,-0.9031092688604391,-435.76322051384767,29.1679505061171,-89.98123168945312,6243.0869140625,True
1598622465.7742255,0,5,0.5,0.5,-0.0028602996826171878,-0.14,-0.011,-0.56,-0.0008625296706296398,10,1,100,-0.02362662765448464,-10,-1,-100,478.8513159811264,0.0020158972605557194,-7.348469127843428e-05,0.9999979653770478,12.015672583642234,-0.9031092688604391,-435.76322051384767,29.1679505061171,-89.98123168945312,6243.0869140625,True
1598622465.8138227,0,5,0.5,0.5,-0.0008321228027343753,-0.14,-0.011,-0.56,0.001814535124200668,10,1,100,0.04744351814953693,-10,-1,-100,481.2176664628787,0.0013724711559434354,-4.924668166600201e-05,0.9999990569484005,12.104046591796681,-0.9097162032368777,-444.7289137891343,29.512212218819602,-89.984130859375,6240.41015625,True
1598622465.8532252,0,5,0.5,0.5,-0.0024517639160156254,-0.14,-0.011,-0.56,-0.0005968543999954467,10,1,100,-0.01656622608602336,-10,-1,-100,481.2176664628787,0.0013724711559434354,-4.924668166600201e-05,0.9999990569484005,12.104046591796681,-0.9097162032368777,-444.7289137891343,29.512212218819602,-89.984130859375,6240.41015625,True
1598622465.892099,0,5,0.5,0.5,-0.0004794494628906252,-0.14,-0.011,-0.56,0.0021210755742079807,10,1,100,0.05442383743734125,-10,-1,-100,483.57868680160027,0.0007296436271447834,-2.4633008229311244e-05,0.9999997335066606,12.193142898622158,-0.9159138469331276,-452.96050375995105,29.829085750139125,-89.9869384765625,6237.7998046875,True
1598622465.9279397,0,5,0.5,0.5,-0.0016134918212890627,-0.14,-0.011,-0.56,0.0004036368330284303,10,1,100,0.00913979358660886,-10,-1,-100,484.18770101026166,0.0005597854837432242,-1.7977697255206308e-05,0.999999843158495,12.213186639236948,-0.9172244351401382,-454.7807453226283,29.9018769005146,-89.987548828125,6237.1630859375,True
1598622465.9670517,0,5,0.5,0.5,-0.0011529327392578127,-0.14,-0.011,-0.56,0.001075579173266345,10,1,100,0.027398083772110327,-10,-1,-100,485.40023107198067,0.0002421345839363457,-5.922734761077628e-06,0.9999999706678819,12.25573077972968,-0.919949755974621,-458.44833366649243,30.047535975033387,-89.98867797851562,6235.8876953125,True
1598622466.0078044,0,5,0.5,0.5,-0.00177213134765625,-0.14,-0.011,-0.56,-0.00011784865373817534,10,1,100,-0.004048037154489108,-10,-1,-100,485.40023107198067,0.0002421345839363457,-5.922734761077628e-06,0.9999999706678819,12.25573077972968,-0.919949755974621,-458.44833366649243,30.047535975033387,-89.98867797851562,6235.8876953125,True
1598622466.0491185,0,5,0.5,0.5,-0.0009054534912109376,-0.14,-0.011,-0.56,0.0019329456228792884,10,1,100,0.04867517774205717,-10,-1,-100,487.2215548590757,-0.00023468759307945688,1.2626969259432583e-05,0.9999999723811461,12.322515313198794,-0.9240593285523194,-463.47303728997275,30.23863445408424,-89.98989868164062,6234.04150390625,True
1598622466.0909247,0,5,0.5,0.5,-0.0013843658447265626,-0.14,-0.011,-0.56,0.0007534012824543987,10,1,100,0.018286124299111164,-10,-1,-100,487.83050877414644,-0.0003892755740567184,1.866719923087528e-05,0.9999999240580286,12.345073668286261,-0.9254004416814958,-465.0508958995747,30.29810638636611,-89.99017333984375,6233.43603515625,True
1598622466.1298394,0,5,0.5,0.5,-0.0012704803466796876,-0.14,-0.011,-0.56,0.001507931639231069,10,1,100,0.03825667326222998,-10,-1,-100,489.043064665515,-0.0007088807078396737,3.0922854886901097e-05,0.999999748265928,12.386457972381082,-0.9277308774181872,-468.0015347795316,30.41712219205096,-89.99053955078125,6232.2255859375,True
1598622466.16984,0,5,0.5,0.5,-0.0015294067382812502,-0.14,-0.011,-0.56,0.0028627810546959977,10,1,100,0.07218623470839887,-10,-1,-100,491.4792037104489,-0.001305404317181718,5.4286256945546344e-05,0.9999991464859211,12.476692794318527,-0.9326651946292306,-473.6889540912787,30.639569751830518,-89.99044799804688,6229.8408203125,True
1598622466.2090728,0,5,0.5,0.5,-0.0014679992675781252,-0.14,-0.011,-0.56,0.0005392179436538712,10,1,100,0.012866003931968179,-10,-1,-100,491.4792037104489,-0.001305404317181718,5.4286256945546344e-05,0.9999991464859211,12.476692794318527,-0.9326651946292306,-473.6889540912787,30.639569751830518,-89.99044799804688,6229.8408203125,True
1598622466.2488425,0,5,0.5,0.5,-0.002336904907226563,-0.14,-0.011,-0.56,0.002906427409145429,10,1,100,0.07345029480772872,-10,-1,-100,493.9151143004419,-0.0018537361656221546,7.571222214218637e-05,0.9999982789634628,12.57169564193191,-0.9376139358636075,-478.8153435827013,30.834449396826482,-89.98919677734375,6227.5234375,True
1598622466.2889361,0,5,0.5,0.5,-0.001972445678710938,-0.14,-0.011,-0.56,0.0014271986771210482,10,1,100,0.03438051447755702,-10,-1,-100,494.52413385210093,-0.001994106927274113,8.162923938999367e-05,0.999998008435132,12.59250762291897,-0.9385862611996495,-479.8418231399031,30.876717706994906,-89.98870849609375,6226.958984375,True
1598622466.329792,0,5,0.5,0.5,-0.002081582641601563,-0.14,-0.011,-0.56,0.0014449348945716391,10,1,100,0.03552792567602338,-10,-1,-100,495.19154294463806,-0.00212967158462157,8.707298227607903e-05,0.9999977284560387,12.614084900274767,-0.9395966854913015,-480.87923671392565,30.919007819559152,-89.9881591796875,6226.39453125,True
1598622466.367856,0,5,0.5,0.5,-0.002563699340820313,-0.14,-0.011,-0.56,0.0019276183223128373,10,1,100,0.04793283746093489,-10,-1,-100,496.40960707026534,-0.002363239146556304,9.631436998877546e-05,0.9999972029082274,12.661633471040718,-0.941896337253172,-482.9751535230318,30.997160014679462,-89.98703002929688,6225.2822265625,True
1598622466.40432,0,5,0.5,0.5,-0.0037917083740234376,-0.14,-0.011,-0.56,0.003073369526532822,10,1,100,0.07589860364094968,-10,-1,-100,498.9041430577636,-0.002827439010196658,0.00011503860876163583,0.9999959961693657,12.748967505921662,-0.9457417989223064,-486.4080410863998,31.135095934892856,-89.984375,6223.1005859375,True
1598622466.442232,0,5,0.5,0.5,-0.0033136535644531255,-0.14,-0.011,-0.56,0.0021631947786601388,10,1,100,0.052515110757598876,-10,-1,-100,500.12221845192835,-0.0030340711567536697,0.00012367636326219113,0.9999953895475585,12.794815462568547,-0.9477433697504267,-488.03997033084283,31.19876421998624,-89.98294067382812,6222.02197265625,True
1598622466.4826128,0,5,0.5,0.5,-0.002518084716796875,-0.14,-0.011,-0.56,0.0013105242680048843,10,1,100,0.032131834458265125,-10,-1,-100,500.12221845192835,-0.0030340711567536697,0.00012367636326219113,0.9999953895475585,12.794815462568547,-0.9477433697504267,-488.03997033084283,31.19876421998624,-89.98294067382812,6222.02197265625,True
1598622466.5206523,0,5,0.5,0.5,-0.004149575805664062,-0.14,-0.011,-0.56,0.002984438855240125,10,1,100,0.07203796488443276,-10,-1,-100,502.6222656413447,-0.0033944498010072873,0.00013879830572430122,0.9999942292061383,12.88593832624183,-0.9515801127220745,-490.8267693900283,31.305208138794804,-89.98062133789062,6219.916015625,True
1598622466.558049,0,5,0.5,0.5,-0.0028616577148437503,-0.14,-0.011,-0.56,0.0014830321541128568,10,1,100,0.03626865736838776,-10,-1,-100,502.6222656413447,-0.0033944498010072873,0.00013879830572430122,0.9999942292061383,12.88593832624183,-0.9515801127220745,-490.8267693900283,31.305208138794804,-89.98062133789062,6219.916015625,True
1598622466.5968773,0,5,0.5,0.5,-0.004047393798828125,-0.14,-0.011,-0.56,0.0028635823133941803,10,1,100,0.06936064172990733,-10,-1,-100,505.1224526114529,-0.003693386890217624,0.00015127193258251438,0.9999931679817026,12.97679568840536,-0.955252075159206,-493.2225912524501,31.39744482938183,-89.97894287109375,6217.84375,True
1598622466.6327732,0,5,0.5,0.5,-0.003120108032226563,-0.14,-0.011,-0.56,0.0016259181951365608,10,1,100,0.03970573106617727,-10,-1,-100,505.1224526114529,-0.003693386890217624,0.00015127193258251438,0.9999931679817026,12.97679568840536,-0.955252075159206,-493.2225912524501,31.39744482938183,-89.97894287109375,6217.84375,True
1598622466.6696727,0,5,0.5,0.5,-0.0036227203369140625,-0.14,-0.011,-0.56,0.0025337969667076536,10,1,100,0.06069615557240451,-10,-1,-100,507.01353030919563,-0.0038825365214336938,0.00015945668531457856,0.999992450213363,13.044170758804599,-0.9578735411930985,-494.7831047813982,31.458834618736464,-89.97824096679688,6216.30908203125,True
1598622466.7080932,0,5,0.5,0.5,-0.0034120666503906255,-0.14,-0.011,-0.56,0.002286034553078413,10,1,100,0.05406115719107171,-10,-1,-100,508.28998320689425,-0.003992455810350587,0.00016457423181443965,0.9999920165740949,13.090854799105552,-0.9597283098027922,-495.7687306819268,31.493696742172702,-89.97799682617188,6215.2998046875,True
1598622466.7470767,0,5,0.5,0.5,-0.0032865264892578128,-0.14,-0.011,-0.56,0.0017820300280461407,10,1,100,0.04325550672195531,-10,-1,-100,508.28998320689425,-0.003992455810350587,0.00016457423181443965,0.9999920165740949,13.090854799105552,-0.9597283098027922,-495.7687306819268,31.493696742172702,-89.97799682617188,6215.2998046875,True
1598622466.7868078,0,5,0.5,0.5,-0.003296463012695313,-0.14,-0.011,-0.56,0.002184596115365793,10,1,100,0.052845207175094805,-10,-1,-100,509.5719986271579,-0.004078153799321133,0.00016817186909750406,0.9999916701552125,13.137382558877603,-0.9615539733565429,-496.69436052242656,31.526584165403936,-89.97799682617188,6214.29638671875,True
1598622466.8242671,0,5,0.5,0.5,-0.0028762329101562505,-0.14,-0.011,-0.56,0.00260609400379877,10,1,100,0.05938085215675255,-10,-1,-100,512.0721926785773,-0.0042143390029556775,0.00017522594446755708,0.9999911042817514,13.228877453185705,-0.9650539529067876,-498.3226103933538,31.584988232130993,-89.97860717773438,6212.3056640625,True
1598622466.862863,0,5,0.5,0.5,-0.0032227966308593756,-0.14,-0.011,-0.56,0.001905841424914005,10,1,100,0.04588035857791829,-10,-1,-100,512.0721926785773,-0.0042143390029556775,0.00017522594446755708,0.9999911042817514,13.228877453185705,-0.9650539529067876,-498.3226103933538,31.584988232130993,-89.97860717773438,6212.3056640625,True
1598622466.899926,0,5,0.5,0.5,-0.0023303466796875004,-0.14,-0.011,-0.56,0.0023567122621178877,10,1,100,0.053422118138950606,-10,-1,-100,514.6363457136322,-0.004281827482741242,0.0001792779070046784,0.9999908168642551,13.323671086509131,-0.9687663129025706,-499.9329628663772,31.637274126991432,-89.97988891601562,6210.3310546875,True
1598622466.9410832,0,5,0.5,0.5,-0.00245078125,-0.14,-0.011,-0.56,0.0021128591661194636,10,1,100,0.04847867195035085,-10,-1,-100,515.8599546041805,-0.004297433519302909,0.00018070786334636632,0.9999907496621232,13.369839265622888,-0.9705342539256003,-500.63441429744756,31.660047564794333,-89.98074340820312,6209.35205078125,True
1598622466.9788487,0,5,0.5,0.5,-0.00263009033203125,-0.14,-0.011,-0.56,0.0020098830439214555,10,1,100,0.046937007287416795,-10,-1,-100,516.5275466614403,-0.0042967847976793,0.00018103357749371703,0.9999907523908641,13.393257767779668,-0.9714425194762114,-500.9966033454659,31.671462049919946,-89.98117065429688,6208.8623046875,True
1598622467.017317,0,5,0.5,0.5,-0.0019910430908203127,-0.14,-0.011,-0.56,0.0020279873125480068,10,1,100,0.04475527872971333,-10,-1,-100,518.4185549893882,-0.004275812611217386,0.00018146720948344886,0.9999908422061501,13.46385894856016,-0.9742111289328212,-502.01727360155564,31.699791825881345,-89.982421875,6207.4072265625,True
1598622467.0540266,0,5,0.5,0.5,-0.0024101898193359377,-0.14,-0.011,-0.56,0.0019570989995399287,10,1,100,0.045378230479786105,-10,-1,-100,519.0331063605845,-0.004261880706960854,0.0001811895309223126,0.9999909017302075,13.486838673221577,-0.9750981983124672,-502.33191120916536,31.708756388396868,-89.98281860351562,6206.923828125,True
1598622467.0888214,0,5,0.5,0.5,-0.0023282501220703126,-0.14,-0.011,-0.56,0.0019704271421313634,10,1,100,0.044849420771089166,-10,-1,-100,519.7005744486814,-0.004244063120116282,0.00018103850366701292,0.9999909775359439,13.510047254890527,-0.9760043528778214,-502.65170859702215,31.717356782429096,-89.98324584960938,6206.44140625,True
1598622467.1277668,0,5,0.5,0.5,-0.0018140533447265625,-0.14,-0.011,-0.56,0.0017657025641135134,10,1,100,0.03862907804889913,-10,-1,-100,521.5917713370873,-0.004171088009774247,0.00017902510611489405,0.999991284949437,13.579330453008096,-0.9787212407367625,-503.587350924516,31.741367502772725,-89.98431396484375,6204.9970703125,True
1598622467.1672227,0,5,0.5,0.5,-0.0024052490234375,-0.14,-0.011,-0.56,0.0019684874067554454,10,1,100,0.04594445230304495,-10,-1,-100,521.5917713370873,-0.004171088009774247,0.00017902510611489405,0.999991284949437,13.579330453008096,-0.9787212407367625,-503.587350924516,31.741367502772725,-89.98431396484375,6204.9970703125,True
1598622467.2051198,0,5,0.5,0.5,-0.0016719818115234373,-0.14,-0.011,-0.56,0.0015249823688801352,10,1,100,0.03040366571910813,-10,-1,-100,524.0974585680524,-0.0040297236460925916,0.0001749833755551027,0.9999918653209907,13.670904795073332,-0.9823486351433551,-504.7979389925585,31.76949473674011,-89.9853515625,6203.08154296875,True
1598622467.2450798,0,5,0.5,0.5,-0.0019892700195312503,-0.14,-0.011,-0.56,0.0016226437707719278,10,1,100,0.034454724860212574,-10,-1,-100,525.3795396843925,-0.003938206230716457,0.00017219712648968363,0.9999922304097336,13.715649366252183,-0.9841177833603081,-505.37388874410635,31.782313316449915,-89.9857177734375,6202.126953125,True
1598622467.2827225,0,5,0.5,0.5,-0.002079714965820313,-0.14,-0.011,-0.56,0.0015354648410161914,10,1,100,0.03294868840815823,-10,-1,-100,526.6615572699811,-0.0038415683696942397,0.00016887439053968494,0.9999926068896217,13.760716032691029,-0.9859353421495363,-505.9709785442696,31.794258909798977,-89.98587036132812,6201.1748046875,True
1598622467.3212097,0,5,0.5,0.5,-0.0021585845947265626,-0.14,-0.011,-0.56,0.0014594141262276325,10,1,100,0.030483251608036978,-10,-1,-100,527.9437585523119,-0.0037317029425029827,0.00016517180910203104,0.9999930235313758,13.804501269937745,-0.9876876340552727,-506.5266489865378,31.804900290819337,-89.98587036132812,6200.2255859375,True
1598622467.3592553,0,5,0.5,0.5,-0.0021529449462890627,-0.14,-0.011,-0.56,0.0018281186645685886,10,1,100,0.041413221269482686,-10,-1,-100,527.9437585523119,-0.0037317029425029827,0.00016517180910203104,0.9999930235313758,13.804501269937745,-0.9876876340552727,-506.5266489865378,31.804900290819337,-89.98587036132812,6200.2255859375,True
1598622467.3995583,0,5,0.5,0.5,-0.002468209838867188,-0.14,-0.011,-0.56,0.0009082756260611345,10,1,100,0.014406120025556596,-10,-1,-100,530.5022430616664,-0.003486697551062906,0.00015682401945050117,0.999993909154658,13.890012836287447,-0.9911318726601914,-507.6109878159843,31.823971543640347,-89.98541259765625,6198.3330078125,True
1598622467.4387765,0,5,0.5,0.5,-0.002336746215820313,-0.14,-0.011,-0.56,0.0014949491161888187,10,1,100,0.031255723777671066,-10,-1,-100,531.1169165503234,-0.0034178609702821988,0.00015459091803211929,0.99999414714689,13.910801525364523,-0.9919699977641955,-507.8739652811511,31.828414629239933,-89.9852294921875,6197.86083984375,True
1598622467.4731557,0,5,0.5,0.5,-0.0025519897460937508,-0.14,-0.011,-0.56,0.001172667679463686,10,1,100,0.022827345083624898,-10,-1,-100,532.399059303687,-0.003279427926659935,0.00014965517514780745,0.999994611463383,13.95210580187081,-0.9936498506570179,-508.4141232738893,31.837353932662467,-89.98477172851562,6196.9169921875,True
1598622467.5120506,0,5,0.5,0.5,-0.002678485107421875,-0.14,-0.011,-0.56,0.0010787895132965124,10,1,100,0.02046862208947161,-10,-1,-100,533.6810768127907,-0.003133013709959626,0.0001443432285864762,0.9999950816829679,13.992700764018249,-0.9953131558696643,-508.9443838412135,31.845079041902952,-89.98422241210938,6195.974609375,True
1598622467.5515168,0,5,0.5,0.5,-0.0027768524169921875,-0.14,-0.011,-0.56,0.001036544954247225,10,1,100,0.018255279973787987,-10,-1,-100,534.9631576125976,-0.0029807322885438705,0.00013916167379166193,0.9999955479246159,14.03221208675305,-0.9969332613665988,-509.4617281395106,31.85227378604872,-89.983642578125,6195.03515625,True
1598622467.5916348,0,5,0.5,0.5,-0.0024528839111328127,-0.14,-0.011,-0.56,0.0015507140904963293,10,1,100,0.03336438654324048,-10,-1,-100,534.9631576125976,-0.0029807322885438705,0.00013916167379166193,0.9999955479246159,14.03221208675305,-0.9969332613665988,-509.4617281395106,31.85227378604872,-89.983642578125,6195.03515625,True
1598622467.6300082,0,5,0.5,0.5,-0.003266531372070313,-0.14,-0.011,-0.56,0.0002498461286047798,10,1,100,-0.0017358646381610485,-10,-1,-100,537.4687865097076,-0.0026625927244925372,0.00012736816659425097,0.9999964471823555,14.107713807229759,-1.0000297013836796,-510.4557252191519,31.86524620056495,-89.98248291015625,6193.15869140625,True
1598622467.668874,0,5,0.5,0.5,-0.003026559448242188,-0.14,-0.011,-0.56,0.0007100950698620603,10,1,100,0.01097178415278046,-10,-1,-100,538.7508682238404,-0.002490058667550997,0.0001208716312988485,0.9999968924941122,14.143759178266466,-1.0015102734852492,-510.9412165396435,31.871342961575586,-89.98190307617188,6192.2216796875,True
1598622467.7067862,0,5,0.5,0.5,-0.0030693756103515623,-0.14,-0.011,-0.56,0.0006825081866178053,10,1,100,0.010211804485964118,-10,-1,-100,540.0330096702091,-0.0023275292639986693,0.00011475853914557197,0.9999972847153151,14.179087164945376,-1.0029777311732582,-511.43446290648507,31.877071174760463,-89.98138427734375,6191.28564453125,True
1598622467.7456822,0,5,0.5,0.5,-0.0030828552246093756,-0.14,-0.011,-0.56,0.0006159491186802821,10,1,100,0.0073010546025848826,-10,-1,-100,541.3150908251991,-0.0021545904197190187,0.0001086419304522126,0.9999976729658195,14.212769539028434,-1.0043660230657856,-511.89942743938377,31.882224409163364,-89.98095703125,6190.35107421875,True
1598622467.7840269,0,5,0.5,0.5,-0.0029558135986328124,-0.14,-0.011,-0.56,0.000840670974211935,10,1,100,0.014969714801563606,-10,-1,-100,541.9242103389697,-0.0020685221199307647,0.0001051756938527644,0.9999978550748562,14.229057294508012,-1.0050352427774254,-512.125575670936,31.88472418221571,-89.98080444335938,6189.884765625,True
1598622467.8229063,0,5,0.5,0.5,-0.003131781005859375,-0.14,-0.011,-0.56,9.765383171854674e-05,10,1,100,-0.004952364170161382,-10,-1,-100,543.8793150190031,-0.0018104576525904267,9.531682139932408e-05,0.9999983565775455,14.27617528774615,-1.0069749597547746,-512.7908569988817,31.891571257124685,-89.98043823242188,6188.48486328125,True
1598622467.8638384,0,5,0.5,0.5,-0.003017422485351563,-0.14,-0.011,-0.56,0.00029617858876067305,10,1,100,0.0013684945039704154,-10,-1,-100,545.1614578237059,-0.0016347772186983101,8.821286613897294e-05,0.9999986598600696,14.305895415216115,-1.008192796158852,-513.2198648231763,31.895905654458126,-89.98031616210938,6187.55322265625,True
1598622467.9019465,0,5,0.5,0.5,-0.002975326538085938,-0.14,-0.011,-0.56,0.00033984130427900446,10,1,100,0.00029068956240403676,-10,-1,-100,546.4435397451743,-0.0014667646436075659,8.220751541519203e-05,0.9999989209211203,14.33442841873088,-1.009363961790385,-513.6426348276888,31.89999242125185,-89.98028564453125,6186.62158203125,True
1598622467.939939,0,5,0.5,0.5,-0.002898480224609375,-0.14,-0.011,-0.56,0.00014778788607789273,10,1,100,-0.0019352164865949172,-10,-1,-100,547.6670886228094,-0.0012953052013217642,7.505865251280954e-05,0.9999991582749628,14.361421979071244,-1.0104624298795637,-514.04528203534,31.903768911745352,-89.98037719726562,6185.69140625,True
1598622467.9788437,0,5,0.5,0.5,-0.0028465301513671878,-0.14,-0.011,-0.56,0.00016043768643514238,10,1,100,-0.0033947313827879574,-10,-1,-100,548.9492320552235,-0.0011276968702667552,6.873295989687214e-05,0.9999993617875709,14.386998245821466,-1.011497410919528,-514.4329976784811,31.90732885487375,-89.98052978515625,6184.76123046875,True
1598622468.0138214,0,5,0.5,0.5,-0.0029354034423828127,-0.14,-0.011,-0.56,0.0007859640766394033,10,1,100,0.013180798180885234,-10,-1,-100,548.9492320552235,-0.0011276968702667552,6.873295989687214e-05,0.9999993617875709,14.386998245821466,-1.011497410919528,-514.4329976784811,31.90732885487375,-89.98052978515625,6184.76123046875,True
1598622468.0527163,0,5,0.5,0.5,-0.002681204223632813,-0.14,-0.011,-0.56,-0.0002831026745567773,10,1,100,-0.01400612322310223,-10,-1,-100,550.9043380868388,-0.0008819383991888926,5.906747598299539e-05,0.9999996093477704,14.4226865895677,-1.0129247277524642,-514.9858995902824,31.912333856451923,-89.98089599609375,6183.3681640625,True
1598622468.0897517,0,5,0.5,0.5,-0.0026524047851562505,-0.14,-0.011,-0.56,-7.962312659134767e-05,10,1,100,-0.007960487062594813,-10,-1,-100,552.1864814547589,-0.0007149438635485051,5.21866720930803e-05,0.9999997430658786,14.44479446734498,-1.0137979162369846,-515.337758478739,31.915429225355833,-89.98123168945312,6182.439453125,True
1598622468.1278095,0,5,0.5,0.5,-0.0026055755615234377,-0.14,-0.011,-0.56,-6.701552915127794e-05,10,1,100,-0.008251503698017335,-10,-1,-100,553.4685027119704,-0.0005619510302810845,4.610289386720584e-05,0.9999998410427687,14.465697955093285,-1.0146194906698345,-515.6825731425721,31.9184234434239,-89.9815673828125,6181.51171875,True
1598622468.1671116,0,5,0.5,0.5,-0.002557907104492188,-0.14,-0.011,-0.56,-0.0001615468351728401,10,1,100,-0.01013719296774773,-10,-1,-100,554.6922356385039,-0.0004071718606671876,3.9769664549473954e-05,0.9999999163147212,14.485092221830826,-1.01536591633772,-516.0070000859596,31.921210503186746,-89.98190307617188,6180.5849609375,True
1598622468.2032225,0,5,0.5,0.5,-0.0024883392333984377,-0.14,-0.011,-0.56,-0.00021462941610534802,10,1,100,-0.011165055636965945,-10,-1,-100,555.9742573460098,-0.00025862963698826446,3.358907446060698e-05,0.999999965991242,14.503048674844747,-1.0160411531913272,-516.313248133186,31.923859024410426,-89.98226928710938,6179.658203125,True
1598622468.2400067,0,5,0.5,0.5,-0.002477780151367188,-0.14,-0.011,-0.56,-0.00025844950097517547,10,1,100,-0.012131859013769727,-10,-1,-100,557.256340272841,-0.00011621288295975643,2.7628107923673765e-05,0.9999999928656267,14.519605015510749,-1.0166469274473382,-516.601691908929,31.926379540604163,-89.98257446289062,6178.7314453125,True
1598622468.276519,0,5,0.5,0.5,-0.0024539337158203125,-0.14,-0.011,-0.56,-0.0002860061061204318,10,1,100,-0.013038731908435967,-10,-1,-100,558.5383620200446,2.0120679439727063e-05,2.201360989624606e-05,0.9999999995552797,14.53482936565989,-1.017186970619294,-516.873569286567,31.928783680586925,-89.98284912109375,6177.8056640625,True
1598622468.3091443,0,5,0.5,0.5,-0.0026049224853515627,-0.14,-0.011,-0.56,0.0002694243060704442,10,1,100,0.00044593579920765335,-10,-1,-100,558.5383620200446,2.0120679439727063e-05,2.201360989624606e-05,0.9999999995552797,14.53482936565989,-1.017186970619294,-516.873569286567,31.928783680586925,-89.98284912109375,6177.8056640625,True
1598622468.345997,0,5,0.5,0.5,-0.002388580322265625,-0.14,-0.011,-0.56,-0.0006253989558134203,10,1,100,-0.02082236434950474,-10,-1,-100,560.4350584904896,0.00021227302090005658,1.3927075736044168e-05,0.9999999773731002,14.555124376007727,-1.017864724399417,-517.246332982507,31.932211699126533,-89.983154296875,6176.41796875,True
1598622468.3824372,0,5,0.5,0.5,-0.0024284179687500003,-0.14,-0.011,-0.56,-0.00041236314918537923,10,1,100,-0.015549918036609413,-10,-1,-100,561.717141496134,0.00033780748311842875,8.562193727170846e-06,0.9999999429063949,14.56712575117593,-1.018238645055592,-517.4748791087053,31.934361492350003,-89.98333740234375,6175.4931640625,True
1598622468.4199984,0,5,0.5,0.5,-0.00252786865234375,-0.14,-0.011,-0.56,0.0001181079750849828,10,1,100,-0.0031430222501107126,-10,-1,-100,561.717141496134,0.00033780748311842875,8.562193727170846e-06,0.9999999429063949,14.56712575117593,-1.018238645055592,-517.4748791087053,31.934361492350003,-89.98333740234375,6175.4931640625,True
1598622468.459086,0,5,0.5,0.5,-0.0024183715820312503,-0.14,-0.011,-0.56,-0.00091930798903877,10,1,100,-0.027273524415947777,-10,-1,-100,564.2813689203467,0.0005560668247330318,-8.229465991761559e-07,0.9999998453944927,14.587623149289028,-1.0188072078695625,-517.8863129485458,31.938443406460582,-89.98348999023438,6173.64501953125,True
1598622468.4950469,0,5,0.5,0.5,-0.002501336669921875,-0.14,-0.011,-0.56,1.390508172670468e-05,10,1,100,-0.005574691323315629,-10,-1,-100,564.2813689203467,0.0005560668247330318,-8.229465991761559e-07,0.9999998453944927,14.587623149289028,-1.0188072078695625,-517.8863129485458,31.938443406460582,-89.98348999023438,6173.64501953125,True
1598622468.526002,0,5,0.5,0.5,-0.002520584106445313,-0.14,-0.011,-0.56,-0.0007372906603017145,10,1,100,-0.02206623976865764,-10,-1,-100,566.236415354535,0.0007049736125497645,-7.609338944465074e-06,0.999999751477121,14.599898870280155,-1.0190658439586417,-518.1489416963561,31.941434187239768,-89.98345947265625,6172.2587890625,True
1598622468.5647414,0,5,0.5,0.5,-0.0025017822265625002,-0.14,-0.011,-0.56,-6.33893261222166e-05,10,1,100,-0.007286775534306063,-10,-1,-100,566.236415354535,0.0007049736125497645,-7.609338944465074e-06,0.999999751477121,14.599898870280155,-1.0190658439586417,-518.1489416963561,31.941434187239768,-89.98345947265625,6172.2587890625,True
1598622468.602224,0,5,0.5,0.5,-0.002543197631835938,-0.14,-0.011,-0.56,-0.000521606770614672,10,1,100,-0.017246017342061513,-10,-1,-100,567.5185589971952,0.0007946361714843249,-1.1737498973119148e-05,0.9999996842077432,14.60673629010667,-1.0191642632596871,-518.301214595463,31.943233722601004,-89.9833984375,6171.3359375,True
1598622468.640648,0,5,0.5,0.5,-0.002743096923828125,-0.14,-0.011,-0.56,-0.000918076627597476,10,1,100,-0.025317892107139292,-10,-1,-100,570.0243147852598,0.0009487002237851378,-1.9058856238196715e-05,0.9999995498022214,14.61722249419324,-1.019178633727029,-518.5491179865437,31.94673373197028,-89.98306274414062,6169.48974609375,True
1598622468.6771474,0,5,0.5,0.5,-0.002704409790039063,-0.14,-0.011,-0.56,-0.0005179510810333985,10,1,100,-0.017009456428301047,-10,-1,-100,571.3064591261791,0.001012383056483397,-2.2039791995744303e-05,0.9999994872972657,14.621128455298983,-1.0191088434344244,-518.6509915049908,31.948475738229916,-89.98284912109375,6168.5673828125,True
1598622468.7090268,0,5,0.5,0.5,-0.0026702301025390627,-0.14,-0.011,-0.56,-0.0003785663072528588,10,1,100,-0.013752622691654335,-10,-1,-100,571.979483477422,0.0010397669046240772,-2.3442550739244486e-05,0.9999994591674692,14.62270829711827,-1.0190515809088008,-518.6942846228393,31.94934207516433,-89.98272705078125,6168.10546875,True
1598622468.746955,0,5,0.5,0.5,-0.002751876831054688,-0.14,-0.011,-0.56,-0.0005404109264242434,10,1,100,-0.016710084402062193,-10,-1,-100,573.2615052305628,0.001090795060406836,-2.615512829264334e-05,0.9999994047408455,14.625233786455995,-1.0188974460369595,-518.7650966280021,31.950884695203037,-89.98251342773438,6167.1845703125,True
1598622468.7848775,0,5,0.5,0.5,-0.0026331542968750002,-0.14,-0.011,-0.56,-0.0002726249032863394,10,1,100,-0.01168256758151514,-10,-1,-100,573.2615052305628,0.001090795060406836,-2.615512829264334e-05,0.9999994047408455,14.625233786455995,-1.0188974460369595,-518.7650966280021,31.950884695203037,-89.98251342773438,6167.1845703125,True
1598622468.8218832,0,5,0.5,0.5,-0.0027835968017578126,-0.14,-0.011,-0.56,-0.0005523500057216581,10,1,100,-0.016628137357202134,-10,-1,-100,574.5435881951125,0.001135070251479183,-2.8666522567491862e-05,0.9999993553966695,14.626908003083436,-1.0186888007970016,-518.815505869124,31.952346764117657,-89.9822998046875,6166.2626953125,True
1598622468.858296,0,5,0.5,0.5,-0.0029857116699218756,-0.14,-0.011,-0.56,-0.0007138722785682872,10,1,100,-0.01905617311518542,-10,-1,-100,577.0548984906636,0.0011968671107750316,-3.239268022871595e-05,0.9999992832296598,14.628109773158418,-1.0181334701972642,-518.8661146146741,31.95526247592708,-89.98184204101562,6164.419921875,True
1598622468.8979483,0,5,0.5,0.5,-0.0027311767578125003,-0.14,-0.011,-0.56,-0.0003444134858088324,10,1,100,-0.012940567214204751,-10,-1,-100,577.0548984906636,0.0011968671107750316,-3.239268022871595e-05,0.9999992832296598,14.628109773158418,-1.0181334701972642,-518.8661146146741,31.95526247592708,-89.98184204101562,6164.419921875,True
1598622468.9329882,0,5,0.5,0.5,-0.0029465789794921875,-0.14,-0.011,-0.56,-0.0005492215767090962,10,1,100,-0.015633282710624922,-10,-1,-100,579.0045124650933,0.001220899166653192,-3.423204165391448e-05,0.9999992541164178,14.627570132416789,-1.0176188801432575,-518.8696280748429,31.957493790398058,-89.98153686523438,6163.0390625,True
1598622468.9698782,0,5,0.5,0.5,-0.00286324462890625,-0.14,-0.011,-0.56,-0.0004905308962847713,10,1,100,-0.014061013421776168,-10,-1,-100,580.2865342330188,0.001227984109776437,-3.534643430686524e-05,0.9999992454025431,14.626537160985977,-1.0172270612239098,-518.849686689453,31.958832287191616,-89.98141479492188,6162.1181640625,True
1598622469.0069673,0,5,0.5,0.5,-0.002861154174804688,-0.14,-0.011,-0.56,-0.000451962339922518,10,1,100,-0.013221379412015864,-10,-1,-100,581.5741715381155,0.001226397978037664,-3.5987432628678405e-05,0.9999992473261688,14.625048622981787,-1.016799733993049,-518.8143955706178,31.96016411940868,-89.9813232421875,6161.1982421875,True
1598622469.0438757,0,5,0.5,0.5,-0.002833160400390625,-0.14,-0.011,-0.56,-0.00045190763708000895,10,1,100,-0.012422110907429229,-10,-1,-100,582.8562544538872,0.0012174375102750351,-3.655427146231258e-05,0.9999992582545718,14.623137748258777,-1.0163379703815567,-518.7623390111393,31.961442251554768,-89.98129272460938,6160.27783203125,True
1598622469.0808012,0,5,0.5,0.5,-0.0028177825927734376,-0.14,-0.011,-0.56,-0.00039667520166324836,10,1,100,-0.013338663129071284,-10,-1,-100,582.8562544538872,0.0012174375102750351,-3.655427146231258e-05,0.9999992582545718,14.623137748258777,-1.0163379703815567,-518.7623390111393,31.961442251554768,-89.98129272460938,6160.27783203125,True
1598622469.1177037,0,5,0.5,0.5,-0.0027979980468750003,-0.14,-0.011,-0.56,-0.0003259478947572194,10,1,100,-0.009018575656732825,-10,-1,-100,585.3620102721034,0.001178002469066821,-3.589937619887316e-05,0.9999993055104678,14.618505074725412,-1.0153380839712527,-518.6187395047895,31.9639338420152,-89.9813232421875,6158.4384765625,True
1598622469.1518183,0,5,0.5,0.5,-0.0028163970947265625,-0.14,-0.011,-0.56,-0.000392411845891784,10,1,100,-0.012970800518420237,-10,-1,-100,585.3620102721034,0.001178002469066821,-3.589937619887316e-05,0.9999993055104678,14.618505074725412,-1.0153380839712527,-518.6187395047895,31.9639338420152,-89.9813232421875,6158.4384765625,True
1598622469.1899893,0,5,0.5,0.5,-0.002774981689453125,-0.14,-0.011,-0.56,-0.0003616481140855603,10,1,100,-0.011385131349284074,-10,-1,-100,586.0350341331214,0.0011635080153395286,-3.561084750253819e-05,0.9999993224902533,14.61718224981882,-1.0150710256433324,-518.5738037396334,31.96455622202876,-89.98138427734375,6157.97900390625,True
1598622469.225809,0,5,0.5,0.5,-0.00263927001953125,-0.14,-0.011,-0.56,-0.00023882622061284335,10,1,100,-0.00463196349545532,-10,-1,-100,588.5992002271814,0.0010889129516764011,-3.4225672997086206e-05,0.9999994065484173,14.611769476073102,-1.0139687816414966,-518.3709443064004,31.967049709663485,-89.98162841796875,6156.140625,True
1598622469.2629213,0,5,0.5,0.5,-0.002669412231445313,-0.14,-0.011,-0.56,-0.0002050800117939492,10,1,100,-0.0068866723025107,-10,-1,-100,589.8812830947572,0.001041694750373242,-3.265797337307775e-05,0.9999994569026044,14.608948809885753,-1.0133922727565097,-518.2514339259569,31.968294692539455,-89.98178100585938,6155.2216796875,True
1598622469.2997742,0,5,0.5,0.5,-0.002626754760742188,-0.14,-0.011,-0.56,-0.00024304996439651806,10,1,100,-0.005991579211088678,-10,-1,-100,591.1633046105271,0.0009907729686850805,-3.157773210841673e-05,0.999999508685765,14.606236684740939,-1.0128084820348822,-518.1237243317461,31.969501514623907,-89.98196411132812,6154.302734375,True
1598622469.337064,0,5,0.5,0.5,-0.0026006500244140627,-0.14,-0.011,-0.56,-0.00014759804153129683,10,1,100,-0.004674268992666021,-10,-1,-100,592.387099320651,0.0009327140980719715,-2.9730362850446058e-05,0.9999995645801636,14.603606971697435,-1.0122159729653317,-517.9854148662487,31.970648345959397,-89.98214721679688,6153.3837890625,True
1598622469.3719707,0,5,0.5,0.5,-0.0026596588134765627,-0.14,-0.011,-0.56,-0.00021644202873617453,10,1,100,-0.007102760500638466,-10,-1,-100,593.0600621093763,0.0009022789294158987,-2.868189620093199e-05,0.9999995925349581,14.602324197576307,-1.0119158024822592,-517.9124352959712,31.971226862322684,-89.98220825195312,6152.92529296875,True
1598622469.404263,0,5,0.5,0.5,-0.002586053466796875,-0.14,-0.011,-0.56,-0.00013249058569497874,10,1,100,-0.0030513525155074217,-10,-1,-100,594.3421453518094,0.0008380742662715701,-2.69721911613881e-05,0.9999996484519507,14.599968772795687,-1.0113199551584742,-517.7626736027953,31.972352675595115,-89.98236083984375,6152.0068359375,True
1598622469.4398034,0,5,0.5,0.5,-0.0026703277587890625,-0.14,-0.011,-0.56,-0.0003025028816192754,10,1,100,-0.009433882505539937,-10,-1,-100,594.3421453518094,0.0008380742662715701,-2.69721911613881e-05,0.9999996484519507,14.599968772795687,-1.0113199551584742,-517.7626736027953,31.972352675595115,-89.98236083984375,6152.0068359375,True
1598622469.478282,0,5,0.5,0.5,-0.00247689208984375,-0.14,-0.011,-0.56,0.0002388632107719056,10,1,100,0.006187955885952893,-10,-1,-100,596.9119875034085,0.000696402429298002,-2.205939221265093e-05,0.9999997572684904,14.596018057972001,-1.0101321270446686,-517.4431735709422,31.974577574310846,-89.98263549804688,6150.1708984375,True
1598622469.5141962,0,5,0.5,0.5,-0.002543807983398438,-0.14,-0.011,-0.56,4.8480304697483305e-05,10,1,100,0.0008281566770525538,-10,-1,-100,598.1940093786689,0.0006167731158027331,-1.933654684537209e-05,0.9999998096084927,14.594453586269607,-1.0095423408274273,-517.2732896909315,31.97571797314565,-89.98275756835938,6149.25341796875,True
1598622469.5471,0,5,0.5,0.5,-0.002610589599609375,-0.14,-0.011,-0.56,-0.00022214794909505053,10,1,100,-0.00707865173714793,-10,-1,-100,598.1940093786689,0.0006167731158027331,-1.933654684537209e-05,0.9999998096084927,14.594453586269607,-1.0095423408274273,-517.2732896909315,31.97571797314565,-89.98275756835938,6149.25341796875,True
1598622469.5829093,0,5,0.5,0.5,-0.0025877166748046877,-0.14,-0.011,-0.56,-7.117738055742695e-05,10,1,100,-0.0028626816336590655,-10,-1,-100,598.8030076925643,0.0005789431465887769,-1.7978881950172937e-05,0.9999998322507824,14.593789878173402,-1.0092484130295287,-517.1862437047505,31.976315401139065,-89.9827880859375,6148.79443359375,True
1598622469.6213014,0,5,0.5,0.5,-0.002518081665039063,-0.14,-0.011,-0.56,0.00046542303554796336,10,1,100,0.011929029329196657,-10,-1,-100,601.3727276445134,0.00041054577473657156,-1.1881225345440079e-05,0.9999999156554982,14.592382205223677,-1.0081130664346065,-516.8317920183769,31.97848812572282,-89.98291015625,6146.9599609375,True
1598622469.6577203,0,5,0.5,0.5,-0.0025851989746093753,-0.14,-0.011,-0.56,0.00018347647800462318,10,1,100,0.004913827091194272,-10,-1,-100,602.6548719288548,0.0003218055924669854,-8.919939635192971e-06,0.9999999481807964,14.592332011399076,-1.0075636540865223,-516.649384098967,31.979621538412502,-89.98291015625,6146.04296875,True
1598622469.6950233,0,5,0.5,0.5,-0.0025841583251953125,-0.14,-0.011,-0.56,0.00024281278316020497,10,1,100,0.0055941612702599276,-10,-1,-100,603.9370155363576,0.00023555599548150845,-5.709038753984151e-06,0.9999999722403895,14.592780102625126,-1.0070295656295476,-516.4636265637316,31.980728731882664,-89.98291015625,6145.1259765625,True
