Timestamp,Input Throttle,horizon,dT,dt,Input Roll,Roll P,Roll I,Roll D,Input Pitch,Pitch P,Pitch I,Pitch D,Input Yaw,Yaw P,Yaw I,Yaw D,Altitude,Direction X,Direction Y,Direction Z,Drag X,Drag Y,Drag Z,Vertical Velocity,Roll,Mass,Has Fuel
1598625690.3325114,0,5,0.5,0.5,-0.009971923828125,-0.14,-0.011,-0.56,0.004273908222230468,10,1,100,0.12494516543665268,-10,-1,-100,478.79799017333426,-0.011726399292488218,0.00041317421729694166,0.9999311580537428,5.336270607076554,-0.43684738841288906,109.80765759778362,-14.045473220355536,-89.92144775390625,6440.1796875,True
1598625690.370372,0,5,0.5,0.5,-0.009609722900390626,-0.14,-0.011,-0.56,0.004260053956861179,10,1,100,0.12314689448406202,-10,-1,-100,477.92863744404167,-0.011769219852760318,0.00041396507513477863,0.9999306546440979,5.523528210147991,-0.4526345907718124,118.50099427823753,-14.62888393303463,-89.92355346679688,6440.1796875,True
1598625690.4115705,0,5,0.5,0.5,-0.008864956665039064,-0.14,-0.011,-0.56,0.004036371920215201,10,1,100,0.11729642488293024,-10,-1,-100,477.3384924812708,-0.01174426225676761,0.0004122742318586354,0.9999309487829656,5.968803127217054,-0.48637504067079623,124.50307646453756,-14.37210436805479,-89.92642211914062,6438.60107421875,True
1598625690.4544713,0,5,0.5,0.5,-0.006899383544921875,-0.14,-0.011,-0.56,0.004069315888732118,10,1,100,0.1173969706526315,-10,-1,-100,476.80860452039633,-0.0117118109835381,0.000410661797474242,0.9999313300624069,5.808836032307271,-0.4678284386975057,111.17288707541326,-13.469277116587705,-89.931640625,6435.443359375,True
1598625690.4964578,0,5,0.5,0.5,-0.004577728271484374,-0.14,-0.011,-0.56,0.004009074182974047,10,1,100,0.11464919849649449,-10,-1,-100,476.2752631182084,-0.011646682978288627,0.0004082749672565617,0.9999320917378112,5.643976982971138,-0.4494185211796295,98.70505197301443,-12.56590207990682,-89.93923950195312,6432.28515625,True
1598625690.5375009,0,5,0.5,0.5,-0.0021494476318359382,-0.14,-0.011,-0.56,0.003859354859355771,10,1,100,0.11085919823333532,-10,-1,-100,475.8118462609127,-0.01154243325932558,0.0004043728777828166,0.9999333021342122,5.461194181042434,-0.4301130153851381,86.86356464648306,-11.66195683945968,-89.94888305664062,6429.1279296875,True
1598625690.5794365,0,5,0.5,0.5,0.00025526123046874967,-0.14,-0.011,-0.56,0.0037289007839345022,10,1,100,0.10690467932110334,-10,-1,-100,475.3485483918339,-0.011401217494466768,0.00039927196586850695,0.9999349242933467,5.266802183526569,-0.41043007201395143,75.7696659192912,-10.757459451880328,-89.96011352539062,6425.9697265625,True
1598625690.6214275,0,5,0.5,0.5,0.002445883178710938,-0.14,-0.011,-0.56,0.0035867401477579445,10,1,100,0.10263312791896827,-10,-1,-100,474.94851264869794,-0.01122364249776256,0.00039297942928492174,0.9999369357195734,5.059898253157687,-0.3903061726211803,65.40961273172995,-9.852404621982684,-89.9722900390625,6422.8115234375,True
1598625690.6617553,0,5,0.5,0.5,0.004376461791992188,-0.14,-0.011,-0.56,0.0034189314517460902,10,1,100,0.09809792750325441,-10,-1,-100,474.56135501293465,-0.011010778276527005,0.00038537615385493204,0.9999393052815582,4.840935449370918,-0.3697820545113086,55.7889653114806,-8.946816188986286,-89.98483276367188,6419.654296875,True
1598625690.701375,0,5,0.5,0.5,0.005971563720703126,-0.14,-0.011,-0.56,0.003272892002508264,10,1,100,0.09332906080976364,-10,-1,-100,474.2312034695642,-0.010763902216120651,0.0003767861119674567,0.9999419965384531,4.610763243831156,-0.348921258903035,46.91315047353066,-8.040658461384478,-89.9971694946289,6416.49609375,True
1598625690.7412312,0,5,0.5,0.5,0.007177556610107423,-0.14,-0.011,-0.56,0.0030972740504218543,10,1,100,0.08832449148509947,-10,-1,-100,473.9647105092881,-0.010484187983512364,0.0003670379233126322,0.9999449720287058,4.370707019444972,-0.3278156144586903,38.786954507217516,-7.1338913878647485,-90.0087661743164,6413.3388671875,True
1598625690.7837713,0,5,0.5,0.5,0.00806935272216797,-0.14,-0.011,-0.56,0.002878047080979478,10,1,100,0.0819734757064459,-10,-1,-100,473.7044119605562,-0.010173295093434322,0.0003562249032623923,0.9999481872430992,4.123266052448368,-0.30664207772308855,31.41816594917159,-6.226547022870408,-90.01918029785156,6410.1806640625,True
1598625690.82238,0,5,0.5,0.5,0.008559063720703126,-0.14,-0.011,-0.56,0.0026133667538711857,10,1,100,0.07543264105917817,-10,-1,-100,473.45046071649995,-0.00983265390089669,0.0003440411913083464,0.9999515991051386,3.873234186781298,-0.2857356374860963,24.81785677885215,-5.318611792743313,-90.02806091308594,6407.0224609375,True
1598625690.9482965,0,5,0.5,0.5,0.006330625915527344,-0.14,-0.011,-0.56,0.0031329097147077306,10,1,100,0.0894481670577305,-10,-1,-100,473.38694627024233,-0.009652131787991021,0.0003377502373945917,0.9999533600507198,3.75011608288865,-0.2755850413937056,21.811624893174688,-4.864416367040766,-90.03182220458984,6405.4443359375,True
1598625690.983504,0,5,0.5,0.5,0.008585601043701173,-0.14,-0.011,-0.56,0.0022764337054042997,10,1,100,0.06535688655814273,-10,-1,-100,473.2195118640084,-0.009270881570985566,0.0003243113260794014,0.99995697186282,3.520537350588274,-0.25680387565736307,16.410274037668245,-3.955576339040823,-90.03789520263672,6402.2861328125,True
1598625691.0205462,0,5,0.5,0.5,0.005293243408203126,-0.14,-0.011,-0.56,0.003611928472805614,10,1,100,0.10324432811795792,-10,-1,-100,473.2195118640084,-0.009270881570985566,0.0003243113260794014,0.99995697186282,3.520537350588274,-0.25680387565736307,16.410274037668245,-3.955576339040823,-90.03789520263672,6402.2861328125,True
1598625691.1105924,0,5,0.5,0.5,0.010101544952392578,-0.14,-0.011,-0.56,0.0002933610647282278,10,1,100,0.010137726965486954,-10,-1,-100,472.9939248346491,-0.008426522971134321,0.0002942153146893374,0.999964452942186,3.4843754486984753,-0.2507483119381592,8.538794052936945,-2.136067998386346,-90.04462432861328,6395.970703125,True
1598625691.1472993,0,5,0.5,0.5,0.006976275634765626,-0.14,-0.011,-0.56,0.001436396721533947,10,1,100,0.04214798056480098,-10,-1,-100,472.93595612666104,-0.007952630817193619,0.00027734204362494857,0.9999683388710245,5.339261758820754,-0.38188075117610576,7.414682225025684,-1.2253888355937392,-90.04541015625,6392.81298828125,True
1598625691.182709,0,5,0.5,0.5,0.005778173828125001,-0.14,-0.011,-0.56,0.0013625884798110482,10,1,100,0.038650868850748414,-10,-1,-100,472.9142122891499,-0.007493001490465747,0.00026143684717407783,0.9999718928947149,15.384747637909951,-1.0940820127661979,5.413600046280966,-0.31407986019722844,-90.0442123413086,6389.65478515625,True
1598625691.218754,0,5,0.5,0.5,0.005558304595947266,-0.14,-0.011,-0.56,0.0019577495099120405,10,1,100,0.05698643747836185,-10,-1,-100,472.9170734058134,-0.0072450416144060415,0.0002525008045893688,0.9999737224624201,7.3788135286338,-0.5233146521327728,-1.1660463963490761,0.14182041924885302,-90.0428466796875,6388.076171875,True
1598625691.352319,0,5,0.5,0.5,0.0017376998901367183,-0.14,-0.011,-0.56,-0.0001317251845406142,10,1,100,-0.0018796503837757855,-10,-1,-100,472.980222173268,-0.006487676256152071,0.0002254948916604074,0.9999789293824392,0.8076806462802175,-0.056852484474053756,-1.3390294492313808,1.510514314319627,-90.03622436523438,6383.3388671875,True
1598625691.3845398,0,5,0.5,0.5,0.0011184898376464846,-0.14,-0.011,-0.56,0.0005096250436388951,10,1,100,0.015452106768450519,-10,-1,-100,473.06785375485197,-0.005960356915239029,0.00020690319382812188,0.9999822155101118,1.6476090006349073,-0.11545785182514312,-4.343600901222644,2.4237829710280216,-90.02999877929688,6380.181640625,True
1598625691.4140615,0,5,0.5,0.5,0.0021707344055175784,-0.14,-0.011,-0.56,0.001333557010586461,10,1,100,0.03964916028957784,-10,-1,-100,473.12555525579955,-0.005704778853853961,0.0001976276879614168,0.9999837080880496,1.9731403718721219,-0.13798274020170373,-6.156336398964825,2.8806517892699293,-90.02650451660156,6378.6025390625,True
1598625691.4512813,0,5,0.5,0.5,-0.0010438682556152346,-0.14,-0.011,-0.56,0.00020580368713620607,10,1,100,0.006681065582956697,-10,-1,-100,473.26808920048643,-0.005176477823486474,0.0001790762101451798,0.9999865859145581,2.5293282821299523,-0.17619629708842188,-10.315245529610843,3.7948591388506285,-90.01911926269531,6375.4443359375,True
1598625691.488412,0,5,0.5,0.5,0.0030779006958007813,-0.14,-0.011,-0.56,0.0020450840660349644,10,1,100,0.059063603223254976,-10,-1,-100,473.26808920048643,-0.005176477823486474,0.0001790762101451798,0.9999865859145581,2.5293282821299523,-0.17619629708842188,-10.315245529610843,3.7948591388506285,-90.01911926269531,6375.4443359375,True
1598625691.526447,0,5,0.5,0.5,-0.005231327056884767,-0.14,-0.011,-0.56,-0.0011604144587081938,10,1,100,-0.03114491761524136,-10,-1,-100,473.55069234396797,-0.004360122546543325,0.00015006734638927313,0.999990483360302,3.256071661157122,-0.22567726493199974,-17.897296838703923,5.16733103971933,-90.00727844238281,6370.7080078125,True
1598625691.5670602,0,5,0.5,0.5,-0.004524801635742188,-0.14,-0.011,-0.56,-0.0004508933639890975,10,1,100,-0.01236972335383326,-10,-1,-100,473.7729705090169,-0.0037931292962663917,0.0001303042474537953,0.999992797569535,3.714714105822196,-0.25672119523541836,-23.896436964232976,6.08308502774789,-89.99886322021484,6367.5498046875,True
1598625691.6063426,0,5,0.5,0.5,-0.005539646911621094,-0.14,-0.011,-0.56,-0.0006084461809674323,10,1,100,-0.015255747070931275,-10,-1,-100,474.06461507012136,-0.0032556564837454417,0.00011105450560104474,0.9999946941698024,4.165006896353461,-0.28711786030646547,-30.67332063725573,6.999453759911643,-89.99075317382812,6364.392578125,True
1598625691.642477,0,5,0.5,0.5,-0.0010581436157226563,-0.14,-0.011,-0.56,0.001299899250505234,10,1,100,0.03802183674781891,-10,-1,-100,474.06461507012136,-0.0032556564837454417,0.00011105450560104474,0.9999946941698024,4.165006896353461,-0.28711786030646547,-30.67332063725573,6.999453759911643,-89.99075317382812,6364.392578125,True
1598625691.6826358,0,5,0.5,0.5,-0.010174565887451173,-0.14,-0.011,-0.56,-0.0030043177376324367,10,1,100,-0.08374969862216954,-10,-1,-100,474.7118110975716,-0.002152494657660747,7.206197147395049e-05,0.999997680784221,5.052651777787078,-0.3469441415080263,-46.5964641811874,8.83402133969495,-89.97781372070312,6358.07666015625,True
1598625691.7207236,0,5,0.5,0.5,-0.006588875579833986,-0.14,-0.011,-0.56,-0.0013312857256976265,10,1,100,-0.03607168991745193,-10,-1,-100,475.0734655277338,-0.0015876863012236804,5.1987630406104375e-05,0.9999987382739517,5.491932751452835,-0.37656842858645573,-55.755225502578895,9.752213075031511,-89.97268676757812,6354.91845703125,True
1598625691.7587,0,5,0.5,0.5,-0.0063938743591308595,-0.14,-0.011,-0.56,-0.0012823174254029531,10,1,100,-0.03625704232215562,-10,-1,-100,475.4985970404232,-0.0010769936734698847,3.434112967551794e-05,0.9999994194524885,5.928088960696519,-0.40603486741711736,-65.71731642770986,10.671000755567178,-89.96896362304688,6351.7607421875,True
1598625691.7966623,0,5,0.5,0.5,-0.0057005149841308595,-0.14,-0.011,-0.56,-0.0015866900421850879,10,1,100,-0.044018919316211706,-10,-1,-100,475.92983310995623,-0.0005466045512402598,1.5688707098922322e-05,0.9999998504886533,6.360515286056296,-0.43532786155495246,-76.48300976527909,11.590383775341149,-89.96707153320312,6348.603515625,True
1598625691.8356063,0,5,0.5,0.5,-0.004941306304931641,-0.14,-0.011,-0.56,-0.0017119717984465524,10,1,100,-0.047538976175523,-10,-1,-100,476.4248207848286,-3.712135440378333e-05,-2.2415666813938297e-06,0.9999999993084903,6.78880866482178,-0.46444325400248904,-88.05444730023109,12.510341541577331,-89.96673583984375,6345.4453125,True
1598625691.8746152,0,5,0.5,0.5,-0.00406325912475586,-0.14,-0.011,-0.56,-0.001831189523122051,10,1,100,-0.051158973555557596,-10,-1,-100,476.98319425072987,0.0004542821130214346,-1.9460778727070708e-05,0.9999998966245146,7.212398897322805,-0.4933675858168756,-100.43325948503049,13.430890969527228,-89.96780395507812,6342.2880859375,True
1598625691.9154787,0,5,0.5,0.5,-0.0031156776428222658,-0.14,-0.011,-0.56,-0.0020027730292999316,10,1,100,-0.05485797905440462,-10,-1,-100,477.5414154357277,0.0009295209880006894,-3.649396974396474e-05,0.9999995673293679,7.630693876483878,-0.5220806305916647,-113.62075984748783,14.352051288892314,-89.9700927734375,6339.1298828125,True
1598625691.9545453,0,5,0.5,0.5,-0.0021525535583496094,-0.14,-0.011,-0.56,-0.0020971585417692306,10,1,100,-0.05820648670227707,-10,-1,-100,478.11251558421645,0.0013871885406583578,-5.2667137767104544e-05,0.9999990364665985,8.043107354414975,-0.5505620449448925,-127.61738765079512,15.273790128994992,-89.97335815429688,6335.9716796875,True
1598625691.9916232,0,5,0.5,0.5,-0.001210760498046875,-0.14,-0.011,-0.56,-0.002205095756170967,10,1,100,-0.06117092872554605,-10,-1,-100,478.8040994743351,0.0018254900452523884,-6.818492756886479e-05,0.9999983314670632,8.449032965191645,-0.5787888787037828,-142.42289584824138,16.1961087624722,-89.97735595703125,6332.814453125,True
1598625692.0269997,0,5,0.5,0.5,-0.0019261810302734377,-0.14,-0.011,-0.56,-0.001478416742887931,10,1,100,-0.0410852119353135,-10,-1,-100,479.0959975727601,0.0020367293090366675,-7.552289141955567e-05,0.9999979230128504,8.649383119195655,-0.5928004627559836,-150.12874988682188,16.657486059817547,-89.97955322265625,6331.2353515625,True
1598625692.0673285,0,5,0.5,0.5,7.810058593749969e-05,-0.14,-0.011,-0.56,-0.0023452781817602194,10,1,100,-0.06529056418140584,-10,-1,-100,479.79399038129486,0.00244400240035705,-8.990471036718582e-05,0.9999970093802332,9.044550296496638,-0.620606755348394,-166.1462658990871,17.580654347627586,-89.98419189453125,6328.0771484375,True
1598625692.107745,0,5,0.5,0.5,0.0009054290771484377,-0.14,-0.011,-0.56,-0.0024299247476119315,10,1,100,-0.06839134642525864,-10,-1,-100,480.5554911333602,0.0028382609609942247,-0.00010360136302564595,0.9999959667626038,9.431992807572552,-0.6481117361107409,-182.97194399058918,18.504406429535756,-89.98907470703125,6324.919921875,True
1598625692.1445088,0,5,0.5,0.5,0.0016070495605468751,-0.14,-0.011,-0.56,-0.0025197251773510987,10,1,100,-0.0693736191469145,-10,-1,-100,481.3230645612348,0.0032015839978956026,-0.00011672778844602781,0.9999948681040958,9.811289451650204,-0.6753013581982553,-200.60553643749262,19.428725649926054,-89.99395751953125,6321.76171875,True
1598625692.183541,0,5,0.5,0.5,0.0020457672119140627,-0.14,-0.011,-0.56,-0.002527653316085703,10,1,100,-0.07126426519621487,-10,-1,-100,482.09719953488093,0.0035451757430983444,-0.00012859564107294268,0.9999937075762585,10.181969244178704,-0.7021520894793036,-219.04442480172006,20.353611334435612,-89.99845123291016,6318.6044921875,True
1598625692.2224643,0,5,0.5,0.5,0.002314202117919922,-0.14,-0.011,-0.56,-0.0026230175379038296,10,1,100,-0.07246632104600663,-10,-1,-100,482.9349024713738,0.003864739855285909,-0.00014012037788832838,0.9999925220481055,10.543668156538986,-0.728647444678121,-238.28535128987457,21.279057881783764,-90.00238037109375,6315.44580078125,True
1598625692.2614672,0,5,0.5,0.5,0.002385454559326172,-0.14,-0.011,-0.56,-0.0026213487651592197,10,1,100,-0.07322288003574912,-10,-1,-100,483.83589885779656,0.0041585833469907265,-0.00015045689632172172,0.9999913417361515,10.896128526691053,-0.75477479115144,-258.3253274911163,22.205060537240417,-90.00556945800781,6312.28857421875,True
1598625692.29981,0,5,0.5,0.5,0.0022432807922363285,-0.14,-0.011,-0.56,-0.0026005489785922604,10,1,100,-0.07363191520030923,-10,-1,-100,484.74312058475334,0.004426064748914772,-0.00015954555491274816,0.9999901921999308,11.239209988054267,-0.7805273877834588,-279.1623086001773,23.13161637863987,-90.00785827636719,6309.1298828125,True
1598625692.3380797,0,5,0.5,0.5,0.0019537071228027344,-0.14,-0.011,-0.56,-0.002641845522363552,10,1,100,-0.07373516430189077,-10,-1,-100,485.7140322671039,0.004666989611804723,-0.0001680715298614487,0.9999890954205072,11.57277141707392,-0.8058921614094566,-300.79229059083156,24.05872343003303,-90.00921630859375,6305.97265625,True
1598625692.3766506,0,5,0.5,0.5,0.001232653045654297,-0.14,-0.011,-0.56,-0.001800788466702934,10,1,100,-0.04997065812001027,-10,-1,-100,485.7140322671039,0.004666989611804723,-0.0001680715298614487,0.9999890954205072,11.57277141707392,-0.8058921614094566,-300.79229059083156,24.05872343003303,-90.00921630859375,6305.97265625,True
1598625692.4144676,0,5,0.5,0.5,0.0011448661804199219,-0.14,-0.011,-0.56,-0.0033442496670528683,10,1,100,-0.0943561053485252,-10,-1,-100,487.7254959079437,0.005067910496094357,-0.0001820121893170912,0.9999871414947127,12.211386649726444,-0.8554618679513983,-346.4194553483928,25.914568005951573,-90.00904083251953,6299.65673828125,True
1598625692.568083,0,5,0.5,0.5,0.00028756256103515626,-0.14,-0.011,-0.56,-0.002569577179380923,10,1,100,-0.07325617851250382,-10,-1,-100,488.77230439533014,0.005237810891314686,-0.00018754623048165985,0.9999862649874138,12.51661081150659,-0.8796648400348106,-370.409979398804,26.84330509331208,-90.00762939453125,6296.49951171875,True
1598625692.6027205,0,5,0.5,0.5,-0.00046103973388671887,-0.14,-0.011,-0.56,-0.002504756434501182,10,1,100,-0.07029361629645146,-10,-1,-100,489.87651529943105,0.005362793586377275,-0.00019189913247771146,0.999985601706181,12.812646603162877,-0.903487188945635,-395.1816722472155,27.77257805062555,-90.0053939819336,6293.3408203125,True
1598625692.6350124,0,5,0.5,0.5,-0.00015256118774414071,-0.14,-0.011,-0.56,-0.0023211763605586223,10,1,100,-0.06451055036140452,-10,-1,-100,490.43492252891883,0.005421545861910672,-0.0001941071356478696,0.9999852844731703,12.957184003406407,-0.9152474707843568,-407.85599253986646,28.237414728496425,-90.00402069091797,6291.76220703125,True
1598625692.6705997,0,5,0.5,0.5,0.00062755126953125,-0.14,-0.011,-0.56,-0.0021081139782629927,10,1,100,-0.058857318994466334,-10,-1,-100,490.43492252891883,0.005421545861910672,-0.0001941071356478696,0.9999852844731703,12.957184003406407,-0.9152474707843568,-407.85599253986646,28.237414728496425,-90.00402069091797,6291.76220703125,True
1598625692.7643247,0,5,0.5,0.5,-0.0042476089477539065,-0.14,-0.011,-0.56,-0.0026812414429920727,10,1,100,-0.07700337749362315,-10,-1,-100,492.78918709489517,0.005584804239067723,-0.00019925782942306584,0.9999843850070503,13.513662049764493,-0.961367262114699,-460.475023376666,30.098094147006414,-89.9970474243164,6285.4462890625,True
1598625692.8385372,0,5,0.5,0.5,-0.0034513206481933596,-0.14,-0.011,-0.56,-0.002301685906303625,10,1,100,-0.0657127842980059,-10,-1,-100,494.03307557397056,0.005629015494355992,-0.00020043601211104496,0.9999841368791653,13.779612586387024,-0.9838967521098825,-487.9320676301343,31.029228983753068,-89.99261474609375,6282.2890625,True
1598625692.8777533,0,5,0.5,0.5,-0.004208979034423828,-0.14,-0.011,-0.56,-0.0021917974574789823,10,1,100,-0.06274591310846994,-10,-1,-100,495.28294556145556,0.005640899231851942,-0.00020046266582372075,0.9999840699084039,14.037945385100038,-1.0060850994038866,-516.1493883808756,31.960887935473146,-89.98800659179688,6279.130859375,True
1598625692.9165356,0,5,0.5,0.5,-0.0047264213562011725,-0.14,-0.011,-0.56,-0.002153088700104286,10,1,100,-0.06081587301610089,-10,-1,-100,496.5965047837235,0.005633052415569507,-0.00020009780130373698,0.9999841142144975,14.289009476580135,-1.027942267384516,-545.1158092260758,32.89306844942003,-89.98361206054688,6275.9736328125,True
1598625692.9526181,0,5,0.5,0.5,-0.0037890098571777345,-0.14,-0.011,-0.56,-0.0020876879827640355,10,1,100,-0.06018850317475283,-10,-1,-100,497.28177250979934,0.005619337345115253,-0.0001991424395175292,0.9999841915700921,14.412036254069246,-1.0387547237056314,-559.8794527764497,33.359353209397014,-89.98147583007812,6274.39453125,True
1598625692.9933705,0,5,0.5,0.5,-0.005421697235107423,-0.14,-0.011,-0.56,-0.0019748648595961835,10,1,100,-0.05654340232579379,-10,-1,-100,498.6586551766377,0.0055728660481360204,-0.00019722001776521794,0.9999844520132672,14.653436190308723,-1.0601598734490978,-589.9636521126985,34.292309996128914,-89.97747802734375,6271.236328125,True
1598625693.040018,0,5,0.5,0.5,-0.005866572570800782,-0.14,-0.011,-0.56,-0.0018469237144706644,10,1,100,-0.05346367116192497,-10,-1,-100,500.04841587494593,0.0055021628079815095,-0.00019429543500884105,0.9999848441120088,14.889209674375385,-1.0812948991115117,-620.7879470492327,35.22577976931454,-89.97369384765625,6268.0791015625,True
1598625693.0881035,0,5,0.5,0.5,-0.006177339172363281,-0.14,-0.011,-0.56,-0.0017261419039905988,10,1,100,-0.05034055118813867,-10,-1,-100,501.4951224491233,0.005409254815427836,-0.00019053257131274585,0.9999853517225544,15.120054778803071,-1.1021762685460574,-652.3479746979813,36.159761481992405,-89.97027587890625,6264.9208984375,True
1598625693.133762,0,5,0.5,0.5,-0.006374050140380861,-0.14,-0.011,-0.56,-0.001617417733416831,10,1,100,-0.04698669887512043,-10,-1,-100,502.9482669943245,0.0052942612000524665,-0.00018612462691213865,0.9999859679795357,15.346681070409485,-1.1228307712237495,-684.6386213829487,37.094253004522805,-89.96731567382812,6261.7626953125,True
1598625693.1774058,0,5,0.5,0.5,-0.006401608276367188,-0.14,-0.011,-0.56,-0.0014590247507873964,10,1,100,-0.04354894662807356,-10,-1,-100,504.46491897816304,0.005158584969885212,-0.00018068472535016973,0.9999866780883326,15.569884926207864,-1.1432887546196977,-717.6567789731674,38.0292498340622,-89.9649658203125,6258.60546875,True
1598625693.2215881,0,5,0.5,0.5,-0.006346302032470703,-0.14,-0.011,-0.56,-0.0013532776963252197,10,1,100,-0.03993171241162863,-10,-1,-100,505.9877349444432,0.005002598050394595,-0.00017479022562626702,0.9999874716520818,15.79043669620011,-1.163581223517236,-751.3982304223767,38.96474976348763,-89.96322631835938,6255.447265625,True
1598625693.2603216,0,5,0.5,0.5,-0.006221151733398438,-0.14,-0.011,-0.56,-0.0012041917541970328,10,1,100,-0.03628817912286079,-10,-1,-100,507.5741798256058,0.00482819800840403,-0.00016809850604318721,0.9999883300553483,16.009166403354264,-1.1837373250226662,-785.8598831799547,39.900749214073095,-89.96206665039062,6252.28955078125,True
1598625693.3017058,0,5,0.5,0.5,-0.006053948974609375,-0.14,-0.011,-0.56,-0.0010442823536359138,10,1,100,-0.03251748197771407,-10,-1,-100,509.22400993213523,0.004636101466625775,-0.00016059080051352982,0.9999892403290076,16.226904475281064,-1.2037785572007123,-821.0387917161449,40.83724646899156,-89.96142578125,6249.1318359375,True
1598625693.3413677,0,5,0.5,0.5,-0.005831112670898439,-0.14,-0.011,-0.56,-0.0009225863309225102,10,1,100,-0.02871385425293483,-10,-1,-100,510.88024756056257,0.004427803265479573,-0.00015269553333945596,0.9999901855729968,16.444513619510083,-1.2237404100631384,-856.93223782433,41.7742383044019,-89.96127319335938,6245.9736328125,True
1598625693.383882,0,5,0.5,0.5,-0.005620700073242188,-0.14,-0.011,-0.56,-0.000768404786266848,10,1,100,-0.024819391615496483,-10,-1,-100,512.5998405852588,0.0042041327396882145,-0.0001441594602915776,0.9999911522038368,16.662856059129844,-1.243660436735983,-893.5388484165476,42.711721497451045,-89.96148681640625,6242.81591796875,True
1598625693.4225965,0,5,0.5,0.5,-0.005612780761718751,-0.14,-0.011,-0.56,-0.001128996810849762,10,1,100,-0.034173508318910445,-10,-1,-100,513.4311640165979,0.004087119872277494,-0.00013972748772537463,0.9999916379287273,16.77255714660957,-1.2536127581928915,-912.1080365757452,43.18064661255367,-89.96170043945312,6241.2373046875,True
1598625693.4624348,0,5,0.5,0.5,-0.005066171264648438,-0.14,-0.011,-0.56,-1.8985923023952418e-06,10,1,100,-0.004929169884062591,-10,-1,-100,516.1152584196534,0.0037162375944744578,-0.00012550434025115936,0.9999930868895055,17.105165747158242,-1.2835011681828208,-968.8832240973692,44.58815165377382,-89.96267700195312,6236.5,True
1598625693.502362,0,5,0.5,0.5,-0.005112469482421876,-0.14,-0.011,-0.56,-0.0002521685870527381,10,1,100,-0.012415192807603982,-10,-1,-100,517.9110230654478,0.00344875020960708,-0.00011491192531301921,0.9999940464408981,17.33079431055385,-1.303481903337351,-1007.6157233576254,45.52709290050291,-89.96340942382812,6233.3427734375,True
1598625693.5463204,0,5,0.5,0.5,-0.005017483520507814,-0.14,-0.011,-0.56,-0.00021077194213453034,10,1,100,-0.009522833372505812,-10,-1,-100,519.7640379850054,0.0031810679599593174,-0.00010497487009363512,0.9999949348806277,17.56056069383312,-1.3235445826573418,-1047.0510859267793,46.466514345183626,-89.96414184570312,6230.1845703125,True
1598625693.588015,0,5,0.5,0.5,-0.005025247192382813,-0.14,-0.011,-0.56,1.1398562951782766e-05,10,1,100,-0.004921925000583704,-10,-1,-100,521.6296877390705,0.002897815105298508,-9.399522417233629e-05,0.9999957969074236,17.795493129250193,-1.3437342417431872,-1087.2018204242115,47.40641295982208,-89.9647216796875,6227.02685546875,True
1598625693.6293764,0,5,0.5,0.5,-0.005093875122070313,-0.14,-0.011,-0.56,0.00014954775733524398,10,1,100,-0.001264103994522564,-10,-1,-100,523.558692279039,0.0026091148372468405,-8.283663475055846e-05,0.9999965928231245,18.03629841781713,-1.3640857244171332,-1128.0664456739669,48.34678568908048,-89.965087890625,6223.869140625,True
1598625693.6695666,0,5,0.5,0.5,-0.005232818603515625,-0.14,-0.011,-0.56,0.00029445039766598817,10,1,100,0.0024859288820705885,-10,-1,-100,525.5448258373654,0.0023147447339700667,-7.145875999218613e-05,0.9999973184216355,18.28370016945824,-1.3846171185036136,-1169.6424203665113,49.2876297354791,-89.96517944335938,6220.7109375,True
1598625693.7105346,0,5,0.5,0.5,-0.0054515625,-0.14,-0.011,-0.56,0.0004314488359162317,10,1,100,0.00620732717429557,-10,-1,-100,527.543776435079,0.0020155896131295306,-5.995765145143726e-05,0.9999979668997289,18.538479827227498,-1.4053706177883822,-1211.9325257719374,50.228941955455525,-89.96493530273438,6217.5537109375,True
1598625693.7514663,0,5,0.5,0.5,-0.0057595916748046875,-0.14,-0.011,-0.56,0.000581887697462811,10,1,100,0.009858969144481478,-10,-1,-100,529.5489528273465,0.001712815950685077,-4.822595689948037e-05,0.9999985319668105,18.801386747736895,-1.4263659530882962,-1254.9402122669549,51.170718883539635,-89.96429443359375,6214.3955078125,True
1598625693.7933853,0,5,0.5,0.5,-0.005397381591796875,-0.14,-0.011,-0.56,-0.0005808348000888801,10,1,100,-0.02014689836848443,-10,-1,-100,529.5489528273465,0.001712815950685077,-4.822595689948037e-05,0.9999985319668105,18.801386747736895,-1.4263659530882962,-1254.9402122669549,51.170718883539635,-89.96429443359375,6214.3955078125,True
1598625693.8346083,0,5,0.5,0.5,-0.007081915283203125,-0.14,-0.011,-0.56,0.0020428731419826615,10,1,100,0.04730690802357983,-10,-1,-100,533.7434491856256,0.0011018643623835866,-2.4461278792822807e-05,0.999999392648102,19.35424341538631,-1.4692207921347415,-1343.1147490002872,53.05565267783367,-89.96188354492188,6208.080078125,True
1598625693.879437,0,5,0.5,0.5,-0.0070560791015625,-0.14,-0.011,-0.56,0.0010478914147299357,10,1,100,0.02170801725467375,-10,-1,-100,535.8755792605225,0.000781884885017645,-1.200710186082485e-05,0.9999996942558812,19.645386456147175,-1.4911263479015506,-1388.2807977148877,53.99880686708502,-89.95999145507812,6204.921875,True
1598625693.9266133,0,5,0.5,0.5,-0.007537548828125001,-0.14,-0.011,-0.56,0.0011177488380214274,10,1,100,0.022352257511534725,-10,-1,-100,538.0774729414843,0.0004878053148130137,-1.5323465489526634e-07,0.9999998810229687,19.94708138902973,-1.5133749104823795,-1434.1527602401704,54.94241400506481,-89.95779418945312,6201.763671875,True
1598625693.9614031,0,5,0.5,0.5,-0.008043603515625001,-0.14,-0.011,-0.56,0.0012813796462147855,10,1,100,0.027162915488765073,-10,-1,-100,540.3365565848071,0.0001794187647383403,1.2006234978927495e-05,0.9999999838323785,20.26050045316817,-1.5360407950405162,-1480.7821581719252,55.88646933413989,-89.955322265625,6198.6064453125,True
1598625694.0024292,0,5,0.5,0.5,-0.008570272827148437,-0.14,-0.011,-0.56,0.0013798251177927596,10,1,100,0.029651205603003022,-10,-1,-100,542.551145631005,-0.00012082469164514329,2.3848910655772896e-05,0.9999999924163115,20.585803314089013,-1.5591211781149097,-1528.1636849128784,56.83096959625127,-89.95260620117188,6195.44873046875,True
1598625694.043472,0,5,0.5,0.5,-0.009092022705078126,-0.14,-0.011,-0.56,0.0015198346947260847,10,1,100,0.03222650796715734,-10,-1,-100,544.8799929202069,-0.00041444091003430976,3.578066275700066e-05,0.9999999134792343,20.92330158954931,-1.5826357002557567,-1576.2930700314762,57.7759150130763,-89.94970703125,6192.291015625,True
1598625694.0886366,0,5,0.5,0.5,-0.009600274658203125,-0.14,-0.011,-0.56,0.0015752031900886422,10,1,100,0.03484855989737379,-10,-1,-100,547.22159615485,-0.0007024528936198096,4.702322617276955e-05,0.9999997521743434,21.273402495884792,-1.6065974502668061,-1625.1759429662966,58.72130014935256,-89.94668579101562,6189.1328125,True
1598625694.129478,0,5,0.5,0.5,-0.010086315917968752,-0.14,-0.011,-0.56,0.001713399647150535,10,1,100,0.0372727899144189,-10,-1,-100,549.6203291518614,-0.000983577517372865,5.8392358900244884e-05,0.9999995145826821,21.63644693892528,-1.6310350282036272,-1674.8202458000255,59.66712129437621,-89.943603515625,6185.97509765625,True
1598625694.1698313,0,5,0.5,0.5,-0.010562661743164063,-0.14,-0.011,-0.56,0.0018151400094910865,10,1,100,0.039582067533478184,-10,-1,-100,552.0316346521722,-0.001257412274475725,6.954525557345321e-05,0.9999992070386003,22.012738138580268,-1.655958017653725,-1725.232441518575,60.61337509884449,-89.94049072265625,6182.8173828125,True
1598625694.2418404,0,5,0.5,0.5,-0.011024636840820314,-0.14,-0.011,-0.56,0.0019097442453983294,10,1,100,0.04167175945791066,-10,-1,-100,554.4430020985892,-0.0015226499545866559,8.043722631873306e-05,0.9999988375328086,22.40249530934774,-1.6813748194004443,-1776.4161902685846,61.56005708416409,-89.9373779296875,6179.6591796875,True
1598625694.2815068,0,5,0.5,0.5,-0.013562179565429688,-0.14,-0.011,-0.56,0.003129227566701227,10,1,100,0.0707674357740865,-10,-1,-100,559.4624527315609,-0.002025339934011581,0.00010130826338699724,0.99999794386528,23.22323374973527,-1.7337591220128092,-1881.1308620028847,63.45469589556547,-89.93130493164062,6173.34375,True
1598625694.3213813,0,5,0.5,0.5,-0.012267080688476564,-0.14,-0.011,-0.56,0.002149094774382754,10,1,100,0.046798109450592075,-10,-1,-100,562.0641884674551,-0.0022615849448239314,0.00011125729938963328,0.9999974364243893,23.654454872931154,-1.760742337549358,-1934.6757277347485,64.4026452362187,-89.9283447265625,6170.18603515625,True
1598625694.361431,0,5,0.5,0.5,-0.012438610839843751,-0.14,-0.011,-0.56,0.0021896369132469295,10,1,100,0.046929493813118485,-10,-1,-100,564.6786197607871,-0.002474780749012816,0.00012055838392602176,0.9999969304582492,24.09981657345299,-1.7882768471912878,-1989.033972442535,65.35100948069525,-89.92578125,6167.02783203125,True
1598625694.4013643,0,5,0.5,0.5,-0.012533639526367189,-0.14,-0.011,-0.56,0.0022193181867871045,10,1,100,0.049034791578566404,-10,-1,-100,567.2929897443391,-0.002685040926994214,0.00012917400724712114,0.999996386928121,24.559467774730344,-1.8163781957882568,-2044.2434597751212,66.29978503392839,-89.92364501953125,6163.8701171875,True
1598625694.4427896,0,5,0.5,0.5,-0.012718020629882813,-0.14,-0.011,-0.56,0.0023335514813504813,10,1,100,0.04951788972054667,-10,-1,-100,569.9709584556986,-0.002877974290366458,0.00013793836042390746,0.9999958491098815,25.032859121208105,-1.8450228243456164,-2100.2864519451464,67.24896734143319,-89.92172241210938,6160.71240234375,True
1598625694.4844625,0,5,0.5,0.5,-0.012892984008789065,-0.14,-0.011,-0.56,0.0023080433926816967,10,1,100,0.050155801987096404,-10,-1,-100,572.7185682747513,-0.003056660959856476,0.00014557034482420777,0.9999953178055639,25.519757886104976,-1.8742025429592002,-2157.160648503358,68.1985536351066,-89.91998291015625,6157.5546875,True
1598625694.5254467,0,5,0.5,0.5,-0.01308376159667969,-0.14,-0.011,-0.56,0.0023973985157620097,10,1,100,0.05074527150711192,-10,-1,-100,575.4663605892565,-0.0032220601822567953,0.00015322102295969525,0.9999947974122164,26.019984526528816,-1.903911716692589,-2214.870615738535,69.14853934859951,-89.91836547851562,6154.396484375,True
1598625694.5653307,0,5,0.5,0.5,-0.01327726745605469,-0.14,-0.011,-0.56,0.002414453701303945,10,1,100,0.051180623892196755,-10,-1,-100,578.2203787146136,-0.0033740903085863684,0.00016023468859071335,0.999994294903443,26.53336583482892,-1.9341525009025506,-2273.4272021861866,70.0989202403978,-89.91683959960938,6151.23876953125,True
1598625694.60735,0,5,0.5,0.5,-0.013498968505859375,-0.14,-0.011,-0.56,0.002426754292825914,10,1,100,0.05144008302795027,-10,-1,-100,581.1011666095583,-0.003512485040309909,0.00016662998787848364,0.9999938173225317,27.05957865044277,-1.9649217143620437,-2332.8321633449564,71.049693215894,-89.91534423828125,6148.0810546875,True
1598625694.646837,0,5,0.5,0.5,-0.013714617919921877,-0.14,-0.011,-0.56,0.0024655919281046604,10,1,100,0.0515233439669185,-10,-1,-100,583.9251916183857,-0.003637005284262081,0.00017270870688598612,0.9999933711601616,27.59838031705595,-1.9962028385910915,-2393.0969027070128,72.00085426879241,-89.91387939453125,6144.9228515625,True
1598625694.689473,0,5,0.5,0.5,-0.013988269042968751,-0.14,-0.011,-0.56,0.002473298854199682,10,1,100,0.05144417715054648,-10,-1,-100,586.8695779038826,-0.003747563666497332,0.0001782209948749729,0.9999929619771545,28.149396286170155,-2.027988666642271,-2454.2250803330307,72.95239926819842,-89.912353515625,6141.765625,True
1598625694.7333362,0,5,0.5,0.5,-0.014265463256835939,-0.14,-0.011,-0.56,0.002503354520517106,10,1,100,0.051155160988938735,-10,-1,-100,589.8203727933578,-0.0038438782091215935,0.0001834354784392211,0.9999925954484556,28.712254573889982,-2.060274697840092,-2516.2214188424127,73.90432437168991,-89.9107666015625,6138.607421875,True
1598625694.8063686,0,5,0.5,0.5,-0.01395154724121094,-0.14,-0.011,-0.56,0.002205661048020196,10,1,100,0.046439634242469316,-10,-1,-100,591.2734620792326,-0.003887130010844566,0.00018540399722124793,0.9999924278941499,28.998028089791557,-2.076595911064835,-2547.54921120501,74.38042789579276,-89.90997314453125,6137.0283203125,True
1598625694.853834,0,5,0.5,0.5,-0.016793032836914065,-0.14,-0.011,-0.56,0.0030823725805728137,10,1,100,0.06018118071548161,-10,-1,-100,598.888210071018,-0.004050089026472988,0.00019510471403420956,0.9999917793227243,30.46764876219045,-2.1599638401869843,-2707.482598245549,76.76233759731049,-89.90530395507812,6129.13427734375,True
1598625694.924795,0,5,0.5,0.5,-0.015800634765625002,-0.14,-0.011,-0.56,0.0024478608539373003,10,1,100,0.048760621598859896,-10,-1,-100,601.98506102385,-0.00409316936862092,0.00019809532207040902,0.9999916033261295,31.073424680280144,-2.1940845573215126,-2773.0076841877594,77.71574125070035,-89.90301513671875,6125.9765625,True
1598625694.9665148,0,5,0.5,0.5,-0.01729521179199219,-0.14,-0.011,-0.56,0.002537254487938881,10,1,100,0.04833271456982281,-10,-1,-100,606.6617704988457,-0.004127338529329381,0.00020157203790183517,0.9999914621862418,31.99954608473996,-2.246032774681409,-2872.954986687332,79.14651925117302,-89.89907836914062,6121.240234375,True
1598625695.0067382,0,5,0.5,0.5,-0.016908050537109375,-0.14,-0.011,-0.56,0.002380353101084272,10,1,100,0.04578526670501855,-10,-1,-100,609.8853908046149,-0.004134269442502968,0.00020325540178347374,0.9999914332150144,32.62811631129736,-2.281181171827545,-2940.7337496982377,80.10081304152368,-89.89651489257812,6118.08203125,True
1598625695.0493772,0,5,0.5,0.5,-0.017376422119140627,-0.14,-0.011,-0.56,0.0023460676698815863,10,1,100,0.04446685427700478,-10,-1,-100,613.1154808739666,-0.004127755423987698,0.0002044285610478264,0.9999914598855948,33.264719256215365,-2.3167023616228937,-3009.431198313893,81.0554562058413,-89.89382934570312,6114.923828125,True
1598625695.090578,0,5,0.5,0.5,-0.017820434570312498,-0.14,-0.011,-0.56,0.002299514588992238,10,1,100,0.04307373895880025,-10,-1,-100,616.4089252444683,-0.004108483754157955,0.0002050316833960101,0.9999915391258322,33.908488462462756,-2.352545046132851,-3079.029918130242,82.01044309312563,-89.89108276367188,6111.76611328125,True
1598625695.1324294,0,5,0.5,0.5,-0.018295730590820316,-0.14,-0.011,-0.56,0.0022671973784828617,10,1,100,0.041658391758600595,-10,-1,-100,619.7022470398806,-0.004077555444571058,0.0002052512729847123,0.9999916656720252,34.55876909756481,-2.38869726796876,-3149.526250748681,82.96577002189687,-89.88824462890625,6108.6083984375,True
1598625695.1763723,0,5,0.5,0.5,-0.018742630004882813,-0.14,-0.011,-0.56,0.0022119996364349257,10,1,100,0.04019551028644801,-10,-1,-100,623.0656372654485,-0.0040357393768722105,0.0002049195180775524,0.999991835374506,35.21486251778012,-2.425128344545828,-3220.91450755862,83.92143229106857,-89.8853759765625,6105.45068359375,True
1598625695.2196631,0,5,0.5,0.5,-0.019238003540039066,-0.14,-0.011,-0.56,0.0021933220227543966,10,1,100,0.038690726105059595,-10,-1,-100,626.4351915890584,-0.003983782935760296,0.0002044238548346726,0.9999920438105537,35.87612443153303,-2.4618136690847883,-3293.194572385578,84.87742654053264,-89.88241577148438,6102.29248046875,True
1598625695.2615724,0,5,0.5,0.5,-0.019683618164062503,-0.14,-0.011,-0.56,0.002111398576928346,10,1,100,0.037102627015650834,-10,-1,-100,629.868283577729,-0.00392198535691244,0.00020320941294600374,0.9999922883386625,36.54190055607337,-2.498725674146964,-3366.3618225976156,85.83374803805141,-89.87945556640625,6099.13525390625,True
1598625695.3048303,0,5,0.5,0.5,-0.0201743408203125,-0.14,-0.011,-0.56,0.002105530260019772,10,1,100,0.0355484610775801,-10,-1,-100,633.3076013118261,-0.0038516452718445936,0.00020203583978829523,0.9999925619774476,37.21152009623305,-2.5358376120031623,-3440.410211864295,86.79039227621725,-89.87643432617188,6095.9765625,True
1598625695.3533893,0,5,0.5,0.5,-0.020629071044921878,-0.14,-0.011,-0.56,0.0020010662137758817,10,1,100,0.033900816790661266,-10,-1,-100,636.8104561599903,-0.003772901558951497,0.00020001298092838478,0.9999928625788455,37.8843401845454,-2.5731164510616598,-3515.336682351652,87.74735571281185,-89.8734130859375,6092.8193359375,True
1598625695.3957298,0,5,0.5,0.5,-0.02110596923828125,-0.14,-0.011,-0.56,0.001985950303196034,10,1,100,0.03223019016943062,-10,-1,-100,640.376848537242,-0.003686420003228103,0.00019803485763332396,0.9999931855216588,38.55976443174006,-2.6105458572434084,-3591.138540075462,88.704633043982,-89.870361328125,6089.6611328125,True
1598625695.4696248,0,5,0.5,0.5,-0.021586166381835935,-0.14,-0.011,-0.56,0.0018953353320125097,10,1,100,0.03051705357822311,-10,-1,-100,643.9494661419885,-0.0035926272731286774,0.00019541600688184437,0.9999935273999832,39.23709680607001,-2.648087816564372,-3667.8043370079345,89.66222081119732,-89.86727905273438,6086.50341796875,True
1598625695.515339,0,5,0.5,0.5,-0.023182046508789064,-0.14,-0.011,-0.56,0.0017341518716955536,10,1,100,0.023093611542095736,-10,-1,-100,649.3745512033347,-0.003440367720136564,0.00019157705600934661,0.9999940635664705,40.260096037517094,-2.7049329308694685,-3783.991027543296,91.06798694425272,-89.86257934570312,6081.8388671875,True
1598625695.5633397,0,5,0.5,0.5,-0.022827627563476564,-0.14,-0.011,-0.56,0.0017618997677714102,10,1,100,0.026295852919489125,-10,-1,-100,653.0169125027023,-0.0033316861278508106,0.00018835103745780052,0.9999944321802158,40.909297141513456,-2.740700099908301,-3858.4577088389397,91.97426358224618,-89.859375,6078.80029296875,True
1598625695.6357498,0,5,0.5,0.5,-0.024443316650390626,-0.14,-0.011,-0.56,0.0015552205004100927,10,1,100,0.01842935961830048,-10,-1,-100,658.5807920836378,-0.0031620772845132356,0.0001835545551130541,0.9999949837749048,41.87334976272465,-2.793912917442183,-3967.6555559268704,93.22923726122987,-89.85455322265625,6074.484375,True
1598625695.6837664,0,5,0.5,0.5,-0.026009918212890625,-0.14,-0.011,-0.56,0.001196734308146542,10,1,100,0.00902789316082414,-10,-1,-100,666.1315022949129,-0.0029232518029202533,0.00017595487552259022,0.999995711810195,43.026753836200086,-2.8563994142656726,-4099.267848702531,94.76680756916527,-89.8485107421875,6069.04296875,True
1598625695.7254097,0,5,0.5,0.5,-0.023713433837890627,-0.14,-0.011,-0.56,0.0017519806939940417,10,1,100,0.026241620843889042,-10,-1,-100,668.0479777045548,-0.0028636375145671793,0.00017412010180492302,0.9999958846227196,43.30300313688026,-2.871265442036593,-4131.129308085259,95.1401969622548,-89.84701538085938,6067.7080078125,True
1598625695.7705262,0,5,0.5,0.5,-0.02564934692382813,-0.14,-0.011,-0.56,0.001276975961839895,10,1,100,0.012462847043388937,-10,-1,-100,673.8148892648751,-0.0026851994409881957,0.00016816144972657855,0.9999963807062948,44.11483282713819,-2.9149379266964957,-4222.0059284810595,96.13034764680154,-89.84310913085938,6064.00244140625,True
1598625695.8445375,0,5,0.5,0.5,-0.02508263854980469,-0.14,-0.011,-0.56,0.0014185618272038675,10,1,100,0.01645728871155345,-10,-1,-100,677.6600482669892,-0.0025604204673687282,0.00016406349930704644,0.9999967086596827,44.58590794514783,-2.9395222842534054,-4274.737125701116,96.73110996834933,-89.84085083007812,6061.6689453125,True
1598625695.892476,0,5,0.5,0.5,-0.02689057922363281,-0.14,-0.011,-0.56,0.000932806595827306,10,1,100,0.0025189291717459747,-10,-1,-100,685.4837994702393,-0.0023214465180841225,0.0001559566534953951,0.9999972932781299,45.48720055632147,-2.98621836912716,-4375.778446348824,97.8656335629926,-89.83651733398438,6057.1552734375,True
1598625695.931784,0,5,0.5,0.5,-0.025828869628906254,-0.14,-0.011,-0.56,0.0012756025160810544,10,1,100,0.013126553941884176,-10,-1,-100,689.3988055923255,-0.002201949930318344,0.00015174317142113976,0.9999975641922906,45.91398057327869,-3.008099867342551,-4423.50178044102,98.39379349084237,-89.83462524414062,6054.98779296875,True
1598625696.0044699,0,5,0.5,0.5,-0.026068984985351564,-0.14,-0.011,-0.56,0.0012460302749589933,10,1,100,0.012372604792509248,-10,-1,-100,693.3203712675022,-0.002087812103785055,0.00014768597796726361,0.9999978096123366,46.3135766533517,-3.0282669172273224,-4468.621717965459,98.90729631049174,-89.83282470703125,6052.8544921875,True
1598625696.0465891,0,5,0.5,0.5,-0.027085278320312503,-0.14,-0.011,-0.56,0.0007277459629952165,10,1,100,-0.0006616686130781341,-10,-1,-100,701.2834753326606,-0.00186692506249431,0.0001393293356539915,0.9999982475875382,47.060504887359166,-3.065282035842476,-4550.310713009268,99.79713397623776,-89.82998657226562,6048.9033203125,True
1598625696.093472,0,5,0.5,0.5,-0.026407629394531253,-0.14,-0.011,-0.56,0.0011278608694656658,10,1,100,0.009718006865612883,-10,-1,-100,705.3255048876163,-0.0017619097499068624,0.0001354172942647076,0.9999984386668759,47.40671155017858,-3.0820759470509778,-4588.22625623441,100.21649845585169,-89.8287353515625,6046.98583984375,True
1598625696.133422,0,5,0.5,0.5,-0.0265096923828125,-0.14,-0.011,-0.56,0.0010978017090897759,10,1,100,0.009485783253842459,-10,-1,-100,709.3099873892497,-0.0016657572296094006,0.00013163574949211698,0.9999986039614663,47.738460348132314,-3.0979351298373694,-4623.83484413054,100.60134869547629,-89.82763671875,6045.1474609375,True
1598625696.1753395,0,5,0.5,0.5,-0.026564935302734377,-0.14,-0.011,-0.56,0.0010809919070607341,10,1,100,0.008658530619844628,-10,-1,-100,713.3587550002849,-0.0015721856599889132,0.00012809236404915324,0.9999987559115244,48.033859565365304,-3.1114528380739666,-4655.445657262138,100.9643348510509,-89.82672119140625,6043.359375,True
1598625696.2193584,0,5,0.5,0.5,-0.026631628417968754,-0.14,-0.011,-0.56,0.0010199022393722872,10,1,100,0.00811692499809518,-10,-1,-100,717.4133574983571,-0.0014834251511752308,0.0001243592553142671,0.9999988919916845,48.324330340801694,-3.1246586797633307,-4686.099602794967,101.30674357600194,-89.825927734375,6041.61865234375,True
1598625696.2606213,0,5,0.5,0.5,-0.026744546508789064,-0.14,-0.011,-0.56,0.0009816664353911719,10,1,100,0.007815571418301191,-10,-1,-100,721.4617977385642,-0.001401248940040476,0.00012066315901589741,0.9999990109704161,48.6007850193934,-3.136956641398072,-4714.941362304888,101.63017110102373,-89.82516479492188,6039.92138671875,True
1598625696.3008738,0,5,0.5,0.5,-0.02689245910644531,-0.14,-0.011,-0.56,0.001003450977983318,10,1,100,0.007387308566311597,-10,-1,-100,725.5164071789477,-0.0013238172226280186,0.00011754429303249964,0.9999991168452602,48.864352849733685,-3.1484146536706383,-4742.092196119286,101.93575063406684,-89.82437133789062,6038.2646484375,True
1598625696.344036,0,5,0.5,0.5,-0.027021670532226566,-0.14,-0.011,-0.56,0.0009447099688076272,10,1,100,0.007092451516200275,-10,-1,-100,729.6283925547032,-0.0012518684183836278,0.00011421724133351771,0.9999992098896302,49.115789536141186,-3.159081948275916,-4767.633105986682,102.224502490568,-89.82357788085938,6036.646484375,True
1598625696.3850744,0,5,0.5,0.5,-0.027168350219726568,-0.14,-0.011,-0.56,0.0009187017136378897,10,1,100,0.006860794575085397,-10,-1,-100,733.7466672840528,-0.0011853267860601378,0.00011099415511668369,0.9999992913401028,49.355824653137134,-3.169003279756634,-4791.644108484759,102.49739587041022,-89.82275390625,6035.0654296875,True
1598625696.4264214,0,5,0.5,0.5,-0.02733948974609375,-0.14,-0.011,-0.56,0.0009348458998168073,10,1,100,0.0067394368042307685,-10,-1,-100,737.8078158654971,-0.001124655343434885,0.00010824788662691969,0.9999993617161731,49.58513304770109,-3.1782112637571,-4814.189326224938,102.7551630091525,-89.82186889648438,6033.51806640625,True
1598625696.5016274,0,5,0.5,0.5,-0.02745408020019531,-0.14,-0.011,-0.56,0.0008833517721480537,10,1,100,0.006673139235374335,-10,-1,-100,741.9260349803371,-0.0010697723783862786,0.00010531900328590952,0.9999994222473162,49.804303128965756,-3.1867431471029715,-4835.339427227796,102.99881838322155,-89.82101440429688,6032.00390625,True
1598625696.5442624,0,5,0.5,0.5,-0.028288534545898438,-0.14,-0.011,-0.56,0.0006530786166787095,10,1,100,0.0020305194705557052,-10,-1,-100,750.2261400616262,-0.0009783978238292925,0.00010059390822833177,0.999999516309165,50.21505174759541,-3.2019458382883337,-4873.737532050429,103.44662816005746,-89.81915283203125,6029.0654296875,True
1598625696.5894067,0,5,0.5,0.5,-0.027897463989257812,-0.14,-0.011,-0.56,0.0008552524757512406,10,1,100,0.007116153397995933,-10,-1,-100,754.3507205034839,-0.0009422753662324687,9.816796906395352e-05,0.9999995512399914,50.41101211662698,-3.2088981686415217,-4891.678535706721,103.6582595286411,-89.8182373046875,6027.6240234375,True
1598625696.630397,0,5,0.5,0.5,-0.027971890258789066,-0.14,-0.011,-0.56,0.0008620728730507608,10,1,100,0.007580944614853018,-10,-1,-100,758.5324645389337,-0.0009143198539007633,9.605499869035818e-05,0.9999995773962318,50.60114717748425,-3.215425371601873,-4908.413145529499,103.85283842770218,-89.81741333007812,6026.22216796875,True
1598625696.6783876,0,5,0.5,0.5,-0.028033398437500006,-0.14,-0.011,-0.56,0.000884030475754134,10,1,100,0.007734199525887728,-10,-1,-100,762.6570373186842,-0.0008908970380686994,9.43628559801738e-05,0.9999995986989789,50.77583534259606,-3.2209157379157234,-4923.015134660268,104.03115011531843,-89.81668090820312,6024.857421875,True
1598625696.721476,0,5,0.5,0.5,-0.028103384399414066,-0.14,-0.011,-0.56,0.0008751808564464302,10,1,100,0.008245218492184327,-10,-1,-100,766.8450963461073,-0.0008747878580177982,9.277136279478533e-05,0.999999613069764,50.94390521621737,-3.225935834104785,-4936.588559520235,104.19947410564328,-89.81600952148438,6023.51513671875,True
1598625696.7644794,0,5,0.5,0.5,-0.028186087036132814,-0.14,-0.011,-0.56,0.0008712268984470773,10,1,100,0.008741778834225984,-10,-1,-100,771.0270061518531,-0.0008651359347919237,9.131396191372997e-05,0.9999996216007156,51.10385902502892,-3.23039894239455,-4949.1971646897,104.36306358801072,-89.81536865234375,6022.18408203125,True
1598625696.8425593,0,5,0.5,0.5,-0.028242987060546877,-0.14,-0.011,-0.56,0.0009110122627864303,10,1,100,0.009231145727375913,-10,-1,-100,775.158058800851,-0.0008612272320587063,9.037458290778173e-05,0.9999996250599744,51.26276913457891,-3.234741562598231,-4961.332887108195,104.51788740015137,-89.81478881835938,6020.87353515625,True
1598625696.9174066,0,5,0.5,0.5,-0.028504730224609375,-0.14,-0.011,-0.56,0.0008284737290519514,10,1,100,0.0102108119025463,-10,-1,-100,781.4720673991833,-0.0008669350504267167,8.879192683062966e-05,0.999999620269734,51.493361941861075,-3.2406594704045726,-4978.0533624036025,104.73377414729605,-89.81396484375,6018.9453125,True
1598625696.9605916,0,5,0.5,0.5,-0.028715203857421878,-0.14,-0.011,-0.56,0.0009019585065696996,10,1,100,0.01266520736085629,-10,-1,-100,789.8482074841158,-0.0008947261092328474,8.804137585454916e-05,0.999999595856871,51.78293665309099,-3.2472218724048862,-4997.708571976392,105.00343763881992,-89.81301879882812,6016.4150390625,True
1598625697.0012329,0,5,0.5,0.5,-0.028494226074218754,-0.14,-0.011,-0.56,0.0009417302535423,10,1,100,0.012312615664247208,-10,-1,-100,794.0428616357967,-0.0009169943556639763,8.773898767674724e-05,0.9999995757115209,51.926192851969084,-3.2503181047587852,-5006.911679081202,105.12925892927441,-89.81259155273438,6015.17138671875,True
1598625697.042373,0,5,0.5,0.5,-0.028477856445312505,-0.14,-0.011,-0.56,0.0010036996038536342,10,1,100,0.013026595189811033,-10,-1,-100,798.2882496349048,-0.0009438678281271486,8.804342889576595e-05,0.9999995506808379,52.061435032941276,-3.252849106193267,-5015.039126827052,105.24982247842973,-89.81228637695312,6013.939453125,True
1598625697.082737,0,5,0.5,0.5,-0.02846404724121094,-0.14,-0.011,-0.56,0.0009837999745278888,10,1,100,0.013868044870955868,-10,-1,-100,802.4826483624056,-0.0009759791911001693,8.815069744585124e-05,0.9999995198469211,52.19640425329557,-3.2552840242808365,-5022.478245124015,105.35708647533824,-89.81207275390625,6012.73828125,True
1598625697.124463,0,5,0.5,0.5,-0.028458010864257813,-0.14,-0.011,-0.56,0.0010108926445045248,10,1,100,0.014693785691259651,-10,-1,-100,806.6770655205473,-0.0010126474341467064,8.850361791991465e-05,0.9999994833560084,52.32532217943989,-3.257280521193446,-5028.974363304004,105.4582016405145,-89.81192016601562,6011.55078125,True
1598625697.1654992,0,5,0.5,0.5,-0.028485415649414064,-0.14,-0.011,-0.56,0.0010919379398945824,10,1,100,0.015528295568459992,-10,-1,-100,810.9287946118275,-0.0010534792652724288,8.956809501876413e-05,0.9999994410793409,52.45153668976859,-3.259041619647476,-5034.853068704617,105.55342917367386,-89.811767578125,6010.37744140625,True
1598625697.2379248,0,5,0.5,0.5,-0.0284908203125,-0.14,-0.011,-0.56,0.0010472062260416532,10,1,100,0.016393560296694934,-10,-1,-100,815.1231522180606,-0.0010983173527095815,9.01335084017474e-05,0.9999993927872873,52.57534027753422,-3.2605885479615204,-5040.163119137077,105.64342951957514,-89.8116455078125,6009.2158203125,True
1598625697.2797318,0,5,0.5,0.5,-0.028555435180664064,-0.14,-0.011,-0.56,0.0012401666052824284,10,1,100,0.02303465120634952,-10,-1,-100,823.6266165643465,-0.001199249595472315,9.240410388336928e-05,0.9999992766306831,52.81757002976354,-3.2631658737868166,-5049.285609513653,105.809048208855,-89.81146240234375,6006.9267578125,True
1598625697.323703,0,5,0.5,0.5,-0.02852127990722656,-0.14,-0.011,-0.56,0.0011626788058042381,10,1,100,0.01905133065065899,-10,-1,-100,827.8210407290608,-0.001254490435058813,9.376285601506958e-05,0.9999992087308245,52.937646935643734,-3.2642987159922265,-5053.359825388041,105.8873730917937,-89.81137084960938,6005.7919921875,True
1598625697.3664975,0,5,0.5,0.5,-0.028495132446289064,-0.14,-0.011,-0.56,0.001040844533794424,10,1,100,0.016604150543184336,-10,-1,-100,829.9469397398643,-0.001282104776248587,9.388742068642855e-05,0.9999991736959061,52.99633782197043,-3.2647584851229605,-5055.170641610138,105.92545753314371,-89.81134033203125,6005.22705078125,True
1598625697.4113407,0,5,0.5,0.5,-0.028587741088867188,-0.14,-0.011,-0.56,0.0013116667626644472,10,1,100,0.023557453348749664,-10,-1,-100,836.3307861391222,-0.0013700431394482282,9.645804929206802e-05,0.9999990568383758,53.17298255807281,-3.266080301583633,-5059.853855028693,106.02553872041513,-89.81118774414062,6003.5654296875,True
1598625697.4543827,0,5,0.5,0.5,-0.02856839294433594,-0.14,-0.011,-0.56,0.0012389410616551466,10,1,100,0.021663141638317396,-10,-1,-100,840.5885070641525,-0.0014323339840528674,9.812619013034887e-05,0.9999989693947734,53.287506342455,-3.2666964938885137,-5062.350281606872,106.0888520671072,-89.81109619140625,6002.4658203125,True
1598625697.4978976,0,5,0.5,0.5,-0.028582855224609377,-0.14,-0.011,-0.56,0.001279168470319983,10,1,100,0.022213407772339752,-10,-1,-100,844.783234682167,-0.00149349595343148,9.99989426053267e-05,0.9999988797343967,53.403072818651665,-3.267320256709227,-5064.663396226963,106.14883590172423,-89.81100463867188,6001.37451171875,True
1598625697.5398114,0,5,0.5,0.5,-0.028618444824218752,-0.14,-0.011,-0.56,0.0013249014590799581,10,1,100,0.023211496453274732,-10,-1,-100,849.041257885634,-0.0015576716153066239,0.00010210633064975218,0.9999987816159758,53.51703990843348,-3.26779209390165,-5066.516626222074,106.20486080916083,-89.81088256835938,6000.29150390625,True
1598625697.5844996,0,5,0.5,0.5,-0.028615481567382816,-0.14,-0.011,-0.56,0.0013293624670230252,10,1,100,0.023959000545215645,-10,-1,-100,853.29922100564,-0.0016222798065523934,0.00010405000564125422,0.9999986786900399,53.63088152307375,-3.2682086397539694,-5068.092744158873,106.25793902434138,-89.810791015625,5999.2158203125,True
1598625697.659574,0,5,0.5,0.5,-0.0286509033203125,-0.14,-0.011,-0.56,0.001340927395707926,10,1,100,0.024745244919851004,-10,-1,-100,857.5511426727753,-0.0016876079907521364,0.00010590798554182668,0.9999985703803622,53.74469309700418,-3.2685752057781854,-5069.40855802043,106.3082425094289,-89.8106689453125,5998.1474609375,True
1598625697.705708,0,5,0.5,0.5,-0.028754650878906253,-0.14,-0.011,-0.56,0.0016392416728988552,10,1,100,0.03277313816319315,-10,-1,-100,866.0671979637118,-0.001819401616122759,0.00011029415170724368,0.9999983388051,53.97279104085114,-3.269200171107387,-5071.447208063927,106.40373597245993,-89.8104248046875,5996.021484375,True
1598625697.778495,0,5,0.5,0.5,-0.028704724121093754,-0.14,-0.011,-0.56,0.0014328300849504282,10,1,100,0.026910505946749517,-10,-1,-100,870.3252863977104,-0.0018852618151616435,0.00011238677865508661,0.9999982165769596,54.0885508917514,-3.269552499400036,-5072.317829076986,106.44909495716995,-89.810302734375,5994.9638671875,True
1598625697.822662,0,5,0.5,0.5,-0.02880853881835938,-0.14,-0.011,-0.56,0.0017322297977801298,10,1,100,0.03425650422721815,-10,-1,-100,878.8412152809324,-0.0020112928784560813,0.00011699281629269409,0.9999979705047596,54.321117672565435,-3.2702025256224245,-5073.466751023028,106.53290299373775,-89.81005859375,5992.8662109375,True
1598625697.8687165,0,5,0.5,0.5,-0.02873735046386719,-0.14,-0.011,-0.56,0.0015426587072813794,10,1,100,0.0286038328468309,-10,-1,-100,883.0993048158707,-0.0020737906484989614,0.00011943563154027805,0.9999978425614109,54.438410940740255,-3.270538668647953,-5073.807336595919,106.57146109829662,-89.80996704101562,5991.82568359375,True
1598625697.9413211,0,5,0.5,0.5,-0.028730316162109377,-0.14,-0.011,-0.56,0.0015294718387681963,10,1,100,0.028708821795193004,-10,-1,-100,887.3570231186459,-0.0021308415336391893,0.0001215132664053674,0.9999977223718486,54.556647333431236,-3.2709020522134966,-5073.992365995054,106.60689588096203,-89.80990600585938,5990.7919921875,True
1598625698.0174115,0,5,0.5,0.5,-0.02874027099609375,-0.14,-0.011,-0.56,0.0017053258015751061,10,1,100,0.03226533535520143,-10,-1,-100,893.747301314259,-0.0022143462812265723,0.00012497792029268117,0.9999975405225087,54.73315335069853,-3.271357903906864,-5073.826792250907,106.65613853122957,-89.80984497070312,5989.2509765625,True
1598625698.0624905,0,5,0.5,0.5,-0.02870746765136719,-0.14,-0.011,-0.56,0.0017234373732826738,10,1,100,0.03260434170258533,-10,-1,-100,900.1948312218301,-0.0022926306437393434,0.00012826784563288763,0.9999973636925705,54.91190531884415,-3.2718973767064568,-5073.5366563735615,106.70283205875431,-89.80984497070312,5987.7158203125,True
1598625698.102449,0,5,0.5,0.5,-0.028708743286132814,-0.14,-0.011,-0.56,0.001722255038579693,10,1,100,0.03284395796090349,-10,-1,-100,906.5851093205856,-0.002365250089562657,0.000131222239351205,0.9999971941824326,55.09285821568943,-3.2725327517114873,-5073.1261259039975,106.74678461007537,-89.80984497070312,5986.1875,True
1598625698.1445987,0,5,0.5,0.5,-0.028688522338867192,-0.14,-0.011,-0.56,0.0016906439321172397,10,1,100,0.030649764907350892,-10,-1,-100,910.8495492573129,-0.0024105863957567765,0.00013359420911937897,0.9999970856086612,55.213852263323815,-3.2729628998882876,-5072.716434218947,106.77458941700178,-89.80987548828125,5985.1728515625,True
1598625698.217458,0,5,0.5,0.5,-0.028685256958007815,-0.14,-0.011,-0.56,0.001636178871513126,10,1,100,0.030838431478119894,-10,-1,-100,915.1074540809495,-0.0024527997278591448,0.00013522854999088325,0.9999969827388152,55.33618741500164,-3.2734640348605186,-5072.265801885587,106.80017000409076,-89.80990600585938,5984.1630859375,True
1598625698.2615905,0,5,0.5,0.5,-0.028639099121093754,-0.14,-0.011,-0.56,0.0018905466212577203,10,1,100,0.03511440019723437,-10,-1,-100,923.6869270609459,-0.0025293522983649685,0.00013900009344952068,0.9999967915228153,55.581461068968544,-3.274491712159022,-5071.004273285189,106.84587832595433,-89.80999755859375,5982.15673828125,True
1598625698.3025572,0,5,0.5,0.5,-0.02866947631835938,-0.14,-0.011,-0.56,0.001684175914653614,10,1,100,0.03127881205167645,-10,-1,-100,927.9448965357151,-0.0025634311514267888,0.00014052657567756985,0.9999967045310768,55.70509503204159,-3.2750592125500635,-5070.3278039366105,106.86757052872618,-89.81002807617188,5981.15673828125,True
1598625698.343541,0,5,0.5,0.5,-0.028644143676757813,-0.14,-0.011,-0.56,0.0017309267389766605,10,1,100,0.031296632312322464,-10,-1,-100,932.2093982016668,-0.002593957411728621,0.00014231371265416726,0.9999966255601832,55.829006485456645,-3.2756444288601276,-5069.602188154062,106.88873929822452,-89.81008911132812,5980.158203125,True
1598625698.3877275,0,5,0.5,0.5,-0.028678289794921874,-0.14,-0.011,-0.56,0.0016770003778707634,10,1,100,0.02982976668505559,-10,-1,-100,934.3415845584823,-0.002607843720361249,0.0001434251239897827,0.9999965892843655,55.891952161246685,-3.2759969177394965,-5069.2703813244425,106.89821758377879,-89.81008911132812,5979.6611328125,True
1598625698.427407,0,5,0.5,0.5,-0.028635430908203127,-0.14,-0.011,-0.56,0.001812942449640935,10,1,100,0.032802027479881805,-10,-1,-100,940.7889938766602,-0.002647002687187638,0.00014564952631784418,0.999996486075321,56.07897659326297,-3.276955717110153,-5068.014398990964,106.92573919563027,-89.81015014648438,5978.173828125,True
1598625698.4703114,0,5,0.5,0.5,-0.028647979736328127,-0.14,-0.011,-0.56,0.0017059049924855775,10,1,100,0.0314208269150947,-10,-1,-100,945.0469628290739,-0.002669576141755792,0.0001466767004056582,0.9999964259181974,56.20434149389251,-3.277645229474283,-5067.14857029514,106.94280510938222,-89.8101806640625,5977.1845703125,True
1598625698.5456817,0,5,0.5,0.5,-0.028621975708007816,-0.14,-0.011,-0.56,0.0017466325638899396,10,1,100,0.03131958965842736,-10,-1,-100,949.3114034249447,-0.0026887632800657478,0.0001479610195163352,0.9999963743232075,56.330120013551856,-3.2783661293969146,-5066.277998932848,106.95951216074647,-89.81024169921875,5976.197265625,True
1598625698.5923958,0,5,0.5,0.5,-0.02861299438476563,-0.14,-0.011,-0.56,0.0018904168431648273,10,1,100,0.032821807838895725,-10,-1,-100,957.8909406473394,-0.0027195025414096688,0.00015041780927046465,0.9999962908333261,56.58278230644738,-3.2799126170645256,-5064.453728678959,106.9896424839554,-89.810302734375,5974.23046875,True
1598625698.6366134,0,5,0.5,0.5,-0.028603945922851565,-0.14,-0.011,-0.56,0.0017281162716817075,10,1,100,0.031004760935764826,-10,-1,-100,962.155258741579,-0.002730606668555819,0.00015115834424262738,0.9999962604621964,56.70973792365626,-3.2807384648930644,-5063.5534437872475,107.00404227380525,-89.81036376953125,5973.2490234375,True
1598625698.6784055,0,5,0.5,0.5,-0.028616226196289066,-0.14,-0.011,-0.56,0.0017790608484497218,10,1,100,0.030850887603389984,-10,-1,-100,966.4195778579451,-0.002739011553600912,0.00015227872297419068,0.9999962373063709,56.836728707726095,-3.281584812876819,-5062.639375901374,107.01814808678638,-89.81039428710938,5972.267578125,True
