Timestamp,Input Throttle,horizon,dT,dt,Input Roll,Roll P,Roll I,Roll D,Input Pitch,Pitch P,Pitch I,Pitch D,Input Yaw,Yaw P,Yaw I,Yaw D,Altitude,Direction X,Direction Y,Direction Z,Drag X,Drag Y,Drag Z,Vertical Velocity,Roll,Mass,Has Fuel
1598625453.534836,0,5,0.5,0.5,-0.007938232421875002,-0.14,-0.011,-0.56,0.004429300126526731,10,1,100,0.1308628419187396,-10,-1,-100,477.32567291881423,-0.011812911885843002,0.0004164861346087064,0.9999301383857158,5.647869352483133,-0.46316806385079723,124.4825686745322,-15.017674453093887,-89.92559814453125,6440.1796875,True
1598625453.5849047,0,5,0.5,0.5,-0.008618218994140628,-0.14,-0.011,-0.56,0.004363138073599423,10,1,100,0.12463925103689127,-10,-1,-100,476.3928740374977,-0.011861355894841883,0.000417910026554629,0.9999295643131799,5.834250914713876,-0.478964411904687,133.72752804119926,-15.60094774574395,-89.92828369140625,6440.1796875,True
1598625453.6350684,0,5,0.5,0.5,-0.00810750732421875,-0.14,-0.011,-0.56,0.004100312486805074,10,1,100,0.1184117288206139,-10,-1,-100,475.7392523105955,-0.011837999013879398,0.000416435232055924,0.9999298417194302,6.279824078988805,-0.5126345310218393,140.0952550221861,-15.344101221730654,-89.9312744140625,6438.60107421875,True
1598625453.687943,0,5,0.5,0.5,-0.0063117675781249995,-0.14,-0.011,-0.56,0.004134603745489321,10,1,100,0.11865213685130784,-10,-1,-100,475.1966388480505,-0.011808189195998102,0.00041502767101599813,0.9999301947735872,6.127785151625615,-0.4943600398292984,125.93878616613054,-14.441208415681844,-89.93634033203125,6435.443359375,True
1598625453.736913,0,5,0.5,0.5,-0.004155841064453125,-0.14,-0.011,-0.56,0.004044905690264278,10,1,100,0.11584706949970833,-10,-1,-100,474.6061683293665,-0.011744854031822384,0.00041255533532218695,0.9999309417164101,5.970534095692646,-0.4761972687721696,112.65080700870473,-13.537769032491926,-89.94357299804688,6432.28515625,True
1598625453.8302422,0,5,0.5,0.5,-0.0018808746337890623,-0.14,-0.011,-0.56,0.003931207352208633,10,1,100,0.11202842436444661,-10,-1,-100,474.1300558273215,-0.011641884514040423,0.0004088990858588326,0.9999321473612593,5.795114144318472,-0.4571237168852229,99.98084375563718,-12.633795681068149,-89.95269775390625,6429.126953125,True
1598625453.8813834,0,5,0.5,0.5,0.008573074340820313,-0.14,-0.011,-0.56,0.003158194319319433,10,1,100,0.08840473970854981,-10,-1,-100,473.2033683724003,-0.011322931560535906,0.0003981761050605551,0.9999358142784288,5.407253351696013,-0.417701287808844,76.86644459945315,-10.824204373195228,-89.97500610351562,6422.8115234375,True
1598625453.93271,0,5,0.5,0.5,0.004875537109375001,-0.14,-0.011,-0.56,0.0034237129214737543,10,1,100,0.09785017246984481,-10,-1,-100,472.803423624835,-0.011108548326488539,0.0003904797678952871,0.9999382219315496,5.194021155613153,-0.39730568009141565,66.41186536697624,-9.9185726900538,-89.98760986328125,6419.65380859375,True
1598625453.9858706,0,5,0.5,0.5,0.006108398437500001,-0.14,-0.011,-0.56,0.0033100374328454557,10,1,100,0.09381272109052408,-10,-1,-100,472.4100394384004,-0.01086685169360939,0.0003820947026048814,0.999940881021427,4.968518452362002,-0.3765016825655951,56.699340962809224,-9.01237672116425,-89.99947357177734,6416.49609375,True
1598625454.037918,0,5,0.5,0.5,0.006823456573486329,-0.14,-0.011,-0.56,0.003116934002627209,10,1,100,0.08820720794720435,-10,-1,-100,472.0798565753503,-0.01058628931542216,0.0003723690714274332,0.9999438943359797,4.7317059660736716,-0.3553575904488348,47.734673886606274,-8.105609427411595,-90.0099868774414,6413.337890625,True
1598625454.09185,0,5,0.5,0.5,0.0073717041015625,-0.14,-0.011,-0.56,0.002934419006868805,10,1,100,0.0833260185739555,-10,-1,-100,471.7624903329415,-0.010277234259753848,0.0003615298439670153,0.999947122478055,4.485005937069545,-0.3339716635445298,39.52281196096534,-7.198263452100676,-90.0191650390625,6410.1806640625,True
1598625454.1439447,0,5,0.5,0.5,0.00768077392578125,-0.14,-0.011,-0.56,0.0027025512338419676,10,1,100,0.07689802681970874,-10,-1,-100,471.5021607277449,-0.009939234900131403,0.000349618072239702,0.9999505434654273,4.230897251625003,-0.31251085377338783,32.07046834536477,-6.290332750472282,-90.02680206298828,6407.0224609375,True
1598625454.195858,0,5,0.5,0.5,0.007672719573974611,-0.14,-0.011,-0.56,0.002477048751675477,10,1,100,0.07024718398541538,-10,-1,-100,471.3053988360334,-0.009573247930158069,0.00033680124988091724,0.9999541186919456,3.974101376877973,-0.29130464569284287,25.388144385099253,-5.3818114180546734,-90.03274536132812,6403.86474609375,True
1598625454.3514276,0,5,0.5,0.5,0.007345342254638673,-0.14,-0.011,-0.56,0.002224965430334724,10,1,100,0.06348754371930804,-10,-1,-100,471.1148314732127,-0.009181140092384717,0.0003229303211627197,0.9999578003008986,3.7248251905104217,-0.27106922622214036,19.495328772117222,-4.472694068213294,-90.03687286376953,6400.70703125,True
1598625454.4391587,0,5,0.5,0.5,0.0067360183715820315,-0.14,-0.011,-0.56,0.0019983864866131747,10,1,100,0.056662405860668494,-10,-1,-100,470.9633265410084,-0.008765019940333687,0.0003083443022485745,0.9999615389349915,3.5098766021109724,-0.25369800287659056,14.437211549701406,-3.5629746713222796,-90.03914642333984,6397.548828125,True
1598625454.5260034,0,5,0.5,0.5,0.004921746063232423,-0.14,-0.011,-0.56,-4.675997955946474e-05,10,1,100,-0.0009675979496428094,-10,-1,-100,470.76920348766726,-0.007865528707549455,0.00027658678175512173,0.999969027999319,3.9061952955364863,-0.2788873746957823,7.662168850534191,-1.741697456104941,-90.03822326660156,6391.2333984375,True
1598625454.6078532,0,5,0.5,0.5,0.0033751991271972655,-0.14,-0.011,-0.56,0.001240405637441374,10,1,100,0.03583779946839739,-10,-1,-100,470.72679867839906,-0.007385836977733692,0.0002595380981011757,0.9999726906531567,8.324325001896407,-0.591038183725482,7.695598524769258,-0.8301278343179643,-90.03514099121094,6388.076171875,True
1598625454.6562862,0,5,0.5,0.5,0.0019897789001464845,-0.14,-0.011,-0.56,0.0010576371207311709,10,1,100,0.031156352115799077,-10,-1,-100,470.7209854529938,-0.006910774151589198,0.00024250379736109507,0.9999760909104447,9.435042532069977,-0.6664523135886742,-0.8534951293913322,0.08208350834772199,-90.03060150146484,6384.91796875,True
1598625454.7438362,0,5,0.5,0.5,0.0006698822021484379,-0.14,-0.011,-0.56,0.0008101905783119974,10,1,100,0.022624389889508004,-10,-1,-100,470.75148805382196,-0.006405151720468739,0.00022490307900315128,0.9999794615141068,0.592251487175753,-0.04163477576013149,-0.6431344091849795,0.9949567188047148,-90.02501678466797,6381.759765625,True
1598625454.8349838,0,5,0.5,0.5,-0.0053123046875,-0.14,-0.011,-0.56,-0.0014820451206438595,10,1,100,-0.040213739114397976,-10,-1,-100,470.9224194692215,-0.005378295337572031,0.00018820682107233253,0.9999855191538796,1.9620964877758342,-0.13679893472400947,-5.943016032768723,2.8226540935178526,-90.011962890625,6375.4443359375,True
1598625454.9310327,0,5,0.5,0.5,-0.005540843963623047,-0.14,-0.011,-0.56,-0.0008898428605604179,10,1,100,-0.02508230615384196,-10,-1,-100,471.1465512169525,-0.004587082556378124,0.00016039766372721504,0.999989466417627,2.7874803452803185,-0.19334160690897675,-12.415105378702945,4.195065724641663,-90.00119018554688,6370.70751953125,True
1598625455.0781777,0,5,0.5,0.5,-0.010721749114990235,-0.14,-0.011,-0.56,-0.0031741137623986647,10,1,100,-0.08932519700164845,-10,-1,-100,471.71027297282126,-0.0032889447945884916,0.00011453335992425126,0.999994584847462,3.958403779771763,-0.27270412802629884,-26.87818147101319,6.485515147807145,-89.98519897460938,6362.8125,True
1598625455.179924,0,5,0.5,0.5,-0.008028865051269532,-0.14,-0.011,-0.56,-0.004455858291330227,10,1,100,-0.12471941154113941,-10,-1,-100,472.655372172012,-0.0017930996881530374,6.140002866973858e-05,0.9999983905104772,5.295559172666115,-0.36288121044050714,-50.66819930676991,9.239113294950402,-89.976318359375,6353.33935546875,True
1598625455.2790296,0,5,0.5,0.5,-0.0009174728393554691,-0.14,-0.011,-0.56,-0.0026129851883601304,10,1,100,-0.07338505283303633,-10,-1,-100,473.50551404664293,-0.0009069893507781118,3.0100756848283545e-05,0.9999995882320463,6.170778698075282,-0.42199433954446164,-70.50813905534476,11.0778661529367,-89.97946166992188,6347.02392578125,True
1598625455.3798282,0,5,0.5,0.5,0.0056117820739746095,-0.14,-0.011,-0.56,-0.0024390711890732285,10,1,100,-0.06796003223260651,-10,-1,-100,474.4890804908937,-0.00015827482293354747,3.4941184262184712e-06,0.9999999874684358,7.0319538524269225,-0.480404920368697,-93.53592690194857,12.91899980889429,-89.99139404296875,6340.70849609375,True
1598625455.4869165,0,5,0.5,0.5,0.010086994934082032,-0.14,-0.011,-0.56,-0.0023353630949183198,10,1,100,-0.06399656328847231,-10,-1,-100,475.6183999400819,0.00047851889823538184,-1.9473797298048463e-05,0.9999998853202109,7.877862555658935,-0.538098700523105,-119.74788386360794,14.7624936301434,-90.00740814208984,6334.392578125,True
1598625455.5771148,0,5,0.5,0.5,0.010425870513916016,-0.14,-0.011,-0.56,-0.0021034015615281616,10,1,100,-0.058429257931508244,-10,-1,-100,476.88098998065107,0.0009992249164112945,-3.797583349015045e-05,0.9999995000535764,8.708067833198154,-0.595096420420005,-149.15148874586635,16.608319307843697,-90.020751953125,6328.0771484375,True
1598625455.6748133,0,5,0.5,0.5,0.00707645492553711,-0.14,-0.011,-0.56,-0.0019333834699173063,10,1,100,-0.05389259383791599,-10,-1,-100,478.28969862358645,0.0014237288394529717,-5.2979780166879635e-05,0.9999989850941522,9.5216400778566,-0.6513637573437373,-181.74491412807464,18.456449312822954,-90.02666473388672,6321.7607421875,True
1598625455.7751453,0,5,0.5,0.5,0.00031629562377929717,-0.14,-0.011,-0.56,-0.0018105425902470202,10,1,100,-0.049160726359493256,-10,-1,-100,479.8886836718302,0.0017590476987860697,-6.523437498733268e-05,0.9999984507466348,10.318125421694255,-0.7068810400106414,-217.52259453602295,20.30685601522476,-90.02174377441406,6315.4453125,True
1598625455.8750796,0,5,0.5,0.5,-0.007297625732421875,-0.14,-0.011,-0.56,-0.0015428984858038316,10,1,100,-0.044119147380875676,-10,-1,-100,481.57027943630237,0.002010628489811222,-7.367802618917875e-05,0.9999979759702639,11.097631584736796,-0.7616466973728315,-256.4765396484631,22.159513163586972,-90.0069351196289,6309.1298828125,True
1598625455.9739602,0,5,0.5,0.5,-0.013007959747314455,-0.14,-0.011,-0.56,-0.0013789522305902976,10,1,100,-0.03878440404730475,-10,-1,-100,483.4419992971234,0.0021841234296858217,-7.962557510049622e-05,0.9999976116294538,11.86071162558993,-0.8156604986635407,-298.5935630388606,24.01439684378632,-89.9869384765625,6302.814453125,True
1598625456.07283,0,5,0.5,0.5,-0.014664261627197268,-0.14,-0.011,-0.56,-0.001169811150874364,10,1,100,-0.03331398317046432,-10,-1,-100,485.4598975793924,0.002285959361613214,-8.291295225988752e-05,0.9999973837541973,12.608430624338745,-0.868952020386284,-343.8572656979948,25.87148042190469,-89.96859741210938,6296.49853515625,True
1598625456.17388,0,5,0.5,0.5,-0.011653348541259767,-0.14,-0.011,-0.56,-0.0009187589666757543,10,1,100,-0.02763879641643218,-10,-1,-100,487.6172301272163,0.002321876780004913,-8.343968771917939e-05,0.9999973009593759,13.342344773275718,-0.921561356998226,-392.24915538511385,27.73073866126535,-89.958251953125,6290.1826171875,True
1598625456.2759874,0,5,0.5,0.5,-0.004961185455322266,-0.14,-0.011,-0.56,-0.0007438356941422278,10,1,100,-0.021944956523699894,-10,-1,-100,489.9650523568271,0.0022990259100014753,-8.219665409878638e-05,0.9999973538582866,14.06458835494435,-0.9735649930396031,-443.75396270056785,29.59214498124208,-89.95956420898438,6283.8671875,True
1598625456.3790612,0,5,0.5,0.5,0.002720174407958984,-0.14,-0.011,-0.56,-0.0005196693150437961,10,1,100,-0.01629712927251638,-10,-1,-100,492.3952413285151,0.002223993948386882,-7.89266588057642e-05,0.9999975238076845,14.777605186062823,-1.0250394100210853,-498.3563123200776,31.455674671247877,-89.97161865234375,6277.5517578125,True
1598625456.5300853,0,5,0.5,0.5,0.008466243743896484,-0.14,-0.011,-0.56,-0.0003054651659986214,10,1,100,-0.010873653214549563,-10,-1,-100,495.0223903133301,0.0021043130475090805,-7.393169738694064e-05,0.999997783197894,15.484368692832353,-1.0760949167250229,-556.0517391862084,33.32130247228332,-89.989501953125,6271.23583984375,True
1598625456.6358879,0,5,0.5,0.5,0.014037062072753908,-0.14,-0.011,-0.56,0.0003655656410692772,10,1,100,0.0045293148364716415,-10,-1,-100,499.17861279204953,0.001854007251566092,-6.32410361236757e-05,0.999998279327361,16.539528153253592,-1.1521614167921004,-648.3873130720339,36.123621725451144,-90.01179504394531,6261.7626953125,True
1598625456.7388394,0,5,0.5,0.5,0.004726062011718751,-0.14,-0.011,-0.56,0.00020529747443126653,10,1,100,0.0020840779363502995,-10,-1,-100,502.21191880689,0.0016479088794961556,-5.495626812411356e-05,0.999998640687143,17.244209830549096,-1.2027063890623606,-713.8021907659137,37.994381996864036,-90.01634216308594,6255.44677734375,True
1598625456.838094,0,5,0.5,0.5,-0.005057479095458985,-0.14,-0.011,-0.56,0.00037438154457367415,10,1,100,0.005733328383099,-10,-1,-100,505.3211222868413,0.001427167918971186,-4.588573613416497e-05,0.9999989805425956,17.953893961767317,-1.253287527411824,-782.3180241179101,39.867150912873825,-90.00601959228516,6249.130859375,True
1598625456.934847,0,5,0.5,0.5,-0.01600479888916016,-0.14,-0.011,-0.56,0.0005608642143467836,10,1,100,0.009594316263692861,-10,-1,-100,508.633511171327,0.0011916961375611013,-3.596209063523177e-05,0.9999992892832693,18.671555189505664,-1.3040294798901682,-853.9562443589135,41.74190098402739,-89.98214721679688,6242.8154296875,True
1598625457.0361643,0,5,0.5,0.5,-0.02268001480102539,-0.14,-0.011,-0.56,0.0006896700009116686,10,1,100,0.0127818554723407,-10,-1,-100,512.0219800608465,0.0009493977365208167,-2.580392024520622e-05,0.9999995489889462,19.3991961104664,-1.3550008655832206,-928.7011146445158,43.61860556138961,-89.95355224609375,6236.5,True
1598625457.1350567,0,5,0.5,0.5,-0.023109806060791018,-0.14,-0.011,-0.56,0.0008134500331644253,10,1,100,0.015783701958847318,-10,-1,-100,515.6072876559338,0.0007029594272370115,-1.5492875647299106e-05,0.9999997528039767,20.139026867990662,-1.4062915755504195,-1006.5466501924556,45.49723827445342,-89.93011474609375,6230.1845703125,True
1598625457.2349615,0,5,0.5,0.5,-0.016905799102783205,-0.14,-0.011,-0.56,0.000937622959193033,10,1,100,0.018408693909600763,-10,-1,-100,519.3322431503329,0.0004565001282761356,-5.051644936771285e-06,0.9999998957910514,20.8930451384104,-1.4579740252567017,-1087.488015317256,47.37777304435906,-89.9202880859375,6223.86865234375,True
1598625457.3339362,0,5,0.5,0.5,-0.006488574981689454,-0.14,-0.011,-0.56,0.0010388002773481296,10,1,100,0.020625099324046586,-10,-1,-100,523.2537322974531,0.00021399287695467617,5.288914926225423e-06,0.9999999770895379,21.663144522599612,-1.5101317525078026,-1171.5271943089879,49.26018366471554,-89.9273681640625,6217.552734375,True
1598625457.4829848,0,5,0.5,0.5,-0.0002776527404785168,-0.14,-0.011,-0.56,0.0008950640019311898,10,1,100,0.016072951014820282,-10,-1,-100,526.2805420043878,3.681039041272204e-05,1.3303198144227511e-05,0.9999999992340101,22.252382127673766,-1.5496144453778422,-1236.598091708786,50.67320588929309,-89.94195556640625,6212.81591796875,True
1598625457.583946,0,5,0.5,0.5,0.022837911224365237,-0.14,-0.011,-0.56,0.00199442924337887,10,1,100,0.041668260294915715,-10,-1,-100,533.59065667924,-0.0003549608784826728,3.0499294303799237e-05,0.9999999365362819,23.670055345567814,-1.643130217151272,-1395.2759829775916,53.97423721070762,-89.9866943359375,6201.763671875,True
1598625457.7275808,0,5,0.5,0.5,0.01275074691772461,-0.14,-0.011,-0.56,0.001338653312832386,10,1,100,0.026167352954959124,-10,-1,-100,538.0009750676109,-0.0005679635344552521,4.007557236054119e-05,0.9999998379056729,24.508833588949166,-1.6975384070087147,-1490.2519489867943,55.86255651071072,-90.0080795288086,6195.44921875,True
1598625457.824855,0,5,0.5,0.5,-0.0049755081176757815,-0.14,-0.011,-0.56,0.0017536845107332627,10,1,100,0.03408415500681368,-10,-1,-100,544.8832713727606,-0.0008313714487326189,5.246036638532892e-05,0.9999996530346519,25.722571601343162,-1.7746797683350883,-1621.4316771331348,58.25555709580246,-89.99987030029297,6187.015625,True
1598625457.9210575,0,5,0.5,0.5,-0.02829028854370117,-0.14,-0.011,-0.56,0.0013359585384219246,10,1,100,0.024195479409144943,-10,-1,-100,549.629580878187,-0.0009786822468893922,5.98241097191152e-05,0.9999995193009522,26.394729692349234,-1.8159146435416726,-1696.1727321178755,59.64792031817106,-89.96002197265625,6181.8740234375,True
1598625458.0198996,0,5,0.5,0.5,-0.04340985565185547,-0.14,-0.011,-0.56,0.00130335237173591,10,1,100,0.022585529567668915,-10,-1,-100,554.4444502097322,-0.00109577811014044,6.612590228372688e-05,0.9999993974486677,27.054971768835298,-1.855880206885125,-1766.1839199327255,60.86824135622771,-89.9066162109375,6177.13720703125,True
1598625458.1199088,0,5,0.5,0.5,-0.04644093780517579,-0.14,-0.011,-0.56,0.0012733516915918687,10,1,100,0.022257323887745456,-10,-1,-100,559.3933687931858,-0.0011971656848714504,7.148926389304716e-05,0.9999992808415454,27.636598043312393,-1.8900881544051897,-1827.2517717777241,61.930934187433024,-89.85968017578125,6172.7705078125,True
1598625458.2208548,0,5,0.5,0.5,-0.03534180450439453,-0.14,-0.011,-0.56,0.001325225271529349,10,1,100,0.0217006788210655,-10,-1,-100,564.4121309650363,-0.001282324376364922,7.674817682446247e-05,0.9999991748766152,28.16911557023443,-1.920643128635189,-1882.035784946451,62.87239454326299,-89.838134765625,6168.6904296875,True
1598625458.3193939,0,5,0.5,0.5,-0.014298573303222657,-0.14,-0.011,-0.56,0.0013263507290901134,10,1,100,0.02144925703906557,-10,-1,-100,569.4437318118289,-0.0013556509126102585,8.145538269223627e-05,0.9999990777873866,28.657653444430707,-1.9479501621773705,-1931.1199815707364,63.70772086645436,-89.85110473632812,6164.859375,True
1598625458.4210334,0,5,0.5,0.5,0.008782063293457031,-0.14,-0.011,-0.56,0.0012989206638980375,10,1,100,0.02116406354031,-10,-1,-100,574.5958949776832,-0.0014180713218983445,8.540665377243994e-05,0.9999989908892056,29.107067789237288,-1.9724018959855003,-1975.0664490791216,64.44983005233021,-89.89456176757812,6161.2470703125,True
1598625458.5193155,0,5,0.5,0.5,0.02487024383544922,-0.14,-0.011,-0.56,0.0012989076654027927,10,1,100,0.02081537122884774,-10,-1,-100,579.7607681342633,-0.0014701635236934448,8.892576591462631e-05,0.9999989153551225,29.521651840807973,-1.9943192189656018,-2014.3733356651458,65.10915882423555,-89.95236206054688,6157.8291015625,True
1598625458.6148705,0,5,0.5,0.5,0.02749430084228516,-0.14,-0.011,-0.56,0.0012908759926748203,10,1,100,0.020475043794969203,-10,-1,-100,585.0527918455191,-0.0015130562087318164,9.198319577565926e-05,0.9999988510993406,29.90517188504429,-2.013993971310772,-2049.4958624094093,65.69484865188785,-90.00233459472656,6154.5849609375,True
1598625458.708771,0,5,0.5,0.5,0.015051940917968751,-0.14,-0.011,-0.56,0.0012747069952604726,10,1,100,0.020056097462555066,-10,-1,-100,590.2876369386213,-0.0015471881418081628,9.455979212603892e-05,0.9999987986329281,30.261116969271345,-2.0316917726806256,-2080.8672709064276,66.21507827509092,-90.0245132446289,6151.49365234375,True
1598625458.8039951,0,5,0.5,0.5,-0.008143330383300782,-0.14,-0.011,-0.56,0.0012506104522894165,10,1,100,0.019570934497828922,-10,-1,-100,595.6430373091716,-0.0015729163952824647,9.663356185413309e-05,0.9999987582972132,30.592460144617597,-2.0476379006732617,-2108.875423806467,66.67714803482622,-90.00909423828125,6148.5390625,True
1598625458.8989527,0,5,0.5,0.5,-0.033464604949951175,-0.14,-0.011,-0.56,0.0012179753750552402,10,1,100,0.019094800427477104,-10,-1,-100,601.0114479158074,-0.0015913030933044955,9.818196709075455e-05,0.9999987290565757,30.901722224939817,-2.062025209371882,-2133.866768054291,67.08759370823374,-89.9605712890625,6145.7060546875,True
1598625459.0001473,0,5,0.5,0.5,-0.0512160758972168,-0.14,-0.011,-0.56,0.0012365039084470033,10,1,100,0.018603921333408442,-10,-1,-100,606.3796231137821,-0.001602998808063522,9.972317864817951e-05,0.9999987102242227,31.190792517088244,-2.074995114284101,-2156.1323100747745,67.45224683766226,-89.89639282226562,6142.9794921875,True
1598625459.0991213,0,5,0.5,0.5,-0.05425222396850586,-0.14,-0.011,-0.56,0.0011909033729425235,10,1,100,0.01812180611462093,-10,-1,-100,611.8049955511233,-0.0016087873006755476,0.00010067918676273924,0.9999987008327174,31.46114819491443,-2.0866681827173896,-2175.9171539267036,67.7761474767368,-89.84072875976562,6140.34912109375,True
1598625459.2028816,0,5,0.5,0.5,-0.04100280685424805,-0.14,-0.011,-0.56,0.0011726851962736208,10,1,100,0.01765826349828277,-10,-1,-100,617.2430694237119,-0.0016094613414326748,0.00010135612896728562,0.9999986996797174,31.714037917778185,-2.0971367825477656,-2193.4389728228157,68.0638575055972,-89.81515502929688,6137.8037109375,True
1598625459.3009086,0,5,0.5,0.5,-0.016089730072021486,-0.14,-0.011,-0.56,0.0011409033267788075,10,1,100,0.017262283796160422,-10,-1,-100,622.6813334401231,-0.0016061768930425257,0.00010166023401951782,0.999998704929654,31.95071084565653,-2.1064965865648237,-2208.9062573608544,68.3195006491987,-89.830322265625,6135.333984375,True
1598625459.4030254,0,5,0.5,0.5,0.011068805694580078,-0.14,-0.011,-0.56,0.0011111642000824437,10,1,100,0.016829706299109334,-10,-1,-100,628.1767306019319,-0.0015990307572778964,0.00010164796941400989,0.9999987163833399,32.172733299683436,-2.11486267181225,-2222.5359176167985,68.54671248298722,-89.88128662109375,6132.9306640625,True
1598625459.5027473,0,5,0.5,0.5,0.029981204986572273,-0.14,-0.011,-0.56,0.001111007074672405,10,1,100,0.01652331256288494,-10,-1,-100,633.6211073644226,-0.0015895843640394848,0.00010162062652741909,0.9999987314465943,32.38176517862191,-2.1223484899058533,-2234.5387341375267,68.74867324005187,-89.9490966796875,6130.5869140625,True
1598625459.6038961,0,5,0.5,0.5,0.03298222122192383,-0.14,-0.011,-0.56,0.0010767720705811708,10,1,100,0.016229701191811555,-10,-1,-100,639.1863375456305,-0.001578218975139947,0.00010127300126549551,0.999998749483541,32.579530716054386,-2.129067624903045,-2245.118577515595,68.92816326149888,-90.00763702392578,6128.29638671875,True
1598625459.6983771,0,5,0.5,0.5,0.018342057800292973,-0.14,-0.011,-0.56,0.0010754419229691806,10,1,100,0.015960738497274217,-10,-1,-100,644.6943210433237,-0.0015653824491296568,0.00010093644077137431,0.9999987696940545,32.76766313746268,-2.1351341849616716,-2254.464626135729,69.08769935416413,-90.0335464477539,6126.052734375,True
1598625459.796865,0,5,0.5,0.5,-0.008766383361816406,-0.14,-0.011,-0.56,0.0010034813915872443,10,1,100,0.01576723074243949,-10,-1,-100,650.2021857493091,-0.0015519371783424213,9.997049308356895e-05,0.9999987907477164,32.94754372393674,-2.1406436501353636,-2262.739299920416,69.22952475583516,-90.01553344726562,6123.8505859375,True
1598625459.8910472,0,5,0.5,0.5,-0.0382136459350586,-0.14,-0.011,-0.56,0.0010244627173385638,10,1,100,0.015592012970162189,-10,-1,-100,655.7674870878691,-0.0015381403880759955,9.928006457309477e-05,0.999998812133102,33.12000874391616,-2.145655071930957,-2270.0611474104276,69.35565207838813,-89.95904541015625,6121.68603515625,True
1598625459.9879575,0,5,0.5,0.5,-0.05855651092529297,-0.14,-0.011,-0.56,0.0009967631097063572,10,1,100,0.015489614119604585,-10,-1,-100,661.3388946574414,-0.001524715282560747,9.839958940556878e-05,0.9999988327797327,33.285485108668844,-2.1501997492468266,-2276.512146291206,69.46784556442375,-89.88479614257812,6119.5546875,True
1598625460.084285,0,5,0.5,0.5,-0.061615531921386725,-0.14,-0.011,-0.56,0.001006276928296297,10,1,100,0.015380099010523236,-10,-1,-100,666.8470720573096,-0.001511586216123875,9.768684995794697e-05,0.9999988527815372,33.44403979043977,-2.1542885367102564,-2282.1444424267615,69.56769215226537,-89.821044921875,6117.45263671875,True
1598625460.1838818,0,5,0.5,0.5,-0.04558982086181641,-0.14,-0.011,-0.56,0.0009812072909891857,10,1,100,0.015370511259806482,-10,-1,-100,672.4249545788625,-0.0014996519044334314,9.681371951804868e-05,0.9999988708349972,33.5957552168154,-2.157929809169537,-2287.0202036761175,69.65709662908237,-89.79296875,6115.375,True
1598625460.2849197,0,5,0.5,0.5,-0.016176969909667972,-0.14,-0.011,-0.56,0.0009716150732633913,10,1,100,0.015375271922973185,-10,-1,-100,677.996550273383,-0.0014889456356863612,9.593689205649686e-05,0.9999988869178839,33.740871075278,-2.1611363820517386,-2291.1680223466924,69.73647100693734,-89.81256103515625,6113.322265625,True
1598625460.3848104,0,5,0.5,0.5,0.015599147033691408,-0.14,-0.011,-0.56,0.0009864844933161394,10,1,100,0.01540122477946122,-10,-1,-100,683.6252166589256,-0.0014795551730274214,9.528015576644112e-05,0.999998900918487,33.879639773585495,-2.16392516936376,-2294.642119789805,69.80706261724382,-89.8736572265625,6111.29052734375,True
1598625460.4837995,0,5,0.5,0.5,0.03738885040283203,-0.14,-0.011,-0.56,0.0009382797777555586,10,1,100,0.015459083444218265,-10,-1,-100,689.2031029495411,-0.0014716529908209498,9.425068701006478e-05,0.9999989126765501,34.013198048710656,-2.1663697317287327,-2297.5527177723015,69.8699954831356,-89.95367431640625,6109.27734375,True
1598625460.586016,0,5,0.5,0.5,0.04032906646728516,-0.14,-0.011,-0.56,0.000992393633814869,10,1,100,0.015549954135422837,-10,-1,-100,694.7809908883646,-0.0014654024963471248,9.381345041345942e-05,0.999998921896699,34.14278158658232,-2.1685405562723132,-2300.008537016994,69.92615595198481,-90.02188110351562,6107.2802734375,True
1598625460.6840043,0,5,0.5,0.5,0.022672768402099613,-0.14,-0.011,-0.56,0.0009479404632140869,10,1,100,0.015661182152802995,-10,-1,-100,700.352532347315,-0.001460833952873279,9.301862427549475e-05,0.999998928655275,34.26959096056899,-2.1705187618179096,-2302.1121967016024,69.97632420019568,-90.05120086669922,6105.2978515625,True
1598625460.7818685,0,5,0.5,0.5,-0.009390789031982424,-0.14,-0.011,-0.56,0.000979355786314246,10,1,100,0.015763428097200577,-10,-1,-100,705.9875510070706,-0.0014577052842063573,9.258884692052457e-05,0.9999989332607359,34.394437911104205,-2.1723588390164723,-2303.936306112681,70.0211744213984,-90.02882385253906,6103.32861328125,True
1598625460.8768814,0,5,0.5,0.5,-0.043767343902587894,-0.14,-0.011,-0.56,0.0009202552746636085,10,1,100,0.01592304532423875,-10,-1,-100,711.5655635991134,-0.001456397771022354,9.166757344296683e-05,0.9999989352507275,34.51762681989936,-2.174084523349637,-2305.516911020452,70.06130457499081,-89.9617919921875,6101.37109375,True
1598625460.9730377,0,5,0.5,0.5,-0.06710904922485353,-0.14,-0.011,-0.56,0.0009671961394637065,10,1,100,0.016050195551700498,-10,-1,-100,717.2069927436532,-0.0014564393453020518,9.12637076807608e-05,0.9999989352271176,34.638950554943406,-2.1756869282926323,-2306.8542276414905,70.09725886996654,-89.87481689453125,6099.42431640625,True
1598625461.0679734,0,5,0.5,0.5,-0.06991848831176758,-0.14,-0.011,-0.56,0.000984172993431344,10,1,100,0.016205499439646987,-10,-1,-100,722.7847631969489,-0.001457951062662435,9.105737918912004e-05,0.9999989330430571,34.75790635351399,-2.1771357391526744,-2307.927811575614,70.1295335625233,-89.80123901367188,6097.48681640625,True
1598625461.1672454,0,5,0.5,0.5,-0.050376676177978516,-0.14,-0.011,-0.56,0.000937201070392776,10,1,100,0.0163769687163546,-10,-1,-100,728.4200290194713,-0.0014609329220087266,9.04488171425222e-05,0.9999989287464306,34.87387553698695,-2.178396153287991,-2308.7111018749415,70.15863939939285,-89.77032470703125,6095.556640625,True
1598625461.265286,0,5,0.5,0.5,-0.015401584625244144,-0.14,-0.011,-0.56,0.0009489107659101945,10,1,100,0.016505382323617028,-10,-1,-100,734.0041478652274,-0.001464846298737218,9.000781697066026e-05,0.9999989230613772,34.98667239962932,-2.1794541068996995,-2309.1985264621576,70.18482026597935,-89.79559326171875,6093.634765625,True
1598625461.368622,0,5,0.5,0.5,0.02182706527709961,-0.14,-0.011,-0.56,0.0009980322748745674,10,1,100,0.01665455987695475,-10,-1,-100,739.6392925864784,-0.0014697819820088706,9.00588569641763e-05,0.9999989158145761,35.096436390058365,-2.1803133695178456,-2309.4075081000256,70.20834474140749,-89.8690185546875,6091.7197265625,True
1598625461.470205,0,5,0.5,0.5,0.04679876937866211,-0.14,-0.011,-0.56,0.0009902006507901387,10,1,100,0.01683403124513743,-10,-1,-100,745.2805414139293,-0.0014759094094129596,9.003880701097085e-05,0.9999989067916166,35.20400742622513,-2.1810274711273276,-2309.404763412239,70.22960769544392,-89.96343994140625,6089.8115234375,True
1598625461.5727909,0,5,0.5,0.5,0.049325991058349616,-0.14,-0.011,-0.56,0.0009904041447406252,10,1,100,0.016969239954023926,-10,-1,-100,750.858558294829,-0.0014827050985714704,9.002625870760586e-05,0.9999988967398232,35.31062247047946,-2.181675095921919,-2309.28259368641,70.24899372347562,-90.04257202148438,6087.9072265625,True
1598625461.6719298,0,5,0.5,0.5,0.027641445159912112,-0.14,-0.011,-0.56,0.0009951963809141941,10,1,100,0.017126082470327597,-10,-1,-100,756.5000517619774,-0.0014902931092254006,9.006185984403909e-05,0.9999988854570339,35.41735172745,-2.182316054406935,-2309.1161570638114,70.26670502936415,-90.07486724853516,6086.0087890625,True
1598625461.767947,0,5,0.5,0.5,-0.01056250228881836,-0.14,-0.011,-0.56,0.0009686522608010483,10,1,100,0.017249791962080735,-10,-1,-100,762.1413622382097,-0.0014982891514209546,8.985560229834202e-05,0.9999988735271603,35.52478798236276,-2.182991527124444,-2308.9383578254033,70.28259713558994,-90.04608917236328,6084.1142578125,True
1598625461.863938,0,5,0.5,0.5,-0.0508936996459961,-0.14,-0.011,-0.56,0.001000736308178386,10,1,100,0.017348403877593087,-10,-1,-100,767.7193768823054,-0.0015064178582241028,8.996225336443156e-05,0.9999988613053663,35.63248735837961,-2.1836802697400413,-2308.6686214566753,70.29494095498109,-89.96542358398438,6082.22900390625,True
1598625461.9619038,0,5,0.5,0.5,-0.07757976837158204,-0.14,-0.011,-0.56,0.000974186911294022,10,1,100,0.01748190584318241,-10,-1,-100,773.3606275164057,-0.0015149757731075934,8.981940101654468e-05,0.999998848389778,35.73935251538484,-2.184322659131338,-2308.2857174707406,70.3054233695668,-89.86276245117188,6080.349609375,True
1598625462.0558784,0,5,0.5,0.5,-0.07968226165771486,-0.14,-0.011,-0.56,0.0010086271405246544,10,1,100,0.017571955041996875,-10,-1,-100,779.0021254625171,-0.0015235211098747112,9.000394124480256e-05,0.999998835390681,35.845887167596715,-2.1849517539506182,-2307.907836072938,70.3169375417571,-89.77764892578125,6078.4677734375,True
1598625462.1557767,0,5,0.5,0.5,-0.05550044708251954,-0.14,-0.011,-0.56,0.0009882757810265618,10,1,100,0.017667906703515562,-10,-1,-100,784.6434371620417,-0.0015321022765429771,8.998765040045825e-05,0.999998822281725,35.95175801327487,-2.185543632760478,-2307.482050691806,70.32840558361863,-89.744140625,6076.5869140625,True
1598625462.2558875,0,5,0.5,0.5,-0.013714674377441408,-0.14,-0.011,-0.56,0.001033560404723608,10,1,100,0.017772765285306736,-10,-1,-100,790.2278642168967,-0.0015407918975717438,9.038493818170209e-05,0.9999988088947361,36.05551141267369,-2.18601024842738,-2306.8966375964847,70.33917559542361,-89.77706909179688,6074.708984375,True
1598625462.3588207,0,5,0.5,0.5,0.030010676574707032,-0.14,-0.011,-0.56,0.0010584287457413813,10,1,100,0.01784257295873969,-10,-1,-100,795.8692372781225,-0.0015492571268119818,9.097184188189348e-05,0.9999987957625144,36.15716472123177,-2.1863495630157725,-2306.1530057295186,70.34920953209587,-89.86590576171875,6072.8330078125,True
1598625462.4600017,0,5,0.5,0.5,0.058508839416503915,-0.14,-0.011,-0.56,0.001010751017261732,10,1,100,0.01788352604035641,-10,-1,-100,801.5106713436544,-0.0015572528403679836,9.107112681869092e-05,0.9999987833340802,36.25757765176613,-2.1866115857295703,-2305.305394778366,70.35843131962436,-89.97769165039062,6070.9609375,True
1598625462.5591872,0,5,0.5,0.5,0.06005405731201172,-0.14,-0.011,-0.56,0.0010364322787796308,10,1,100,0.01798621027808019,-10,-1,-100,807.1520442951005,-0.0015653812153700606,9.139391339338974e-05,0.999998770613646,36.35786005240156,-2.186862557580304,-2304.4292144918504,70.36696886961762,-90.06930541992188,6069.09033203125,True
1598625462.6584902,0,5,0.5,0.5,0.03313812103271485,-0.14,-0.011,-0.56,0.0009832284564137246,10,1,100,0.018034102273667956,-10,-1,-100,812.793295434094,-0.0015731308688620206,9.120244129916609e-05,0.9999987584699215,36.459273462043136,-2.1871741031021785,-2303.6080604277968,70.37493201907363,-90.1041030883789,6067.2216796875,True
1598625462.7539117,0,5,0.5,0.5,-0.012698860168457032,-0.14,-0.011,-0.56,0.000986343640378851,10,1,100,0.018069901356398032,-10,-1,-100,818.3776616888354,-0.001580426147552588,9.105565872095925e-05,0.9999987469802446,36.562538086937764,-2.1875963299824748,-2302.889377230464,70.38239145068395,-90.06641387939453,6065.35546875,True
1598625462.8491466,0,5,0.5,0.5,-0.060106159973144536,-0.14,-0.011,-0.56,0.0009882767958366606,10,1,100,0.01810707783299481,-10,-1,-100,824.018974213046,-0.0015873215170620458,9.093870319363983e-05,0.9999987360694782,36.667505236481894,-2.1881224889481143,-2302.26472357137,70.38940283772214,-89.968505859375,6063.4912109375,True
1598625462.9447734,0,5,0.5,0.5,-0.09046714935302735,-0.14,-0.011,-0.56,0.0010441543764588602,10,1,100,0.018154445434580335,-10,-1,-100,829.6604699235177,-0.0015939471005770231,9.133947031097926e-05,0.9999987254940588,36.773317048786325,-2.188709516103422,-2301.681882244486,70.39601324981228,-89.8468017578125,6061.62890625,True
1598625463.0398252,0,5,0.5,0.5,-0.09128792877197266,-0.14,-0.011,-0.56,0.0009700720041489649,10,1,100,0.018185272452467524,-10,-1,-100,835.3019652267685,-0.0016001788118191866,9.102894606093021e-05,0.9999987155699257,36.878561048655726,-2.189274761397266,-2301.054023417957,70.40227170310773,-89.748291015625,6059.767578125,True
1598625463.1381307,0,5,0.5,0.5,-0.06114810333251954,-0.14,-0.011,-0.56,0.001039983118925145,10,1,100,0.018233901306554716,-10,-1,-100,840.9432169486536,-0.0016062163955292692,9.138127505447259e-05,0.9999987058583392,36.98203204609021,-2.18975209899212,-2300.3086275344504,70.40821745778673,-89.71258544921875,6057.908203125,True
1598625463.231292,0,5,0.5,0.5,-0.010789137268066407,-0.14,-0.011,-0.56,0.001053876010482097,10,1,100,0.01823373401529649,-10,-1,-100,846.5339929281035,-0.0016116362106915548,9.182660622216158e-05,0.9999986970974505,37.083023162218424,-2.1900908622117674,-2299.4105319623427,70.41409509239035,-89.75601196289062,6056.0498046875,True
1598625463.3303552,0,5,0.5,0.5,0.040662309265136726,-0.14,-0.011,-0.56,0.0010117898551578947,10,1,100,0.018275322862897608,-10,-1,-100,852.1753049275139,-0.001616876991896261,9.184754071889477e-05,0.9999986886355514,37.181798981950344,-2.19030398231486,-2298.3743770149676,70.41976977215951,-89.86428833007812,6054.1923828125,True
1598625463.4278445,0,5,0.5,0.5,0.07302655792236329,-0.14,-0.011,-0.56,0.0010333885013041788,10,1,100,0.018293165989643582,-10,-1,-100,857.8169224669691,-0.0016217420760845172,9.206212731831206e-05,0.9999986807377316,37.27924468046171,-2.1904395949732316,-2297.2472676043603,70.4249261367028,-89.99714660644531,6052.3369140625,True
1598625463.525216,0,5,0.5,0.5,0.07285997009277345,-0.14,-0.011,-0.56,0.0010028695636268162,10,1,100,0.01834288547667885,-10,-1,-100,863.4582964794245,-0.0016265582486507829,9.197886024753393e-05,0.999998672923196,37.37680077623531,-2.1905772743875245,-2296.1311739555535,70.42997941430642,-90.10316467285156,6050.482421875,True
1598625463.6191278,0,5,0.5,0.5,0.0390550521850586,-0.14,-0.011,-0.56,0.0010278897618509072,10,1,100,0.018367156502955586,-10,-1,-100,869.1060177260078,-0.0016311016175560122,9.213008748808722e-05,0.9999986655088897,37.47615647061666,-2.190814953227184,-2295.126675213181,70.43482563152297,-90.13963317871094,6048.6298828125,True
1598625463.7118173,0,5,0.5,0.5,-0.016276958465576176,-0.14,-0.011,-0.56,0.0010212826813973076,10,1,100,0.018379724278655342,-10,-1,-100,874.7474528487073,-0.001635293504750133,9.220665911520394e-05,0.9999986586556432,37.577911036292065,-2.1911929413762583,-2294.269857286839,70.43948439417274,-90.08970642089844,6046.7783203125,True
1598625463.802014,0,5,0.5,0.5,-0.07212871704101563,-0.14,-0.011,-0.56,0.0009599102221014029,10,1,100,0.018442718179006626,-10,-1,-100,880.3381068793824,-0.0016396271036959841,9.171729187317068e-05,0.9999986516045404,37.681968206235595,-2.1917150848617206,-2293.5630007026984,70.44425510187004,-89.96994018554688,6044.927734375,True
1598625463.8948278,0,5,0.5,0.5,-0.10648627014160157,-0.14,-0.011,-0.56,0.0009759532950894143,10,1,100,0.018451958115560912,-10,-1,-100,885.979358102195,-0.0016436031879912205,9.141755087241371e-05,0.999998645104778,37.78716767729577,-2.192312503331539,-2292.9272197188798,70.44890075813962,-89.82504272460938,6043.078125,True
1598625463.984702,0,5,0.5,0.5,-0.10507038574218751,-0.14,-0.011,-0.56,0.0010033200731089423,10,1,100,0.018462344653428178,-10,-1,-100,891.620853462955,-0.0016472670912516703,9.139377696230177e-05,0.9999986390782278,37.891604016980295,-2.192882986750595,-2292.2447342224496,70.45333744774372,-89.711181640625,6041.2294921875,True
1598625464.0778418,0,5,0.5,0.5,-0.0670692138671875,-0.14,-0.011,-0.56,0.0010018696496132292,10,1,100,0.01850896693010097,-10,-1,-100,897.2684530252591,-0.0016509789437496205,9.135864698414683e-05,0.9999986329601281,37.9936851967498,-2.193332383867116,-2291.421085585237,70.45760311184121,-89.6744384765625,6039.3818359375,True
1598625464.1723702,0,5,0.5,0.5,-0.022416961669921874,-0.14,-0.011,-0.56,0.0009964570227939424,10,1,100,0.01842331858815449,-10,-1,-100,901.4694080011686,-0.001653534040595316,9.127752551298548e-05,0.9999986287458548,38.06823017354184,-2.1935588513331123,-2290.6836800579613,70.46069877009128,-89.70889282226562,6037.9970703125,True
1598625464.2690196,0,5,0.5,0.5,0.06752632446289064,-0.14,-0.011,-0.56,0.0010364590861996336,10,1,100,0.018652131088737738,-10,-1,-100,908.5577923117671,-0.0016578988806149745,9.15679330071716e-05,0.9999986214923575,38.18872918515214,-2.1937244092456942,-2289.238129405835,70.46576680613934,-89.86502075195312,6035.69091796875,True
1598625464.3658738,0,5,0.5,0.5,0.09662152099609377,-0.14,-0.011,-0.56,0.0010207446873789548,10,1,100,0.018625230498130033,-10,-1,-100,914.1990442519309,-0.0016615850735466678,9.168933583779984e-05,0.999998615363096,38.2831796345694,-2.193737971761263,-2287.9750807426713,70.46980084326816,-90.03148651123047,6033.8466796875,True
1598625464.460858,0,5,0.5,0.5,0.09587316207885743,-0.14,-0.011,-0.56,0.0010100329307605363,10,1,100,0.01866003283196583,-10,-1,-100,919.7896364694461,-0.0016652163219762943,9.17026613431858e-05,0.9999986093216446,38.37791981537658,-2.1937602788326163,-2286.7356058489727,70.47371097812969,-90.16353607177734,6032.0029296875,True
1598625464.5560648,0,5,0.5,0.5,0.04824608917236328,-0.14,-0.011,-0.56,0.000989659538559142,10,1,100,0.018715135590186085,-10,-1,-100,925.4374803219689,-0.0016689832473749339,9.152981387252796e-05,0.9999986030576309,38.47516449496059,-2.1939190155812276,-2285.651553013518,70.47752615651089,-90.20104217529297,6030.1611328125,True
1598625464.648843,0,5,0.5,0.5,-0.023681600189208986,-0.14,-0.011,-0.56,0.0009841515525733043,10,1,100,0.018729249157176827,-10,-1,-100,931.0789152303478,-0.0016725015923192321,9.132315291170918e-05,0.9999985971982688,38.575899109033735,-2.1942778375586074,-2284.7809131784134,70.48127829802418,-90.1281967163086,6028.31982421875,True
1598625464.7381015,0,5,0.5,0.5,-0.09430896911621094,-0.14,-0.011,-0.56,0.000979163848944676,10,1,100,0.01875444962049049,-10,-1,-100,936.7266368597047,-0.0016758953573100192,9.10907397381623e-05,0.9999985915376224,38.679645280194876,-2.194814073020004,-2284.0935293691628,70.48497172347511,-89.96896362304688,6026.4794921875,True
1598625464.8300457,0,5,0.5,0.5,-0.13506504821777346,-0.14,-0.011,-0.56,0.0009611950939931845,10,1,100,0.0188269120238597,-10,-1,-100,942.3744191618171,-0.0016796063761926239,9.071667231004703e-05,0.9999985853454526,38.78466031751161,-2.1954373980071176,-2283.4853588923916,70.48860854804911,-89.78335571289062,6024.640625,True
1598625464.9239283,0,5,0.5,0.5,-0.1289457427978516,-0.14,-0.011,-0.56,0.000987292503978778,10,1,100,0.01884393759682811,-10,-1,-100,948.0159760237439,-0.0016831020774872487,9.061449735577707e-05,0.999998579477196,38.88856264092731,-2.196021409236672,-2282.8160365176927,70.49219069478887,-89.6436767578125,6022.80224609375,True
1598625465.0179303,0,5,0.5,0.5,-0.07651999816894532,-0.14,-0.011,-0.56,0.0009849500365305714,10,1,100,0.01889673953389021,-10,-1,-100,953.663636382902,-0.0016867274281045308,9.050102431109934e-05,0.9999985733790564,38.989208737493996,-2.196440009220601,-2281.9602535844137,70.49571676256629,-89.60693359375,6020.96484375,True
1598625465.1139398,0,5,0.5,0.5,0.0032195892333984344,-0.14,-0.011,-0.56,0.0010247198430353602,10,1,100,0.018954487968653216,-10,-1,-100,959.3114193129586,-0.001690515688541401,9.076019035022952e-05,0.9999985669586205,39.085697562640206,-2.1966333460033654,-2280.8715957673085,70.49933974149208,-89.69155883789062,6019.1279296875,True
1598625465.2111168,0,5,0.5,0.5,0.07983992614746094,-0.14,-0.011,-0.56,0.0010178619254141027,10,1,100,0.019002669691135305,-10,-1,-100,964.9591406891122,-0.0016943639576448056,9.093392143939349e-05,0.9999985604298645,39.178537543891174,-2.196619529163529,-2279.579621629768,70.50298215181304,-89.86874389648438,6017.2919921875,True
1598625465.304896,0,5,0.5,0.5,0.12289867858886719,-0.14,-0.011,-0.56,0.0010149892833890264,10,1,100,0.019023114997092146,-10,-1,-100,970.5433858092874,-0.0016980151004502085,9.106632023983075e-05,0.9999985542247769,39.26973041231378,-2.1965027548971467,-2278.201445067911,70.50662807296135,-90.0719985961914,6015.45703125,True
1598625465.4021149,0,5,0.5,0.5,0.11406293182373048,-0.14,-0.011,-0.56,0.00100929354583883,10,1,100,0.019125126635731432,-10,-1,-100,976.1912292026682,-0.0017022285815092013,9.113546973122462e-05,0.9999985470550358,39.36195200236462,-2.1964338903339566,-2276.8935723662357,70.51031107886841,-90.22191619873047,6013.623046875,True
1598625465.5018852,0,5,0.5,0.5,0.05488947906494141,-0.14,-0.011,-0.56,0.0009582975021610596,10,1,100,0.019141618178760325,-10,-1,-100,981.8389507095562,-0.0017061752944453367,9.073524813688656e-05,0.9999985403654243,39.45753591281668,-2.1965370841597474,-2275.7879574751014,70.51396237926791,-90.2572250366211,6011.7890625,True
1598625465.59379,0,5,0.5,0.5,-0.03319172515869141,-0.14,-0.011,-0.56,0.0009620074873016029,10,1,100,0.01919373800374354,-10,-1,-100,987.4866720710415,-0.0017102032209352432,9.04058597939802e-05,0.9999985335147864,39.55763500982102,-2.1968899419457357,-2274.948496135068,70.51757651293026,-90.15955352783203,6009.95654296875,True
1598625465.6849432,0,5,0.5,0.5,-0.11638156738281251,-0.14,-0.011,-0.56,0.0009475497225653799,10,1,100,0.019243394157296236,-10,-1,-100,993.1343930338044,-0.0017142821176596226,8.997581552384307e-05,0.9999985265695014,39.66143350220357,-2.1974578497615145,-2274.3224802098443,70.521028427982,-89.9625244140625,6008.125,True
1598625465.7803648,0,5,0.5,0.5,-0.16159128723144534,-0.14,-0.011,-0.56,0.0009488698110079337,10,1,100,0.019314265244138144,-10,-1,-100,998.782114870497,-0.0017185995911436671,8.959788055884554e-05,0.9999985191927361,39.76667250578299,-2.198125206959842,-2273.782603859494,70.52445294464943,-89.74032592773438,6006.294921875,True
1598625465.8727708,0,5,0.5,0.5,-0.1281040740966797,-0.14,-0.011,-0.56,0.0009690006815579345,10,1,100,0.019228011218771587,-10,-1,-100,1002.989478580188,-0.0017217049911576925,8.94383283154398e-05,0.9999985138652502,39.844732869426245,-2.198595862746223,-2273.330301125589,70.52700990591285,-89.6104736328125,6004.92236328125,True
1598625465.9668148,0,5,0.5,0.5,-0.10124545593261719,-0.14,-0.011,-0.56,0.0010213783494533596,10,1,100,0.019262895939336465,-10,-1,-100,1007.2537275915965,-0.0017248101223449686,8.977051068324784e-05,0.9999985084845364,39.9207283653353,-2.1989658606392077,-2272.7635749555925,70.52958394897122,-89.54501342773438,6003.55078125,True
1598625466.062765,0,5,0.5,0.5,0.008830474853515624,-0.14,-0.011,-0.56,0.001040675997828128,10,1,100,0.019653876688024947,-10,-1,-100,1015.7254013633355,-0.0017311527186903508,9.024859192432381e-05,0.9999984974815995,40.06422546791193,-2.199261628063773,-2271.1586166292295,70.53476718380477,-89.64999389648438,6000.8076171875,True
1598625466.1611545,0,5,0.5,0.5,0.09547298583984376,-0.14,-0.011,-0.56,0.0010377159934496832,10,1,100,0.019513369034482708,-10,-1,-100,1021.3731231295969,-0.0017356044303083607,9.065676719315785e-05,0.9999984897281656,40.15451786202115,-2.199168129789791,-2269.7972170886624,70.53833377414632,-89.85781860351562,5998.97998046875,True
1598625466.2577717,0,5,0.5,0.5,0.1494114685058594,-0.14,-0.011,-0.56,0.0009938068979435262,10,1,100,0.01955264000144024,-10,-1,-100,1027.0210882255342,-0.001739970958321926,9.062891398226575e-05,0.9999984821425801,40.242546013215794,-2.1989377662202383,-2268.3128237365313,70.54177441441529,-90.10115051269531,5997.1533203125,True
1598625466.355603,0,5,0.5,0.5,0.13902834396362307,-0.14,-0.011,-0.56,0.0010213577681658509,10,1,100,0.01958014274818564,-10,-1,-100,1032.611619657022,-0.0017441524125247872,9.085445298007368e-05,0.9999984748377522,40.33183102608198,-2.198758587252957,-2266.9066791803134,70.54515109820798,-90.28093719482422,5995.328125,True
1598625466.648933,0,5,0.5,0.5,0.06787134323120118,-0.14,-0.011,-0.56,0.0009667177695047527,10,1,100,0.01942693913113775,-10,-1,-100,1035.435328006628,-0.001746522861798757,9.056301664184467e-05,0.9999984707269473,40.377992912909676,-2.198743319538133,-2266.292085798824,70.54683495038421,-90.3230209350586,5994.416015625,True
1598625466.7240455,0,5,0.5,0.5,0.04547164230346681,-0.14,-0.011,-0.56,0.0009760902839826852,10,1,100,0.01940506806238862,-10,-1,-100,1038.2592800479615,-0.0017484423081797799,9.038343576734046e-05,0.9999984673889903,40.42536498340317,-2.19879452751565,-2265.7473108483878,70.54851661770311,-90.3245849609375,5993.50390625,True
1598625466.826908,0,5,0.5,0.5,-0.022054647827148437,-0.14,-0.011,-0.56,0.0009828040746484548,10,1,100,0.019724065602527027,-10,-1,-100,1043.9070622575236,-0.0017530524742662911,9.028123527295875e-05,0.9999984593269737,40.52431435532325,-2.199120924306696,-2264.894883596608,70.55177776116965,-90.22911071777344,5991.68017578125,True
1598625466.9166954,0,5,0.5,0.5,-0.08786064605712891,-0.14,-0.011,-0.56,0.000934670086407344,10,1,100,0.01978231548314117,-10,-1,-100,1049.5549670321634,-0.0017577378329354239,8.975046636701154e-05,0.9999984511500828,40.62627582777775,-2.199618010355512,-2264.216622241591,70.55507248646698,-90.05830383300781,5989.85693359375,True
1598625467.0079598,0,5,0.5,0.5,-0.12895160522460938,-0.14,-0.011,-0.56,0.0009420910321627209,10,1,100,0.01981572003062718,-10,-1,-100,1055.2025054917904,-0.0017622653473919703,8.933527360864644e-05,0.9999984432188153,40.72964692203742,-2.200203847886458,-2263.621937881643,70.55840744958196,-89.86245727539062,5988.03515625,True
1598625467.0969582,0,5,0.5,0.5,-0.10449229431152346,-0.14,-0.011,-0.56,0.000989414103495018,10,1,100,0.019740840959104066,-10,-1,-100,1059.4668761721114,-0.001765663677742044,8.938812907197795e-05,0.9999984372195487,40.80664924797647,-2.200626408485378,-2263.148458648988,70.5608901516874,-89.74032592773438,5986.6689453125,True
1598625467.1912022,0,5,0.5,0.5,-0.09719371032714844,-0.14,-0.011,-0.56,0.0009311883936583532,10,1,100,0.02005945899414803,-10,-1,-100,1066.5044179855613,-0.0017716124569648768,8.890720247795626e-05,0.9999984267411682,40.931008471782164,-2.2011364504895137,-2262.14485561885,70.56504740249476,-89.65274047851562,5984.39306640625,True
1598625467.2808769,0,5,0.5,0.5,-0.012788223266601565,-0.14,-0.011,-0.56,0.0009711685817276618,10,1,100,0.01994286364118366,-10,-1,-100,1072.152078868472,-0.001775923698742072,8.883467218351786e-05,0.9999984191004592,41.025890810970765,-2.201307957071438,-2261.102556190269,70.56867854263577,-89.7032470703125,5982.5732421875,True
1598625467.3741574,0,5,0.5,0.5,0.05796459960937501,-0.14,-0.011,-0.56,0.0009792927125867124,10,1,100,0.020013917906321847,-10,-1,-100,1077.7998613253003,-0.0017804523034331114,8.884424773730126e-05,0.999998411046885,41.11732594377733,-2.2012878696441622,-2259.878882896127,70.57236749318497,-89.844970703125,5980.7529296875,True
1598625467.466044,0,5,0.5,0.5,0.10848343048095704,-0.14,-0.011,-0.56,0.0010013377031423461,10,1,100,0.02003091230346405,-10,-1,-100,1083.44764354988,-0.001784686910085248,8.905498421510554e-05,0.9999984034796469,41.2062355581781,-2.2011205100114033,-2258.5236341032582,70.5760294171253,-90.03092193603516,5978.9345703125,True
1598625467.55982,0,5,0.5,0.5,0.11062555847167971,-0.14,-0.011,-0.56,0.0009897171676427387,10,1,100,0.020091243374174735,-10,-1,-100,1089.1016514025396,-0.0017890481672322325,8.914255748017206e-05,0.9999983956788429,41.29563779189404,-2.2009607383178333,-2257.2032568522854,70.5796729143494,-90.18313598632812,5977.1162109375,True
1598625467.652925,0,5,0.5,0.5,0.06433017501831055,-0.14,-0.011,-0.56,0.0009302145657982337,10,1,100,0.02014205093167127,-10,-1,-100,1094.749555796734,-0.0017934361739745202,8.86825281217931e-05,0.99999838785975,41.38804055768381,-2.200949507973794,-2256.054145827221,70.58329724651614,-90.2389907836914,5975.29931640625,True
1598625467.753759,0,5,0.5,0.5,-0.014712648010253907,-0.14,-0.011,-0.56,0.0009484074860036805,10,1,100,0.02016441201364058,-10,-1,-100,1100.397216027719,-0.001797587650061962,8.843125607753951e-05,0.9999983804279651,41.48505037273982,-2.2011751568410265,-2255.1623449338244,70.58690070392514,-90.17089080810547,5973.4833984375,True
1598625467.847772,0,5,0.5,0.5,-0.06088295211791993,-0.14,-0.011,-0.56,0.0009311915307422851,10,1,100,0.02007662793150788,-10,-1,-100,1104.6108051154297,-0.0018005231955986157,8.804800006147395e-05,0.9999983751805659,41.56067405333101,-2.2015019712463895,-2254.652048796237,70.58957588125467,-90.05054473876953,5972.12109375,True
1598625467.9447513,0,5,0.5,0.5,-0.17542441558837893,-0.14,-0.011,-0.56,0.0009238423952123366,10,1,100,0.02033334014765691,-10,-1,-100,1111.6991283529205,-0.0018054867249945074,8.763432287505621e-05,0.9999983662676212,41.689559319441564,-2.2022240318323196,-2253.96182175568,70.59403676605008,-89.7906494140625,5969.853515625,True
1598625468.039745,0,5,0.5,0.5,-0.15928941497802734,-0.14,-0.011,-0.56,0.0009751025888432548,10,1,100,0.0203038041802391,-10,-1,-100,1117.2958856275072,-0.0018096912234891538,8.772580078471533e-05,0.9999983586595828,41.79227391089668,-2.202812018347676,-2253.3940223220525,70.59764051042724,-89.60589599609375,5968.0390625,True
1598625468.1321955,0,5,0.5,0.5,-0.11023562774658205,-0.14,-0.011,-0.56,0.0009610867560903226,10,1,100,0.020317581541353335,-10,-1,-100,1122.9436678353231,-0.0018135987185437371,8.768305706691266e-05,0.9999983515843263,41.891699188322654,-2.2032534670739468,-2252.6518783642273,70.6011802314369,-89.52838134765625,5966.2265625,True
1598625468.222107,0,5,0.5,0.5,-0.011294053649902346,-0.14,-0.011,-0.56,0.0010293818054521865,10,1,100,0.020331510912720847,-10,-1,-100,1128.5979194786632,-0.001817239448095264,8.826617608620994e-05,0.9999983449235655,41.984813738078735,-2.2033827096090834,-2251.575643827592,70.60467714558499,-89.60791015625,5964.41455078125,True
1598625468.3146014,0,5,0.5,0.5,0.04547180328369141,-0.14,-0.011,-0.56,0.0010378428601287744,10,1,100,0.020293951817786673,-10,-1,-100,1132.8621683473466,-0.001820170196143293,8.88737197790831e-05,0.999998339539581,42.05094960795135,-2.2032880887286805,-2250.5746495505214,70.60728037301752,-89.75277709960938,5963.05615234375,True
1598625468.4088426,0,5,0.5,0.5,0.18708578338623047,-0.14,-0.011,-0.56,0.0010000264628233799,10,1,100,0.020547842805422756,-10,-1,-100,1139.8995880205184,-0.001825106505263002,8.90822200043353e-05,0.9999983305239077,42.15690055849423,-2.2028909044991467,-2248.6904960750685,70.611647153697,-90.07112121582031,5960.79296875,True
1598625468.5047402,0,5,0.5,0.5,0.16905322036743164,-0.14,-0.011,-0.56,0.0009884226044088362,10,1,100,0.02047654741552733,-10,-1,-100,1145.5473705370678,-0.0018289091740135263,8.91662512818967e-05,0.9999983235689011,42.241684702688474,-2.2025518741030483,-2247.19707306053,70.6152002135575,-90.29997253417969,5958.9833984375,True
1598625468.600004,0,5,0.5,0.5,0.11018012313842775,-0.14,-0.011,-0.56,0.0009679261409633808,10,1,100,0.02054114789513247,-10,-1,-100,1151.20125619194,-0.0018329171854133395,8.905629032671954e-05,0.9999983162403668,42.33029313156605,-2.2023899080087217,-2245.9147760724586,70.61870604062216,-90.39876556396484,5957.1748046875,True
1598625468.696545,0,5,0.5,0.5,-0.010716054534912117,-0.14,-0.011,-0.56,0.0009381904176625657,10,1,100,0.020585453821130743,-10,-1,-100,1156.8491605884628,-0.0018369277214573005,8.868566128091023e-05,0.9999983089142699,42.42648163838007,-2.202618482179818,-2245.0406511335486,70.62217504802716,-90.30484008789062,5955.3671875,True
1598625468.7887657,0,5,0.5,0.5,-0.13337632751464845,-0.14,-0.011,-0.56,0.0009218058007119212,10,1,100,0.020629440532029274,-10,-1,-100,1162.5034121049102,-0.001840937778804165,8.819954344407467e-05,0.9999983015830252,42.52950870914018,-2.2032140468736783,-2244.532991462757,70.62562848341818,-90.05426025390625,5953.5595703125,True
1598625468.8837821,0,5,0.5,0.5,-0.21410466232299805,-0.14,-0.011,-0.56,0.000945233116730495,10,1,100,0.02065588890456255,-10,-1,-100,1168.1571760113584,-0.0018447869847032484,8.797045597131791e-05,0.9999982945096356,42.636166252251,-2.204029499988249,-2244.2199168289103,70.62906385639923,-89.73846435546875,5951.75390625,True
1598625468.9740958,0,5,0.5,0.5,-0.21720833053588867,-0.14,-0.011,-0.56,0.0009294867538042268,10,1,100,0.020681608080678055,-10,-1,-100,1173.8050806511892,-0.0018484843459764572,8.761874030303091e-05,0.9999982877128235,42.74153005384981,-2.204815705782304,-2243.843049090811,70.63253680590358,-89.48147583007812,5949.9482421875,True
1598625469.0667212,0,5,0.5,0.5,-0.13880027084350588,-0.14,-0.011,-0.56,0.0009881948080169341,10,1,100,0.020732738074529522,-10,-1,-100,1179.458966357517,-0.00185227513514849,8.783280569786888e-05,0.999998280679633,42.840971612091515,-2.205329036463423,-2243.1592919895825,70.63600024299929,-89.38809204101562,5948.1435546875,True
1598625469.1599987,0,5,0.5,0.5,-0.006508300018310542,-0.14,-0.011,-0.56,0.0009989959767993943,10,1,100,0.020734509326477708,-10,-1,-100,1185.1133402846754,-0.0018557022490347718,8.812546691062488e-05,0.9999982743000434,42.9318986861321,-2.205424934330828,-2242.0353889711055,70.63943395993192,-89.50259399414062,5946.33984375,True
1598625469.2518167,0,5,0.5,0.5,0.12907775650024417,-0.14,-0.011,-0.56,0.0010395756175034872,10,1,100,0.020824506940647802,-10,-1,-100,1190.7612447008723,-0.0018596010010593566,8.87605563005999e-05,0.9999982670013385,43.01489394333758,-2.2051096888147996,-2240.50545201601,70.64284263339702,-89.78805541992188,5944.53662109375,True
1598625469.342778,0,5,0.5,0.5,0.2141182411193848,-0.14,-0.011,-0.56,0.00101847748823687,10,1,100,0.02084441372751037,-10,-1,-100,1196.4152526175603,-0.0018632904456850788,8.914621199222475e-05,0.9999982600993204,43.09369945222616,-2.2045531741033417,-2238.7672673747306,70.64623280215233,-90.13785552978516,5942.734375,True
1598625469.4368694,0,5,0.5,0.5,0.2124442123413086,-0.14,-0.011,-0.56,0.000986270443570707,10,1,100,0.02093766706679992,-10,-1,-100,1202.069260325865,-0.0018674575312107112,8.920395858583868e-05,0.9999982523209843,43.17384086092206,-2.204031591757429,-2237.1087708754712,70.64960758339971,-90.41519927978516,5940.93359375,True
1598625469.5282166,0,5,0.5,0.5,0.12106766586303713,-0.14,-0.011,-0.56,0.0009614394125313646,10,1,100,0.02095950866037711,-10,-1,-100,1207.7232680695597,-0.0018714093067599903,8.903068456394465e-05,0.9999982449488318,43.26073686091057,-2.203827008651175,-2235.808826440595,70.65296444212343,-90.50635528564453,5939.1328125,True
1598625469.621982,0,5,0.5,0.5,-0.02738026962280274,-0.14,-0.011,-0.56,0.0009097422674265933,10,1,100,0.021015463840366837,-10,-1,-100,1213.3775236071087,-0.001875475520603472,8.840321195741832e-05,0.9999982373866686,43.357758836751074,-2.204127995333046,-2235.1077459170847,70.65873661565804,-90.3670425415039,5937.32861328125,True
1598625469.7151568,0,5,0.5,0.5,-0.17605757446289064,-0.14,-0.011,-0.56,0.0009198011489411171,10,1,100,0.021067923529879802,-10,-1,-100,1219.0251832954818,-0.001879613941457531,8.792448346463868e-05,0.9999982296587909,43.46490887182912,-2.204962274804827,-2234.9556363988654,70.66531800761591,-90.04309844970703,5935.5224609375,True
1598625469.8118603,0,5,0.5,0.5,-0.26554052505493164,-0.14,-0.011,-0.56,0.0008957401381011234,10,1,100,0.021051873880344858,-10,-1,-100,1224.6791872662725,-0.0018831950761812187,8.727078933627491e-05,0.9999982229784782,43.57543161113978,-2.2060098087651783,-2234.901424104625,70.66919127715354,-89.6561279296875,5933.72265625,True
1598625469.9058058,0,5,0.5,0.5,-0.25757323379516606,-0.14,-0.011,-0.56,0.0009472957970682423,10,1,100,0.021152392556142728,-10,-1,-100,1230.333316669101,-0.0018873295428995717,8.714584581622261e-05,0.9999982151948063,43.68182708480515,-2.206895702823294,-2234.6020928837866,70.67182066833334,-89.35806274414062,5931.927734375,True
1598625469.9972014,0,5,0.5,0.5,-0.1510555458068848,-0.14,-0.011,-0.56,0.0009829099140432397,10,1,100,0.021160281943640058,-10,-1,-100,1235.9875687633175,-0.001891124556896302,8.735645540184486e-05,0.9999982080067745,43.77989906939908,-2.2074051259022447,-2233.877156925142,70.67432460893751,-89.27197265625,5930.1328125,True
1598625470.0881655,0,5,0.5,0.5,0.015609325408935545,-0.14,-0.011,-0.56,0.0010005127102326427,10,1,100,0.02121305540875337,-10,-1,-100,1241.6414542613784,-0.0018950190107382252,8.770837712712878e-05,0.9999982006034759,43.866901063052275,-2.207375413298798,-2232.5944724581755,70.67684845264216,-89.44137573242188,5928.3388671875,True
1598625470.180137,0,5,0.5,0.5,0.17843383102416996,-0.14,-0.011,-0.56,0.0010572718591136902,10,1,100,0.0212708552190558,-10,-1,-100,1247.2955845374381,-0.0018990491336320834,8.85446774033814e-05,0.9999981928844812,43.94421912095699,-2.2068478839825443,-2230.83372107128,70.67955276336866,-89.80960083007812,5926.5458984375,True
1598625470.2699842,0,5,0.5,0.5,0.27215153121948243,-0.14,-0.011,-0.56,0.001001284594008938,10,1,100,0.021277101108284284,-10,-1,-100,1252.949714268092,-0.0019027338005898745,8.879617149801988e-05,0.9999981858580165,44.01701053179101,-2.2060501142074034,-2228.855411188463,70.6822938669474,-90.23802947998047,5924.7529296875,True
1598625470.3652833,0,5,0.5,0.5,0.25621863174438475,-0.14,-0.011,-0.56,0.0009885955164837348,10,1,100,0.02137342815704647,-10,-1,-100,1258.603844457306,-0.0019069233406721548,8.890976546154774e-05,0.9999981778675532,44.09252315401843,-2.205338744510819,-2227.030432912785,70.6851842674837,-90.55785369873047,5922.9609375,True
1598625470.4609828,0,5,0.5,0.5,0.13222851791381837,-0.14,-0.011,-0.56,0.000967570162190504,10,1,100,0.021398581391000208,-10,-1,-100,1264.2577314929804,-0.0019109248012288422,8.882216056492942e-05,0.9999981702368399,44.17773945090521,-2.2050772983316334,-2225.73199616072,70.68903446410954,-90.63636016845703,5921.1669921875,True
1598625470.5538177,0,5,0.5,0.5,-0.054895780181884776,-0.14,-0.011,-0.56,0.0008765336110157803,10,1,100,0.02146046565066912,-10,-1,-100,1269.9117393419147,-0.001915089153646031,8.791510430641438e-05,0.9999981623505455,44.27609473849804,-2.2054660784798163,-2225.1120060005446,70.69325123787594,-90.431640625,5919.3740234375,True
1598625470.6452372,0,5,0.5,0.5,-0.23306431579589845,-0.14,-0.011,-0.56,0.0009010265324787144,10,1,100,0.021488706741722378,-10,-1,-100,1275.5724609360332,-0.0019190956533684663,8.731361436438284e-05,0.9999981547224004,44.38518661847728,-2.206412847862713,-2225.0326517940607,70.69739571455267,-90.01323699951172,5917.58154296875,True
1598625470.7388096,0,5,0.5,0.5,-0.33047829742431645,-0.14,-0.011,-0.56,0.0008707386487589747,10,1,100,0.021549319298424744,-10,-1,-100,1281.2261011616793,-0.0019232530566207827,8.649201626426585e-05,0.9999981468066885,44.498243680400364,-2.207609451543877,-2225.1260541665547,70.70059070155122,-89.53939819335938,5915.79150390625,True
