Timestamp,Input Throttle,horizon,dT,dt,Input Roll,Roll P,Roll I,Roll D,Input Pitch,Pitch P,Pitch I,Pitch D,Input Yaw,Yaw P,Yaw I,Yaw D,Altitude,Direction X,Direction Y,Direction Z,Drag X,Drag Y,Drag Z,Vertical Velocity,Roll,Mass,Has Fuel
1598633265.0802064,0,5,0.5,0.5,-0.006964111328125001,-0.14,-0.011,-0.56,0.004546876084230533,10,1,100,0.13434493538473657,-10,-1,-100,475.82774950773455,-0.01188289540087929,0.0004187702877704579,0.9999293082155046,5.958416606821888,-0.48949234738714503,140.072157634504,-15.989851922636023,-89.92889404296875,6440.1796875,True
1598633265.1451876,0,5,0.5,0.5,-0.007811370849609376,-0.14,-0.011,-0.56,0.0044189789120144185,10,1,100,0.1258995708077264,-10,-1,-100,474.84935811243486,-0.011936371103232432,0.0004204920969116651,0.9999286705716975,6.143910077683236,-0.5052998133856512,149.8695201304622,-16.572979414127985,-89.93206787109375,6440.1796875,True
1598633265.2742538,0,5,0.5,0.5,-0.00737767333984375,-0.14,-0.011,-0.56,0.004121295629999521,10,1,100,0.11939782166268423,-10,-1,-100,474.18606238858774,-0.011915027321231966,0.0004189689007517984,0.999928925768724,6.59006963256232,-0.5389201613251103,156.60342604808085,-16.316053521916295,-89.93533325195312,6438.60107421875,True
1598633265.4022627,0,5,0.5,0.5,-0.0006684112548828117,-0.14,-0.011,-0.56,0.003912469466457343,10,1,100,0.11275671385427202,-10,-1,-100,472.9592892471701,-0.01182441833268122,0.0004153048764826708,0.9999300028766781,6.296259064105871,-0.5029835222796751,127.51253773786829,-14.509631127777322,-89.9476318359375,6432.28515625,True
1598633265.5312307,0,5,0.5,0.5,0.0066354339599609385,-0.14,-0.011,-0.56,0.0033628461369003358,10,1,100,0.0964019429184258,-10,-1,-100,471.89371963369194,-0.011582617317915867,0.0004065998197179614,0.9999328365708635,5.947864992624748,-0.46486522160226024,101.26033371663205,-12.701071987264383,-89.96798706054688,6425.9697265625,True
1598633265.6583827,0,5,0.5,0.5,0.0126329345703125,-0.14,-0.011,-0.56,0.0027790832147602854,10,1,100,0.07855403876561648,-10,-1,-100,470.9843338166829,-0.011190014887360083,0.00039300955989448157,0.9999373125902976,5.546947991632729,-0.4248478048693966,77.94888898413987,-10.890331355068458,-89.99288940429688,6419.65380859375,True
1598633265.725267,0,5,0.5,0.5,0.014535971069335938,-0.14,-0.011,-0.56,0.0021909785109327476,10,1,100,0.06125545121456233,-10,-1,-100,470.1874629412778,-0.010665670959220368,0.00037495109042025456,0.9999430498156728,5.094478566039084,-0.3830441748579181,57.59906983894787,-9.077359020407718,-90.01554107666016,6413.337890625,True
1598633265.8551805,0,5,0.5,0.5,0.007678676605224611,-0.14,-0.011,-0.56,0.0029198618535976944,10,1,100,0.08134489797963615,-10,-1,-100,469.86710629588924,-0.010361929930631099,0.0003648196475675293,0.9999462472126874,4.850711623783431,-0.36160043297952704,48.54752840887624,-8.17002205356377,-90.02384185791016,6410.1806640625,True
1598633265.983546,0,5,0.5,0.5,0.007820259094238282,-0.14,-0.011,-0.56,0.0013308707385812045,10,1,100,0.037812714442857165,-10,-1,-100,469.29563523398247,-0.009680634663460471,0.0003408322169762041,0.999953083472376,4.336480300183031,-0.3181870307933136,32.72032859106012,-6.353707719750948,-90.03064727783203,6403.865234375,True
1598633266.195177,0,5,0.5,0.5,0.001228452301025391,-0.14,-0.011,-0.56,0.0007718914237646855,10,1,100,0.020589968891821797,-10,-1,-100,468.87223426019773,-0.008895904338601887,0.0003136339842885072,0.9999603814750475,3.818126519126536,-0.27622126898321675,19.99251267123864,-4.534952469536683,-90.02662658691406,6397.54931640625,True
1598633266.319134,0,5,0.5,0.5,-0.004715158843994142,-0.14,-0.011,-0.56,0.00017476469270075396,10,1,100,0.006782579828583629,-10,-1,-100,468.6002915860154,-0.008048904229665917,0.0002831947715770302,0.9999675669447601,3.4987176043271364,-0.2499765815114204,10.691101858268981,-2.7137753090034895,-90.01487731933594,6391.23388671875,True
1598633266.4437766,0,5,0.5,0.5,-0.00943243637084961,-0.14,-0.011,-0.56,-0.0002563839347455711,10,1,100,-0.006631418318648621,-10,-1,-100,468.4743461739272,-0.007160444139450391,0.000251726477513624,0.9999743320073302,8.073593194588815,-0.5705883797853447,7.915263965516428,-0.8901898026569293,-89.99860382080078,6384.91845703125,True
1598633266.571141,0,5,0.5,0.5,-0.01061214599609375,-0.14,-0.011,-0.56,-0.0006577580651012166,10,1,100,-0.018249531030196497,-10,-1,-100,468.49424638121855,-0.006251475693662006,0.00021962350501583797,0.9999804352171934,0.6651071088516265,-0.046561681121845645,-0.672511180986067,0.9360387070160973,-89.98379516601562,6378.60302734375,True
1598633266.635584,0,5,0.5,0.5,-0.007884277343750001,-0.14,-0.011,-0.56,-0.0009906721643389853,10,1,100,-0.02755746014045024,-10,-1,-100,468.6606017717859,-0.00534567188887714,0.00018759371583908547,0.999985694197999,1.951175620355676,-0.13550813015943103,-5.732438571726944,2.764855111041326,-89.97576904296875,6372.287109375,True
1598633266.7591908,0,5,0.5,0.5,-0.0036577697753906254,-0.14,-0.011,-0.56,0.0004380707790059377,10,1,100,0.013307424139122372,-10,-1,-100,468.798559140414,-0.004899602602017744,0.00017167130803666757,0.9999879821394376,2.5377839207043382,-0.17563531352865805,-9.85308926225032,3.6801862116295294,-89.975341796875,6369.12939453125,True
1598633266.889222,0,5,0.5,0.5,0.0004988800048828122,-0.14,-0.011,-0.56,-0.0013634792182195907,10,1,100,-0.038385819733172025,-10,-1,-100,469.1804025807651,-0.004030221955775524,0.00014103223597940223,0.9999918686773885,3.5229861661105812,-0.2423551503352894,-20.23565914379571,5.512752353580792,-89.98092651367188,6362.81396484375,True
1598633267.0212488,0,5,0.5,0.5,0.0053264190673828135,-0.14,-0.011,-0.56,-0.0017615898309443706,10,1,100,-0.04814025504225427,-10,-1,-100,469.7097390363924,-0.003157708131774199,0.00010978841701522216,0.999995008400471,4.441902327533818,-0.30408556264643966,-33.6668140094672,7.347804194083239,-89.9923095703125,6356.498046875,True
1598633267.2163382,0,5,0.5,0.5,0.00799465103149414,-0.14,-0.011,-0.56,-0.001864689372323822,10,1,100,-0.05231177255293891,-10,-1,-100,470.39529702812433,-0.0023334162806099034,8.068873364743166e-05,0.9999972743251802,5.344460420677028,-0.36449399566639673,-50.24804336980339,9.185298983413123,-90.00526428222656,6350.1826171875,True
1598633267.3478901,0,5,0.5,0.5,0.009777194213867189,-0.14,-0.011,-0.56,-0.0034852566924760105,10,1,100,-0.09598763946880487,-10,-1,-100,471.6972421471728,-0.0011943053654526906,3.976034668798413e-05,0.9999992860266494,6.682974156991766,-0.45404281066014623,-81.10101938659055,11.946043206382521,-90.01820373535156,6340.708984375,True
1598633267.4134407,0,5,0.5,0.5,0.002741716766357422,-0.14,-0.011,-0.56,-0.00204029031765764,10,1,100,-0.056732602297542185,-10,-1,-100,472.7384556251345,-0.0005233288071376193,1.5962481832551767e-05,0.9999998629360701,7.56445517719633,-0.513167703531718,-105.68042167615579,13.789523800451725,-90.01852416992188,6334.3935546875,True
1598633267.4794526,0,5,0.5,0.5,0.00030497817993164057,-0.14,-0.011,-0.56,-0.0008635173505729096,10,1,100,-0.022181948593770266,-10,-1,-100,473.3372029364109,-0.00023505840191408503,5.296605757888941e-06,0.9999999723597465,8.001078774204844,-0.5425376231238469,-119.17454625557001,14.71214266495239,-90.01531219482422,6331.2353515625,True
1598633267.6085858,0,5,0.5,0.5,-0.0013084655761718752,-0.14,-0.011,-0.56,-0.000935729418476429,10,1,100,-0.0252291135328844,-10,-1,-100,473.93558415130246,4.760360607402753e-05,-4.803483867455495e-06,0.9999999988554116,8.434555332414789,-0.5717605384382477,-133.4696909931268,15.635339433598519,-90.01043701171875,6328.078125,True
1598633267.753886,0,5,0.5,0.5,-0.006538826751708984,-0.14,-0.011,-0.56,-0.0019807883512024246,10,1,100,-0.054662703893245096,-10,-1,-100,475.27129361522384,0.0005655943913887504,-2.3252710223113055e-05,0.999999839781135,9.291985881374691,-0.6297794715021356,-164.4724327727765,17.48348190265641,-89.9990463256836,6321.76171875,True
1598633267.873288,0,5,0.5,0.5,-0.008447862243652345,-0.14,-0.011,-0.56,-0.0019740845715808886,10,1,100,-0.05471694805018597,-10,-1,-100,476.7633446251275,0.001030790897569733,-3.9742994172388734e-05,0.9999994679451684,10.135532618178228,-0.6872082224022708,-198.70419657911603,19.33392532557082,-89.9871826171875,6315.4462890625,True
1598633267.9557445,0,5,0.5,0.5,-0.00892664031982422,-0.14,-0.011,-0.56,-0.0018871763123796985,10,1,100,-0.052382778136249496,-10,-1,-100,478.4113102366682,0.00142668030143807,-5.3737416578981736e-05,0.9999989808472843,10.962746817667185,-0.7439369863930683,-236.15554182203996,21.186634642601454,-89.97698974609375,6309.130859375,True
1598633268.0671895,0,5,0.5,0.5,-0.005310325622558594,-0.14,-0.011,-0.56,-0.001214823645231804,10,1,100,-0.032372327386422386,-10,-1,-100,479.2787346157711,0.001598915404589534,-6.0142404770343926e-05,0.9999987199253908,11.369576710266642,-0.7719997204460761,-256.0792406493364,22.11383063837589,-89.9739990234375,6305.97314453125,True
1598633268.1343162,0,5,0.5,0.5,-0.0041344741821289065,-0.14,-0.011,-0.56,-0.0017060398194536596,10,1,100,-0.04803478140585908,-10,-1,-100,481.15201125782914,0.0018927613191217756,-7.024783685473574e-05,0.9999982062583064,12.169505240648231,-0.827497352741403,-298.31065808586567,23.96988294897484,-89.97329711914062,6299.6572265625,True
1598633268.2823884,0,5,0.5,0.5,-0.002416496276855469,-0.14,-0.011,-0.56,-0.001203311634678397,10,1,100,-0.03264890612585823,-10,-1,-100,482.1144363679923,0.0020154310393775366,-7.470066774816232e-05,0.9999979662266998,12.56285703112299,-0.854946295612128,-320.6200263978128,24.898738661053624,-89.9752197265625,6296.49951171875,True
1598633268.4007232,0,5,0.5,0.5,0.0007889801025390626,-0.14,-0.011,-0.56,-0.0015097696738386953,10,1,100,-0.04161178084041575,-10,-1,-100,484.2130845270585,0.0022044761485423992,-8.139341491510229e-05,0.9999975668270511,13.336482236920228,-0.9092394986321636,-367.61746815009224,26.758040868814312,-89.98138427734375,6290.18408203125,True
1598633268.544898,0,5,0.5,0.5,0.002829167175292969,-0.14,-0.011,-0.56,-0.001356845045662599,10,1,100,-0.03776077990293829,-10,-1,-100,486.44201159174554,0.0023382364378843018,-8.597736684562585e-05,0.9999972626253799,14.093351076369464,-0.9627327724531762,-417.76864485730255,28.619549124308488,-89.98928833007812,6283.86865234375,True
1598633268.6655204,0,5,0.5,0.5,0.0030437423706054694,-0.14,-0.011,-0.56,-0.0011456505104787012,10,1,100,-0.031839353042560935,-10,-1,-100,488.83512215374503,0.0024034041246962174,-8.81319729638135e-05,0.9999971079365024,14.83504935684109,-1.015475945530826,-471.06270607865395,30.48319019872984,-89.99596405029297,6277.552734375,True
1598633268.7319238,0,5,0.5,0.5,0.0013241561889648437,-0.14,-0.011,-0.56,-0.0008913311927633205,10,1,100,-0.026073211920932413,-10,-1,-100,491.35866492486093,0.0024078294093044174,-8.76937769295518e-05,0.9999970973294557,15.563325742694474,-1.0675073924913256,-527.4720630616354,32.348934244803544,-89.9988784790039,6271.2373046875,True
1598633268.8109794,0,5,0.5,0.5,-0.0007425437927246095,-0.14,-0.011,-0.56,-0.0008480229510498022,10,1,100,-0.023713223597848058,-10,-1,-100,492.70258904248476,0.0023882522961899866,-8.682635079822545e-05,0.9999971443519998,15.923258413454022,-1.093289467428752,-556.8391757775901,33.282592894653064,-89.99827575683594,6268.0791015625,True
1598633269.0568192,0,5,0.5,0.5,-0.0017143081665039065,-0.14,-0.011,-0.56,-0.0007850471128709486,10,1,100,-0.02233580924856665,-10,-1,-100,494.04632989806123,0.0023562760102699446,-8.540747974941637e-05,0.9999972203305996,16.280919639361702,-1.1189290619057388,-586.9800913852392,34.21676937037684,-89.99640655517578,6264.9208984375,True
1598633269.185426,0,5,0.5,0.5,-0.011877959442138673,-0.14,-0.011,-0.56,0.00017884334952276157,10,1,100,0.0017048719861754505,-10,-1,-100,499.8562290305272,0.0021074500253788872,-7.531344324184981e-05,0.999997776488666,17.69669017888391,-1.2204030300547675,-715.2606822487518,37.95858295099745,-89.98037719726562,6252.2900390625,True
1598633269.2515404,0,5,0.5,0.5,-0.00907149887084961,-0.14,-0.011,-0.56,-0.00019248089693968515,10,1,100,-0.007878255943244128,-10,-1,-100,502.1882149379235,0.0019677450478145214,-6.949310681493622e-05,0.9999980615731887,18.224913026949874,-1.258123020050159,-766.5275578700151,39.36384499747381,-89.9715576171875,6247.552734375,True
1598633269.3204043,0,5,0.5,0.5,-0.010351650238037111,-0.14,-0.011,-0.56,-7.86460051843043e-05,10,1,100,-0.004965057098815152,-10,-1,-100,504.6249378717039,0.0018139215972219026,-6.31585285908344e-05,0.999998352848363,18.75380958289764,-1.2957296846593145,-819.499669344974,40.77021870249045,-89.96267700195312,6242.81640625,True
1598633269.3881261,0,5,0.5,0.5,-0.00840227279663086,-0.14,-0.011,-0.56,-0.00019550897105734863,10,1,100,-0.0076581064528784375,-10,-1,-100,506.28090323053766,0.0016986360360127335,-5.846865653891852e-05,0.9999985556074736,19.107830922885977,-1.3207959419075097,-855.7744618235812,41.708417740360545,-89.9583740234375,6239.65869140625,True
1598633269.5204434,0,5,0.5,0.5,-0.008126003265380861,-0.14,-0.011,-0.56,-0.0001453351649050704,10,1,100,-0.006104461170890984,-10,-1,-100,507.96277796989307,0.001579994927807571,-5.376376735507359e-05,0.9999987503619618,19.46334289144546,-1.345863791452943,-892.8133756775978,42.647109051059566,-89.95535278320312,6236.5009765625,True
1598633269.6545222,0,5,0.5,0.5,-0.008470800018310548,-0.14,-0.011,-0.56,0.0005654093808804413,10,1,100,0.010370234823761825,-10,-1,-100,511.4744765529176,0.001322937121506702,-4.305039917858266e-05,0.9999991239916342,20.180371529968294,-1.3960662747087023,-969.1751615493098,44.525946050816906,-89.95248413085938,6230.185546875,True
1598633269.787193,0,5,0.5,0.5,-0.006755303192138673,-0.14,-0.011,-0.56,0.0007612516988027526,10,1,100,0.015635744331881127,-10,-1,-100,515.1244807629846,0.0010423029378106253,-3.156961337126721e-05,0.9999994563038249,20.907950305960977,-1.4464471702926889,-1048.5600137767779,46.40670050000068,-89.95269775390625,6223.86962890625,True
1598633269.9171252,0,5,0.5,0.5,-0.004914468383789063,-0.14,-0.011,-0.56,0.0009358176864906731,10,1,100,0.019489283742591686,-10,-1,-100,518.9308566560503,0.0007533861408867193,-1.9596992167083477e-05,0.9999997160126,21.649893458328332,-1.4971700902972276,-1130.9747636055233,48.289344784430696,-89.95556640625,6217.5537109375,True
1598633270.0472434,0,5,0.5,0.5,-0.003535109710693359,-0.14,-0.011,-0.56,0.0010606709007572363,10,1,100,0.022760663351054138,-10,-1,-100,522.8932382300263,0.0004624987320320712,-7.639668019731751e-06,0.9999998930182735,22.40992635218539,-1.5484092873382507,-1216.4704042895235,50.17385599348412,-89.95989990234375,6211.23828125,True
1598633270.2413511,0,5,0.5,0.5,-0.003483329010009766,-0.14,-0.011,-0.56,0.0012086578353531143,10,1,100,0.025160082791447505,-10,-1,-100,526.9939256490907,0.00017799341412804947,4.503974535297351e-06,0.9999999841490292,23.190472773897103,-1.6002813434918315,-1305.0707494132719,52.06020591876978,-89.9635009765625,6204.92236328125,True
1598633270.3742075,0,5,0.5,0.5,-0.0057924743652343754,-0.14,-0.011,-0.56,0.0019000057785191831,10,1,100,0.04145580260363285,-10,-1,-100,533.4444562990684,-0.0002268104344444353,2.1746893201120148e-05,0.9999999740420495,24.403888447895152,-1.6794751816029467,-1443.8415506754147,54.89311518542915,-89.963134765625,6195.44921875,True
1598633270.5032086,0,5,0.5,0.5,-0.009558389282226564,-0.14,-0.011,-0.56,0.0013990538415261757,10,1,100,0.028834799068061263,-10,-1,-100,537.9266739016166,-0.00047795548240529487,3.277992861880174e-05,0.9999998852420099,25.243152581199652,-1.7332873789989238,-1540.2913791371702,56.78394270703763,-89.95748901367188,6189.13330078125,True
1598633270.6351726,0,5,0.5,0.5,-0.01303455810546875,-0.14,-0.011,-0.56,0.0013901198786688191,10,1,100,0.028162668909939594,-10,-1,-100,542.56508054398,-0.0006979355240865886,4.263576748577837e-05,0.9999997555340678,26.10828205612028,-1.788008353880641,-1639.9443410362917,58.67651160919293,-89.94802856445312,6182.81787109375,True
1598633270.7673032,0,5,0.5,0.5,-0.015379162597656251,-0.14,-0.011,-0.56,0.001452534316088034,10,1,100,0.028325830794443875,-10,-1,-100,547.3594928351231,-0.000897117163545705,5.206684834495306e-05,0.9999995962348376,26.999459056427096,-1.8436761349555246,-1742.8586533585544,60.5707938037299,-89.9371337890625,6176.501953125,True
1598633270.8981254,0,5,0.5,0.5,-0.01579559326171875,-0.14,-0.011,-0.56,0.0014267543918053435,10,1,100,0.02790207717325713,-10,-1,-100,552.2922104765894,-0.0010719792999526964,6.0305708446283895e-05,0.999999423611635,27.915286708301906,-1.900208821870011,-1848.9800541182278,62.46676005035691,-89.9278564453125,6170.1865234375,True
1598633271.0342197,0,5,0.5,0.5,-0.014368930053710939,-0.14,-0.011,-0.56,0.0014566537023955636,10,1,100,0.027755010841542298,-10,-1,-100,557.399000330246,-0.0012271970261909535,6.796369365667633e-05,0.9999992446839123,28.855372980938775,-1.9576063889578348,-1958.2998016261413,64.36438149329989,-89.92251586914062,6163.87109375,True
1598633271.1672013,0,5,0.5,0.5,-0.011838418579101563,-0.14,-0.011,-0.56,0.0014623419767448554,10,1,100,0.027492845395482038,-10,-1,-100,562.6442170566879,-0.0013636024240363687,7.487628807581278e-05,0.9999990674905505,29.81933014237628,-2.0158415317723044,-2070.8171740731623,66.26362998177974,-89.92190551757812,6157.55517578125,True
1598633271.2993681,0,5,0.5,0.5,-0.009415625,-0.14,-0.011,-0.56,0.0014855833394195681,10,1,100,0.027091249162829296,-10,-1,-100,568.0276784970192,-0.0014817692696336786,8.127498093439141e-05,0.9999988988764984,30.806664544093024,-2.074920094205922,-2186.53205725748,68.16447752761384,-89.9249267578125,6151.2392578125,True
1598633271.4486027,0,5,0.5,0.5,-0.00832139892578125,-0.14,-0.011,-0.56,0.0014989832370001662,10,1,100,0.02662156971065499,-10,-1,-100,573.5850899369689,-0.001582891902056448,8.712208989919426e-05,0.9999987434306945,31.816828151748755,-2.1348182985163877,-2305.4464852873525,70.06689444194383,-89.928955078125,6144.923828125,True
1598633271.560332,0,5,0.5,0.5,-0.009308197021484376,-0.14,-0.011,-0.56,0.001456317077144587,10,1,100,0.026034696603797935,-10,-1,-100,579.2807451307308,-0.001667626911802003,9.196362227040166e-05,0.999998605280615,32.849106178922845,-2.195506252599642,-2427.5588924825875,71.97085252920938,-89.93081665039062,6138.60791015625,True
1598633271.758626,0,5,0.5,0.5,-0.01213833923339844,-0.14,-0.011,-0.56,0.0014716807487526683,10,1,100,0.02535515559146235,-10,-1,-100,585.1326502697775,-0.001736803256616793,9.642517630635902e-05,0.9999984871071723,33.9028586186563,-2.256967301052238,-2552.8725909202344,73.8763211555749,-89.92831420898438,6132.29248046875,True
1598633271.8951294,0,5,0.5,0.5,-0.020580572509765627,-0.14,-0.011,-0.56,0.0016757056769027702,10,1,100,0.027198183373810404,-10,-1,-100,594.2097627101466,-0.0018150729200859732,0.00010226801724668007,0.9999983475244084,35.521623647116336,-2.3504954023525255,-2746.8130468408153,76.7372966131719,-89.914306640625,6122.81884765625,True
1598633272.030295,0,5,0.5,0.5,-0.02352907409667969,-0.14,-0.011,-0.56,0.0014243892058986496,10,1,100,0.023524220215210764,-10,-1,-100,600.4431975561893,-0.0018516119332182487,0.00010523182464818185,0.9999982802282772,36.624921031495745,-2.4136916013177814,-2880.0728313365607,78.64641869473566,-89.89895629882812,6116.5029296875,True
1598633272.16123,0,5,0.5,0.5,-0.025603927612304688,-0.14,-0.011,-0.56,0.0014012987593746587,10,1,100,0.02257883584257196,-10,-1,-100,606.832454739837,-0.001875186017760754,0.00010765937635645409,0.999998236041873,37.74639315244561,-2.477512158968848,-3016.4876064797204,80.55695225875454,-89.8837890625,6110.1875,True
1598633272.3554375,0,5,0.5,0.5,-0.024218515014648438,-0.14,-0.011,-0.56,0.0013704805213055336,10,1,100,0.021902953150418927,-10,-1,-100,613.3603837249102,-0.0018895834620941722,0.00010953553708333545,0.9999982087365487,38.88493197298998,-2.5418955902260425,-3156.0417117060797,82.46886778205938,-89.87371826171875,6103.8720703125,True
1598633272.5524824,0,5,0.5,0.5,-0.020048330688476564,-0.14,-0.011,-0.56,0.0014542906043685166,10,1,100,0.02143389845236027,-10,-1,-100,623.451409235131,-0.0018976646377220723,0.00011195829320049375,0.9999981931654993,40.62175358455066,-2.6393776293578144,-3371.1294506368836,85.33927116875684,-89.8717041015625,6094.3984375,True
1598633272.7512739,0,5,0.5,0.5,-0.010922705078125,-0.14,-0.011,-0.56,0.0014083743635485897,10,1,100,0.02036074716281282,-10,-1,-100,633.8981471481966,-0.0018946457241956127,0.00011370338329996213,0.999998198692938,42.39111036462672,-2.7378202117843533,-3593.02970696176,88.21262701885384,-89.88320922851562,6084.9248046875,True
1598633272.9424021,0,5,0.5,0.5,-0.006363830566406249,-0.14,-0.011,-0.56,0.0014108349361886278,10,1,100,0.01972155487023119,-10,-1,-100,644.6650249689119,-0.001885607651693399,0.00011527690032782087,0.9999982155959181,44.19688237577719,-2.8374533153038124,-3821.651546038148,91.07488072706971,-89.89898681640625,6075.48388671875,True
1598633273.071213,0,5,0.5,0.5,-0.013711090087890626,-0.14,-0.011,-0.56,0.0013390009293837205,10,1,100,0.019507501818157788,-10,-1,-100,655.7863712006947,-0.0018750781595070285,0.00011602342309183562,0.9999982353086735,46.00873481608421,-2.9363385341762474,-4049.7911215471954,93.79969378670158,-89.90115356445312,6066.36376953125,True
1598633273.2033205,0,5,0.5,0.5,-0.025828463745117186,-0.14,-0.011,-0.56,0.0013399942493926746,10,1,100,0.01998846288102687,-10,-1,-100,663.3891602529911,-0.0018696126433114556,0.0001166848363926644,0.9999982454650673,47.055787738843854,-2.9914258773706384,-4181.046489027231,95.38310834003025,-89.8856201171875,6060.822265625,True
1598633273.4781663,0,5,0.5,0.5,-0.03747363891601563,-0.14,-0.011,-0.56,0.0013654660895315801,10,1,100,0.02024125830709078,-10,-1,-100,671.1029620659538,-0.0018667585090692345,0.00011749520956366038,0.9999982507022422,48.064918123117714,-3.043664763316571,-4302.491814843073,96.76626149390394,-89.85662841796875,6055.740234375,True
1598633273.595409,0,5,0.5,0.5,-0.06735290832519532,-0.14,-0.011,-0.56,0.0013927130191701063,10,1,100,0.020942344992933338,-10,-1,-100,686.8012936054729,-0.0018704192157635545,0.00011846045723104578,0.9999982437479964,49.761591328747485,-3.1266613499405573,-4499.195140290966,99.02487086895466,-89.79086303710938,6046.7431640625,True
1598633273.727128,0,5,0.5,0.5,-0.050313403320312505,-0.14,-0.011,-0.56,0.001390229985344207,10,1,100,0.021320407510653585,-10,-1,-100,694.7423637849279,-0.0018771337481052316,0.00011930066167572036,0.9999982310665575,50.51794964005519,-3.1618823960506766,-4585.674794397139,100.04997835437104,-89.76278686523438,6042.484375,True
1598633273.8584065,0,5,0.5,0.5,-0.03606499633789063,-0.14,-0.011,-0.56,0.0013975684566600417,10,1,100,0.0217520019275123,-10,-1,-100,702.812328036176,-0.0018871382523737565,0.00012011840742190707,0.999998212138794,51.234200650660654,-3.194297952679286,-4662.243614701862,100.90858116108419,-89.76089477539062,6038.607421875,True
1598633273.9954538,0,5,0.5,0.5,-0.01373558044433594,-0.14,-0.011,-0.56,0.0014323953085573242,10,1,100,0.022211421788673608,-10,-1,-100,710.9088209673064,-0.001900398934778779,0.00012116709399835625,0.9999981868995684,51.84692013296017,-3.2199889850339907,-4724.317837206549,101.63592415023575,-89.79147338867188,6035.0302734375,True
1598633274.1301966,0,5,0.5,0.5,0.0023110351562499985,-0.14,-0.011,-0.56,0.0014399655200228471,10,1,100,0.02260669809904845,-10,-1,-100,719.0745438766899,-0.0019160376893570395,0.00012217869139307386,0.9999981569342717,52.40796112142727,-3.242254081349049,-4778.148409030908,102.27461838138976,-89.8389892578125,6031.65625,True
1598633274.2615144,0,5,0.5,0.5,0.007453271484375003,-0.14,-0.011,-0.56,0.001469932774318187,10,1,100,0.02308327582862585,-10,-1,-100,727.2840460751904,-0.0019345705610137663,0.00012336146370169062,0.9999981211075817,52.92703212201453,-3.261723497976303,-4825.102183983588,102.83853596931469,-89.8843994140625,6028.453125,True
1598633274.3912659,0,5,0.5,0.5,-0.001419320678710938,-0.14,-0.011,-0.56,0.0014671601505714085,10,1,100,0.023476118331256846,-10,-1,-100,735.5367129727965,-0.0019549536263285105,0.00012440272551146085,0.9999980813382996,53.410779729662885,-3.278844187348457,-4866.131842888712,103.33742462069013,-89.90805053710938,6025.3994140625,True
1598633274.5244899,0,5,0.5,0.5,-0.020955859375000004,-0.14,-0.011,-0.56,0.0014915637218558216,10,1,100,0.023876260158935066,-10,-1,-100,743.8332751992857,-0.0019770582968893207,0.00012556288160003423,0.9999980377353015,53.86427593261501,-3.293947591763395,-4901.983849131106,103.77899563918376,-89.8990478515625,6022.4765625,True
1598633274.65768,0,5,0.5,0.5,-0.04392265319824219,-0.14,-0.011,-0.56,0.0014959632252258903,10,1,100,0.024296139390591488,-10,-1,-100,752.1553593934514,-0.00200087782665295,0.00012664889220345775,0.9999979902219708,54.29145755490899,-3.307304619638714,-4933.269390009101,104.16985044115704,-89.85903930664062,6019.669921875,True
1598633274.7952816,0,5,0.5,0.5,-0.06125963134765626,-0.14,-0.011,-0.56,0.0015061600732105386,10,1,100,0.02458757414393773,-10,-1,-100,760.5210922783008,-0.002025062019483632,0.00012771981495569338,0.9999979414036141,54.695373864097334,-3.3191259665862596,-4960.496434167868,104.515814323347,-89.80230712890625,6016.966796875,True
1598633274.930073,0,5,0.5,0.5,-0.06603618164062501,-0.14,-0.011,-0.56,0.001499059386944553,10,1,100,0.024932261126175234,-10,-1,-100,768.886649462278,-0.0020500372550678525,0.00012861953430495134,0.9999978903999089,55.07840131870612,-3.3295769581264882,-4984.090148979917,104.82202436623275,-89.75018310546875,6014.3544921875,True
1598633275.0661588,0,5,0.5,0.5,-0.05598937683105469,-0.14,-0.011,-0.56,0.0015672325797164944,10,1,100,0.025243812991119437,-10,-1,-100,777.2780926922569,-0.002075411015244542,0.00013004798175940904,0.9999978378759828,55.442491766844526,-3.338800088746998,-5004.42821334947,105.09327137621823,-89.722900390625,6011.82177734375,True
1598633275.1972504,0,5,0.5,0.5,-0.034688037109375,-0.14,-0.011,-0.56,0.001544070572453404,10,1,100,0.0254936553397362,-10,-1,-100,785.6873638419202,-0.0021005691119679215,0.00013112623636099368,0.9999977852052053,55.789619703171255,-3.34692540243328,-5021.860091535301,105.33355071895467,-89.7315673828125,6009.36083984375,True
1598633275.3252823,0,5,0.5,0.5,-0.010414266967773436,-0.14,-0.011,-0.56,0.001590384403200926,10,1,100,0.02570637734758984,-10,-1,-100,794.1399751829449,-0.0021251799173700324,0.00013251749552473983,0.9999977330221466,56.12152446925091,-3.3540765697912005,-5036.700043798708,105.54639820527623,-89.77322387695312,6006.962890625,True
1598633275.456227,0,5,0.5,0.5,0.007317733764648438,-0.14,-0.011,-0.56,0.0015947728635748878,10,1,100,0.02593672426790384,-10,-1,-100,802.5749517197255,-0.002149443093390632,0.00013381185313015746,0.9999976809916993,56.44042501011138,-3.3603967043354,-5049.289999543527,105.73498361954277,-89.8319091796875,6004.62060546875,True
1598633275.590158,0,5,0.5,0.5,0.011253427124023437,-0.14,-0.011,-0.56,0.0015416977225460075,10,1,100,0.026096894338944472,-10,-1,-100,811.0534500741633,-0.002172744430960607,0.0001344954649786954,0.9999976305434967,56.748305572953285,-3.366001108248556,-5059.933259930493,105.9020831280498,-89.88449096679688,6002.328125,True
1598633275.7862644,0,5,0.5,0.5,-0.0006110961914062504,-0.14,-0.011,-0.56,0.0015586424117755944,10,1,100,0.026266539296804874,-10,-1,-100,819.5316473216517,-0.002195253170304818,0.00013526085110556523,0.9999975812810852,57.04718723301303,-3.3710237391816773,-5068.925271929215,106.05019231107629,-89.90960693359375,6000.07958984375,True
1598633275.97519,0,5,0.5,0.5,-0.03926233825683594,-0.14,-0.011,-0.56,0.0015857173633682122,10,1,100,0.02748332866972111,-10,-1,-100,832.2671943199821,-0.002226558928058815,0.00013619292157574878,0.9999975119403187,57.48394970619792,-3.377793089806991,-5080.015351518158,106.24166027841073,-89.87448120117188,5996.7783203125,True
1598633276.1072547,0,5,0.5,0.5,-0.09799724731445314,-0.14,-0.011,-0.56,0.0015821379354293776,10,1,100,0.027563192698604095,-10,-1,-100,845.0285705087008,-0.0022555179257057766,0.00013699805444013013,0.9999974469319508,57.90794567383118,-3.3837404678771277,-5088.7710086022325,106.40670040494649,-89.76251220703125,5993.53857421875,True
1598633276.3662627,0,5,0.5,0.5,-0.09831277770996094,-0.14,-0.011,-0.56,0.0015524241125634444,10,1,100,0.02654098114719837,-10,-1,-100,853.5506717059761,-0.002272319963918369,0.0001374504594160259,0.9999974088313193,58.18040071135039,-3.3870886497877994,-5093.034875228093,106.50132077044834,-89.67263793945312,5991.4150390625,True
1598633276.501831,0,5,0.5,0.5,-0.06865499877929687,-0.14,-0.011,-0.56,0.001616717642886533,10,1,100,0.027777671658845343,-10,-1,-100,870.6203047841555,-0.002298612405177121,0.00013843737726572256,0.9999973486045367,58.712968677194844,-3.3930748213031823,-5099.124628751566,106.65843512894074,-89.643310546875,5987.2431640625,True
1598633276.7595856,0,5,0.5,0.5,0.010990014648437504,-0.14,-0.011,-0.56,0.0015802678851147833,10,1,100,0.026326292925518986,-10,-1,-100,879.1422896481818,-0.00230909429497292,0.00013899428856483018,0.9999973243784829,58.96909474622209,-3.3954831564330346,-5100.931059488971,106.72855649024213,-89.73379516601562,5985.177734375,True
1598633276.8911726,0,5,0.5,0.5,0.15606272888183598,-0.14,-0.011,-0.56,0.0015859189717255663,10,1,100,0.02674840917494168,-10,-1,-100,894.0794944288209,-0.0023222482668004635,0.00013954381207247567,0.9999972938415944,59.40428401377322,-3.398926219787884,-5101.959315614357,106.82509121133411,-90.01341247558594,5981.625,True
1598633277.0217273,0,5,0.5,0.5,0.1619750228881836,-0.14,-0.011,-0.56,0.0014837741332698025,10,1,100,0.026298153651753756,-10,-1,-100,904.7774930524174,-0.002329911664473947,0.0001391071371155451,0.9999972760767102,59.70497251210309,-3.4007644730956907,-5101.534561804385,106.88581063463559,-90.24510955810547,5979.107421875,True
1598633277.15254,0,5,0.5,0.5,0.08079823532104494,-0.14,-0.011,-0.56,0.0014221641507100734,10,1,100,0.026077562381206405,-10,-1,-100,913.3430461748503,-0.0023346868946747703,0.00013814407854816448,0.9999972650729188,59.94659140980436,-3.4022546238834126,-5101.053306733832,106.92763226229886,-90.31375885009766,5977.1103515625,True
1598633277.3521833,0,5,0.5,0.5,-0.041117256164550794,-0.14,-0.011,-0.56,0.0014039406238302748,10,1,100,0.02620387416297714,-10,-1,-100,921.9084822674049,-0.002340007898508631,0.00013709896394671303,0.9999972527796809,60.18899751692299,-3.4037572675301595,-5100.413508262387,106.9629072494203,-90.19375610351562,5975.12890625,True
1598633277.483457,0,5,0.5,0.5,-0.28805001373291017,-0.14,-0.011,-0.56,0.0013538652979386812,10,1,100,0.02659200024766451,-10,-1,-100,934.7390306954039,-0.002348221535975164,0.00013569126271095356,0.9999972337179236,60.556898971884294,-3.406239283422824,-5099.571543010589,107.00824054047467,-89.7445068359375,5972.1748046875,True
1598633277.615206,0,5,0.5,0.5,-0.29816936798095706,-0.14,-0.011,-0.56,0.0014042877629179768,10,1,100,0.02644027630034471,-10,-1,-100,943.3045948060462,-0.0023541701083639502,0.0001348695290767973,0.9999972198427909,60.8018222307216,-3.4078965057712827,-5098.889142854679,107.03539605831403,-89.37091064453125,5970.21435546875,True
1598633277.750137,0,5,0.5,0.5,-0.25419143524169924,-0.14,-0.011,-0.56,0.0014721864543007133,10,1,100,0.02658669490261751,-10,-1,-100,951.8699103116523,-0.002360792969483231,0.0001347409624151337,0.999997204246806,61.04287986443425,-3.4093894134573595,-5097.786915669427,107.05955833490924,-89.13565063476562,5968.26123046875,True
1598633277.9483156,0,5,0.5,0.5,-0.10089721832275392,-0.14,-0.011,-0.56,0.0015337667862266723,10,1,100,0.02668533401490195,-10,-1,-100,960.435533654294,-0.0023676147669362746,0.00013518595673297096,0.9999971880585828,61.272719903460164,-3.410305485440186,-5095.6658018492735,107.08096977556052,-89.16741943359375,5966.3154296875,True
1598633278.0771654,0,5,0.5,0.5,0.2387887405395508,-0.14,-0.011,-0.56,0.0016177643475053687,10,1,100,0.02729381803749558,-10,-1,-100,973.2835417655297,-0.002379261442278058,0.0001363561698541594,0.9999971602569602,61.59811326919098,-3.410653124772771,-5090.788422194695,107.10933881723679,-89.67889404296875,5963.4072265625,True
1598633278.2082675,0,5,0.5,0.5,0.33453100738525393,-0.14,-0.011,-0.56,0.001599461994440497,10,1,100,0.027060314051886764,-10,-1,-100,981.8492288240232,-0.0023876532481404166,0.00013725550694320603,0.9999971401323569,61.80420147196457,-3.410263364526499,-5086.6230654635265,107.1266393310848,-90.22479248046875,5961.47314453125,True
1598633278.4062545,0,5,0.5,0.5,0.34139114227294926,-0.14,-0.011,-0.56,0.0015132154558135588,10,1,100,0.02721379546635922,-10,-1,-100,990.41466889414,-0.0023966060309167036,0.00013729060738356863,0.9999971187112601,62.01022286370077,-3.409824800765706,-5082.423994580374,107.14226551641283,-90.67053985595703,5959.5439453125,True
1598633278.856149,0,5,0.5,0.5,0.18116503829956054,-0.14,-0.011,-0.56,0.001427290323543153,10,1,100,0.02737246658359608,-10,-1,-100,999.0060506442096,-0.0024061197910844666,0.00013654342767661177,0.999997095967505,62.22475361940112,-3.4097993007640417,-5078.894335558486,107.15633129610137,-90.79721069335938,5957.6201171875,True
1598633278.9071455,0,5,0.5,0.5,0.05789020843505861,-0.14,-0.011,-0.56,0.0014471281601854792,10,1,100,0.026946541597627577,-10,-1,-100,1003.2887405030197,-0.0024108273385221642,0.00013604684801198026,0.9999970846971499,62.336753145748986,-3.410029360674325,-5077.508520214171,107.1629231967154,-90.72157287597656,5956.6591796875,True
1598633279.0222738,0,5,0.5,0.5,-0.013271913909912114,-0.14,-0.011,-0.56,0.0013944324982199615,10,1,100,0.027026518393681205,-10,-1,-100,1007.5715535423951,-0.0024157647702988793,0.00013511826705402526,0.9999970729075303,62.451330615457074,-3.410390667563098,-5076.326593980035,107.1692330493978,-90.55876159667969,5955.69873046875,True
1598633279.106307,0,5,0.5,0.5,-0.22843742446899418,-0.14,-0.011,-0.56,0.001327852633977825,10,1,100,0.02767045558097729,-10,-1,-100,1016.1369948739884,-0.0024260384491878663,0.0001336706316872219,0.9999970482304462,62.68566420830311,-3.4114022312529726,-5074.332474584723,107.18024991369109,-90.12055969238281,5953.783203125,True
1598633279.1972651,0,5,0.5,0.5,-0.15251442794799808,-0.14,-0.011,-0.56,0.001412037200989241,10,1,100,0.027246977162966604,-10,-1,-100,1020.4197470288491,-0.002431457610820291,0.00013312175071843513,0.999997035141848,62.803733074264066,-3.411962668165272,-5073.409092826436,107.18568416162816,-89.87786865234375,5952.82568359375,True
1598633279.3254876,0,5,0.5,0.5,-0.18248350753784182,-0.14,-0.011,-0.56,0.0013809859727841275,10,1,100,0.02726867058660521,-10,-1,-100,1024.7022540151374,-0.0024365110729715226,0.000132342073016181,0.9999970229452521,62.92178676748107,-3.412533170227606,-5072.473841621237,107.19078723838463,-89.64010620117188,5951.8701171875,True
1598633279.5165527,0,5,0.5,0.5,-0.31309742965698245,-0.14,-0.011,-0.56,0.0013920822377423057,10,1,100,0.028004504946558387,-10,-1,-100,1033.2938810705673,-0.002447725698105409,0.0001317363310495688,0.9999969956377098,63.153965467662594,-3.413488458455603,-5070.268627191572,107.20035052844258,-89.26251220703125,5949.9599609375,True
1598633279.6546576,0,5,0.5,0.5,-0.3005941459655762,-0.14,-0.011,-0.56,0.0014253274258853774,10,1,100,0.028862003037303484,-10,-1,-100,1046.1419547842816,-0.0024656434209328346,0.0001314910215409342,0.99999695165167,63.491545684862324,-3.414417664471347,-5066.122411431602,107.21470010770967,-88.9781494140625,5947.0966796875,True
1598633279.7855225,0,5,0.5,0.5,-0.08922873458862307,-0.14,-0.011,-0.56,0.0015589540715046511,10,1,100,0.02837945869837799,-10,-1,-100,1054.7251588201616,-0.002477466964077849,0.0001324872234462718,0.9999969222975527,63.70730565018538,-3.4145900822575332,-5062.614014578862,107.22378109889574,-89.0537109375,5945.189453125,True
1598633279.976871,0,5,0.5,0.5,0.11627445755004884,-0.14,-0.011,-0.56,0.0015856508547614982,10,1,100,0.02845019970291169,-10,-1,-100,1063.3165407370543,-0.002488777090872771,0.00013363989437481998,0.9999968940596619,63.912347346781104,-3.4142153427268362,-5058.250646866549,107.23223242633183,-89.40957641601562,5943.28515625,True
1598633280.1161299,0,5,0.5,0.5,0.4812872390747071,-0.14,-0.011,-0.56,0.0016569129826982942,10,1,100,0.029150037653737738,-10,-1,-100,1076.1647353103617,-0.00250533739563934,0.00013533893339384262,0.999996852479,64.20557298139552,-3.4128804000177255,-5050.589243174901,107.24388478091812,-90.21769714355469,5940.43359375,True
1598633280.2528005,0,5,0.5,0.5,0.3828606201171875,-0.14,-0.011,-0.56,0.0015579458853427796,10,1,100,0.02868604820732028,-10,-1,-100,1084.773575113737,-0.002516083934455558,0.0001359849084299792,0.9999968254098308,64.39922720234624,-3.4118410030759243,-5045.370722062545,107.25138788521147,-90.72449493408203,5938.53466796875,True
1598633280.4512386,0,5,0.5,0.5,0.22077948379516604,-0.14,-0.011,-0.56,0.0014578534677770968,10,1,100,0.028709410248853116,-10,-1,-100,1093.3392011137912,-0.0025259702095788428,0.00013566228370276263,0.9999968005300043,64.60229175886472,-3.411241493768907,-5040.90611923016,107.25847222869669,-90.89838409423828,5936.6376953125,True
1598633280.6532545,0,5,0.5,0.5,-0.2931743240356446,-0.14,-0.011,-0.56,0.0012722050411412586,10,1,100,0.029294671906364353,-10,-1,-100,1106.1875185208628,-0.00254017810617804,0.00013368078096619564,0.9999967648070857,64.93989875939592,-3.4120532833527686,-5036.808041752228,107.26855002165027,-90.30274200439453,5933.794921875,True
1598633280.8424609,0,5,0.5,0.5,-0.9016682289123537,-0.14,-0.011,-0.56,0.0012712446072867339,10,1,100,0.02930243521207812,-10,-1,-100,1119.0790481750155,-0.002553061187995626,0.00013187067439856726,0.9999967322390085,65.30814724419815,-3.4146008149129496,-5035.097542603174,107.27806797339942,-88.9566650390625,5930.9560546875,True
1598633280.9722664,0,5,0.5,0.5,-1.069145175933838,-0.14,-0.011,-0.56,0.0016037684973591944,10,1,100,0.029261600921513968,-10,-1,-100,1131.9708233015845,-0.0025642913110272346,0.0001332492047707637,0.9999967033219269,65.67966294079089,-3.4176778344819323,-5033.6428282223815,107.28724804733245,-87.64199829101562,5928.11962890625,True
1598633281.104568,0,5,0.5,0.5,-0.4927407997131348,-0.14,-0.011,-0.56,0.0018747126571032596,10,1,100,0.028818343564980725,-10,-1,-100,1140.5364492760273,-0.002570354737598344,0.00013696471825974782,0.9999966872531074,65.90686760267594,-3.4189394557535002,-5031.1058219418,107.2929269511969,-87.41683959960938,5926.2314453125,True
1598633281.2372549,0,5,0.5,0.5,0.12619697799682617,-0.14,-0.011,-0.56,0.0019714233587717752,10,1,100,0.028879982587584015,-10,-1,-100,1149.119531267439,-0.002576315817378025,0.00014121689291289244,0.9999966713217592,66.099048560543,-3.418579602622955,-5025.925069923776,107.298361338451,-88.12380981445312,5924.34375,True
1598633281.3715649,0,5,0.5,0.5,0.734322145843506,-0.14,-0.011,-0.56,0.0021197766228914423,10,1,100,0.029001963727005673,-10,-1,-100,1157.7106704459293,-0.002582743288993891,0.0001464223305701373,0.9999966539932043,66.25710935806596,-3.4165214690462857,-5018.207933163012,107.30361935393509,-89.55947875976562,5922.458984375,True
1598633281.564114,0,5,0.5,0.5,1.04610697555542,-0.14,-0.011,-0.56,0.0019585263032426033,10,1,100,0.029080022738554687,-10,-1,-100,1166.2939970968291,-0.0025892003666361093,0.00014967596634616692,0.9999966368136277,66.40046270739937,-3.4136346215350164,-5009.451462880054,107.30883448686613,-91.15262603759766,5920.57470703125,True
1598633281.6941743,0,5,0.5,0.5,1.128733253479004,-0.14,-0.011,-0.56,0.001770014811016345,10,1,100,0.029722542551754355,-10,-1,-100,1179.1680718309944,-0.0026008202325437926,0.0001509054979659812,0.9999966064750664,66.64340105130893,-3.41045048461194,-4998.54612116278,107.31674197529222,-92.54244232177734,5917.75048828125,True
1598633281.825536,0,5,0.5,0.5,0.2197192756652832,-0.14,-0.011,-0.56,0.0013459589049259714,10,1,100,0.029521936334399965,-10,-1,-100,1187.751154349884,-0.002609473251541279,0.0001481540488699252,0.9999965843440302,66.84924352869841,-3.4104014694086047,-4994.622768623077,107.32198834472545,-92.35205078125,5915.869140625,True
1598633282.020237,0,5,0.5,0.5,-0.5366332656860352,-0.14,-0.011,-0.56,0.0011229654782786438,10,1,100,0.02961772255763016,-10,-1,-100,1196.3426593857585,-0.002618125516916463,0.00014361445568540773,0.9999965623909244,67.09970903593236,-3.4125807042107925,-4994.045291063563,107.32705126653838,-91.1166763305664,5913.9892578125,True
1598633282.1543665,0,5,0.5,0.5,-1.8850520492553713,-0.14,-0.011,-0.56,0.0009171494636528958,10,1,100,0.03007967228156329,-10,-1,-100,1209.2085550760385,-0.0026301069781048065,0.000137609268864719,0.9999965317944722,67.52888101292157,-3.4187753702308017,-4997.135360306843,107.334254416385,-88.20172119140625,5911.171875,True
1598633282.2841754,0,5,0.5,0.5,-1.555098157501221,-0.14,-0.011,-0.56,0.0013653792847952526,10,1,100,0.029738397537140363,-10,-1,-100,1217.8175166808069,-0.0026378149643522496,0.00013622125332184292,0.9999965116819078,67.81510426991964,-3.423211631809866,-4999.178712163849,107.33900222672514,-86.34442138671875,5909.294921875,True
1598633282.4734175,0,5,0.5,0.5,-1.2829105903625488,-0.14,-0.011,-0.56,0.0018174154364244237,10,1,100,0.029773261239839553,-10,-1,-100,1226.4007212405559,-0.0026450621184414117,0.00013906488549865416,0.9999964921475211,68.07323659288087,-3.426550715530994,-4999.129767844635,107.34358297055432,-85.25152587890625,5907.4189453125,True
1598633282.7292016,0,5,0.5,0.5,-0.5037523902893067,-0.14,-0.011,-0.56,0.002658100219166808,10,1,100,0.030279227191236283,-10,-1,-100,1239.2924959686352,-0.002656176702801153,0.00014928730761093343,0.9999964612130502,68.38481571467919,-3.428394764640307,-4993.526211676193,107.35025850396605,-85.49404907226562,5904.60791015625,True
1598633282.9263353,0,5,0.5,0.5,2.0094242881774904,-0.14,-0.011,-0.56,0.0038641332514567006,10,1,100,0.030910002570389727,-10,-1,-100,1256.4410828996915,-0.002671937172061219,0.0001695331529253216,0.9999964159987067,68.65284813274856,-3.4243280979599433,-4975.520992509389,107.3596080065806,-89.28134155273438,5900.8623046875,True
1598633283.054867,0,5,0.5,0.5,3.2588361534118655,-0.14,-0.011,-0.56,0.0028947300931052565,10,1,100,0.03087836160863936,-10,-1,-100,1269.3327357770177,-0.002685890297777473,0.0001790999688079228,0.9999963769516914,68.82851422246898,-3.41969859957949,-4960.410047046367,107.36705150245182,-94.09423065185547,5898.0556640625,True
1598633283.2457128,0,5,0.5,0.5,2.676077951049805,-0.14,-0.011,-0.56,0.0017078578551317962,10,1,100,0.030637542345842202,-10,-1,-100,1277.9160626272205,-0.0026962919214861083,0.000176977619593949,0.9999963493377346,69.15568322852394,-3.4262780105583115,-4965.496481529253,107.37171929586718,-97.10490417480469,5896.1865234375,True
1598633283.44349,0,5,0.5,0.5,2.7523520195007327,-0.14,-0.011,-0.56,-0.00019082264118883206,10,1,100,0.03149382368420932,-10,-1,-100,1290.8077150237514,-0.002713434962883796,0.00015776265974810547,0.9999963061840007,69.5307836072143,-3.4288754307062868,-4964.744031075559,107.37835582440827,-99.61305236816406,5893.384765625,True
1598633283.580132,0,5,0.5,0.5,1.4102381805419923,-0.14,-0.011,-0.56,-0.0023648183288930407,10,1,100,0.03193465569214909,-10,-1,-100,1303.6996117942035,-0.0027329247326535644,0.00012052468348931662,0.9999962582911031,69.84682994835396,-3.426353177916079,-4959.763617216604,107.38499800715636,-99.69115447998047,5890.5859375,True
1598633283.7702882,0,5,0.5,0.5,0.4859074775695802,-0.14,-0.011,-0.56,-0.002140732083344688,10,1,100,0.03140725715979899,-10,-1,-100,1312.2826948269503,-0.002745735944440069,8.873424309120324e-05,0.9999962265230592,70.00836968334775,-3.4208609178130884,-4952.982096705849,107.38944336780565,-98.421630859375,5888.720703125,True
1598633283.899504,0,5,0.5,0.5,-1.4861226852416995,-0.14,-0.011,-0.56,-0.004355020462599792,10,1,100,0.03194820938646045,-10,-1,-100,1325.1744693252258,-0.002762184238645156,3.975383947477577e-05,0.9999961843716525,70.19683611001257,-3.408110075477457,-4939.113401353636,107.3960882425917,-94.57734680175781,5885.92578125,True
1598633284.0322638,0,5,0.5,0.5,-1.8282902526855471,-0.14,-0.011,-0.56,-0.00268871029700748,10,1,100,0.03131967820398814,-10,-1,-100,1333.7577963096555,-0.0027713032432995412,1.0463433537399038e-05,0.999996159877052,70.38309187114717,-3.401787468885864,-4934.214442352821,107.4006796769011,-91.00308990478516,5884.0634765625,True
1598633284.1653237,0,5,0.5,0.5,-2.141426673126221,-0.14,-0.011,-0.56,-0.0020591096443873342,10,1,100,0.031202680015448382,-10,-1,-100,1342.366635262384,-0.0027784082746541232,-1.0326240636592623e-05,0.9999961401629649,70.7211021291518,-3.4025638776718066,-4939.944096642611,107.4050871506085,-87.68902587890625,5882.20263671875,True
1598633284.297164,0,5,0.5,0.5,-1.8920492561340336,-0.14,-0.011,-0.56,-0.0012672960647427754,10,1,100,0.031243050157355363,-10,-1,-100,1350.949717649608,-0.002785113171579068,-2.1891829046966102e-05,0.9999961213251625,71.03567563570256,-3.4021909161135104,-4943.980786379916,107.40930183766274,-85.39019775390625,5880.3427734375,True
1598633284.443344,0,5,0.5,0.5,-1.4869761146545413,-0.14,-0.011,-0.56,-0.00026335523851276407,10,1,100,0.031283096141534496,-10,-1,-100,1359.5586792718386,-0.002791455371849939,-2.3123648148252888e-05,0.9999961036135109,71.2999939676637,-3.399532890754885,-4944.490276565524,107.4134289233709,-84.12997436523438,5878.4833984375,True
1598633284.564666,0,5,0.5,0.5,-0.9530308021545412,-0.14,-0.011,-0.56,0.0007205119472071269,10,1,100,0.03134554487233594,-10,-1,-100,1368.1421280232025,-0.0027976800712854813,-1.5124094005538618e-05,0.9999960863710821,71.51851424621738,-3.395019284361126,-4941.8287547750515,107.41753109876723,-83.89266967773438,5876.6259765625,True
1598633284.7002125,0,5,0.5,0.5,-0.29288227996826177,-0.14,-0.011,-0.56,0.0016285043521763265,10,1,100,0.031422619343948535,-10,-1,-100,1376.7253328354564,-0.0028039379389019907,5.792716810247712e-07,0.999996068958123,71.69273309933936,-3.3889373985774345,-4936.143914948254,107.4216609673753,-84.66192626953125,5874.76953125,True
1598633284.8326683,0,5,0.5,0.5,0.4779909912109375,-0.14,-0.011,-0.56,0.002352264521152782,10,1,100,0.03159209671780318,-10,-1,-100,1385.3339284303365,-0.0028110697528453,2.1595058703061928e-05,0.9999960487024426,71.82167198194864,-3.3813597282879972,-4927.411219066271,107.42586450700523,-86.39813232421875,5872.9140625,True
1598633284.9621432,0,5,0.5,0.5,1.1241137588500978,-0.14,-0.011,-0.56,0.002813510059839508,10,1,100,0.031695066251380764,-10,-1,-100,1393.917376716854,-0.002818400547835412,4.5017249621197796e-05,0.9999960272880084,71.91212749332949,-3.3725852964622898,-4916.130992625674,107.43017702384833,-88.73089599609375,5871.05859375,True
1598633285.0906763,0,5,0.5,0.5,1.3456062110900882,-0.14,-0.011,-0.56,0.002963147098192437,10,1,100,0.031838627604202335,-10,-1,-100,1402.526216288912,-0.002826292304838272,6.773913028986441e-05,0.9999960037336237,71.9935079015825,-3.363906335886642,-4904.325938305363,107.4346109621208,-90.93074798583984,5869.205078125,True
1598633285.2881653,0,5,0.5,0.5,1.0869135116577149,-0.14,-0.011,-0.56,0.002867807653894373,10,1,100,0.03200927467523602,-10,-1,-100,1411.1096650289837,-0.0028349447333408163,8.754774968848925e-05,0.9999959777037858,72.10241540604076,-3.3569887560377754,-4894.474625510023,107.43914303340856,-92.33283996582031,5867.35205078125,True
1598633285.4228525,0,5,0.5,0.5,0.3693681076049805,-0.14,-0.011,-0.56,0.0033799573991820393,10,1,100,0.0326039084666796,-10,-1,-100,1424.0011954210931,-0.0028481501932701657,0.00011016804327147814,0.9999959379434892,72.36396179744733,-3.3521690196265252,-4886.450230698147,107.44600089544704,-92.43297576904297,5864.5751953125,True
1598633285.5492463,0,5,0.5,0.5,-0.565924252319336,-0.14,-0.011,-0.56,0.002324193673016093,10,1,100,0.032257119773956275,-10,-1,-100,1432.6021006475203,-0.002856932671499389,0.000121043453918383,0.999995911633739,72.60718915227258,-3.352921381113561,-4885.783916640239,107.45064764875401,-91.1747055053711,5862.724609375,True
1598633285.7442353,0,5,0.5,0.5,-1.2448068321228027,-0.14,-0.011,-0.56,0.002134651532962947,10,1,100,0.03227268286511331,-10,-1,-100,1441.2109397731256,-0.002864986839448433,0.0001290876535109452,0.9999958875849377,72.89374221335466,-3.3564160591853587,-4888.024501404731,107.45513267066768,-89.19277954101562,5860.875,True
1598633285.8766663,0,5,0.5,0.5,-1.9870656425476076,-0.14,-0.011,-0.56,0.0027345221670947075,10,1,100,0.03268193146623459,-10,-1,-100,1454.0770796788856,-0.0028759566397142397,0.00014171667755760148,0.9999958543863019,73.32057301982634,-3.3629941434342427,-4891.146542001024,107.46166608281898,-86.5408935546875,5858.103515625,True
1598633286.0931404,0,5,0.5,0.5,-1.0854323081970216,-0.14,-0.011,-0.56,0.002594250072344046,10,1,100,0.032309973289289425,-10,-1,-100,1462.6859194303397,-0.002882470928103777,0.00015177255280618675,0.9999958341545433,73.5631568336105,-3.3663576731516986,-4890.413068111678,107.46595848233216,-85.70364379882812,5856.2568359375,True
1598633286.203067,0,5,0.5,0.5,-0.1725515647888184,-0.14,-0.011,-0.56,0.003628050648034796,10,1,100,0.032608000916190386,-10,-1,-100,1475.5698808002053,-0.00289102526792353,0.0001701607204049877,0.9999958065003222,73.83679219872525,-3.368351421731526,-4883.355704892327,107.47224973255365,-86.33511352539062,5853.4892578125,True
1598633286.328101,0,5,0.5,0.5,0.643158570098877,-0.14,-0.011,-0.56,0.00323360123980427,10,1,100,0.0323830975726564,-10,-1,-100,1484.1790870156838,-0.0028966781943375224,0.00018313716773932565,0.9999957878492368,73.95633136681987,-3.3672703017817702,-4874.568924108667,107.47657274296716,-88.00296020507812,5851.6455078125,True
1598633286.4602895,0,5,0.5,0.5,1.272487509918213,-0.14,-0.011,-0.56,0.0030664407115246206,10,1,100,0.032489983271927425,-10,-1,-100,1492.7797472219681,-0.002902711080669532,0.00019326744041433036,0.9999957684490863,74.03475657456406,-3.364391117912603,-4863.159911881379,107.48093722611509,-90.23375701904297,5849.8017578125,True
1598633286.5941412,0,5,0.5,0.5,1.3952222000122072,-0.14,-0.011,-0.56,0.002799017992790453,10,1,100,0.03261132647483551,-10,-1,-100,1501.388708803337,-0.0029092219968770375,0.0001999108906842121,0.9999957482224655,74.11194184928364,-3.3612729240585764,-4851.756625727154,107.48534740551473,-92.19136810302734,5847.9599609375,True
1598633286.729423,0,5,0.5,0.5,1.0537417556762696,-0.14,-0.011,-0.56,0.002313177666521714,10,1,100,0.03280822030798321,-10,-1,-100,1509.9720354533056,-0.0029168555649197138,0.00020141350454493936,0.9999957256839719,74.31120760660279,-3.3634204822435887,-4848.396517945032,107.48979255301077,-93.26764678955078,5846.119140625,True
1598633286.9241776,0,5,0.5,0.5,0.45686049728393563,-0.14,-0.011,-0.56,0.001771616711236317,10,1,100,0.032947390251381464,-10,-1,-100,1518.5809969552793,-0.0029249858891425137,0.0001977527214113183,0.9999957026664712,74.51438989366369,-3.36551438935662,-4845.312710510194,107.49419842185065,-93.2745132446289,5844.279296875,True
1598633287.115272,0,5,0.5,0.5,-0.9298824211120607,-0.14,-0.011,-0.56,0.0008302090244326379,10,1,100,0.033540812890190806,-10,-1,-100,1531.4645927371457,-0.0029377019936107146,0.00018578686261150223,0.9999956676857348,74.7784641902649,-3.3666148860251064,-4838.094018594006,107.50080245210302,-91.29762268066406,5841.5224609375,True
1598633287.243168,0,5,0.5,0.5,-2.4121523025512697,-0.14,-0.011,-0.56,0.00047527456261664005,10,1,100,0.03364104659000089,-10,-1,-100,1544.374067894183,-0.0029500998773781604,0.00017162327458725753,0.9999956337185504,75.254200178287,-3.377477030758924,-4844.587773965731,107.50758219044795,-87.598388671875,5838.76611328125,True
1598633287.3711236,0,5,0.5,0.5,-1.990116459655762,-0.14,-0.011,-0.56,0.001306335410629815,10,1,100,0.03320010962084699,-10,-1,-100,1552.974606359261,-0.002957284787412685,0.00016626371534617638,0.9999956134019106,75.57493640773444,-3.385217657235494,-4849.095236114507,107.51181106423526,-85.24441528320312,5836.9296875,True
1598633287.5636294,0,5,0.5,0.5,-1.6420339187622073,-0.14,-0.011,-0.56,0.0017526722644206432,10,1,100,0.033238132757500274,-10,-1,-100,1561.5835674782284,-0.002964088254006648,0.00016542668103621143,0.9999955933977086,75.84461593541937,-3.3909925296643224,-4850.289463904357,107.51586107951934,-83.86053466796875,5835.095703125,True
1598633287.7612963,0,5,0.5,0.5,-0.9768182968139649,-0.14,-0.011,-0.56,0.0028113753535515744,10,1,100,0.03362368851795455,-10,-1,-100,1574.4934081280371,-0.0029737040784362867,0.00017427790144813356,0.9999955633457914,76.15066518125184,-3.3958646636466585,-4845.789234531253,107.52177555340334,-83.70663452148438,5832.345703125,True
1598633287.9481308,0,5,0.5,0.5,0.5832078567504883,-0.14,-0.011,-0.56,0.003942771232537708,10,1,100,0.03375529887831742,-10,-1,-100,1587.3767599982675,-0.0029835670322751547,0.00019260613964880658,0.9999955306053318,76.34043864996818,-3.396254649959416,-4834.002191337852,107.52795746172127,-85.81625366210938,5829.59765625,True
1598633288.1373503,0,5,0.5,0.5,2.4054498489379883,-0.14,-0.011,-0.56,0.004248263822466493,10,1,100,0.03396276890902092,-10,-1,-100,1600.2862349102506,-0.002994340455282396,0.00021203677158339874,0.9999954944726728,76.40187610716993,-3.3911393187490337,-4814.294857697133,107.53441238260444,-90.11058807373047,5826.8525390625,True
1598633288.2692034,0,5,0.5,0.5,3.2471728836059572,-0.14,-0.011,-0.56,0.0032462818673864254,10,1,100,0.03431544477236547,-10,-1,-100,1613.1960758134956,-0.0030072573209788266,0.0002205749925403282,0.9999954538647052,76.61831803166238,-3.391878103536206,-4804.5292625407055,107.5411322183958,-94.74871063232422,5824.10888671875,True
1598633288.5282373,0,5,0.5,0.5,2.095185697937012,-0.14,-0.011,-0.56,0.0018852645107452326,10,1,100,0.0340998249609424,-10,-1,-100,1621.7963706938317,-0.0030169506230316432,0.00021594534098456588,0.9999954256778116,76.89924104035693,-3.397526863084703,-4806.59795192831,107.54551953751708,-96.80949401855469,5822.28076171875,True
1598633288.6682408,0,5,0.5,0.5,1.5537458839416505,-0.14,-0.011,-0.56,-0.0016659409432849734,10,1,100,0.0356177991753407,-10,-1,-100,1639.0067248658743,-0.0030394714858849956,0.00017943967013683495,0.9999953646965025,77.32877442975722,-3.4005163321668377,-4802.430639595973,107.55401183615096,-97.67906951904297,5818.62890625,True
1598633288.7891562,0,5,0.5,0.5,0.25335087509155263,-0.14,-0.011,-0.56,-0.0013420765525235417,10,1,100,0.034665014878161114,-10,-1,-100,1647.590295887785,-0.0030511792443257356,0.00014921356660152393,0.9999953340093797,77.46539163142717,-3.397182745923273,-4795.527539601304,107.55851292939442,-96.51010131835938,5816.8037109375,True
1598633288.9233303,0,5,0.5,0.5,-0.6376558158874511,-0.14,-0.011,-0.56,-0.0018381173956275956,10,1,100,0.03463496090983702,-10,-1,-100,1656.2165907794842,-0.0030614462820591757,0.0001172590769012134,0.999995306887473,77.54753744803418,-3.390579083960896,-4785.300510549766,107.56284432721989,-94.29386901855469,5814.97998046875,True
1598633289.0560932,0,5,0.5,0.5,-1.3982133033752442,-0.14,-0.011,-0.56,-0.002106973387369861,10,1,100,0.03459607889070271,-10,-1,-100,1664.8171296102228,-0.003070325255820463,8.581481742844327e-05,0.9999952828581946,77.64190520747363,-3.383957284493535,-4775.891328346898,107.5671304183365,-91.4238510131836,5813.15771484375,True
1598633289.189109,0,5,0.5,0.5,-1.6642755737304689,-0.14,-0.011,-0.56,-0.001915583497461222,10,1,100,0.034555939831839626,-10,-1,-100,1673.4265790500212,-0.003077929385551598,5.904217045047417e-05,0.9999952614211328,77.99752978839847,-3.388456140874318,-4782.558766521509,107.57131823701496,-88.738037109375,5811.33642578125,True
1598633289.323203,0,5,0.5,0.5,-1.4503928649902345,-0.14,-0.011,-0.56,-0.0014317604104130456,10,1,100,0.03453422656973286,-10,-1,-100,1682.0276055348804,-0.003084541345532073,3.919850536238181e-05,0.9999952420227632,78.30421038885117,-3.390590111059406,-4786.181733612943,107.57537288337849,-86.88726806640625,5809.5166015625,True
1598633289.4528525,0,5,0.5,0.5,-0.9851522247314453,-0.14,-0.011,-0.56,-0.0007962748450153636,10,1,100,0.0345785942321734,-10,-1,-100,1690.6363228127593,-0.0030908547994755137,2.705875078235473e-05,0.999995222930806,78.54896013268443,-3.3898140264749554,-4786.000751754665,107.57935378136814,-86.0662841796875,5807.69677734375,True
1598633289.581277,0,5,0.5,0.5,-0.3829173522949219,-0.14,-0.011,-0.56,-0.0001121937330670101,10,1,100,0.03463952989536121,-10,-1,-100,1699.2371055954136,-0.0030970507293010758,2.23920270808301e-05,0.9999952038761871,78.73444343272868,-3.386303014071672,-4782.222652600549,107.58332443470155,-86.26943969726562,5805.87890625,True
1598633289.715467,0,5,0.5,0.5,0.3420468376159668,-0.14,-0.011,-0.56,0.0005958363179318726,10,1,100,0.03472992532093632,-10,-1,-100,1707.8637669918826,-0.0031034117963986163,2.4758592128981707e-05,0.9999951840995205,78.8612807699316,-3.3801454635466586,-4774.928345946184,107.58734152654006,-87.47366333007812,5804.0615234375,True
1598633289.9124794,0,5,0.5,0.5,0.9741230209350586,-0.14,-0.011,-0.56,0.0009810212035066873,10,1,100,0.03484122259381416,-10,-1,-100,1716.4473377304384,-0.0031101189648994336,3.058971058744634e-05,0.9999951631004491,78.93798231964318,-3.371678940805295,-4764.671383413037,107.59148883829829,-89.3514404296875,5802.2451171875,True
1598633290.0443695,0,5,0.5,0.5,1.7751595794677737,-0.14,-0.011,-0.56,0.0016390135902136509,10,1,100,0.035428171438631875,-10,-1,-100,1729.3742685001343,-0.0031214675909059125,4.204098145647488e-05,0.9999951273244461,79.03551108633393,-3.357854796217388,-4748.374405505329,107.59792036114217,-92.00971984863281,5799.52197265625,True
1598633290.1714764,0,5,0.5,0.5,0.9478000953674317,-0.14,-0.011,-0.56,0.001175650694852909,10,1,100,0.0352028823366411,-10,-1,-100,1737.975539920153,-0.003129661898980049,4.8363745642021676e-05,0.999995101426675,79.13784171059024,-3.350049098143068,-4739.833780426855,107.60236525425498,-92.96331024169922,5797.7080078125,True
1598633290.358399,0,5,0.5,0.5,0.3415072677612305,-0.14,-0.011,-0.56,0.0010148865209249308,10,1,100,0.035221681757676516,-10,-1,-100,1746.5843787381891,-0.003137210825916264,5.274190224859124e-05,0.9999950775511475,79.32845348457741,-3.346031580340273,-4736.613801572676,107.60674602243002,-92.8656234741211,5795.89453125,True
1598633290.5513418,0,5,0.5,0.5,-1.0612109580993654,-0.14,-0.011,-0.56,0.00099266476991674,10,1,100,0.03568412907425367,-10,-1,-100,1759.511553843855,-0.003148208676423654,5.657868067690058e-05,0.9999950427782043,79.67841154545502,-3.343300098240982,-4735.632191580213,107.61326478292487,-90.78583526611328,5793.1767578125,True
1598633290.6862328,0,5,0.5,0.5,-2.4293106941223144,-0.14,-0.011,-0.56,0.0013223155300822475,10,1,100,0.03570550363980114,-10,-1,-100,1772.412971531041,-0.003158330233462074,6.309006446482418e-05,0.9999950104724423,80.15734535097695,-3.3474456778513826,-4742.295160225691,107.61956955453478,-87.1685791015625,5790.4619140625,True
1598633290.8210728,0,5,0.5,0.5,-1.9276301155090332,-0.14,-0.011,-0.56,0.0016867404213946465,10,1,100,0.03532204708476939,-10,-1,-100,1781.0395110787358,-0.003163972588589521,7.231877792576349e-05,0.9999949920111867,80.4727106545456,-3.3511496114807175,-4746.46232204221,107.6235958604004,-84.99392700195312,5788.65283203125,True
1598633290.9557834,0,5,0.5,0.5,-1.5265804664611817,-0.14,-0.011,-0.56,0.0023166873785083254,10,1,100,0.035357305225342694,-10,-1,-100,1789.6225932862144,-0.003169350320671451,8.64051986162296e-05,0.9999949738637122,80.72774523831671,-3.3532695577580522,-4747.043392685148,107.62747507208041,-83.83010864257812,5786.84521484375,True
1598633291.083655,0,5,0.5,0.5,-0.9700143806457521,-0.14,-0.011,-0.56,0.003072413094838612,10,1,100,0.035342551304347825,-10,-1,-100,1798.2496211720863,-0.0031740336818994372,0.00010602731807617059,0.9999949571214816,80.92249570342364,-3.353774901503881,-4744.085307439667,107.63126989121025,-83.69766235351562,5785.03857421875,True
