Timestamp,Input Throttle,horizon,dT,dt,Input Roll,Roll P,Roll I,Roll D,Input Pitch,Pitch P,Pitch I,Pitch D,Input Yaw,Yaw P,Yaw I,Yaw D,Altitude,Direction X,Direction Y,Direction Z,Drag X,Drag Y,Drag Z,Vertical Velocity,Roll,Mass,Has Fuel
1598620150.5278387,0,5,0.5,0.5,0.0107794189453125,-0.14,-0.011,-0.56,0.0055738881143734065,10,1,100,0.17668894852654282,-10,-1,-100,470.6157542699948,-0.012186586336721062,0.0004258560113674364,0.9999256501161049,6.879917093183986,-0.5685866332384393,192.3764418974296,-18.904543904154224,-89.95077514648438,6440.1796875,True
1598620150.5585468,0,5,0.5,0.5,-0.0030149627685546886,-0.14,-0.011,-0.56,0.004518372890015804,10,1,100,0.13105301714536352,-10,-1,-100,469.4187349729473,-0.012259027201670887,0.0004278308038692973,0.9999247637761912,7.062464931965715,-0.5844342294408866,203.8376317328542,-19.48718376602032,-89.95639038085938,6440.1796875,True
1598620150.5919285,0,5,0.5,0.5,-0.006207464599609376,-0.14,-0.011,-0.56,0.004363676720216646,10,1,100,0.12503483337054808,-10,-1,-100,469.4187349729473,-0.012259027201670887,0.0004278308038692973,0.9999247637761912,7.062464931965715,-0.5844342294408866,203.8376317328542,-19.48718376602032,-89.95639038085938,6440.1796875,True
1598620150.6248627,0,5,0.5,0.5,-0.0028161041259765628,-0.14,-0.011,-0.56,0.004164990356087743,10,1,100,0.12118456912251221,-10,-1,-100,467.92202367819846,-0.012212880229232679,0.0004256356271009715,0.999925329407561,7.394322973747332,-0.6008714275648925,194.2123334144752,-18.326910834747178,-89.9613037109375,6435.443359375,True
1598620150.661347,0,5,0.5,0.5,-0.005610134887695312,-0.14,-0.011,-0.56,0.004427071595630415,10,1,100,0.12702055438925633,-10,-1,-100,467.92202367819846,-0.012212880229232679,0.0004256356271009715,0.999925329407561,7.394322973747332,-0.6008714275648925,194.2123334144752,-18.326910834747178,-89.9613037109375,6435.443359375,True
1598620150.6951237,0,5,0.5,0.5,-0.0045845855712890625,-0.14,-0.011,-0.56,0.004366320562936896,10,1,100,0.12542971976824685,-10,-1,-100,467.54555387515575,-0.012187315477924199,0.0004246964035063932,0.9999256417226264,7.335647445739371,-0.5925273388710842,185.8887295532988,-17.87516740230055,-89.96282958984375,6433.8642578125,True
1598620150.7591755,0,5,0.5,0.5,-0.0026174163818359374,-0.14,-0.011,-0.56,0.0042117348027472246,10,1,100,0.11994218784029982,-10,-1,-100,466.8530214302009,-0.012103108763318859,0.0004220511511427737,0.9999266656265794,7.1994265628056215,-0.5747415168612934,169.55201398354754,-16.971297541073582,-89.9669189453125,6430.70654296875,True
1598620150.7945802,0,5,0.5,0.5,0.006420901489257813,-0.14,-0.011,-0.56,0.0030243281838376644,10,1,100,0.08659732175569224,-10,-1,-100,465.34263133932836,-0.011712419232214555,0.0004084680877756302,0.9999313238365674,6.7976555449682445,-0.5279630916052621,131.88250675331744,-14.709352285900048,-89.983154296875,6422.8115234375,True
1598620150.8288946,0,5,0.5,0.5,-0.0026894256591796875,-0.14,-0.011,-0.56,0.004423481329329579,10,1,100,0.12683751678934413,-10,-1,-100,465.34263133932836,-0.011712419232214555,0.0004084680877756302,0.9999313238365674,6.7976555449682445,-0.5279630916052621,131.88250675331744,-14.709352285900048,-89.983154296875,6422.8115234375,True
1598620150.8592534,0,5,0.5,0.5,0.003273489379882813,-0.14,-0.011,-0.56,0.0036434827757430544,10,1,100,0.10331432952555589,-10,-1,-100,464.77758613042533,-0.011487924421423558,0.00040100585720868393,0.9999339312108526,6.6114944737791665,-0.5082914727422002,118.08763462477125,-13.803647002070507,-89.99169921875,6419.65380859375,True
1598620150.8919277,0,5,0.5,0.5,0.007072189331054688,-0.14,-0.011,-0.56,0.0029170718867916785,10,1,100,0.08312551415091568,-10,-1,-100,463.96195340238046,-0.011089859976915537,0.00038725372510534876,0.9999384306247285,6.304954723519146,-0.4777769632419767,98.77567048089243,-12.44407478512566,-90.00397491455078,6414.9169921875,True
1598620150.9285836,0,5,0.5,0.5,0.0002563194274902345,-0.14,-0.011,-0.56,0.004288424868498987,10,1,100,0.1228222859657372,-10,-1,-100,463.96195340238046,-0.011089859976915537,0.00038725372510534876,0.9999384306247285,6.304954723519146,-0.4777769632419767,98.77567048089243,-12.44407478512566,-90.00397491455078,6414.9169921875,True
1598620150.9610856,0,5,0.5,0.5,0.008095222473144533,-0.14,-0.011,-0.56,0.002503636503120901,10,1,100,0.07088074261822863,-10,-1,-100,463.2723257865291,-0.010618727007597055,0.0003710652645826061,0.9999435508804021,5.9666040926009725,-0.4461247705874637,81.13666357813717,-11.083265711467321,-90.01509857177734,6410.1806640625,True
1598620150.9930117,0,5,0.5,0.5,0.0065821952819824225,-0.14,-0.011,-0.56,0.0027408006810048695,10,1,100,0.0772832426769785,-10,-1,-100,462.89724916103296,-0.010250120036199864,0.0003585561253056822,0.9999474018550919,5.724160938722056,-0.42444132410443414,70.31445844383742,-10.17536316590315,-90.02174377441406,6407.0224609375,True
1598620151.0264113,0,5,0.5,0.5,0.006820645904541017,-0.14,-0.011,-0.56,0.0025477415039264492,10,1,100,0.07232764727125021,-10,-1,-100,462.4605267108418,-0.009871756249598554,0.0003454900784457615,0.9999512133425081,5.468953617632601,-0.402337275501453,60.245580437826334,-9.266893421828582,-90.02730560302734,6403.86474609375,True
1598620151.0624459,0,5,0.5,0.5,0.005316709899902345,-0.14,-0.011,-0.56,0.003033995886814081,10,1,100,0.08744117024670499,-10,-1,-100,462.33463351859245,-0.009667313128810256,0.00033810520800722587,0.9999532132763701,5.336942908929692,-0.39115236142539817,55.49559933252616,-8.812443630821885,-90.02950286865234,6402.2861328125,True
1598620151.095537,0,5,0.5,0.5,0.004159581756591797,-0.14,-0.011,-0.56,0.0037638238111177276,10,1,100,0.1076334820906234,-10,-1,-100,462.33463351859245,-0.009667313128810256,0.00033810520800722587,0.9999532132763701,5.336942908929692,-0.39115236142539817,55.49559933252616,-8.812443630821885,-90.02950286865234,6402.2861328125,True
1598620151.1294134,0,5,0.5,0.5,0.0071817626953125,-0.14,-0.011,-0.56,0.0012559973073528901,10,1,100,0.035538568736841775,-10,-1,-100,461.83625684992876,-0.009014119185261795,0.00031538309973948693,0.9999593222670682,4.92580749414109,-0.3572176606645263,42.391040951157144,-7.4482279842992885,-90.03372192382812,6397.548828125,True
1598620151.1634007,0,5,0.5,0.5,0.005670462036132813,-0.14,-0.011,-0.56,0.0016903731333773762,10,1,100,0.04842213780889536,-10,-1,-100,461.5885288135614,-0.00853988286455182,0.0002987601315399797,0.9999634899050281,4.642249044881242,-0.33447599642296333,34.615920116207285,-6.538019607495367,-90.03485870361328,6394.3916015625,True
1598620151.1956077,0,5,0.5,0.5,0.005080059051513672,-0.14,-0.011,-0.56,0.001447513261944976,10,1,100,0.041661712220277675,-10,-1,-100,461.34055655635893,-0.008050184646162284,0.0002815402597603474,0.9999675571048516,4.356227140271138,-0.31197851151663636,27.61995842200245,-5.62721936958234,-90.03484344482422,6391.2333984375,True
1598620151.319597,0,5,0.5,0.5,0.005136062622070313,-0.14,-0.011,-0.56,0.0031575538801633754,10,1,100,0.09028776008170514,-10,-1,-100,461.34055655635893,-0.008050184646162284,0.0002815402597603474,0.9999675571048516,4.356227140271138,-0.31197851151663636,27.61995842200245,-5.62721936958234,-90.03484344482422,6391.2333984375,True
1598620151.3826432,0,5,0.5,0.5,0.004069859313964844,-0.14,-0.011,-0.56,0.0011733363015913392,10,1,100,0.03394548864649542,-10,-1,-100,461.15557298704516,-0.007540745519779244,0.0002635980212872789,0.9999715334313719,4.077322450604052,-0.29037810320733537,21.42073832404975,-4.715820684535737,-90.03327178955078,6388.0751953125,True
1598620151.488017,0,5,0.5,0.5,-0.0017896377563476561,-0.14,-0.011,-0.56,-0.0023834499526304473,10,1,100,-0.06733320105758837,-10,-1,-100,460.8206334982533,-0.006160130147991297,0.00021506488918594406,0.9999810030913853,3.73042989140159,-0.26249041713995774,9.871693663722363,-2.434665857255283,-90.02359771728516,6380.18115234375,True
1598620151.546894,0,5,0.5,0.5,-0.0005231170654296877,-0.14,-0.011,-0.56,0.00023560458905171403,10,1,100,0.00741830023829064,-10,-1,-100,460.7507635502843,-0.005588637637109887,0.00019489526526856538,0.9999843644503632,4.761541564500956,-0.3336827910133606,7.80654031120484,-1.5211275159920605,-90.01765441894531,6377.02294921875,True
1598620151.579787,0,5,0.5,0.5,0.0006003143310546874,-0.14,-0.011,-0.56,0.0011583046775075563,10,1,100,0.033960128347700735,-10,-1,-100,460.72936337953433,-0.005314626048575142,0.00018509620874785344,0.9999858601447109,6.937674409109449,-0.48527114840569985,7.926212601983081,-1.064124821412508,-90.01451110839844,6375.4443359375,True
1598620151.6115515,0,5,0.5,0.5,-0.0019152854919433598,-0.14,-0.011,-0.56,-3.32865517822167e-05,10,1,100,-0.0005583932543305539,-10,-1,-100,460.7141516881529,-0.004755862708253293,0.00016550114061702456,0.9999886771255325,15.20313997314289,-1.059748686306942,2.425082328109566,-0.14963758752452752,-90.0084228515625,6372.2861328125,True
1598620151.666052,0,5,0.5,0.5,-0.0026252716064453126,-0.14,-0.011,-0.56,-0.00038407422015984487,10,1,100,-0.00911954568846135,-10,-1,-100,460.73559267120436,-0.004174532331669111,0.0001446553763013746,0.9999912761392641,1.0509935349274622,-0.07303293098026525,-0.8521981298701138,0.76551121300106,-90.00257110595703,6369.12841796875,True
1598620151.7246177,0,5,0.5,0.5,-0.007180500793457032,-0.14,-0.011,-0.56,-0.002716475931486985,10,1,100,-0.07630575515246706,-10,-1,-100,460.88840103219263,-0.003040259885826295,0.00010467689303117868,0.9999953729205824,1.8734458574144683,-0.129545916959791,-5.1024799320568395,2.5977832478116647,-89.99142456054688,6362.8125,True
1598620151.7628224,0,5,0.5,0.5,-0.005898292541503907,-0.14,-0.011,-0.56,-0.0020115583598920884,10,1,100,-0.05632280680003926,-10,-1,-100,461.0992314554751,-0.002196197064899838,7.493270998796173e-05,0.9999975855488559,2.756404586351163,-0.190090215189485,-11.419324226520269,3.9736372576995564,-89.98440551757812,6358.07666015625,True
1598620151.7924895,0,5,0.5,0.5,-0.004351618194580079,-0.14,-0.011,-0.56,-0.0011437665885414621,10,1,100,-0.03096973243587888,-10,-1,-100,461.28547046298627,-0.0016651167090042005,5.5985039162362935e-05,0.9999986121250473,3.249009199178814,-0.2237641345042638,-16.523955391978102,4.891652833651183,-89.9810791015625,6354.91845703125,True
1598620151.8261414,0,5,0.5,0.5,-0.002547966003417969,-0.14,-0.011,-0.56,0.0007284449719586185,10,1,100,0.021499796359969067,-10,-1,-100,461.28547046298627,-0.0016651167090042005,5.5985039162362935e-05,0.9999986121250473,3.249009199178814,-0.2237641345042638,-16.523955391978102,4.891652833651183,-89.9810791015625,6354.91845703125,True
1598620151.8585014,0,5,0.5,0.5,-0.00416655502319336,-0.14,-0.011,-0.56,-0.0024084333899354734,10,1,100,-0.06633199624994085,-10,-1,-100,461.608944167383,-0.0008724504743115269,2.7673013345687535e-05,0.9999996190321145,3.9370416325694846,-0.27078157716299917,-25.593020638731772,6.269828581293168,-89.97885131835938,6350.181640625,True
1598620151.895575,0,5,0.5,0.5,-0.003128395080566407,-0.14,-0.011,-0.56,-0.0006357643690520625,10,1,100,-0.017223476571782748,-10,-1,-100,461.739982654457,-0.0006043479807973224,1.826445825486963e-05,0.999999817214947,4.159189173861214,-0.28597696103669024,-29.002508008034447,6.729527905882906,-89.9786376953125,6348.6025390625,True
1598620151.9264553,0,5,0.5,0.5,-0.003079584503173829,-0.14,-0.011,-0.56,-0.000731120419689371,10,1,100,-0.019974999334732374,-10,-1,-100,461.86967852606904,-0.000340655309000498,9.0232626491788e-06,0.999999941936269,4.379006091721034,-0.30102712038462964,-32.60838918576787,7.1893805749425885,-89.97860717773438,6347.02392578125,True
1598620151.9594333,0,5,0.5,0.5,-0.0023150413513183597,-0.14,-0.011,-0.56,-0.0027517360035297484,10,1,100,-0.0763255055163712,-10,-1,-100,462.38480487070046,0.00040657173762232313,-1.757808229761685e-05,0.9999999171952132,5.027128334830632,-0.34552501822968534,-44.61263980311065,8.56985355521535,-89.979736328125,6342.287109375,True
1598620151.991881,0,5,0.5,0.5,-0.002472922515869141,-0.14,-0.011,-0.56,-0.0010831554659428999,10,1,100,-0.02952707096904955,-10,-1,-100,462.5773369478993,0.0006552276497708751,-2.6407959824782032e-05,0.9999997849896501,5.239949313451197,-0.3601888357488015,-49.012510295982004,9.030314333172202,-89.98046875,6340.70849609375,True
1598620152.0288048,0,5,0.5,0.5,-0.001503916168212891,-0.14,-0.011,-0.56,-0.002106191807025152,10,1,100,-0.05787826894786603,-10,-1,-100,462.9640499013476,0.0011340974693878683,-4.356098876800557e-05,0.9999993559624776,5.660966175348842,-0.38929649141934103,-58.412206365437044,9.95168958009051,-89.98248291015625,6337.55029296875,True
1598620152.0613718,0,5,0.5,0.5,-0.0008808715820312501,-0.14,-0.011,-0.56,-0.0022759369685236095,10,1,100,-0.06318431070124972,-10,-1,-100,463.3519227668876,0.0016128443851603895,-6.0526683489040785e-05,0.9999986975339068,6.075765413994815,-0.41812727220823837,-68.61405978410598,10.87366519719596,-89.98501586914062,6334.392578125,True
1598620152.0932539,0,5,0.5,0.5,-0.002306378173828125,-0.14,-0.011,-0.56,-0.0005958878540721099,10,1,100,-0.01577492955109628,-10,-1,-100,463.3519227668876,0.0016128443851603895,-6.0526683489040785e-05,0.9999986975339068,6.075765413994815,-0.41812727220823837,-68.61405978410598,10.87366519719596,-89.98501586914062,6334.392578125,True
1598620152.1249154,0,5,0.5,0.5,0.0008772766113281252,-0.14,-0.011,-0.56,-0.00323770200388369,10,1,100,-0.08979379132399336,-10,-1,-100,464.05830593034625,0.0022822803635957627,-8.442003085689424e-05,0.9999973920313994,6.6858045677613775,-0.460863722514754,-85.42590566295684,12.257748141625086,-89.98956298828125,6329.6552734375,True
1598620152.161567,0,5,0.5,0.5,-0.0016597778320312502,-0.14,-0.011,-0.56,-0.0008624077741002705,10,1,100,-0.023244933187716033,-10,-1,-100,464.05830593034625,0.0022822803635957627,-8.442003085689424e-05,0.9999973920313994,6.6858045677613775,-0.460863722514754,-85.42590566295684,12.257748141625086,-89.98956298828125,6329.6552734375,True
1598620152.19351,0,5,0.5,0.5,0.000656683349609375,-0.14,-0.011,-0.56,-0.0025784024543569276,10,1,100,-0.07138333792151458,-10,-1,-100,464.5722475401126,0.0027163136820188404,-9.989234152284634e-05,0.9999963058239271,7.083770819530893,-0.4890008501045032,-97.64073328923894,13.18121072110464,-89.99285888671875,6326.498046875,True
1598620152.2257621,0,5,0.5,0.5,0.0022496978759765627,-0.14,-0.011,-0.56,-0.003386432948178744,10,1,100,-0.09374973029184214,-10,-1,-100,465.4672910650261,0.0033109577529006795,-0.00012118784174948427,0.9999945114210705,7.666673646101904,-0.5306476532791325,-117.47597843016568,14.56750767536721,-89.99774932861328,6321.7607421875,True
1598620152.261482,0,5,0.5,0.5,-0.0004679267883300781,-0.14,-0.011,-0.56,-0.0012708281555153854,10,1,100,-0.03467685377702804,-10,-1,-100,465.4672910650261,0.0033109577529006795,-0.00012118784174948427,0.9999945114210705,7.666673646101904,-0.5306476532791325,-117.47597843016568,14.56750767536721,-89.99774932861328,6321.7607421875,True
1598620152.29694,0,5,0.5,0.5,0.002923033142089844,-0.14,-0.011,-0.56,-0.003458126196271746,10,1,100,-0.09537270920259522,-10,-1,-100,466.36514264252037,0.00385941860853138,-0.0001409539956614524,0.9999925424821803,8.231595701637213,-0.5715912123643844,-139.12876428312558,15.955117808870813,-90.0025634765625,6317.0244140625,True
1598620152.3299036,0,5,0.5,0.5,0.0011921615600585939,-0.14,-0.011,-0.56,-0.0021596419322019774,10,1,100,-0.059336180484366695,-10,-1,-100,466.68439430044964,0.004027275628147295,-0.00014700666416864023,0.999991879687058,8.428147219293653,-0.5859152087091298,-146.75052631788208,16.395193813868755,-90.00390625,6315.50048828125,True
1598620152.3624654,0,5,0.5,0.5,0.0013632064819335938,-0.14,-0.011,-0.56,-0.0022432550352019655,10,1,100,-0.0621916127109415,-10,-1,-100,467.0659875116544,0.004202765895332101,-0.0001531595740166801,0.9999911566113843,8.600270103859037,-0.5986047583631935,-154.17595985526268,16.835404228455136,-90.00518798828125,6313.9755859375,True
1598620152.3956175,0,5,0.5,0.5,0.0020589584350585942,-0.14,-0.011,-0.56,-0.002813008069420416,10,1,100,-0.07810752686595394,-10,-1,-100,467.76912423118483,0.004504202931976634,-0.00016383306638483982,0.9999898426057506,8.958002964314058,-0.6250690416263148,-169.60146557430292,17.68299091376997,-90.00717163085938,6311.0068359375,True
1598620152.4299145,0,5,0.5,0.5,0.001896409606933594,-0.14,-0.011,-0.56,-0.002959062560479834,10,1,100,-0.0803007493804693,-10,-1,-100,468.4725135981571,0.004795546480379243,-0.00017477009447198355,0.9999884860283985,9.268164832642325,-0.6483954050735208,-184.4978389927816,18.486893239673172,-90.00849151611328,6308.1435546875,True
1598620152.4678252,0,5,0.5,0.5,0.001482169342041016,-0.14,-0.011,-0.56,-0.0023771922282738514,10,1,100,-0.06619787219411931,-10,-1,-100,468.8553227627417,0.00492930291169187,-0.00017931925933934806,0.9999878348347083,9.41324687311572,-0.6594384061296119,-191.97388587747582,18.8835474559497,-90.00891876220703,6306.7255859375,True
1598620152.5000088,0,5,0.5,0.5,0.00131226806640625,-0.14,-0.011,-0.56,-0.003731987930246458,10,1,100,-0.10408880003329514,-10,-1,-100,470.45066404901445,0.005392956263652134,-0.00019568491630171908,0.999985438759061,9.982280525128553,-0.7031938230197319,-222.22900300591863,20.365254430158874,-90.00898742675781,6301.3046875,True
1598620152.5335076,0,5,0.5,0.5,0.0009961105346679687,-0.14,-0.011,-0.56,-0.002517563106850528,10,1,100,-0.06931304669796043,-10,-1,-100,470.8345594566781,0.005495488211567461,-0.00019942141070441625,0.9999848798058987,10.098525601884008,-0.7123849343526787,-229.33016871591434,20.710366097848652,-90.00856018066406,6300.01123046875,True
1598620152.5674593,0,5,0.5,0.5,0.00029133605957031255,-0.14,-0.011,-0.56,-0.0028393032921421747,10,1,100,-0.07861951342536018,-10,-1,-100,471.7269001051318,0.00567077679398544,-0.00020565265360117268,0.9999838998691624,10.328557342011717,-0.7306938588967178,-243.6610684312794,21.381112959059614,-90.00718688964844,6297.470703125,True
1598620152.6274824,0,5,0.5,0.5,0.00040318832397460947,-0.14,-0.011,-0.56,-0.0025265837487499793,10,1,100,-0.06946196979806808,-10,-1,-100,472.110195897636,0.00574473436407996,-0.00020839772873842977,0.9999834771622342,10.456761371486504,-0.7407679325369737,-250.873439011277,21.679707244210604,-90.00623321533203,6296.2890625,True
1598620152.6655424,0,5,0.5,0.5,-0.002652970123291016,-0.14,-0.011,-0.56,-0.0031835020585037946,10,1,100,-0.08919526734804883,-10,-1,-100,473.8961669023847,0.0059891496086100955,-0.00021678595450916276,0.9999820413841519,10.829957925358606,-0.7714416705963667,-276.95277580681983,22.832317392408722,-90.00109100341797,6291.662109375,True
1598620152.6984642,0,5,0.5,0.5,-0.002076739501953125,-0.14,-0.011,-0.56,-0.002638645987316577,10,1,100,-0.07381289807886315,-10,-1,-100,474.8514900803566,0.006069569445735732,-0.0002193894391455383,0.9999815559274169,10.991784042358887,-0.7851129500041256,-289.46411299400006,23.37222088313517,-89.997802734375,6289.4375,True
1598620152.732968,0,5,0.5,0.5,-0.00024202270507812506,-0.14,-0.011,-0.56,-0.002385535801176712,10,1,100,-0.06597514374805838,-10,-1,-100,474.8514900803566,0.006069569445735732,-0.0002193894391455383,0.9999815559274169,10.991784042358887,-0.7851129500041256,-289.46411299400006,23.37222088313517,-89.997802734375,6289.4375,True
1598620152.7687871,0,5,0.5,0.5,-0.0028136230468750003,-0.14,-0.011,-0.56,-0.0025795546637819118,10,1,100,-0.07143861251202968,-10,-1,-100,475.8083184704883,0.006117540249453286,-0.0002210930380191048,0.9999812632340491,11.140481762938585,-0.7979354645107818,-301.88233248958863,23.90494838876494,-89.994140625,6287.22998046875,True
1598620152.8305244,0,5,0.5,0.5,-0.004579666137695313,-0.14,-0.011,-0.56,-0.0025137766380850897,10,1,100,-0.06985693867739066,-10,-1,-100,477.2742090243846,0.00614530454768391,-0.0002219917276963448,0.9999810927971033,11.355451383915197,-0.8164391416515676,-319.20554740511983,24.591286586067866,-89.98870849609375,6284.189453125,True
1598620152.8649042,0,5,0.5,0.5,-0.005511461639404297,-0.14,-0.011,-0.56,-0.002275337666830725,10,1,100,-0.06351064141879993,-10,-1,-100,478.7407546308823,0.006111624154572467,-0.00022059816254313752,0.9999812995184679,11.530712353350093,-0.8321517179565677,-335.5881391711252,25.251344814174193,-89.98306274414062,6281.21240234375,True
1598620152.8977752,0,5,0.5,0.5,-0.002378282165527344,-0.14,-0.011,-0.56,-0.0024188220724718316,10,1,100,-0.0669969128542323,-10,-1,-100,478.7407546308823,0.006111624154572467,-0.00022059816254313752,0.9999812995184679,11.530712353350093,-0.8321517179565677,-335.5881391711252,25.251344814174193,-89.98306274414062,6281.21240234375,True
1598620152.9279711,0,5,0.5,0.5,-0.005653869628906251,-0.14,-0.011,-0.56,-0.0020614453682323204,10,1,100,-0.05711223521826202,-10,-1,-100,480.3317210911773,0.006021110114344628,-0.0002173266350080134,0.999981849336339,11.683770741608965,-0.8461684971814836,-350.83841678669074,25.850978999646443,-89.97842407226562,6278.380859375,True
1598620152.9637215,0,5,0.5,0.5,-0.0039011306762695317,-0.14,-0.011,-0.56,-0.0021955741054274103,10,1,100,-0.06157264936895393,-10,-1,-100,480.84257044421975,0.0059788960046867215,-0.00021555559374667084,0.9999821030090243,11.736347501551673,-0.8508981108696639,-355.70061051143165,26.028814295602867,-89.97726440429688,6277.48974609375,True
1598620152.9970627,0,5,0.5,0.5,-0.00401094970703125,-0.14,-0.011,-0.56,-0.0021727779140122247,10,1,100,-0.06036799811797437,-10,-1,-100,481.35229976358823,0.005929288057979082,-0.00021372931545972547,0.9999823987765512,11.774217033663312,-0.8545617066597422,-360.15147004173406,26.206693383736297,-89.97622680664062,6276.5986328125,True
1598620153.0326648,0,5,0.5,0.5,-0.004851451873779297,-0.14,-0.011,-0.56,-0.0016184691391183518,10,1,100,-0.04567085818344198,-10,-1,-100,482.9445823132992,0.005750411785481934,-0.00020702504489372055,0.999983444815427,11.890305587735494,-0.8656327197220691,-373.2548735602775,26.71047681194065,-89.9742431640625,6273.9970703125,True
1598620153.06692,0,5,0.5,0.5,-0.004154666137695313,-0.14,-0.011,-0.56,-0.0016812326723101892,10,1,100,-0.04710269252888653,-10,-1,-100,484.0272300845245,0.005601030702555049,-0.00020150970459874683,0.9999842938011118,11.95650144779909,-0.8721188762011371,-381.4407057784507,27.027606181072624,-89.97369384765625,6272.3076171875,True
1598620153.0994473,0,5,0.5,0.5,-0.0039376556396484375,-0.14,-0.011,-0.56,-0.0018799389126094525,10,1,100,-0.05288199012149982,-10,-1,-100,484.53830443508923,0.0055181947314118015,-0.00019831843354653383,0.9999847549821473,11.989937742428035,-0.8753624849528542,-385.4967213777566,27.181781687053217,-89.97360229492188,6271.47314453125,True
1598620153.1337957,0,5,0.5,0.5,-0.0036993835449218755,-0.14,-0.011,-0.56,-0.0014547403536851464,10,1,100,-0.04167924169101983,-10,-1,-100,485.68378465482965,0.005341547385290235,-0.00019157099205939105,0.9999857154840192,12.055819438911904,-0.8817112688514771,-393.4093584066669,27.477645398969436,-89.97390747070312,6269.83544921875,True
1598620153.1705709,0,5,0.5,0.5,-0.003273031616210938,-0.14,-0.011,-0.56,-0.001321096295121765,10,1,100,-0.037273048395787614,-10,-1,-100,486.76628649805207,0.005141608034190484,-0.00018424884658046662,0.9999867648720083,12.111761131764057,-0.8872264548150794,-400.69215468608417,27.753117803099947,-89.97479248046875,6268.24609375,True
1598620153.2315598,0,5,0.5,0.5,-0.0028226409912109375,-0.14,-0.011,-0.56,-0.0011544721276499532,10,1,100,-0.03323096452783199,-10,-1,-100,487.9118258978706,0.004924011222130654,-0.000176111897241806,0.9999878614753701,12.160093423198457,-0.8920834716874083,-407.47680930044845,28.013078066083384,-89.97616577148438,6266.6943359375,True
1598620153.2674294,0,5,0.5,0.5,-0.002979763793945313,-0.14,-0.011,-0.56,-0.001517751756355061,10,1,100,-0.04228212274451911,-10,-1,-100,488.4229218926048,0.004809558843075638,-0.00017205765470879855,0.9999884192028918,12.186875838112956,-0.8946594661148599,-410.83329128178065,28.135703222110294,-89.97705078125,6265.935546875,True
1598620153.301734,0,5,0.5,0.5,-0.0014098388671874998,-0.14,-0.011,-0.56,-0.0004040676721942323,10,1,100,-0.013112581907683815,-10,-1,-100,490.1425561644137,0.004441517277519391,-0.00015829170664808818,0.9999901238852358,12.251677692993015,-0.9011022513559003,-420.1302097370734,28.48997965480397,-89.98001098632812,6263.693359375,True
1598620153.3380058,0,5,0.5,0.5,-0.00148499755859375,-0.14,-0.011,-0.56,-0.0006754351790294695,10,1,100,-0.020535476580150577,-10,-1,-100,491.28934325720184,0.0041758508902514325,-0.0001482978538626354,0.9999912701004389,12.292754591034242,-0.9050982510003276,-425.92755094462626,28.708702991578388,-89.98226928710938,6262.24072265625,True
1598620153.4018157,0,5,0.5,0.5,-0.0010778808593749998,-0.14,-0.011,-0.56,-0.0005391343481360744,10,1,100,-0.016624400395127675,-10,-1,-100,492.43501797446515,0.003900419886611658,-0.00013803457808581475,0.9999923838065784,12.330698904022865,-0.9087623173923569,-431.4764349550436,28.921405488702234,-89.98464965820312,6260.80224609375,True
1598620153.461485,0,5,0.5,0.5,-0.0008208129882812498,-0.14,-0.011,-0.56,-0.00038881420537005464,10,1,100,-0.012489572380869274,-10,-1,-100,493.6433468796313,0.0036142831451471203,-0.00012740659402480845,0.9999934603410696,12.369440698832992,-0.9123534947412926,-436.70609993423585,29.116472948046685,-89.98690795898438,6259.40625,True
1598620153.5354235,0,5,0.5,0.5,0.0011969024658203128,-0.14,-0.011,-0.56,0.0016803928765969452,10,1,100,0.04255015083108814,-10,-1,-100,496.57281525747385,0.0028557396497436867,-9.90061972704381e-05,0.9999959174660794,12.454508429617828,-0.9199676048304013,-448.4685240024281,29.56656186850934,-89.9915771484375,6256.00634765625,True
1598620153.5686946,0,5,0.5,0.5,-0.00011643371582031252,-0.14,-0.011,-0.56,0.0008162889288205374,10,1,100,0.01939912743015949,-10,-1,-100,498.35683421371505,0.0023791142221606543,-8.113633020745813e-05,0.9999971666121928,12.504907158822718,-0.9241523372778421,-454.9720007612876,29.81756236212272,-89.993408203125,6254.01220703125,True
1598620153.6276925,0,5,0.5,0.5,-0.000650067138671875,-0.14,-0.011,-0.56,0.00036644175077848887,10,1,100,0.006657973767930092,-10,-1,-100,499.5654235482216,0.0020645007581138477,-6.908704549907594e-05,0.9999978665295243,12.538113831288992,-0.9267761141486324,-459.14174058838535,29.98176908763935,-89.99407958984375,6252.6904296875,True
1598620153.6655197,0,5,0.5,0.5,-0.0012174774169921875,-0.14,-0.011,-0.56,0.0011247629852157845,10,1,100,0.027451453112728088,-10,-1,-100,501.34905560698826,0.0015924360209614748,-5.135066994798973e-05,0.9999987307545084,12.59357574389427,-0.930883213512297,-464.78949098827184,30.18809017804329,-89.9937744140625,6250.8037109375,True
1598620153.6974354,0,5,0.5,0.5,-0.0016665679931640626,-0.14,-0.011,-0.56,0.0006652791981620919,10,1,100,0.015309268323049439,-10,-1,-100,502.55887908954173,0.0012768962780138771,-3.952463403533809e-05,0.9999991839865164,12.623881785485107,-0.93299226882706,-468.0037956854455,30.31323912455956,-89.99285888671875,6249.5751953125,True
1598620153.728381,0,5,0.5,0.5,-0.0011355102539062501,-0.14,-0.011,-0.56,-0.0005036656667824254,10,1,100,-0.01587999447729865,-10,-1,-100,502.55887908954173,0.0012768962780138771,-3.952463403533809e-05,0.9999991839865164,12.623881785485107,-0.93299226882706,-468.0037956854455,30.31323912455956,-89.99285888671875,6249.5751953125,True
1598620153.76158,0,5,0.5,0.5,-0.001524005126953125,-0.14,-0.011,-0.56,0.0001090143443433384,10,1,100,0.0011294951404652726,-10,-1,-100,503.19463394244667,0.0011254760656388067,-3.40753003166252e-05,0.9999993660710488,12.6376168123742,-0.9339041592822516,-469.494000630182,30.37378863235492,-89.99227905273438,6248.9658203125,True
1598620153.797517,0,5,0.5,0.5,-0.0021898315429687504,-0.14,-0.011,-0.56,0.0008880909724225506,10,1,100,0.01988644975048972,-10,-1,-100,504.3984601594275,0.0008203181408538664,-2.215176977737652e-05,0.9999996632936666,12.682350238749947,-0.936564837853807,-464.7825785564703,29.98117242978862,-89.9908447265625,6248.9658203125,True
1598620153.8293538,0,5,0.5,0.5,-0.0032143341064453127,-0.14,-0.011,-0.56,0.0016417581721360187,10,1,100,0.04123568676990951,-10,-1,-100,506.1194564483594,0.0003518683570086477,-4.5753548207418826e-06,0.9999999380838608,12.455476431048378,-0.9188763644185033,-447.10118718207633,29.392393985206883,-89.98822021484375,6248.9658203125,True
1598620153.8617678,0,5,0.5,0.5,-0.0031078674316406254,-0.14,-0.011,-0.56,0.0011974742057992544,10,1,100,0.027894206393097,-10,-1,-100,507.3280318811303,5.05170583291108e-05,7.242932515623503e-06,0.9999999986977833,12.300584974154543,-0.9068450835323668,-435.3885642241878,28.999970988959326,-89.98626708984375,6248.9658203125,True
1598620153.894688,0,5,0.5,0.5,-0.0026770538330078125,-0.14,-0.011,-0.56,0.0006352219843167337,10,1,100,0.014287180056998238,-10,-1,-100,507.9009989486076,-9.64986409724631e-05,1.2753037601986908e-05,0.9999999952626862,12.223477988338134,-0.9008632776016874,-429.6064864833525,28.803787846287058,-89.98532104492188,6248.9658203125,True
1598620153.9316418,0,5,0.5,0.5,-0.0021541503906250003,-0.14,-0.011,-0.56,9.538739916763574e-05,10,1,100,-0.00011916604408753915,-10,-1,-100,507.9009989486076,-9.64986409724631e-05,1.2753037601986908e-05,0.9999999952626862,12.223477988338134,-0.9008632776016874,-429.6064864833525,28.803787846287058,-89.98532104492188,6248.9658203125,True
1598620153.9626715,0,5,0.5,0.5,-0.0038933929443359383,-0.14,-0.011,-0.56,0.0019503042957927691,10,1,100,0.04887698035135439,-10,-1,-100,509.5592034511501,-0.000539667596509996,2.953056450966135e-05,0.9999998539434048,11.99313107159679,-0.8830248377904762,-412.5413295764634,28.21535032736266,-89.98284912109375,6248.9658203125,True
1598620153.9951618,0,5,0.5,0.5,-0.004059555053710938,-0.14,-0.011,-0.56,0.0021629478259083605,10,1,100,0.053108307084566875,-10,-1,-100,511.276489743148,-0.0009786476460691177,4.662633232677191e-05,0.9999995200372698,11.763580206970381,-0.8652972421755106,-395.87157792711764,27.627077660110864,-89.98065185546875,6248.9658203125,True
1598620154.0280745,0,5,0.5,0.5,-0.0028435211181640626,-0.14,-0.011,-0.56,0.0004631687444247802,10,1,100,0.009467410495357763,-10,-1,-100,511.276489743148,-0.0009786476460691177,4.662633232677191e-05,0.9999995200372698,11.763580206970381,-0.8652972421755106,-395.87157792711764,27.627077660110864,-89.98065185546875,6248.9658203125,True
1598620154.0645761,0,5,0.5,0.5,-0.0032841949462890626,-0.14,-0.011,-0.56,0.0010330414018037328,10,1,100,0.02447855371109909,-10,-1,-100,511.78772055148147,-0.0011130620899175998,5.1728673788069565e-05,0.9999993792082714,11.687132348802063,-0.8594044814285291,-390.3986040673356,27.431022633605114,-89.98004150390625,6248.9658203125,True
1598620154.0964963,0,5,0.5,0.5,-0.004003250122070313,-0.14,-0.011,-0.56,0.002825439858875383,10,1,100,0.07137886578367819,-10,-1,-100,513.9533110611374,-0.0016594508228324558,7.257873990097024e-05,0.999998620476695,11.38278046219115,-0.8359952987247262,-368.95792754597363,26.646978226510576,-89.97854614257812,6248.9658203125,True
1598620154.1277714,0,5,0.5,0.5,-0.003180953979492188,-0.14,-0.011,-0.56,0.0007510986516070748,10,1,100,0.017018485181039718,-10,-1,-100,513.9533110611374,-0.0016594508228324558,7.257873990097024e-05,0.999998620476695,11.38278046219115,-0.8359952987247262,-368.95792754597363,26.646978226510576,-89.97854614257812,6248.9658203125,True
1598620154.1616647,0,5,0.5,0.5,-0.00332265625,-0.14,-0.011,-0.56,0.0023809841307091484,10,1,100,0.05884068774903045,-10,-1,-100,515.5460867396323,-0.0020373983289381113,8.730976197491787e-05,0.9999979206903655,11.155512773227075,-0.8185693716354807,-353.3300921745299,26.05912502870962,-89.97836303710938,6248.9658203125,True
1598620154.1976774,0,5,0.5,0.5,-0.0032309600830078126,-0.14,-0.011,-0.56,0.0009170704349939517,10,1,100,0.02128486380705958,-10,-1,-100,515.5460867396323,-0.0020373983289381113,8.730976197491787e-05,0.9999979206903655,11.155512773227075,-0.8185693716354807,-353.3300921745299,26.05912502870962,-89.97836303710938,6248.9658203125,True
1598620154.2306166,0,5,0.5,0.5,-0.0027269592285156254,-0.14,-0.011,-0.56,0.0025115977870196204,10,1,100,0.06207734001807766,-10,-1,-100,517.0758130872855,-0.0024063409168680328,0.00010173267714837004,0.999997099582721,10.92930399592552,-0.8012696989619789,-338.09267683763846,25.47142275530467,-89.97909545898438,6248.9658203125,True
1598620154.2674754,0,5,0.5,0.5,-0.003143963623046875,-0.14,-0.011,-0.56,0.0010782042336290414,10,1,100,0.025414065452675074,-10,-1,-100,517.0758130872855,-0.0024063409168680328,0.00010173267714837004,0.999997099582721,10.92930399592552,-0.8012696989619789,-338.09267683763846,25.47142275530467,-89.97909545898438,6248.9658203125,True
1598620154.299443,0,5,0.5,0.5,-0.0024458557128906253,-0.14,-0.011,-0.56,0.0020597388865102695,10,1,100,0.051830599799389886,-10,-1,-100,518.0956509346142,-0.002644391372496444,0.0001105748288658845,0.9999964974776043,10.779073001961438,-0.7898050697779639,-328.1488477285676,25.079702951360506,-89.9801025390625,6248.9658203125,True
1598620154.3317592,0,5,0.5,0.5,-0.0015388427734375001,-0.14,-0.011,-0.56,0.0025993447415032485,10,1,100,0.06345727314474589,-10,-1,-100,519.5612294768216,-0.0029645845227746124,0.0001234449797777827,0.9999955979902833,10.55461749814528,-0.772712431386688,-313.55283305099323,24.492243460095626,-89.98220825195312,6248.9658203125,True
1598620154.3641872,0,5,0.5,0.5,-0.0014345916748046879,-0.14,-0.011,-0.56,0.002184815251285904,10,1,100,0.05383232214702842,-10,-1,-100,520.5182013169397,-0.0031663642531603287,0.0001313068319253043,0.999994978435358,10.405544248524958,-0.7613840557505828,-304.03265661509187,24.1006821130021,-89.98403930664062,6248.9658203125,True
1598620154.3965654,0,5,0.5,0.5,-0.001046343994140625,-0.14,-0.011,-0.56,0.0021881477044275277,10,1,100,0.05367439481407794,-10,-1,-100,521.475173138082,-0.003346375835386802,0.00013840728299743091,0.9999943912903674,10.257087724285597,-0.750120791816245,-294.6843097050395,23.709182081963597,-89.98605346679688,6248.9658203125,True
1598620154.42848,0,5,0.5,0.5,-0.0021676605224609374,-0.14,-0.011,-0.56,0.001486770458135801,10,1,100,0.03589656796597755,-10,-1,-100,521.475173138082,-0.003346375835386802,0.00013840728299743091,0.9999943912903674,10.257087724285597,-0.750120791816245,-294.6843097050395,23.709182081963597,-89.98605346679688,6248.9658203125,True
1598620154.4645414,0,5,0.5,0.5,-0.0014544464111328126,-0.14,-0.011,-0.56,0.0018882624884854243,10,1,100,0.04568778651138258,-10,-1,-100,521.9837801512331,-0.0034338533448790708,0.00014199736641597616,0.9999940942265377,10.183096331912578,-0.74451388388291,-290.0743034833495,23.513454733116106,-89.987060546875,6248.9658203125,True
1598620154.4974532,0,5,0.5,0.5,0.0008748657226562502,-0.14,-0.011,-0.56,0.002884263841900682,10,1,100,0.07140489943978678,-10,-1,-100,523.7704650807427,-0.003745557196019311,0.00015425252853068782,0.9999929734790384,9.888559007753019,-0.722239025630751,-272.0538886487849,22.73069330005787,-89.99118041992188,6248.9658203125,True
1598620154.528371,0,5,0.5,0.5,-0.0006491210937499999,-0.14,-0.011,-0.56,0.0019443877212725583,10,1,100,0.04782843137743962,-10,-1,-100,524.2174872027244,-0.0038130399338826633,0.00015678839956875568,0.9999927180454167,9.815224913375443,-0.7167041368453863,-267.6513231376445,22.535039309300313,-89.99227905273438,6248.9658203125,True
1598620154.5618176,0,5,0.5,0.5,-0.0012490478515625,-0.14,-0.011,-0.56,0.0016977484812251559,10,1,100,0.04125772175159885,-10,-1,-100,524.2174872027244,-0.0038130399338826633,0.00015678839956875568,0.9999927180454167,9.815224913375443,-0.7167041368453863,-267.6513231376445,22.535039309300313,-89.99227905273438,6248.9658203125,True
1598620154.5983996,0,5,0.5,0.5,0.0009657714843750001,-0.14,-0.011,-0.56,0.0025039966049437545,10,1,100,0.06096002105207838,-10,-1,-100,525.5559293160914,-0.003990872928417009,0.00016406787730945167,0.9999920229756839,9.59589936432322,-0.7001767128645273,-254.6862290522033,21.948162098367153,-89.99542236328125,6248.9658203125,True
1598620154.630708,0,5,0.5,0.5,0.0005212371826171876,-0.14,-0.011,-0.56,0.0022683741918175654,10,1,100,0.05482914356836743,-10,-1,-100,526.4485693392344,-0.004095363553585816,0.00016848689404515442,0.9999915997694832,9.45027491907308,-0.6892245107709927,-246.24439284901902,21.556980332258867,-89.99727630615234,6248.9658203125,True
1598620154.6636164,0,5,0.5,0.5,0.0006074195861816408,-0.14,-0.011,-0.56,0.0021933041553973505,10,1,100,0.053377709856364544,-10,-1,-100,527.2783431131393,-0.004175841113465533,0.00017176907977817381,0.9999912663850513,9.305131344117942,-0.6783252377124663,-237.96264701021792,21.16585291551035,-89.99885559082031,6248.9658203125,True
1598620154.7004511,0,5,0.5,0.5,0.000537078094482422,-0.14,-0.011,-0.56,0.002183360386690736,10,1,100,0.05298703956390534,-10,-1,-100,528.1081170835532,-0.004244349841069564,0.0001746185560926764,0.9999909774606901,9.16047333903731,-0.6674788566469967,-229.839970724853,20.77477902261834,-89.99999237060547,6248.9658203125,True
1598620154.7323933,0,5,0.5,0.5,0.00019573974609375005,-0.14,-0.011,-0.56,0.002046386575308658,10,1,100,0.04929297685784782,-10,-1,-100,528.5538573999656,-0.0042720681273927886,0.00017592439834405318,0.9999908592004834,9.08830951060528,-0.6620741706867795,-225.8375164696892,20.579261812250774,-90.0003890991211,6248.9658203125,True
1598620154.7638261,0,5,0.5,0.5,-1.0659027099609375e-05,-0.14,-0.011,-0.56,0.0019195540617056434,10,1,100,0.046613717454726006,-10,-1,-100,528.5538573999656,-0.0042720681273927886,0.00017592439834405318,0.9999908592004834,9.08830951060528,-0.6620741706867795,-225.8375164696892,20.579261812250774,-90.0003890991211,6248.9658203125,True
1598620154.7963686,0,5,0.5,0.5,0.0004643997192382813,-0.14,-0.011,-0.56,0.0021751218999914263,10,1,100,0.0530912420395034,-10,-1,-100,529.7663822773611,-0.00433011317607985,0.00017821363585997246,0.9999906091357968,8.872474040708347,-0.6459332424979489,-214.06397060398282,19.992787293075548,-90.00104522705078,6248.9658203125,True
1598620154.828853,0,5,0.5,0.5,0.00012837295532226565,-0.14,-0.011,-0.56,0.0020301580786781714,10,1,100,0.04956049750609132,-10,-1,-100,530.5331671860768,-0.004349968942917796,0.00017894398407210222,0.9999905228297147,8.729047223539112,-0.6352270327912043,-206.4065033937849,19.601867318195584,-90.00106811523438,6248.9658203125,True
1598620154.8655915,0,5,0.5,0.5,-5.514755249023438e-05,-0.14,-0.011,-0.56,0.0019799428750483976,10,1,100,0.04797044574159725,-10,-1,-100,531.300073848106,-0.004353015158777893,0.0001791289883632755,0.9999905095408822,8.58593406956512,-0.62455976351615,-198.8998574884365,19.210996725316114,-90.00080871582031,6248.9658203125,True
1598620154.898436,0,5,0.5,0.5,9.949874877929688e-05,-0.14,-0.011,-0.56,0.001963676504810522,10,1,100,0.0477198216780771,-10,-1,-100,531.300073848106,-0.004353015158777893,0.0001791289883632755,0.9999905095408822,8.58593406956512,-0.62455976351615,-198.8998574884365,19.210996725316114,-90.00080871582031,6248.9658203125,True
1598620154.929319,0,5,0.5,0.5,-0.0005266471862792969,-0.14,-0.011,-0.56,0.00191529955213712,10,1,100,0.04528079458953839,-10,-1,-100,532.4483891926939,-0.004330351298677636,0.00017866888825824955,0.9999906080234248,8.371835715259254,-0.6086299057912756,-187.92045360836786,18.624781521277004,-89.9999008178711,6248.9658203125,True
1598620154.9644785,0,5,0.5,0.5,-0.0006381454467773439,-0.14,-0.011,-0.56,0.0018494710178797932,10,1,100,0.04383634232749052,-10,-1,-100,533.1523076647427,-0.0042963077885949125,0.00017763890056866045,0.9999907550491687,8.229436211004591,-0.5980532849737871,-180.78560414435333,18.23403018935829,-89.99900817871094,6248.9658203125,True
1598620155.0007,0,5,0.5,0.5,-0.0004888404846191406,-0.14,-0.011,-0.56,0.0018721773759327862,10,1,100,0.044823408846870964,-10,-1,-100,533.5337159649935,-0.0042741497984822505,0.00017690064955449438,0.9999908501329702,8.158324365222285,-0.5927769525257283,-177.27305971000482,18.038671899674547,-89.99850463867188,6248.9658203125,True
1598620155.0287387,0,5,0.5,0.5,-0.000954924774169922,-0.14,-0.011,-0.56,0.0017083653242708431,10,1,100,0.040999131289555416,-10,-1,-100,534.2377559650922,-0.00421915063996331,0.00017473564673580182,0.9999910840779187,8.016250670066947,-0.5822461608865261,-170.3567341556553,17.64798924688257,-89.9974365234375,6248.9658203125,True
1598620155.065412,0,5,0.5,0.5,-0.00035959167480468753,-0.14,-0.011,-0.56,0.001924877315204412,10,1,100,0.04649652722133881,-10,-1,-100,534.2377559650922,-0.00421915063996331,0.00017473564673580182,0.9999910840779187,8.016250670066947,-0.5822461608865261,-170.3567341556553,17.64798924688257,-89.9974365234375,6248.9658203125,True
1598620155.0977588,0,5,0.5,0.5,-0.0011532447814941408,-0.14,-0.011,-0.56,0.0016389033271578092,10,1,100,0.03886932271667396,-10,-1,-100,534.9389878634829,-0.004149860524000384,0.00017213696389138566,0.9999913744760487,7.874365866698889,-0.5717433940249738,-163.58464735176108,17.257351323042442,-89.99630737304688,6248.9658203125,True
1598620155.1326294,0,5,0.5,0.5,-0.0017163589477539065,-0.14,-0.011,-0.56,0.0013632692466656034,10,1,100,0.03164744442928995,-10,-1,-100,535.9613864491694,-0.00402132716833368,0.00016727220369603516,0.9999919004411061,7.66179105681052,-0.5560335472252008,-153.69351912992363,16.671475946374002,-89.9946060180664,6248.9658203125,True
1598620155.165619,0,5,0.5,0.5,-0.001566429138183594,-0.14,-0.011,-0.56,0.0014220458510802287,10,1,100,0.03323870918331728,-10,-1,-100,536.601094933576,-0.003919225420953058,0.00016339397395145306,0.9999923064576592,7.520228599287228,-0.5455882990079262,-147.27636233423527,16.28094535112236,-89.99346923828125,6248.9658203125,True
1598620155.1964934,0,5,0.5,0.5,-0.0016431472778320314,-0.14,-0.011,-0.56,0.0013387537430657724,10,1,100,0.031186672210469772,-10,-1,-100,537.2407422987744,-0.003808142354055665,0.00015912524593817486,0.9999927363391031,7.378737131655796,-0.5351611972610147,-140.99913934741653,15.890456149389186,-89.99246215820312,6248.9658203125,True
1598620155.2294962,0,5,0.5,0.5,-0.0010883636474609377,-0.14,-0.011,-0.56,0.0017636261701510817,10,1,100,0.042240491619736864,-10,-1,-100,537.2407422987744,-0.003808142354055665,0.00015912524593817486,0.9999927363391031,7.378737131655796,-0.5351611972610147,-140.99913934741653,15.890456149389186,-89.99246215820312,6248.9658203125,True
1598620155.2657416,0,5,0.5,0.5,-0.001396617126464844,-0.14,-0.011,-0.56,0.0015319206090629591,10,1,100,0.035496797121615076,-10,-1,-100,537.5606270972639,-0.00374733137934976,0.0001570370169668511,0.9999929663987185,7.307993392626113,-0.5299525286985726,-137.91239466259626,15.69522679279827,-89.99203491210938,6248.9658203125,True
1598620155.300654,0,5,0.5,0.5,-0.0019136924743652346,-0.14,-0.011,-0.56,0.0005433782338708469,10,1,100,0.011696153642882887,-10,-1,-100,538.7757737423526,-0.0034762092070098516,0.00014617154346507522,0.9999939472833967,7.025027180731206,-0.5091491250052483,-125.91017959038206,14.914408635669515,-89.990966796875,6248.9658203125,True
1598620155.3305337,0,5,0.5,0.5,-0.0014525672912597655,-0.14,-0.011,-0.56,0.0013150664780807292,10,1,100,0.030612737307650417,-10,-1,-100,539.0943152981345,-0.003402448991454717,0.00014333779464455388,0.9999942013807566,6.954283986397842,-0.5039555569092761,-122.9955394637568,14.719228300033887,-89.99078369140625,6248.9658203125,True
1598620155.3674695,0,5,0.5,0.5,-0.0014439704895019532,-0.14,-0.011,-0.56,0.0009538766811491184,10,1,100,0.02124321218807341,-10,-1,-100,539.6710350750946,-0.0032510092042330107,0.00013750862743098342,0.9999947060012525,6.812821575518017,-0.4935787409666649,-117.26954049206944,14.32889573205458,-89.99066162109375,6248.9658203125,True
1598620155.399889,0,5,0.5,0.5,-0.001297614288330078,-0.14,-0.011,-0.56,0.0008165383975281534,10,1,100,0.018063611127910384,-10,-1,-100,540.1848889769753,-0.0030853113347897323,0.0001309946974032786,0.9999952318358106,6.67123353311028,-0.4832039287469411,-111.67831743863917,13.93860012124932,-89.99078369140625,6248.9658203125,True
1598620155.428867,0,5,0.5,0.5,-0.0012664802551269534,-0.14,-0.011,-0.56,0.0011093383363421946,10,1,100,0.02533009709711967,-10,-1,-100,540.5022100633942,-0.003001766634384267,0.00012777452495761325,0.9999954865251861,6.600404092937845,-0.4780179990847369,-108.9334009086673,13.743465899305987,-89.99093627929688,6248.9658203125,True
1598620155.4638672,0,5,0.5,0.5,-0.0013578376770019534,-0.14,-0.011,-0.56,0.0014269193370153518,10,1,100,0.03356975774870461,-10,-1,-100,540.5022100633942,-0.003001766634384267,0.00012777452495761325,0.9999954865251861,6.600404092937845,-0.4780179990847369,-108.9334009086673,13.743465899305987,-89.99093627929688,6248.9658203125,True
1598620155.496773,0,5,0.5,0.5,-0.0005287445068359376,-0.14,-0.011,-0.56,-0.00013117670542867814,10,1,100,-0.005557466558225945,-10,-1,-100,541.5285134031437,-0.002646991468443034,0.00011364592246152064,0.999996490254226,6.316788384084992,-0.45727841515567313,-98.29028385306053,12.96301689579452,-89.99212646484375,6248.9658203125,True
1598620155.532544,0,5,0.5,0.5,-0.0011967254638671875,-0.14,-0.011,-0.56,0.0012767087390315904,10,1,100,0.029792826640646336,-10,-1,-100,541.5285134031437,-0.002646991468443034,0.00011364592246152064,0.999996490254226,6.316788384084992,-0.45727841515567313,-98.29028385306053,12.96301689579452,-89.99212646484375,6248.9658203125,True
1598620155.5658076,0,5,0.5,0.5,-0.00019306640624999988,-0.14,-0.011,-0.56,4.152224718007437e-05,10,1,100,-0.0013379216780637013,-10,-1,-100,542.2980429935269,-0.0023650402572598633,0.00010245829919330381,0.9999971980395138,6.103774290019737,-0.44172760629666546,-90.6611275089942,12.377769497850279,-89.99356079101562,6248.9658203125,True
1598620155.6044316,0,5,0.5,0.5,-0.000167291259765625,-0.14,-0.011,-0.56,0.00029161760438227316,10,1,100,0.0044095957107790976,-10,-1,-100,542.8091503430624,-0.002162283043443548,9.46128421483493e-05,0.9999976577874822,5.9615703126561534,-0.4313578186617082,-85.74227886002922,11.9876453562728,-89.99474334716797,6248.9658203125,True
1598620155.6367278,0,5,0.5,0.5,4.397048950195324e-05,-0.14,-0.011,-0.56,0.00020617822501348615,10,1,100,0.003200119627010129,-10,-1,-100,543.2587342916522,-0.0019684040195180035,8.676063609032759e-05,0.9999980589272202,5.81919554409822,-0.4209844533906194,-80.95699519117284,11.597552950973743,-89.99598693847656,6248.9658203125,True
1598620155.6657014,0,5,0.5,0.5,-0.00021433181762695307,-0.14,-0.011,-0.56,0.0005434783837019134,10,1,100,0.011330864153337682,-10,-1,-100,543.4527646884089,-0.0018674369527227517,8.274264194145242e-05,0.9999982529149154,5.7479276070334375,-0.41579510076654,-78.61420964507323,11.402518201393523,-89.9966049194336,6248.9658203125,True
1598620155.696633,0,5,0.5,0.5,0.00028981323242187497,-0.14,-0.011,-0.56,3.3140307238378915e-05,10,1,100,-0.0009446361874409087,-10,-1,-100,543.9010666565737,-0.0016654487180279283,7.45055694316275e-05,0.9999986103637782,5.60520826927897,-0.405409264309655,-74.02811849329838,11.012471816687885,-89.99781036376953,6248.9658203125,True
1598620155.7308443,0,5,0.5,0.5,-0.00037737197875976566,-0.14,-0.011,-0.56,0.0008505472524209356,10,1,100,0.019095631233420927,-10,-1,-100,543.9010666565737,-0.0016654487180279283,7.45055694316275e-05,0.9999986103637782,5.60520826927897,-0.405409264309655,-74.02811849329838,11.012471816687885,-89.99781036376953,6248.9658203125,True
1598620155.764631,0,5,0.5,0.5,0.0008159652709960938,-0.14,-0.011,-0.56,-0.0005036684571654616,10,1,100,-0.014665627345463332,-10,-1,-100,544.5433994891355,-0.001359818969689673,6.224587127899811e-05,0.9999990735084814,5.390747839465999,-0.38981738903710245,-67.39884632052181,10.427459479351262,-89.99950408935547,6248.9658203125,True
1598620155.7996275,0,5,0.5,0.5,0.0006512870788574219,-0.14,-0.011,-0.56,-0.00023263216825363388,10,1,100,-0.007435109213849721,-10,-1,-100,544.9917632360011,-0.0011491984066374689,5.362422890642312e-05,0.9999993382335133,5.247549851075797,-0.3794157409285546,-63.146365983701834,10.03748542376956,-90.0006103515625,6248.9658203125,True
1598620155.830038,0,5,0.5,0.5,0.0003895591735839844,-0.14,-0.011,-0.56,0.00019477729017224185,10,1,100,0.002577301978869658,-10,-1,-100,545.1844509136863,-0.0010504312403672293,4.973932209527308e-05,0.9999994470599516,5.175913059093012,-0.374214779143634,-61.070603067406054,9.842508702182489,-90.00110626220703,6248.9658203125,True
1598620155.8631945,0,5,0.5,0.5,0.0007091903686523438,-0.14,-0.011,-0.56,-0.000337801821005137,10,1,100,-0.009854765163663822,-10,-1,-100,545.5697655553231,-0.0008490755335785942,4.142405725658437e-05,0.9999996386773276,5.032407690123366,-0.3638010072866561,-57.018219994024136,9.452575158896442,-90.00194549560547,6248.9658203125,True
1598620155.896605,0,5,0.5,0.5,0.0002500205993652344,-0.14,-0.011,-0.56,0.0004865024763432404,10,1,100,0.010101013921713241,-10,-1,-100,545.5697655553231,-0.0008490755335785942,4.142405725658437e-05,0.9999996386773276,5.032407690123366,-0.3638010072866561,-57.018219994024136,9.452575158896442,-90.00194549560547,6248.9658203125,True
1598620155.9338164,0,5,0.5,0.5,0.0008947723388671876,-0.14,-0.011,-0.56,-0.0008893617561970078,10,1,100,-0.023567977554528986,-10,-1,-100,546.0861832799856,-0.0005443719426342842,2.8971686271615495e-05,0.9999998514099037,4.816831629671981,-0.3481690572305817,-51.19077241531537,8.867724348159912,-90.00285339355469,6248.9658203125,True
1598620155.9689195,0,5,0.5,0.5,0.0006516181945800783,-0.14,-0.011,-0.56,-0.0005669210879751952,10,1,100,-0.015426849211874333,-10,-1,-100,546.4098527133465,-0.00034284976407341673,2.0642301592639117e-05,0.9999999410139656,4.672919579944706,-0.33774090438288984,-47.473480852332976,8.477854588668768,-90.00321960449219,6248.9658203125,True
1598620155.997864,0,5,0.5,0.5,0.0005292640686035157,-0.14,-0.011,-0.56,-0.0001721545774850218,10,1,100,-0.005819201042795676,-10,-1,-100,546.6013197705615,-0.0002484678162419292,1.671902773847825e-05,0.9999999689921089,4.60093413801735,-0.332526727636748,-45.66544624322907,8.28292893902223,-90.00332641601562,6248.9658203125,True
1598620156.0307903,0,5,0.5,0.5,0.00048218383789062506,-0.14,-0.011,-0.56,-0.0006221536384510741,10,1,100,-0.01721638218752478,-10,-1,-100,546.9237685373519,-6.052709793074938e-05,9.121536057006961e-06,0.9999999981266341,4.456828496770736,-0.3220924299474091,-42.14984552105381,7.893095090631441,-90.00333404541016,6248.9658203125,True
1598620156.0668013,0,5,0.5,0.5,0.0003344512939453125,-0.14,-0.011,-0.56,-0.0007490953078812188,10,1,100,-0.019281058739795152,-10,-1,-100,547.2462172921514,0.0001276388677181473,1.1201502911904946e-06,0.9999999918535323,4.312652897244055,-0.3116578028830351,-38.76927166605589,7.503283738631055,-90.00312042236328,6248.9658203125,True
1598620156.099588,0,5,0.5,0.5,0.00018755187988281255,-0.14,-0.011,-0.56,-0.0007491104350528006,10,1,100,-0.020185459850853772,-10,-1,-100,547.5057389407884,0.0003052905851488171,-6.0872602709839146e-06,0.9999999533803009,4.168454989102242,-0.3012259071983273,-35.52409859652531,7.113496641057404,-90.00273132324219,6248.9658203125,True
1598620156.1306868,0,5,0.5,0.5,0.0002380989074707032,-0.14,-0.011,-0.56,-0.0004437819883033034,10,1,100,-0.012122660692362567,-10,-1,-100,547.6354386135936,0.00039198023632238007,-9.801617510192509e-06,0.9999999231277084,4.096376314090705,-0.2960129510521001,-33.952483855835546,6.9186099036358,-90.00248718261719,6248.9658203125,True
1598620156.1646018,0,5,0.5,0.5,-3.434219360351563e-05,-0.14,-0.011,-0.56,-0.0008616323030631043,10,1,100,-0.02217077471467487,-10,-1,-100,547.8949603592046,0.0005607344297348584,-1.6919285274183408e-05,0.9999998426453062,3.9523162496515463,-0.2855968318704718,-30.911585319703057,6.528865368982681,-90.00189971923828,6248.9658203125,True
1598620156.199891,0,5,0.5,0.5,0.00029551010131835943,-0.14,-0.011,-0.56,-0.00015653138740096014,10,1,100,-0.005456471940437247,-10,-1,-100,547.8949603592046,0.0005607344297348584,-1.6919285274183408e-05,0.9999998426453062,3.9523162496515463,-0.2855968318704718,-30.911585319703057,6.528865368982681,-90.00189971923828,6248.9658203125,True
1598620156.234766,0,5,0.5,0.5,-0.0001691703796386719,-0.14,-0.011,-0.56,-0.0009553283655614756,10,1,100,-0.023733579105265763,-10,-1,-100,548.1531393065816,0.0007256083039939235,-2.412803658243285e-05,0.9999997364551788,3.808472397990807,-0.2751997493449459,-28.007364913422986,6.139127046315836,-90.00123596191406,6248.9658203125,True
1598620156.2646027,0,5,0.5,0.5,-0.0005939926147460939,-0.14,-0.011,-0.56,-0.0013110427280415133,10,1,100,-0.03305136398551036,-10,-1,-100,548.4794338546926,0.0009587692487429587,-3.38556209817154e-05,0.9999995398075563,3.593456977139097,-0.25966389969487286,-23.908819969744386,5.554554914974965,-90.0000991821289,6248.9658203125,True
1598620156.2976809,0,5,0.5,0.5,-0.0005372077941894532,-0.14,-0.011,-0.56,-0.001038891546583911,10,1,100,-0.02618174768014088,-10,-1,-100,548.7365143225761,0.0011069161946556524,-4.016766214303648e-05,0.9999993865613603,3.4509299773435465,-0.24936884454212693,-21.349308107520603,5.164862523427357,-89.99927520751953,6248.9658203125,True
1598620156.3336082,0,5,0.5,0.5,-0.000357830810546875,-0.14,-0.011,-0.56,-0.0007538292989179472,10,1,100,-0.019011761207384077,-10,-1,-100,548.8045687781414,0.0011750955721341948,-4.3259124616605365e-05,0.9999993086392831,3.380041938500634,-0.2442492561556363,-20.121806387504634,4.970022724526592,-89.9988784790039,6248.9658203125,True
1598620156.4333696,0,5,0.5,0.5,-0.0003969032287597657,-0.14,-0.011,-0.56,-0.0007593279976464897,10,1,100,-0.019747526470533013,-10,-1,-100,548.9330478557386,0.0012424714509720635,-4.606500762433193e-05,0.9999992270710555,3.309381603377433,-0.23914660409665695,-18.92876486200308,4.775187189841365,-89.9985122680664,6248.9658203125,True
1598620156.4628518,0,5,0.5,0.5,-0.00044813613891601565,-0.14,-0.011,-0.56,-0.0007972038060182676,10,1,100,-0.020497151398009453,-10,-1,-100,549.024661993375,0.001309352477848182,-4.8909966304116485e-05,0.9999991416015834,3.239091042246837,-0.23407154010488712,-17.7708157945307,4.580354423996013,-89.99815368652344,6248.9658203125,True
1598620156.5246623,0,5,0.5,0.5,-0.0006853805541992188,-0.14,-0.011,-0.56,-0.0011295984863095277,10,1,100,-0.028116114784623922,-10,-1,-100,549.196232374874,0.0014383424297864848,-5.447258027329998e-05,0.9999989641013598,3.0998758943978686,-0.22402047466977654,-15.560261273973842,4.190697237498237,-89.9975357055664,6248.9658203125,True
1598620156.6377187,0,5,0.5,0.5,-0.0008844245910644532,-0.14,-0.011,-0.56,-0.0014402993335743965,10,1,100,-0.03469674887222606,-10,-1,-100,549.4243212353904,0.001614399921577109,-6.231006856587259e-05,0.9999986949143228,2.8961129734984117,-0.20931203758584568,-12.510247297520797,3.606245444961369,-89.99676513671875,6248.9658203125,True
1598620156.7389474,0,5,0.5,0.5,-0.0005980552673339845,-0.14,-0.011,-0.56,-0.0009280829744621159,10,1,100,-0.02322549150716326,-10,-1,-100,549.4926201478811,0.0016690567383541466,-6.473081061168543e-05,0.9999986050287901,2.830150573990143,-0.20455144740488235,-11.565041439469764,3.4114389545323047,-89.99656677246094,6248.9658203125,True
1598620156.7655067,0,5,0.5,0.5,-0.0006156707763671876,-0.14,-0.011,-0.56,-0.0009606525330412114,10,1,100,-0.023550902444774837,-10,-1,-100,549.5568903426174,0.001720695469121905,-6.718410707192751e-05,0.9999985173456001,2.765633184915862,-0.19989487761339209,-10.656153893696196,3.2166314730793966,-89.99639129638672,6248.9658203125,True
1598620156.792483,0,5,0.5,0.5,-0.0006676589965820313,-0.14,-0.011,-0.56,-0.0011870545521378878,10,1,100,-0.02895381704660116,-10,-1,-100,549.6738949439023,0.001815702665255209,-7.142688146230124e-05,0.9999983490596532,2.6421255152546292,-0.1909816066632562,-8.947456306032999,2.827026172585756,-89.99618530273438,6248.9658203125,True
1598620156.8414667,0,5,0.5,0.5,-0.0005631988525390626,-0.14,-0.011,-0.56,-0.0014566422452459648,10,1,100,-0.033951297283243864,-10,-1,-100,549.8201968737412,0.0019465134871992724,-7.769174735009636e-05,0.9999981025228182,2.479536906468461,-0.17925162915093784,-6.661486800142256,2.2426480364386374,-89.99617767333984,6248.9658203125,True
1598620156.8971415,0,5,0.5,0.5,-0.00032291412353515627,-0.14,-0.011,-0.56,-0.0013623386463068278,10,1,100,-0.03275887309098786,-10,-1,-100,549.9314647185383,0.0020536942470020425,-8.248992350649215e-05,0.9999978877654454,2.379125213220486,-0.1720174376024475,-4.726562874098969,1.6582931853904856,-89.99652099609375,6248.9658203125,True
1598620156.9300518,0,5,0.5,0.5,-0.00023515396118164064,-0.14,-0.011,-0.56,-0.0012060770342111416,10,1,100,-0.028463902072620336,-10,-1,-100,549.9860305393813,0.002111225402971814,-8.539286693746985e-05,0.9999977677151864,2.390728172454014,-0.17287407633307442,-3.6340035096612997,1.2687335516864426,-89.9969253540039,6248.9658203125,True
1598620156.9725292,0,5,0.5,0.5,-8.990249633789065e-05,-0.14,-0.011,-0.56,-0.0011739156561531691,10,1,100,-0.02804848183973721,-10,-1,-100,550.025154298055,0.002158898879162816,-8.770122685390359e-05,0.9999976657293377,2.464595100997448,-0.17823417244129894,-2.596129869512561,0.8791874751933536,-89.9974594116211,6248.9658203125,True
1598620157.0295925,0,5,0.5,0.5,-0.00039013290405273443,-0.14,-0.011,-0.56,-0.0009472432864327524,10,1,100,-0.02337277696345606,-10,-1,-100,550.025154298055,0.002158898879162816,-8.770122685390359e-05,0.9999976657293377,2.464595100997448,-0.17823417244129894,-2.596129869512561,0.8791874751933536,-89.9974594116211,6248.9658203125,True
1598620157.0635443,0,5,0.5,0.5,0.0007199432373046876,-0.14,-0.011,-0.56,-0.0014064465554292636,10,1,100,-0.03191551962820495,-10,-1,-100,550.054695787956,0.0022357878612047927,-9.184053724428115e-05,0.9999974964058437,1.4421885704234594,-0.10431862108095004,0.16362942945444883,-0.09469435568380555,-89.9990463256836,6248.9658203125,True
1598620157.0994382,0,5,0.5,0.5,0.0003456283569335938,-0.14,-0.011,-0.56,-0.0011337454907668445,10,1,100,-0.0259966807677623,-10,-1,-100,550.0392539794557,0.0022511543593921853,-9.309047523226515e-05,0.9999974618158857,1.1842656958424895,-0.08566848984025283,0.6871460825967511,-0.4842588300897398,-89.9997787475586,6248.9658203125,True
1598620157.1295743,0,5,0.5,0.5,-6.121292114257813e-05,-0.14,-0.011,-0.56,-0.0010118297326350842,10,1,100,-0.024523706392804552,-10,-1,-100,550.0392539794557,0.0022511543593921853,-9.309047523226515e-05,0.9999974618158857,1.1842656958424895,-0.08566848984025283,0.6871460825967511,-0.4842588300897398,-89.9997787475586,6248.9658203125,True
1598620157.1654842,0,5,0.5,0.5,0.0006045516967773439,-0.14,-0.011,-0.56,-0.0011305590653987317,10,1,100,-0.024837371416499904,-10,-1,-100,549.9868246612605,0.0022534766799521084,-9.414405128955233e-05,0.9999974564866405,1.1541441610533254,-0.08350587710961332,1.477872311573031,-1.0686187920439485,-90.00072479248047,6248.9658203125,True
1598620157.1984081,0,5,0.5,0.5,0.0004533737182617188,-0.14,-0.011,-0.56,-0.0010178569495277816,10,1,100,-0.023773672091316637,-10,-1,-100,549.9324423266808,0.002245433540040527,-9.40527739753342e-05,0.9999974745879575,1.3891046001883747,-0.10052210891079356,2.427388034756513,-1.4581895477375746,-90.00125885009766,6248.9658203125,True
1598620157.2345448,0,5,0.5,0.5,0.00033078079223632816,-0.14,-0.011,-0.56,-0.001020027145276016,10,1,100,-0.023777872308566338,-10,-1,-100,549.8993613328785,0.002237769114027918,-9.396895465783527e-05,0.9999974917764684,1.5012518959081527,-0.108646945239937,2.9739320487918297,-1.652971811736704,-90.00150299072266,6248.9658203125,True
1598620157.26753,0,5,0.5,0.5,0.00019991989135742188,-0.14,-0.011,-0.56,-0.0010300367977566828,10,1,100,-0.0245734404725101,-10,-1,-100,549.8993613328785,0.002237769114027918,-9.396895465783527e-05,0.9999974917764684,1.5012518959081527,-0.108646945239937,2.9739320487918297,-1.652971811736704,-90.00150299072266,6248.9658203125,True
1598620157.2984447,0,5,0.5,0.5,0.0006807113647460939,-0.14,-0.011,-0.56,-0.0009071002034425307,10,1,100,-0.018938181072901693,-10,-1,-100,549.7282793560298,0.0021863721423341816,-9.284091377211448e-05,0.9999976055758433,1.8861810502704486,-0.13655633606934076,5.498984477576521,-2.4320849126243114,-90.00218200683594,6248.9658203125,True
