Timestamp,Input Throttle,horizon,dT,dt,Input Roll,Roll P,Roll I,Roll D,Input Pitch,Pitch P,Pitch I,Pitch D,Input Yaw,Yaw P,Yaw I,Yaw D,Altitude,Direction X,Direction Y,Direction Z,Drag X,Drag Y,Drag Z,Vertical Velocity,Roll,Mass,Has Fuel
1598628019.4648674,0,5,0.5,0.5,-0.009493408203125001,-0.14,-0.011,-0.56,0.004306711085416908,10,1,100,0.1265059244598981,-10,-1,-100,478.53331143956166,-0.011741310552756231,0.00041416680443438574,0.9999309826644848,5.398792490171991,-0.4421131555421571,112.66969738281867,-14.239951480839977,-89.92218017578125,6440.1796875,True
1598628019.5132256,0,5,0.5,0.5,-0.009399566650390627,-0.14,-0.011,-0.56,0.004276604293764936,10,1,100,0.1234170148783515,-10,-1,-100,477.6538874846883,-0.01178521762816999,0.00041501698233418246,0.999930465785677,5.585824517567824,-0.45789756245608276,121.4721064300396,-14.823335413055934,-89.9244384765625,6440.1796875,True
1598628019.558696,0,5,0.5,0.5,-0.008760638427734375,-0.14,-0.011,-0.56,0.004054891308013755,10,1,100,0.11747478385853294,-10,-1,-100,477.03810763231013,-0.01176039903506763,0.0004133970105705013,0.9999307586615422,6.031118867491751,-0.49162332143679943,127.54734267457226,-14.566545790924287,-89.92727661132812,6438.60107421875,True
1598628019.6058543,0,5,0.5,0.5,-0.0067983978271484394,-0.14,-0.011,-0.56,0.004065293680165298,10,1,100,0.11761637190145804,-10,-1,-100,476.4966234732419,-0.01172843256987838,0.0004116430605225593,0.9999311348385171,5.87269700894871,-0.4731338483305372,114.05186672984892,-13.663687690056207,-89.93246459960938,6435.443359375,True
1598628019.6521678,0,5,0.5,0.5,-0.004544195556640626,-0.14,-0.011,-0.56,0.004050447500601958,10,1,100,0.11485032726284511,-10,-1,-100,476.0072880318621,-0.011663564075200871,0.0004095393742461066,0.9999318944560996,5.709298169210502,-0.4547728070595208,101.41961312152873,-12.760278143976507,-89.93994140625,6432.28515625,True
1598628019.697801,0,5,0.5,0.5,-0.0021108703613281245,-0.14,-0.011,-0.56,0.0038770440703956143,10,1,100,0.11104989453085942,-10,-1,-100,475.47703732480295,-0.011559440087862175,0.00040567822883450454,0.9999331051475543,5.527929853157895,-0.43551244019117213,89.41240443375628,-11.856326473690054,-89.94949340820312,6429.126953125,True
1598628019.746745,0,5,0.5,0.5,0.00023896789550781252,-0.14,-0.011,-0.56,0.0037647377697321406,10,1,100,0.10710221671102066,-10,-1,-100,475.05795993166976,-0.01141838535547586,0.00040077833188262155,0.9999347277960711,5.3348675214970696,-0.41586993842621356,78.15263217424922,-10.95182459069052,-89.9605712890625,6425.9697265625,True
1598628019.7907462,0,5,0.5,0.5,0.002451455688476563,-0.14,-0.011,-0.56,0.0035669833294790297,10,1,100,0.10281485821736924,-10,-1,-100,474.65310237184167,-0.011240797443950129,0.0003941617685314427,0.9999367425539101,5.1291937023986,-0.3957813149603237,67.62646878743458,-10.04676587756172,-89.97265625,6422.8115234375,True
1598628019.8360064,0,5,0.5,0.5,0.004326895141601563,-0.14,-0.011,-0.56,0.0034505465947542078,10,1,100,0.09828556688959808,-10,-1,-100,474.24842769722454,-0.011027959605543407,0.0003867298662887532,0.9999391154200086,4.91130387133545,-0.3752804633197541,57.839009301810336,-9.14114397374043,-89.98504638671875,6419.65380859375,True
1598628019.8885639,0,5,0.5,0.5,0.0059115509033203124,-0.14,-0.011,-0.56,0.0032805596197172313,10,1,100,0.09348772764451643,-10,-1,-100,473.91345439211,-0.010780828523304243,0.00037807668278025495,0.9999418137043639,4.681950352115817,-0.35442359543367163,48.795617077390425,-8.234952154291012,-89.99724578857422,6416.49609375,True
1598628019.9300067,0,5,0.5,0.5,0.007109082794189454,-0.14,-0.011,-0.56,0.003092531400727176,10,1,100,0.08851374304302591,-10,-1,-100,473.63390003389213,-0.010501145108052085,0.0003681570987973649,0.9999447936820164,4.442390872820979,-0.3332995023410912,40.50172174848337,-7.328183828213188,-90.00872039794922,6413.337890625,True
1598628019.978012,0,5,0.5,0.5,0.00808440399169922,-0.14,-0.011,-0.56,0.0028716167522897483,10,1,100,0.08215454125462959,-10,-1,-100,473.36877967754845,-0.010190203955605341,0.00035717280719588555,0.9999480147342306,4.194806145604257,-0.3120612100422388,32.96392403875965,-6.420832209065205,-90.01915740966797,6410.1806640625,True
1598628020.0247521,0,5,0.5,0.5,0.00862972640991211,-0.14,-0.011,-0.56,0.002602332632719807,10,1,100,0.07559231834032373,-10,-1,-100,473.1182463254081,-0.009849323621135126,0.0003447916357213033,0.9999514347921773,3.9433853892753645,-0.29100132085215275,26.192402840502744,-5.512891054101812,-90.02813720703125,6407.0224609375,True
1598628020.1657927,0,5,0.5,0.5,0.008721446990966799,-0.14,-0.011,-0.56,0.0023999797822432077,10,1,100,0.06897132192106323,-10,-1,-100,472.9230713007273,-0.009480978872727046,0.00033175882244448597,0.9999549994753257,3.6969804423508212,-0.2707438298137427,20.20486547164378,-4.60435451908046,-90.03529357910156,6403.86474609375,True
1598628020.209034,0,5,0.5,0.5,0.008426538848876956,-0.14,-0.011,-0.56,0.0021735512505811753,10,1,100,0.06218645135584199,-10,-1,-100,472.76604300527833,-0.009086482508760554,0.0003179249912123409,0.9999586665254309,3.478418820162987,-0.2529093039815844,15.04189397648085,-3.695216194485091,-90.04043579101562,6400.70703125,True
1598628020.2510543,0,5,0.5,0.5,0.007788333892822267,-0.14,-0.011,-0.56,0.0019101212142505054,10,1,100,0.05537298563695357,-10,-1,-100,472.64557424676605,-0.008668251654588795,0.0003030372482919609,0.9999623840833607,3.3627961680528498,-0.24285038144486293,10.815619635982948,-2.7854683790036656,-90.0434799194336,6397.548828125,True
1598628020.296667,0,5,0.5,0.5,0.006849238586425782,-0.14,-0.011,-0.56,0.0016198348849778559,10,1,100,0.04851750866038294,-10,-1,-100,472.5612386595458,-0.008228347622312256,0.00028695727989872096,0.9999661054010409,3.700077222354178,-0.2655125520088011,7.910309235111256,-1.875112000291093,-90.04442596435547,6394.3916015625,True
1598628020.3818245,0,5,0.5,0.5,0.0056853752136230475,-0.14,-0.011,-0.56,0.001423038357254992,10,1,100,0.04162671991705077,-10,-1,-100,472.5136156537337,-0.007768691365969804,0.000270653541154644,0.9999697866341368,7.117103120291798,-0.507683862841556,7.730973875114766,-0.964141595138195,-90.04338836669922,6391.2333984375,True
1598628020.4230142,0,5,0.5,0.5,0.0010143402099609365,-0.14,-0.011,-0.56,-0.0007695197421003527,10,1,100,-0.019950116848039587,-10,-1,-100,472.52762284874916,-0.006794189076955827,0.00023601189432714066,0.9999768913795819,0.705220524040639,-0.049767988864557515,-0.6685725484873398,0.8597494917233289,-90.03577423095703,6384.91796875,True
1598628020.466111,0,5,0.5,0.5,0.0009174003601074223,-0.14,-0.011,-0.56,0.0006783438508794744,10,1,100,0.020816735254196736,-10,-1,-100,472.58922352665104,-0.006282734533807621,0.000217818900758283,0.9999802397056176,1.0738472369011078,-0.07542529842334042,-2.079165430602721,1.7726917370915718,-90.02946472167969,6381.759765625,True
1598628020.5096755,0,5,0.5,0.5,-0.0005446563720703131,-0.14,-0.011,-0.56,0.0005012440147804469,10,1,100,0.016598678305093567,-10,-1,-100,472.6876278386917,-0.005783519062307857,0.00019981550607844122,0.9999832553503182,1.843524057448476,-0.12892949235704998,-5.362028928721485,2.6862548472542254,-90.02227783203125,6378.6025390625,True
1598628020.5518172,0,5,0.5,0.5,-0.0017762336730957032,-0.14,-0.011,-0.56,0.00025761383229713753,10,1,100,0.00818803962474867,-10,-1,-100,472.8225020619575,-0.005257515214801067,0.00018138700161302672,0.9999861627205259,2.4259730960675734,-0.16900018554572813,-9.382928775732292,3.600441562420838,-90.0147476196289,6375.4443359375,True
1598628020.5977783,0,5,0.5,0.5,-0.0028780387878417973,-0.14,-0.011,-0.56,4.382290667774395e-05,10,1,100,0.002757630327579093,-10,-1,-100,472.9938756931806,-0.004734446804130447,0.00016285006714391256,0.9999887791837039,2.9281767186376264,-0.20326534781932049,-14.101790664449368,4.51526160212004,-90.00715637207031,6372.287109375,True
1598628020.646147,0,5,0.5,0.5,-0.0037876533508300783,-0.14,-0.011,-0.56,-0.00017782026541932798,10,1,100,-0.0030808856030655196,-10,-1,-100,473.19479099975433,-0.0042105025376213,0.0001441487720334512,0.9999911254053768,3.3986614169002993,-0.23518020569608866,-19.560730351240014,5.430699636580586,-89.99981689453125,6369.12841796875,True
1598628020.6929426,0,5,0.5,0.5,-0.004501726531982423,-0.14,-0.011,-0.56,-0.0003385819101447496,10,1,100,-0.009060819905898493,-10,-1,-100,473.48860233312007,-0.003684617871073691,0.00012585667975408343,0.9999932038525262,3.8551553463326016,-0.26602351274870767,-25.784997517292425,6.346754939952355,-89.99298095703125,6365.97119140625,True
1598628020.7497728,0,5,0.5,0.5,-0.0007258018493652345,-0.14,-0.011,-0.56,0.001471420486646201,10,1,100,0.04298746028509377,-10,-1,-100,473.48860233312007,-0.003684617871073691,0.00012585667975408343,0.9999932038525262,3.8551553463326016,-0.26602351274870767,-25.784997517292425,6.346754939952355,-89.99298095703125,6365.97119140625,True
1598628020.789767,0,5,0.5,0.5,-0.008535867309570313,-0.14,-0.011,-0.56,-0.0026158031615209354,10,1,100,-0.07275526363557137,-10,-1,-100,474.0908450834686,-0.002636941866143567,8.886117437850754e-05,0.9999965193145856,4.750300196663779,-0.32630859988610955,-40.582937916133844,8.180702619182725,-89.98190307617188,6359.6552734375,True
1598628020.8364334,0,5,0.5,0.5,-0.0053063026428222665,-0.14,-0.011,-0.56,-0.0010093936228998497,10,1,100,-0.0270057382345918,-10,-1,-100,474.3991542116273,-0.002105497006903422,7.001270721137588e-05,0.9999977809878253,5.1929805088948875,-0.3560900362669171,-49.17202039183888,9.098588505733542,-89.97775268554688,6356.49755859375,True
1598628020.8848991,0,5,0.5,0.5,-0.005062339782714844,-0.14,-0.011,-0.56,-0.0010569632997579773,10,1,100,-0.028267037592776087,-10,-1,-100,474.832891226979,-0.001616047317391675,5.262768620976709e-05,0.999998692809843,5.633022873061048,-0.3857123635994723,-58.56128880840317,10.017078079825213,-89.97488403320312,6353.33935546875,True
1598628020.933179,0,5,0.5,0.5,-0.004462815093994141,-0.14,-0.011,-0.56,-0.0012967379232173594,10,1,100,-0.03552343691359002,-10,-1,-100,475.21096489205956,-0.0011098331892459277,3.481006527514415e-05,0.9999993835290857,6.070059283575815,-0.4151771641237688,-68.75172596188271,10.936167087467465,-89.97354125976562,6350.181640625,True
1598628020.9798079,0,5,0.5,0.5,-0.0038578269958496098,-0.14,-0.011,-0.56,-0.0014436720923066107,10,1,100,-0.03906432704678292,-10,-1,-100,475.714405415114,-0.0006221512545794599,1.7442834556932953e-05,0.9999998063117631,6.503827741519351,-0.4444884405915802,-79.7461867123484,11.85585254094142,-89.97341918945312,6347.02392578125,True
1598628021.0271437,0,5,0.5,0.5,-0.0031596183776855472,-0.14,-0.011,-0.56,-0.001568024977172473,10,1,100,-0.04283498226067539,-10,-1,-100,476.23237274831627,-0.00014921751003612883,6.897555611617631e-07,0.9999999888668294,6.933888346522627,-0.47363971419922446,-91.54720390695148,12.77613138801792,-89.97439575195312,6343.8662109375,True
1598628021.0768774,0,5,0.5,0.5,-0.0024050552368164065,-0.14,-0.011,-0.56,-0.0017081777547484057,10,1,100,-0.046643665744172676,-10,-1,-100,476.7504016474122,0.00031070274603072477,-1.565016218927338e-05,0.999999951609437,7.359658981340423,-0.502612209509963,-104.15571573718582,13.696999128413653,-89.976318359375,6340.70849609375,True
1598628021.1252232,0,5,0.5,0.5,-0.0016357543945312502,-0.14,-0.011,-0.56,-0.0018230527365903952,10,1,100,-0.050072750162611195,-10,-1,-100,477.3237289527897,0.0007553990648498862,-3.138667795247506e-05,0.9999997141935238,7.78056844511039,-0.5313874522685574,-117.57267269053399,14.618452792029727,-89.97900390625,6337.55029296875,True
1598628021.177876,0,5,0.5,0.5,-0.0009195129394531248,-0.14,-0.011,-0.56,-0.0019373985593751856,10,1,100,-0.0532149495501749,-10,-1,-100,477.91155255259946,0.0011837194385701838,-4.657253117162384e-05,0.9999992983193988,8.19604874960568,-0.5599444758314237,-131.79847813278454,15.540488510059843,-89.98220825195312,6334.392578125,True
1598628021.2200332,0,5,0.5,0.5,-0.00020504455566406222,-0.14,-0.011,-0.56,-0.0020425763256135938,10,1,100,-0.05604648515287999,-10,-1,-100,478.56901737698354,0.0015944170680590062,-6.117725996308489e-05,0.9999987270449676,8.605553373694091,-0.5882656311895433,-146.83318129933232,16.46310299801999,-89.98580932617188,6331.2353515625,True
1598628021.2670667,0,5,0.5,0.5,0.0004193908691406253,-0.14,-0.011,-0.56,-0.0021458878048993537,10,1,100,-0.05867223720053967,-10,-1,-100,479.28236011241097,0.001986849899901085,-7.522345054908623e-05,0.9999980233825003,9.008565264746798,-0.6163294901393885,-162.67640783535612,17.386292381148692,-89.98959350585938,6328.0771484375,True
1598628021.316718,0,5,0.5,0.5,0.0009149108886718751,-0.14,-0.011,-0.56,-0.0021872132274279093,10,1,100,-0.06082120433010678,-10,-1,-100,480.0096497099148,0.0023589396375117257,-8.82192325366856e-05,0.9999972138066955,9.404612533987095,-0.6441175431963335,-179.32753481111902,18.310053400771693,-89.99331665039062,6324.9189453125,True
1598628021.364704,0,5,0.5,0.5,0.00010210571289062513,-0.14,-0.011,-0.56,-0.0015938538462086415,10,1,100,-0.043662791808743745,-10,-1,-100,480.37347810843494,0.0025371588881959034,-9.449555638728436e-05,0.9999967769424889,9.599822678521772,-0.6578972589289246,-187.9544976148129,18.7721472454869,-89.99510955810547,6323.34033203125,True
1598628021.4106326,0,5,0.5,0.5,0.002484888458251953,-0.14,-0.011,-0.56,-0.002934938916648255,10,1,100,-0.08155801700442605,-10,-1,-100,481.5346334343776,0.003039902794046279,-0.00011225923939855512,0.9999953731837292,10.174135546581264,-0.6987944502565554,-215.04839065877823,20.1592770150861,-89.99991607666016,6318.603515625,True
1598628021.4561427,0,5,0.5,0.5,0.0017128143310546876,-0.14,-0.011,-0.56,-0.0023934645717417174,10,1,100,-0.06636388251104311,-10,-1,-100,482.4019685522653,0.0033550417258037825,-0.00012335184872358393,0.999994364223789,10.54698330547547,-0.7256578677933322,-234.11598288583875,21.084719327643942,-90.00261688232422,6315.44580078125,True
1598628021.506507,0,5,0.5,0.5,0.0016690956115722657,-0.14,-0.011,-0.56,-0.002372977923851198,10,1,100,-0.06579576165378523,-10,-1,-100,483.25477711251006,0.003632751298717002,-0.00013312180159889584,0.9999933926764656,10.911471797410114,-0.7521869816145944,-253.98566469582863,22.010719723952466,-90.00466918945312,6312.28759765625,True
1598628021.5531945,0,5,0.5,0.5,0.001428958892822266,-0.14,-0.011,-0.56,-0.002416442763164307,10,1,100,-0.06740553626425201,-10,-1,-100,484.13660803763196,0.0038964107079980334,-0.00014227706497278942,0.9999923988415269,11.267306650264201,-0.7783630305191397,-274.6529371462878,22.937287830405772,-90.00592041015625,6309.1298828125,True
1598628021.5987232,0,5,0.5,0.5,0.0010812721252441407,-0.14,-0.011,-0.56,-0.002427675632426909,10,1,100,-0.06743555901165328,-10,-1,-100,485.12900355423335,0.004133114279628103,-0.00015058703330345858,0.9999914473083742,11.614426211414468,-0.8041820261118202,-296.11502197198183,23.86440711690104,-90.00637817382812,6305.9716796875,True
1598628021.6466813,0,5,0.5,0.5,0.0006253913879394532,-0.14,-0.011,-0.56,-0.00241567709517153,10,1,100,-0.06732259441104717,-10,-1,-100,486.08068865013774,0.004344201743636494,-0.00015792410839688076,0.9999905514409556,11.952822341984985,-0.8296418901412443,-318.3702219373696,24.79207457177146,-90.00605010986328,6302.814453125,True
1598628021.6949987,0,5,0.5,0.5,0.00010901489257812496,-0.14,-0.011,-0.56,-0.002440337527292456,10,1,100,-0.06699592027125453,-10,-1,-100,487.08767114242073,0.004530256507550493,-0.00016471713370361365,0.9999897247693306,12.282448368510792,-0.8547383555632684,-341.41387233475297,25.720286806346127,-90.00501251220703,6299.65625,True
1598628021.741723,0,5,0.5,0.5,-0.0005011177062988283,-0.14,-0.011,-0.56,-0.0023702797854385925,10,1,100,-0.06638462368701642,-10,-1,-100,488.15007352887187,0.00469117101539788,-0.00017016159553493522,0.9999889819190688,12.603406631888477,-0.8794713248044367,-365.24315567810106,26.649033693693227,-90.00328063964844,6296.49853515625,True
1598628021.7938967,0,5,0.5,0.5,-0.0011344078063964843,-0.14,-0.011,-0.56,-0.002337895114611301,10,1,100,-0.06553119533104765,-10,-1,-100,489.2414367340971,0.004827240018281701,-0.0001747303927877196,0.9999883335434948,12.915818609375025,-0.90384141465486,-389.8537622471603,27.578318917169057,-90.00096893310547,6293.3408203125,True
1598628021.8387659,0,5,0.5,0.5,-0.0017754043579101565,-0.14,-0.011,-0.56,-0.002284462513780488,10,1,100,-0.06433223650202634,-10,-1,-100,490.37369320716243,0.004937795576657008,-0.0001783194474097425,0.9999877931140049,13.21987883431165,-0.9278542364962816,-415.2419281029597,28.50814728910884,-89.9981918334961,6290.1826171875,True
1598628021.8887076,0,5,0.5,0.5,-0.002459880065917969,-0.14,-0.011,-0.56,-0.0022545299447394363,10,1,100,-0.06294786244844733,-10,-1,-100,491.53484944056254,0.0050235330140670584,-0.00018123390653755153,0.9999873655553493,13.51585774724947,-0.9515181258263355,-441.40336257858786,29.438507745444678,-89.99498748779297,6287.025390625,True
1598628021.9389527,0,5,0.5,0.5,-0.0030794677734375005,-0.14,-0.011,-0.56,-0.002174981939696224,10,1,100,-0.06129118164054813,-10,-1,-100,492.7514859540388,0.005084612104168002,-0.0001830975469104951,0.9999870565137522,13.80404166527603,-0.9748439883136967,-468.3327407643595,30.369397797320946,-89.99154663085938,6283.8671875,True
1598628021.9837162,0,5,0.5,0.5,-0.0036641548156738286,-0.14,-0.011,-0.56,-0.0020868732053046573,10,1,100,-0.05942115098910865,-10,-1,-100,494.0235425287392,0.005121565934357261,-0.00018393646266580508,0.9999868677786512,14.08486807789025,-0.9978397558018207,-496.027410427598,31.300811196152498,-89.98797607421875,6280.7099609375,True
1598628022.0301714,0,5,0.5,0.5,-0.004139670562744141,-0.14,-0.011,-0.56,-0.0020376283923654805,10,1,100,-0.05728279042531226,-10,-1,-100,495.31000245234463,0.005134367216098765,-0.00018420523808839717,0.9999868020837678,14.358715544067376,-1.0205184198666257,-524.4811029378384,32.23274845056168,-89.98446655273438,6277.5517578125,True
1598628022.081886,0,5,0.5,0.5,-0.004590515899658204,-0.14,-0.011,-0.56,-0.0019297517038544335,10,1,100,-0.05497752237675979,-10,-1,-100,496.5964927893365,0.005123922347687745,-0.00018343076569236628,0.9999868558000794,14.626102140783239,-1.0428993296322742,-553.6904238661155,33.165208346959226,-89.98104858398438,6274.39453125,True
1598628022.128017,0,5,0.5,0.5,-0.0049259956359863286,-0.14,-0.011,-0.56,-0.0018359333496547306,10,1,100,-0.05245031323009,-10,-1,-100,497.95274581352714,0.005090551649555221,-0.00018184394781016916,0.9999870265241855,14.887529149015315,-1.064996156083241,-583.6497532095228,34.09818639945721,-89.97787475585938,6271.236328125,True
1598628022.1767306,0,5,0.5,0.5,-0.005187701416015626,-0.14,-0.011,-0.56,-0.0017613497538806879,10,1,100,-0.04977219358279633,-10,-1,-100,499.32340287650004,0.00503518960909033,-0.0001797016081016684,0.9999873072059127,15.143617241060134,-1.0868335370615552,-614.3561525231389,35.031679151902374,-89.97500610351562,6268.07861328125,True
1598628022.2230008,0,5,0.5,0.5,-0.005365972137451172,-0.14,-0.011,-0.56,-0.0016209733745188404,10,1,100,-0.04694044503838134,-10,-1,-100,500.7498149330495,0.004958658282717075,-0.0001764642553957436,0.9999876902084354,15.394961141199436,-1.1084272931232562,-645.8043769031801,35.96568348254457,-89.97250366210938,6264.919921875,True
1598628022.277879,0,5,0.5,0.5,-0.005472458648681641,-0.14,-0.011,-0.56,-0.0015178685310546086,10,1,100,-0.043914856509415366,-10,-1,-100,502.2458374561975,0.004861335829144135,-0.0001725781610317182,0.9999881687453781,15.642251409544507,-1.1298023435043358,-677.9913924139819,36.90019632025056,-89.97039794921875,6261.7626953125,True
1598628022.3181624,0,5,0.5,0.5,-0.005523176574707032,-0.14,-0.011,-0.56,-0.0013878258481125733,10,1,100,-0.04079542120038771,-10,-1,-100,503.7418904074002,0.004744471372349518,-0.00016786509833927298,0.9999887308428559,15.88615772423189,-1.1509872385516793,-710.9126214021654,37.835215058920056,-89.96868896484375,6258.60498046875,True
1598628022.3670225,0,5,0.5,0.5,-0.0055171775817871105,-0.14,-0.011,-0.56,-0.0012630088565812713,10,1,100,-0.037540039197131364,-10,-1,-100,505.30788943963125,0.004608812324510542,-0.0001624552999222841,0.9999893661720772,16.127396009585613,-1.1719996817099394,-744.5641069897899,38.77073714372963,-89.96737670898438,6255.44677734375,True
1598628022.4129848,0,5,0.5,0.5,-0.005496279907226563,-0.14,-0.011,-0.56,-0.0011541713277667639,10,1,100,-0.0342005836923915,-10,-1,-100,506.8737350937445,0.004455504249786162,-0.00015656494074181256,0.9999900619352671,16.366724517976788,-1.1928728853372839,-778.9428366978528,39.70675949454264,-89.96640014648438,6252.2890625,True
1598628022.462007,0,5,0.5,0.5,-0.005404312133789063,-0.14,-0.011,-0.56,-0.0010171660437539956,10,1,100,-0.030754440744572863,-10,-1,-100,508.5096494418103,0.004285376616742358,-0.0001499886867286939,0.9999908064830628,16.60494876097235,-1.2136381867064672,-814.0476526995625,40.643276517308976,-89.96578979492188,6249.130859375,True
1598628022.5086262,0,5,0.5,0.5,-0.005321905517578125,-0.14,-0.011,-0.56,-0.0008668760908723734,10,1,100,-0.027245129192350923,-10,-1,-100,510.1454414136242,0.004099572471971078,-0.00014267486330505954,0.999991586539322,16.842803610041067,-1.2343144241003712,-849.873764518046,41.58028765838883,-89.9654541015625,6245.9736328125,True
1598628022.5554342,0,5,0.5,0.5,-0.005240280151367189,-0.14,-0.011,-0.56,-0.0007547557848479871,10,1,100,-0.023685295963970853,-10,-1,-100,511.7955764157232,0.0038992382153247565,-0.00013504441229679148,0.9999923888232085,17.081095556445245,-1.2549344770192579,-886.4197093606389,42.51779351525253,-89.96533203125,6242.8154296875,True
1598628022.6045275,0,5,0.5,0.5,-0.0051464843750000005,-0.14,-0.011,-0.56,-0.0005818201004786025,10,1,100,-0.020099026314093937,-10,-1,-100,513.5711385260802,0.0036856270616768224,-0.00012657948366173117,0.9999932000422787,17.320628258247527,-1.2755317734484504,-923.6839905770489,43.455787997234935,-89.96539306640625,6239.658203125,True
1598628022.6627824,0,5,0.5,0.5,-0.005151669311523438,-0.14,-0.011,-0.56,-0.0004752569601234834,10,1,100,-0.01645282922717319,-10,-1,-100,515.3467620399315,0.0034595650617411287,-0.00011796557859403748,0.9999940087289051,17.562213213364235,-1.2961402204001196,-961.665808870886,44.39426876311237,-89.9654541015625,6236.5,True
1598628022.7066898,0,5,0.5,0.5,-0.0051322692871093745,-0.14,-0.011,-0.56,-0.00031818613893825134,10,1,100,-0.0128176716690682,-10,-1,-100,517.1366672693985,0.003222439651768952,-0.00010876296291218441,0.9999948020131448,17.80662554230824,-1.3167850636866185,-1000.3623489272325,45.33323169597949,-89.96554565429688,6233.341796875,True
1598628022.7568758,0,5,0.5,0.5,-0.005169830322265625,-0.14,-0.011,-0.56,-0.00017922239243174046,10,1,100,-0.009088055547941468,-10,-1,-100,518.98205348989,0.0029745438767212282,-9.919518849906202e-05,0.9999955711147126,18.054686143476154,-1.337497617010531,-1039.775410279693,46.272675043970764,-89.965576171875,6230.1845703125,True
1598628022.8095372,0,5,0.5,0.5,-0.00525631103515625,-0.14,-0.011,-0.56,-3.487593552481275e-05,10,1,100,-0.0055196067883443445,-10,-1,-100,520.8418441546382,0.0027184589033655265,-8.925168303573565e-05,0.9999963010008226,18.307151127207405,-1.3583096356148254,-1079.9024088041172,47.21259498252465,-89.96548461914062,6227.0263671875,True
1598628022.866703,0,5,0.5,0.5,-0.005422189331054687,-0.14,-0.011,-0.56,9.706321172373467e-05,10,1,100,-0.0019178399721800805,-10,-1,-100,522.7571159506915,0.002454752876957926,-7.908415256254629e-05,0.9999969839624567,18.564811840855473,-1.3792544175299295,-1120.7451401252902,48.152989355447076,-89.96517944335938,6223.869140625,True
1598628022.917869,0,5,0.5,0.5,-0.005616867065429688,-0.14,-0.011,-0.56,0.00025743410159279,10,1,100,0.0016505882384894414,-10,-1,-100,524.742333963979,0.002184538105079069,-6.845881781298248e-05,0.9999976115504765,18.828438282171458,-1.4003634748146396,-1162.305663242019,49.093854119345885,-89.96466064453125,6220.7109375,True
1598628022.9598594,0,5,0.5,0.5,-0.005862310791015625,-0.14,-0.011,-0.56,0.0003405167838206747,10,1,100,0.005125495634852262,-10,-1,-100,526.7273688558489,0.0019093627598992704,-5.8124221950333554e-05,0.9999981754760485,19.09874864475061,-1.4216642120509952,-1204.585594230453,50.035186882899914,-89.96389770507812,6217.55322265625,True
1598628023.009199,0,5,0.5,0.5,-0.0062061889648437505,-0.14,-0.011,-0.56,0.000548949227651086,10,1,100,0.008622127734316552,-10,-1,-100,528.7270524110645,0.0016295758032469083,-4.691780755381112e-05,0.9999986711398275,19.37640770994815,-1.4431769488251336,-1247.5843277556653,50.97698455686276,-89.96279907226562,6214.39501953125,True
1598628023.057783,0,5,0.5,0.5,-0.006533816528320312,-0.14,-0.011,-0.56,0.0006324612936404363,10,1,100,0.01188713114755147,-10,-1,-100,530.7964381501079,0.001347787626777829,-3.6058009371388674e-05,0.9999990910837534,19.662120079032587,-1.4649407628515208,-1291.305394085371,51.919243327260965,-89.96145629882812,6211.2373046875,True
1598628023.108253,0,5,0.5,0.5,-0.006918328857421875,-0.14,-0.011,-0.56,0.000779613599700681,10,1,100,0.015153999840734008,-10,-1,-100,532.9213659845991,0.0010642372514938676,-2.4937704971298228e-05,0.9999994333884312,19.95655167688815,-1.486988688503424,-1335.753639294258,52.861961013371776,-89.9598388671875,6208.07958984375,True
1598628023.1622589,0,5,0.5,0.5,-0.0073431396484375,-0.14,-0.011,-0.56,0.0009308928210289441,10,1,100,0.0183337936100315,-10,-1,-100,535.0461716976715,0.0007799400486150008,-1.3545473303404915e-05,0.999999695754974,20.260275067738135,-1.5093311816795223,-1380.9308389479113,53.805134651582875,-89.95794677734375,6204.921875,True
1598628023.2044969,0,5,0.5,0.5,-0.007765826416015625,-0.14,-0.011,-0.56,0.0010281783387131123,10,1,100,0.021321891861374162,-10,-1,-100,537.2409244813025,0.0004967595391793942,-2.3994126311827677e-06,0.9999998766120939,20.573873760015154,-1.5320001579485514,-1426.841736262914,54.74876018209864,-89.95584106445312,6201.763671875,True
1598628023.2527797,0,5,0.5,0.5,-0.00822083740234375,-0.14,-0.011,-0.56,0.0011347098177098198,10,1,100,0.02429131011351531,-10,-1,-100,539.4501422464382,0.0002148058920480955,8.605143652370159e-06,0.9999999768921899,20.897855464291357,-1.5550202689757118,-1473.489608361654,55.69283401098907,-89.95352172851562,6198.6064453125,True
1598628023.2997253,0,5,0.5,0.5,-0.008686978149414062,-0.14,-0.011,-0.56,0.0012797021424736789,10,1,100,0.02703500547869964,-10,-1,-100,541.7291234803852,-6.394943776869436e-05,1.9829397469679327e-05,0.9999999977586322,21.23273671877272,-1.5784137175552746,-1520.8798174266885,56.63735384819731,-89.95101928710938,6195.4482421875,True
1598628023.3518808,0,5,0.5,0.5,-0.009117318725585938,-0.14,-0.011,-0.56,0.0013889000029218327,10,1,100,0.029666968829995356,-10,-1,-100,543.9938227522653,-0.000338760851394706,3.0926807779938684e-05,0.9999999421423073,21.57894360761775,-1.6022000360701374,-1569.016528436817,57.58231712087347,-89.94842529296875,6192.2900390625,True
1598628023.4006982,0,5,0.5,0.5,-0.009541632080078126,-0.14,-0.011,-0.56,0.0014883024230381784,10,1,100,0.03217278312480111,-10,-1,-100,546.3426894099684,-0.0006088299812544483,4.181901100819353e-05,0.9999998137885947,21.936913938341103,-1.626402692968142,-1617.9075092644223,58.52771953479861,-89.94577026367188,6189.1328125,True
1598628023.4510906,0,5,0.5,0.5,-0.009955477905273437,-0.14,-0.011,-0.56,0.0015504908979145316,10,1,100,0.03452208698852209,-10,-1,-100,548.6916781654581,-0.0008731652543550107,5.218611114291826e-05,0.9999996174294511,22.306977443773874,-1.651032622748942,-1667.557674691374,59.47355813320223,-89.94308471679688,6185.974609375,True
1598628023.502901,0,5,0.5,0.5,-0.010354348754882812,-0.14,-0.011,-0.56,0.0016909867570726093,10,1,100,0.036681428855369805,-10,-1,-100,551.0960866985843,-0.0011305708577684518,6.278770059129303e-05,0.9999993589334147,22.689446156615865,-1.6761108897072359,-1717.9734902302598,60.419828870065615,-89.94039916992188,6182.8173828125,True
1598628023.556875,0,5,0.5,0.5,-0.01071224060058594,-0.14,-0.011,-0.56,0.0017727195938799568,10,1,100,0.03869581151310414,-10,-1,-100,553.5701980477897,-0.001380379297159151,7.306880268975044e-05,0.9999990446065166,23.084588848119065,-1.7016534628088191,-1769.161848840488,61.36652900736327,-89.93777465820312,6179.6591796875,True
1598628023.645093,0,5,0.5,0.5,-0.011062997436523439,-0.14,-0.011,-0.56,0.0018905103669326381,10,1,100,0.04056672042489608,-10,-1,-100,556.0588965964271,-0.0016220059895088615,8.338687815968052e-05,0.9999986810707294,23.49260020658445,-1.7276718977632846,-1821.1285759230018,62.31365412623427,-89.93521118164062,6176.5009765625,True
1598628023.6950922,0,5,0.5,0.5,-0.013093872070312502,-0.14,-0.011,-0.56,0.0029612716359427803,10,1,100,0.0668888551890879,-10,-1,-100,561.1061181955738,-0.0020785167138276123,0.00010240266322959008,0.9999978346386381,24.34777876219584,-1.7811729801472602,-1927.420622417322,64.2091678134976,-89.9302978515625,6170.185546875,True
1598628023.7456956,0,5,0.5,0.5,-0.011205950927734375,-0.14,-0.011,-0.56,0.001550887440641564,10,1,100,0.03341561064440088,-10,-1,-100,562.3925206925487,-0.0021866256430180106,0.00010676265866628499,0.9999976036321446,24.569764368180035,-1.7948534742961053,-1954.4865239165238,64.68330655593971,-89.92910766601562,6168.6064453125,True
1598628023.7930796,0,5,0.5,0.5,-0.012918707275390625,-0.14,-0.011,-0.56,0.0025395854496858532,10,1,100,0.05563418782816188,-10,-1,-100,566.3628121257061,-0.0024844541119687477,0.00011961521635341256,0.9999969065851981,25.25591560719095,-1.8366947401792184,-2036.9135818855634,66.10634032359685,-89.92575073242188,6163.86962890625,True
1598628023.8480785,0,5,0.5,0.5,-0.011774328613281251,-0.14,-0.011,-0.56,0.0017413337316295437,10,1,100,0.037069002905321946,-10,-1,-100,567.7046957534039,-0.0025839789844399486,0.00012394160765692478,0.9999966538399445,25.491385349503517,-1.850903624625581,-2064.8091053773046,66.5808894619233,-89.92474365234375,6162.291015625,True
1598628023.9038892,0,5,0.5,0.5,-0.013247323608398438,-0.14,-0.011,-0.56,0.002610345900448974,10,1,100,0.05648449395053645,-10,-1,-100,571.7448107671225,-0.0028486696693278348,0.0001356801538219423,0.9999959333277365,26.217205007380503,-1.8942935467854671,-2149.7278002223966,68.00514291079527,-89.921875,6157.55419921875,True
1598628023.9541724,0,5,0.5,0.5,-0.012951821899414063,-0.14,-0.011,-0.56,0.0022574062451374034,10,1,100,0.04863083063955752,-10,-1,-100,574.5129891285906,-0.0030156188902007107,0.00014304778679090577,0.9999954427796358,26.717204375840318,-1.9238557651046682,-2207.381188746564,68.95514562164209,-89.9200439453125,6154.396484375,True
1598628023.9986677,0,5,0.5,0.5,-0.012638323974609376,-0.14,-0.011,-0.56,0.0019070955424076211,10,1,100,0.040323583458480514,-10,-1,-100,575.8693989361636,-0.003089682490339947,0.00014646896603261753,0.9999952161930331,26.97183603029123,-1.9388145763278277,-2236.510675387486,69.43029544833306,-89.9190673828125,6152.8173828125,True
1598628024.0499063,0,5,0.5,0.5,-0.014083200073242187,-0.14,-0.011,-0.56,0.0026497058301400075,10,1,100,0.05589951113055626,-10,-1,-100,580.1190473005408,-0.0032965973627254092,0.00015624441990911382,0.9999945540019252,27.75496425266017,-1.9844815252334957,-2325.201214625898,70.85633583685572,-89.916259765625,6148.0810546875,True
1598628024.098005,0,5,0.5,0.5,-0.013904675292968752,-0.14,-0.011,-0.56,0.0023468815714361834,10,1,100,0.0493255079183535,-10,-1,-100,582.9571105159121,-0.0034229690115967527,0.0001622932877001504,0.9999941284547799,28.292293609910462,-2.0155409280613683,-2385.3943447284514,71.80751473242589,-89.914306640625,6144.9228515625,True
1598628024.145779,0,5,0.5,0.5,-0.01418256530761719,-0.14,-0.011,-0.56,0.002308941643277932,10,1,100,0.048611444820104065,-10,-1,-100,585.8649365840247,-0.0035295039463007633,0.000167366236813281,0.9999937572757321,28.841318486213147,-2.0470686225780605,-2446.430462947522,72.75907801719016,-89.91238403320312,6141.7646484375,True
1598628024.1936836,0,5,0.5,0.5,-0.014476840209960939,-0.14,-0.011,-0.56,0.002357826901313454,10,1,100,0.048893836439360946,-10,-1,-100,588.772823488689,-0.0036271869944278427,0.0001723460752994921,0.9999934068839343,29.40196584968495,-2.0790778057923363,-2508.336420349662,73.71102143536531,-89.91046142578125,6138.607421875,True
1598628024.2476609,0,5,0.5,0.5,-0.014767825317382813,-0.14,-0.011,-0.56,0.002376495878135968,10,1,100,0.04849194022518661,-10,-1,-100,591.7650607830146,-0.003710928281432148,0.00017697933424709787,0.9999930988209895,29.973730799200858,-2.1115533798326704,-2571.1119873922057,74.66334160020473,-89.90853881835938,6135.44921875,True
1598628024.2977524,0,5,0.5,0.5,-0.015080978393554687,-0.14,-0.011,-0.56,0.002338487836576001,10,1,100,0.048018118732845144,-10,-1,-100,594.7981306232978,-0.003781363526379854,0.00018078202684384813,0.9999928342781964,30.556161735907843,-2.144478564961505,-2634.7566155079953,75.61603393053058,-89.90658569335938,6132.291015625,True
1598628024.3926964,0,5,0.5,0.5,-0.015439584350585938,-0.14,-0.011,-0.56,0.002377296381805157,10,1,100,0.04746804710693648,-10,-1,-100,597.8457267408958,-0.003839215907538225,0.00018453621887889484,0.999992613156517,31.148811360840103,-2.1778353773581323,-2699.2727294078104,76.56909431473522,-89.904541015625,6129.1337890625,True
1598628024.4468806,0,5,0.5,0.5,-0.017392959594726563,-0.14,-0.011,-0.56,0.0026245242472085852,10,1,100,0.05042335080832405,-10,-1,-100,604.0806272659684,-0.00391753425412836,0.00019014156076785759,0.9999923083561967,32.36298659431954,-2.2457874294953526,-2830.9396001134337,78.47630387589005,-89.900146484375,6122.818359375,True
1598628024.4952292,0,5,0.5,0.5,-0.016686270141601563,-0.14,-0.011,-0.56,0.002282463947846323,10,1,100,0.04497638074696418,-10,-1,-100,607.2126344635617,-0.003938243146302665,0.00019207817666639778,0.9999922266432347,32.983504497123135,-2.280348024703143,-2898.095780879294,79.43044466074797,-89.89767456054688,6119.66015625,True
1598628024.5470457,0,5,0.5,0.5,-0.01703558349609375,-0.14,-0.011,-0.56,0.002291588934092175,10,1,100,0.04376809351843743,-10,-1,-100,610.4143433567369,-0.003945246233241698,0.00019387711791287344,0.9999921986914808,33.612300156398675,-2.3152727808468483,-2966.140227831665,80.3849365651555,-89.89523315429688,6116.50244140625,True
1598628024.5968435,0,5,0.5,0.5,-0.01738223571777344,-0.14,-0.011,-0.56,0.002240122791607199,10,1,100,0.04287119567731164,-10,-1,-100,613.6715328620048,-0.003942681273955219,0.00019500154670355128,0.9999922085890314,34.24880031093495,-2.3505509179504562,-3035.078762862528,81.33977625004151,-89.892822265625,6113.3447265625,True
1598628024.6547673,0,5,0.5,0.5,-0.01605791931152344,-0.14,-0.011,-0.56,0.0021315556252188574,10,1,100,0.043192299997082545,-10,-1,-100,613.6715328620048,-0.003942681273955219,0.00019500154670355128,0.9999922085890314,34.24880031093495,-2.3505509179504562,-3035.078762862528,81.33977625004151,-89.892822265625,6113.3447265625,True
1598628024.7037008,0,5,0.5,0.5,-0.01962769470214844,-0.14,-0.011,-0.56,0.0022875902876819346,10,1,100,0.038875586406763266,-10,-1,-100,620.2702621294884,-0.0039029659574410813,0.00019639030885412162,0.9999923641146374,35.542328889115566,-2.422029066082228,-3175.6150825683467,83.25048074662531,-89.88775634765625,6107.029296875,True
1598628024.7476962,0,5,0.5,0.5,-0.018761840820312504,-0.14,-0.011,-0.56,0.002123750369931186,10,1,100,0.03894724576830394,-10,-1,-100,623.6526952846907,-0.0038671730620684712,0.00019613698058232345,0.9999925032232956,36.19814425501275,-2.4581904668760943,-3247.207855283972,84.20633731863637,-89.88497924804688,6103.87109375,True
1598628024.844057,0,5,0.5,0.5,-0.019435012817382816,-0.14,-0.011,-0.56,0.0021075811378147985,10,1,100,0.03760785610822559,-10,-1,-100,627.0641198805533,-0.003822239627485713,0.00019573806103846447,0.9999926760586009,36.85919935800955,-2.494599989454413,-3319.6852270890704,85.16252519757835,-89.8818359375,6100.712890625,True
1598628024.8936892,0,5,0.5,0.5,-0.022318389892578127,-0.14,-0.011,-0.56,0.0019456411659398965,10,1,100,0.029226455891147154,-10,-1,-100,633.9422056956682,-0.0037050953110315346,0.00019388617195719232,0.9999931173147587,38.19451458775918,-2.5680537675647286,-3467.2695801318664,87.07587526210958,-89.875244140625,6094.3974609375,True
1598628024.991262,0,5,0.5,0.5,-0.021096762084960943,-0.14,-0.011,-0.56,0.001964521359729533,10,1,100,0.033166106910149554,-10,-1,-100,637.4788741156226,-0.0036344848218962562,0.00019236236169492947,0.9999933767364668,38.867552061533324,-2.605054061683006,-3542.37050672925,88.03302982976993,-89.87176513671875,6091.240234375,True
1598628025.0498629,0,5,0.5,0.5,-0.023478396606445316,-0.14,-0.011,-0.56,0.0016988660677891049,10,1,100,0.022853773771815446,-10,-1,-100,644.5811413584743,-0.003476731104229913,0.00018855491685449024,0.9999939383755644,40.22106244290334,-2.6794511401230277,-3695.130103661616,89.94827647756105,-89.86563110351562,6084.92431640625,True
1598628025.1018236,0,5,0.5,0.5,-0.021961187744140624,-0.14,-0.011,-0.56,0.0018401309592685946,10,1,100,0.028808762979070122,-10,-1,-100,648.2018813826144,-0.003387855629280915,0.00018637927205291662,0.9999942438319344,40.90327572099116,-2.7169969270559973,-3772.7604547330407,90.89678970326894,-89.86294555664062,6081.78857421875,True
1598628025.153825,0,5,0.5,0.5,-0.0223326416015625,-0.14,-0.011,-0.56,0.001782135955927036,10,1,100,0.027589477044928423,-10,-1,-100,651.8783117022831,-0.0032964756776687394,0.00018387936666166597,0.9999945497033895,41.57251135023183,-2.7536889763559236,-3849.6399303084195,91.83602580995333,-89.86032104492188,6078.6748046875,True
1598628025.242808,0,5,0.5,0.5,-0.021755810546875004,-0.14,-0.011,-0.56,0.001896106060784216,10,1,100,0.03152942430651739,-10,-1,-100,653.7227145233192,-0.003249810488177182,0.00018265190612400448,0.9999947026710053,41.92217503218638,-2.773100783704093,-3888.382896978381,92.25878788850541,-89.85910034179688,6077.2255859375,True
1598628025.2919402,0,5,0.5,0.5,-0.02527496032714844,-0.14,-0.011,-0.56,0.0011912329146314942,10,1,100,0.008320762972353485,-10,-1,-100,663.0737513517961,-0.002997029640861347,0.0001751393221616325,0.9999954935596208,43.406038062738105,-2.8529183922863894,-4055.1579002039525,94.21124489696291,-89.8531494140625,6070.353515625,True
1598628025.3832264,0,5,0.5,0.5,-0.02386596374511719,-0.14,-0.011,-0.56,0.0015782512741216049,10,1,100,0.021583936394094998,-10,-1,-100,666.8489256722387,-0.002888662857711051,0.00017184610566806075,0.99999581303914,43.969105240893256,-2.8829259434124777,-4118.973836483229,94.95444135076228,-89.8504638671875,6067.6923828125,True
1598628025.433029,0,5,0.5,0.5,-0.025756961059570312,-0.14,-0.011,-0.56,0.0011760718260513086,10,1,100,0.00967814857985946,-10,-1,-100,674.5498112327186,-0.0026828352593538493,0.0001652184086034347,0.9999963875423994,45.01956418671605,-2.9382490216636423,-4236.125018989217,96.27662729522943,-89.84567260742188,6062.7470703125,True
1598628025.4837146,0,5,0.5,0.5,-0.024591091918945315,-0.14,-0.011,-0.56,0.0014329075645087054,10,1,100,0.01838644689983068,-10,-1,-100,678.3945516089443,-0.002575962279940418,0.0001615562075960954,0.9999966691534148,45.51244985312925,-2.963878178228708,-4291.124727292518,96.89568039938888,-89.84356689453125,6060.37109375,True
1598628025.5298772,0,5,0.5,0.5,-0.02475708923339844,-0.14,-0.011,-0.56,0.00139819252196286,10,1,100,0.018028844680807114,-10,-1,-100,682.2941397533286,-0.002476687076071216,0.0001579424170694087,0.9999969205329187,45.98667585191734,-2.9883405554179077,-4343.1787709723585,97.46403320145944,-89.84170532226562,6058.1123046875,True
1598628025.5800605,0,5,0.5,0.5,-0.02501187744140625,-0.14,-0.011,-0.56,0.0013674507731641966,10,1,100,0.016614398230283253,-10,-1,-100,686.1943362829043,-0.0023746950213989616,0.00015441035865142186,0.9999971684864896,46.415310248570336,-3.0098813811926752,-4389.771126763939,97.98466483128895,-89.83990478515625,6055.962890625,True
1598628025.6273088,0,5,0.5,0.5,-0.0252562744140625,-0.14,-0.011,-0.56,0.0013234378254440922,10,1,100,0.015764385422723896,-10,-1,-100,690.149674832006,-0.002275392845992279,0.00015083378056765422,0.9999973999149033,46.82354766027503,-3.0301421212069015,-4433.8558477720535,98.47613154679082,-89.83816528320312,6053.8798828125,True
1598628025.6792138,0,5,0.5,0.5,-0.025594104003906253,-0.14,-0.011,-0.56,0.0013084721279097854,10,1,100,0.014818529109495649,-10,-1,-100,694.1196623704163,-0.0021776115730097996,0.0001474805860923598,0.9999976181258202,47.21157299370624,-3.0491237294480045,-4475.498895426403,98.9409518998434,-89.83633422851562,6051.8583984375,True
1598628025.7307937,0,5,0.5,0.5,-0.025238854980468753,-0.14,-0.011,-0.56,0.0014274171429169435,10,1,100,0.01918988321044087,-10,-1,-100,696.1049781253096,-0.002129559311267294,0.000145548908238485,0.9999977218937327,47.39440408834648,-3.057903231589342,-4495.183212760656,99.16702792338263,-89.83541870117188,6050.8623046875,True
1598628025.771723,0,5,0.5,0.5,-0.02667615966796875,-0.14,-0.011,-0.56,0.001055866771574318,10,1,100,0.00827406705507775,-10,-1,-100,702.0598354265094,-0.0019877015776948075,0.00014044995268495966,0.9999980146561536,47.93425314496496,-3.0837233440548073,-4552.250302380642,99.79753077497121,-89.83267211914062,6047.9833984375,True
1598628025.82061,0,5,0.5,0.5,-0.026470245361328127,-0.14,-0.011,-0.56,0.0011345175127482716,10,1,100,0.012011400320168942,-10,-1,-100,706.0301602052059,-0.0018938631304119963,0.0001365679106955535,0.9999981973141996,48.26871754464289,-3.099329001630303,-4587.563007262679,100.19715924801638,-89.830810546875,6046.111328125,True
1598628025.8678215,0,5,0.5,0.5,-0.02673407592773438,-0.14,-0.011,-0.56,0.0011266459759427805,10,1,100,0.011754771619289998,-10,-1,-100,710.0699136784533,-0.0018072253415200405,0.00013300228710828535,0.9999983581221303,48.59780699303146,-3.1146071062662246,-4621.913874135586,100.57574507938763,-89.8289794921875,6044.28759765625,True
1598628025.9164174,0,5,0.5,0.5,-0.02692860717773438,-0.14,-0.011,-0.56,0.0011522614799766133,10,1,100,0.010838858042796494,-10,-1,-100,714.109860803932,-0.0017211203532103135,0.0001300289919006762,0.9999985104174861,48.904012458989506,-3.128424591890787,-4653.442521920456,100.92900989458536,-89.8272705078125,6042.52197265625,True
1598628025.9629457,0,5,0.5,0.5,-0.027124020385742187,-0.14,-0.011,-0.56,0.0010694003127878038,10,1,100,0.010318868156869521,-10,-1,-100,718.1498805660522,-0.0016389901966077196,0.00012660470329813576,0.9999986488402796,49.196381378789376,-3.1413626034620092,-4683.208070820853,101.26313722515592,-89.82565307617188,6040.80029296875,True
1598628026.0150704,0,5,0.5,0.5,-0.027263354492187503,-0.14,-0.011,-0.56,0.001025133134658386,10,1,100,0.009934306788918958,-10,-1,-100,722.1899016535608,-0.0015616821982452043,0.00012312105886219335,0.9999987729942056,49.475324364681605,-3.1534422148507426,-4711.261825045827,101.57923659350344,-89.82418823242188,6039.1201171875,True
1598628026.066765,0,5,0.5,0.5,-0.027423614501953127,-0.14,-0.011,-0.56,0.0010408967148878047,10,1,100,0.009527288275115328,-10,-1,-100,726.299750807113,-0.0014885338540427265,0.00012012907042997425,0.9999988849173641,49.74185329929441,-3.1647319958747477,-4737.716272359648,101.87845154484458,-89.82281494140625,6037.478515625,True
1598628026.1148329,0,5,0.5,0.5,-0.027527862548828125,-0.14,-0.011,-0.56,0.0010087610806837391,10,1,100,0.00921176578390086,-10,-1,-100,730.3951982512372,-0.0014199725740906663,0.00011714810362448487,0.9999989849765901,49.996801795473516,-3.175275527165117,-4762.657871380404,102.16168787929861,-89.82159423828125,6035.873046875,True
1598628026.1567607,0,5,0.5,0.5,-0.02767426452636719,-0.14,-0.011,-0.56,0.000993206396303374,10,1,100,0.008997739384524183,-10,-1,-100,734.4496326573426,-0.0013564760980234614,0.00011432735092234864,0.999999073450497,50.24074854906215,-3.1851082612082315,-4786.147799673768,102.42977875564279,-89.8204345703125,6034.302734375,True
1598628026.2134793,0,5,0.5,0.5,-0.027725933837890626,-0.14,-0.011,-0.56,0.000953511742012487,10,1,100,0.008834615461487162,-10,-1,-100,738.559672692907,-0.0012980155709120171,0.00011143230909518947,0.999999151368849,50.47428823083277,-3.1942664982216593,-4808.251243017223,102.68356608057562,-89.8194580078125,6032.765625,True
1598628026.257358,0,5,0.5,0.5,-0.02781612243652344,-0.14,-0.011,-0.56,0.0009567757506678476,10,1,100,0.008718448775824084,-10,-1,-100,742.6695321939187,-0.0012445695252504536,0.00010886114078476922,0.9999992195976698,50.6980860552964,-3.2027888734994816,-4829.038099183164,102.92383238650405,-89.81857299804688,6031.2587890625,True
1598628026.3038027,0,5,0.5,0.5,-0.027870083618164065,-0.14,-0.011,-0.56,0.0009512461686683401,10,1,100,0.008713955390764559,-10,-1,-100,746.794042102294,-0.0011966169366507133,0.00010650216322248273,0.9999992783823377,50.91279697654797,-3.210712972867158,-4848.575528921411,103.15127479564035,-89.81781005859375,6029.78173828125,True
1598628026.3531904,0,5,0.5,0.5,-0.02790574645996094,-0.14,-0.011,-0.56,0.0009287684195172154,10,1,100,0.008771486231749566,-10,-1,-100,750.9592643913347,-0.0011541805421087779,0.00010418062748946032,0.999999328506611,51.118835578825056,-3.2180635486119558,-4866.908240322283,103.36657689728892,-89.81716918945312,6028.33251953125,True
1598628026.400773,0,5,0.5,0.5,-0.027901647949218754,-0.14,-0.011,-0.56,0.0009243848655494057,10,1,100,0.008900622961313994,-10,-1,-100,755.0837785899639,-0.0011173696489752507,0.00010205649147756787,0.999999370534572,51.3168210837932,-3.224872053587796,-4884.100820748892,103.57038077314269,-89.81668090820312,6026.9091796875,True
1598628026.448247,0,5,0.5,0.5,-0.027938931274414065,-0.14,-0.011,-0.56,0.0009204098273683408,10,1,100,0.009105736316162032,-10,-1,-100,759.2490048452746,-0.0010863187318108764,0.00010011475157458607,0.9999994049441479,51.507207336585935,-3.2311722018240223,-4900.200284667581,103.76329319314198,-89.81625366210938,6025.51171875,True
1598628026.4947715,0,5,0.5,0.5,-0.027966360473632816,-0.14,-0.011,-0.56,0.0009372698421129319,10,1,100,0.009332353208196476,-10,-1,-100,763.3734615625581,-0.001060653207466119,9.852688811657484e-05,0.9999994326534519,51.690474721113716,-3.236985955350759,-4915.257107262714,103.9458996699442,-89.81588745117188,6024.13720703125,True
1598628026.543866,0,5,0.5,0.5,-0.027962673950195315,-0.14,-0.011,-0.56,0.0009201873890869343,10,1,100,0.009652848159821318,-10,-1,-100,767.5533401721623,-0.0010406899839772738,9.695043919155159e-05,0.9999994537823356,51.86710987931225,-3.24234688701618,-4929.323178615775,104.11875334775732,-89.81561279296875,6022.78515625,True
1598628026.5988495,0,5,0.5,0.5,-0.027987686157226566,-0.14,-0.011,-0.56,0.0009094678503905487,10,1,100,0.010044934242505646,-10,-1,-100,771.7331587515073,-0.001026513148711877,9.544092493632551e-05,0.9999994685807515,52.037626050947004,-3.2472837799964576,-4942.452177143274,104.2823749524598,-89.81536865234375,6021.455078125,True
1598628026.6821558,0,5,0.5,0.5,-0.027985989379882812,-0.14,-0.011,-0.56,0.0009233288760814021,10,1,100,0.010468100766175388,-10,-1,-100,775.9130399203859,-0.001017829775436131,9.421438237302607e-05,0.9999994775729628,52.20236483215124,-3.2518162652946034,-4954.679984276604,104.43725820610288,-89.815185546875,6020.1435546875,True
1598628026.737802,0,5,0.5,0.5,-0.028166934204101563,-0.14,-0.011,-0.56,0.0008770129410928976,10,1,100,0.011195425576043833,-10,-1,-100,784.2728826210368,-0.0010168557037502452,9.269657424153955e-05,0.9999994787057757,52.514537487765004,-3.2596603007074654,-4976.6289989494,104.72673293028535,-89.81478881835938,6017.5693359375,True
1598628026.7877266,0,5,0.5,0.5,-0.028078076171875004,-0.14,-0.011,-0.56,0.0009481444717016212,10,1,100,0.012101253207325288,-10,-1,-100,788.4526483656373,-0.001024460580563055,9.198043143195262e-05,0.9999994710099197,52.66867624141719,-3.2633960539805784,-4987.14458086483,104.86570279405821,-89.81460571289062,6016.294921875,True
1598628026.8358784,0,5,0.5,0.5,-0.02812943725585938,-0.14,-0.011,-0.56,0.000980281732375791,10,1,100,0.012732893563175033,-10,-1,-100,792.6470464466838,-0.0010373163890321409,9.16368955287777e-05,0.9999994577885472,52.81976998975024,-3.2668827070870297,-4996.864657945762,104.99371077139124,-89.81439208984375,6015.046875,True
1598628026.9203978,0,5,0.5,0.5,-0.02818446655273438,-0.14,-0.011,-0.56,0.0010044362280424942,10,1,100,0.013391169269410683,-10,-1,-100,796.8822407803964,-0.0010551326309221963,9.155769036621934e-05,0.999999439156003,52.95989840043404,-3.269637271356492,-5005.196457292904,105.1146786058795,-89.81414794921875,6013.81396484375,True
1598628026.969776,0,5,0.5,0.5,-0.02841423034667969,-0.14,-0.011,-0.56,0.0010305731436756611,10,1,100,0.017079024679846115,-10,-1,-100,805.2710090108449,-0.0011049452162909203,9.173476939430712e-05,0.9999993853402116,53.23613949584621,-3.2747329149513194,-5020.439130940298,105.33674819124232,-89.81362915039062,6011.39453125,True
1598628027.0187466,0,5,0.5,0.5,-0.02834068298339844,-0.14,-0.011,-0.56,0.001068272922662626,10,1,100,0.015598825685815628,-10,-1,-100,809.5063836579211,-0.0011367843252555597,9.22478589761623e-05,0.9999993496056537,53.371212497522485,-3.277011537266812,-5027.398388887191,105.44175180022596,-89.81332397460938,6010.19921875,True
1598628027.1078987,0,5,0.5,0.5,-0.02838663024902344,-0.14,-0.011,-0.56,0.001048045410798035,10,1,100,0.016224126860439024,-10,-1,-100,813.7006684802473,-0.0011713676480895859,9.253756929962383e-05,0.9999993096670773,53.50458012809928,-3.2791247851923893,-5033.747018600713,105.53832787004583,-89.81301879882812,6009.0224609375,True
1598628027.167702,0,5,0.5,0.5,-0.028667495727539065,-0.14,-0.011,-0.56,0.0011948886864589852,10,1,100,0.021731342359874152,-10,-1,-100,822.2000486735487,-0.0012527719784420895,9.414132602588563e-05,0.9999992108495789,53.7548447412626,-3.282181709414432,-5043.812000107294,105.71291833906169,-89.8123779296875,6006.712890625,True
1598628027.2158172,0,5,0.5,0.5,-0.02856851501464844,-0.14,-0.011,-0.56,0.0011513137932752224,10,1,100,0.01863935285553451,-10,-1,-100,826.3800666818861,-0.001298474117819037,9.520570503278548e-05,0.9999991524500604,53.8802646792767,-3.283652294262664,-5048.560790038813,105.79665196474878,-89.81201171875,6005.56640625,True
1598628027.2576706,0,5,0.5,0.5,-0.028623477172851564,-0.14,-0.011,-0.56,0.00116770067807135,10,1,100,0.019357813544831758,-10,-1,-100,830.6299759056419,-0.001346305740819776,9.63225078280261e-05,0.9999990890909985,54.00283236979964,-3.284894912387049,-5052.828582417868,105.87807580796299,-89.8116455078125,6004.42578125,True
1598628027.3066628,0,5,0.5,0.5,-0.028657278442382816,-0.14,-0.011,-0.56,0.0012204231881805837,10,1,100,0.020142200306329988,-10,-1,-100,834.8795628076186,-0.0013966212086837194,9.781516216518786e-05,0.9999990199402166,54.12604181102677,-3.2861204063547067,-5056.676484296935,105.95089776141265,-89.81130981445312,6003.3037109375,True
1598628027.3580048,0,5,0.5,0.5,-0.028686740112304692,-0.14,-0.011,-0.56,0.001212557873310794,10,1,100,0.020946616656532926,-10,-1,-100,839.1439251656411,-0.0014493301776483006,9.909596452931534e-05,0.9999989448104564,54.246863772727835,-3.2871486451639256,-5059.928759667255,106.01768479737302,-89.81100463867188,6002.1962890625,True
1598628027.4047015,0,5,0.5,0.5,-0.028712063598632813,-0.14,-0.011,-0.56,0.001244061228586044,10,1,100,0.021701468331515983,-10,-1,-100,843.3935249862261,-0.0015037234650276882,0.00010054025578729954,0.9999988643530541,54.364430135863664,-3.2879321771760273,-5062.598670688937,106.08072665915181,-89.81072998046875,6001.09765625,True
1598628027.4509785,0,5,0.5,0.5,-0.028733181762695317,-0.14,-0.011,-0.56,0.001280312034579854,10,1,100,0.022470689185307646,-10,-1,-100,847.5879495657282,-0.001559740818519787,0.00010217470665790297,0.9999987783837081,54.4811887578776,-3.288621693536153,-5064.928997169569,106.14040129014336,-89.81048583984375,6000.0068359375,True
1598628027.4997869,0,5,0.5,0.5,-0.028728665161132816,-0.14,-0.011,-0.56,0.0013399178463106085,10,1,100,0.023228023484530506,-10,-1,-100,851.837794824969,-0.0016170918078804507,0.00010419279026846596,0.9999986870781117,54.597419945970735,-3.28923327395865,-5066.9550522879645,106.19695281358446,-89.810302734375,5998.923828125,True
1598628027.5537004,0,5,0.5,0.5,-0.028757958984375002,-0.14,-0.011,-0.56,0.0013269306481763915,10,1,100,0.023975801828752367,-10,-1,-100,856.0875799576752,-0.0016755614680725348,0.00010589802082150838,0.9999985906386947,54.71322640197851,-3.2897763356795773,-5068.69672284287,106.25063571101103,-89.81011962890625,5997.8466796875,True
1598628027.6368308,0,5,0.5,0.5,-0.02876575622558594,-0.14,-0.011,-0.56,0.0013682810500145197,10,1,100,0.024681977318484545,-10,-1,-100,860.3372427109862,-0.0017346456843876157,0.00010781173392112507,0.9999984896893493,54.82896958458857,-3.290274036533821,-5070.1912576218865,106.30153672181675,-89.80996704101562,5996.7763671875,True
1598628027.6867468,0,5,0.5,0.5,-0.028811837768554692,-0.14,-0.011,-0.56,0.001621182187938933,10,1,100,0.032039373065839344,-10,-1,-100,868.851344778901,-0.001854731953253371,0.00011183668875225173,0.9999982737294782,55.06001444094343,-3.2911238278785886,-5072.540415243152,106.39803724142124,-89.80978393554688,5994.6494140625,True
1598628027.7366533,0,5,0.5,0.5,-0.028733514404296875,-0.14,-0.011,-0.56,0.0014612754517159825,10,1,100,0.02673105953443742,-10,-1,-100,873.1013763149967,-0.001915096656505121,0.00011402595430331608,0.9999981596997455,55.17695616282056,-3.291575958387856,-5073.557559631075,106.44386867628477,-89.80975341796875,5993.59130859375,True
1598628027.784979,0,5,0.5,0.5,-0.02874027099609375,-0.14,-0.011,-0.56,0.0014461531330647566,10,1,100,0.02705284461267886,-10,-1,-100,877.3655017738929,-0.001972338412410101,0.00011586161077175386,0.9999980482267323,55.29451932874552,-3.2920347358960425,-5074.365521685767,106.48614192246713,-89.80972290039062,5992.5419921875,True
1598628027.8387954,0,5,0.5,0.5,-0.028703933715820317,-0.14,-0.011,-0.56,0.0015119290807422197,10,1,100,0.027890434568022086,-10,-1,-100,881.615470373421,-0.0020314217058526665,0.00011811058971927084,0.9999979296857278,55.41055956506944,-3.2923740744816827,-5074.778188526904,106.52496976173094,-89.80975341796875,5991.5,True
1598628027.923363,0,5,0.5,0.5,-0.02868001098632813,-0.14,-0.011,-0.56,0.0015114380760365086,10,1,100,0.0283014876160394,-10,-1,-100,885.9206171294209,-0.002088293545330457,0.00012013220196736702,0.9999978122967683,55.52691299690882,-3.2927022008487516,-5075.022921531261,106.56172160949006,-89.809814453125,5990.4638671875,True
1598628027.9698641,0,5,0.5,0.5,-0.02863005065917969,-0.14,-0.011,-0.56,0.001776671380703665,10,1,100,0.034822783808844134,-10,-1,-100,894.4345395189011,-0.0021986988526378716,0.0001243621192922122,0.9999975751257694,55.760959975376,-3.293358309277325,-5075.156716562808,106.63149591811697,-89.8099365234375,5988.3994140625,True
1598628028.0167406,0,5,0.5,0.5,-0.028656558227539066,-0.14,-0.011,-0.56,0.001484862732733976,10,1,100,0.026806751310400743,-10,-1,-100,896.5595273592044,-0.00222556249530639,0.00012553303654825161,0.999997515553432,55.8198937296049,-3.293532639543258,-5075.145121194359,106.6485184266468,-89.80999755859375,5987.884765625,True
1598628028.06107,0,5,0.5,0.5,-0.028627188110351566,-0.14,-0.011,-0.56,0.001723791069554087,10,1,100,0.03253500994819417,-10,-1,-100,902.9487625589827,-0.0023014537747333592,0.0001287483477249336,0.9999973433636641,55.999362872707245,-3.2941894271572227,-5075.034758795525,106.69525202382299,-89.81008911132812,5986.3505859375,True
1598628028.1086848,0,5,0.5,0.5,-0.02861460571289063,-0.14,-0.011,-0.56,0.001623410266142484,10,1,100,0.030569149523120183,-10,-1,-100,907.2130169839365,-0.002351952241287338,0.00013073648189321495,0.999997225610465,56.118064990362114,-3.294544977937315,-5074.657424843656,106.72379776598996,-89.8101806640625,5985.333984375,True
1598628028.199736,0,5,0.5,0.5,-0.028623083496093753,-0.14,-0.011,-0.56,0.0016400649455014333,10,1,100,0.030593027990136443,-10,-1,-100,911.5181647756835,-0.0023974621144245436,0.0001326727023484869,0.9999971172825269,56.23817773392694,-3.294971787468037,-5074.263553493369,106.75086371445441,-89.81024169921875,5984.3203125,True
1598628028.249739,0,5,0.5,0.5,-0.028614236450195316,-0.14,-0.011,-0.56,0.0018465856734884859,10,1,100,0.03562234445158226,-10,-1,-100,920.0322721148841,-0.002483953224716932,0.00013628776304550064,0.9999969056962241,56.478555259115055,-3.295803026455377,-5073.091217280451,106.80085952778916,-89.810302734375,5982.30419921875,True
1598628028.2987497,0,5,0.5,0.5,-0.028626483154296882,-0.14,-0.011,-0.56,0.0017066283671244656,10,1,100,0.03138561493407499,-10,-1,-100,924.2964668738423,-0.002523493764576797,0.00013827961446284635,0.9999968064238848,56.6006440287887,-3.2963189706257667,-5072.5335461565755,106.82499918172589,-89.81033325195312,5981.2978515625,True
1598628028.3490572,0,5,0.5,0.5,-0.02864293518066407,-0.14,-0.011,-0.56,0.0016908884769642177,10,1,100,0.03136349895611274,-10,-1,-100,928.6162008285755,-0.002558685567278771,0.00013992524978610426,0.9999967167691565,56.723582961205445,-3.29688212815668,-5071.91825552105,106.84732051294242,-89.81033325195312,5980.296875,True
1598628028.4008276,0,5,0.5,0.5,-0.028642263793945317,-0.14,-0.011,-0.56,0.0017122021816392222,10,1,100,0.03166561858070778,-10,-1,-100,932.8660513567738,-0.002592891614363367,0.00014159316681428027,0.9999966284265418,56.846183685039385,-3.297422914728946,-5071.1495743473015,106.86789637003398,-89.81033325195312,5979.2998046875,True
1598628028.4841664,0,5,0.5,0.5,-0.028641625976562505,-0.14,-0.011,-0.56,0.0017037663123541506,10,1,100,0.03168560121173174,-10,-1,-100,937.1303683705628,-0.0026236592538963896,0.00014301141750358053,0.9999965479739686,56.96936325803425,-3.297997651750395,-5070.342269759838,106.88742240005429,-89.81033325195312,5978.3046875,True
1598628028.529753,0,5,0.5,0.5,-0.028662417602539063,-0.14,-0.011,-0.56,0.0019041176836523618,10,1,100,0.03456303543384715,-10,-1,-100,945.6999586904421,-0.002677301632119672,0.0001461013131278952,0.9999964053487277,57.217202452432964,-3.299245050788883,-5068.660474719417,106.92467212516576,-89.810302734375,5976.32080078125,True
1598628028.576613,0,5,0.5,0.5,-0.028644924926757815,-0.14,-0.011,-0.56,0.0017361206959549988,10,1,100,0.031765635484350865,-10,-1,-100,949.9642763506854,-0.0027002014284367975,0.00014736330090380919,0.9999963435914672,57.342386816560285,-3.2999475389263764,-5067.8454137778235,106.94246486384154,-89.810302734375,5975.3310546875,True
1598628028.6301408,0,5,0.5,0.5,-0.02864458923339844,-0.14,-0.011,-0.56,0.0017226314309356687,10,1,100,0.03156721857328271,-10,-1,-100,954.2838897062466,-0.0027187841450489005,0.00014836808714141384,0.9999962930929711,57.468241738711704,-3.300697061702932,-5067.012859975742,106.95894407601904,-89.810302734375,5974.34375,True
1598628028.6779263,0,5,0.5,0.5,-0.02864435424804688,-0.14,-0.011,-0.56,0.0017522667444574524,10,1,100,0.03164512988688721,-10,-1,-100,958.5336805519182,-0.0027360064172105665,0.00014953310498996475,0.9999962459473214,57.59371528630092,-3.301436664605428,-5066.0782595645505,106.97415269484736,-89.810302734375,5973.3603515625,True
1598628028.7255576,0,5,0.5,0.5,-0.02862285766601563,-0.14,-0.011,-0.56,0.0017264660543417746,10,1,100,0.03149785060280963,-10,-1,-100,962.797938159667,-0.0027499749855241728,0.00015034057255750783,0.9999962075104541,57.71936632210782,-3.3021945638428316,-5065.130918959511,106.98903045665676,-89.81033325195312,5972.37744140625,True
1598628028.7710545,0,5,0.5,0.5,-0.028639846801757816,-0.14,-0.011,-0.56,0.0017617064067975024,10,1,100,0.031394266452983495,-10,-1,-100,967.1176149478415,-0.002761411543655305,0.0001513789391228636,0.9999961758380395,57.84568364755356,-3.3030013508109377,-5064.205546858364,107.00321353078495,-89.81033325195312,5971.3974609375,True
