Timestamp,Input Throttle,horizon,dT,dt,Input Roll,Roll P,Roll I,Roll D,Input Pitch,Pitch P,Pitch I,Pitch D,Input Yaw,Yaw P,Yaw I,Yaw D,Altitude,Direction X,Direction Y,Direction Z,Drag X,Drag Y,Drag Z,Vertical Velocity,Roll,Mass,Has Fuel
1598631912.468485,0,5,0.5,0.5,-0.008920898437500002,-0.14,-0.011,-0.56,0.0043462117020666375,10,1,100,0.1276482133426622,-10,-1,-100,477.66389623249415,-0.011785533345765936,0.0004156986926781936,0.9999304617813944,5.585854282747562,-0.4578999456219444,121.47273627081516,-14.82333473952455,-89.924560546875,6440.1796875,True
1598631912.5260737,0,5,0.5,0.5,-0.008850073242187501,-0.14,-0.011,-0.56,0.00435110190668501,10,1,100,0.12421137894165511,-10,-1,-100,476.7422371204011,-0.011832601456215201,0.00041708546641124137,0.9999299053346151,5.772422831822404,-0.47369444945638184,130.60722904983308,-15.406636140134779,-89.9271240234375,6440.1796875,True
1598631912.6379886,0,5,0.5,0.5,-0.008272277832031251,-0.14,-0.011,-0.56,0.004061181631140979,10,1,100,0.11811778827235511,-10,-1,-100,476.11208306916524,-0.011809237458306155,0.00041533136233051066,0.9999301822679985,6.21785681820563,-0.5073750741266806,136.90170193856736,-15.149799594727698,-89.93011474609375,6438.60107421875,True
1598631912.7500155,0,5,0.5,0.5,-0.0010945129394531261,-0.14,-0.011,-0.56,0.003855439271554053,10,1,100,0.11106789597785108,-10,-1,-100,475.01104252331425,-0.011713171859840344,0.0004114887632042102,0.9999313137820915,5.905169484639449,-0.4708296659183021,109.78646974828719,-13.343479293405082,-89.94287109375,6432.28515625,True
1598631912.8609211,0,5,0.5,0.5,0.0068449645996093746,-0.14,-0.011,-0.56,0.003330652201158112,10,1,100,0.09512269414474583,-10,-1,-100,474.03583554236684,-0.011470234779243341,0.0004028506190283338,0.999934133543549,5.539111912214024,-0.4321798843463959,85.52406901869843,-11.534992351549075,-89.96450805664062,6425.9697265625,True
1598631912.9759912,0,5,0.5,0.5,0.013466690063476564,-0.14,-0.011,-0.56,0.0027258655665516746,10,1,100,0.07747786485086067,-10,-1,-100,473.19999726710375,-0.011078547862593251,0.0003891334725365437,0.9999385552884721,5.122669507255757,-0.39176334068805563,64.21101067250586,-9.724293656469792,-89.9913330078125,6419.65380859375,True
1598631913.0341475,0,5,0.5,0.5,0.015642520141601564,-0.14,-0.011,-0.56,0.0021344846976921387,10,1,100,0.06082551431737161,-10,-1,-100,472.50331608229317,-0.010561012435459094,0.00037093339194297823,0.9999441621534458,4.658432293484207,-0.3497934033985003,45.86912103472295,-7.9113471165893285,-90.01591491699219,6413.337890625,True
1598631913.1481013,0,5,0.5,0.5,0.008281486511230469,-0.14,-0.011,-0.56,0.002811563349469838,10,1,100,0.08042418477644661,-10,-1,-100,472.2247681936715,-0.010259094494569215,0.00036020591242685873,0.9999473092277674,4.411363607622041,-0.3284339048394722,37.82615083919496,-7.003999527522891,-90.02503967285156,6410.1806640625,True
1598631913.3089101,0,5,0.5,0.5,0.008550424194335937,-0.14,-0.011,-0.56,0.0013578907608233085,10,1,100,0.03816945565198426,-10,-1,-100,471.7532428317936,-0.009591163288542787,0.0003369109930495754,0.9999539469784373,3.9032065019536253,-0.2860610989728874,24.03669237065689,-5.187541326404766,-90.03268432617188,6403.86474609375,True
1598631913.3549287,0,5,0.5,0.5,0.0036484802246093753,-0.14,-0.011,-0.56,0.0022706170596282324,10,1,100,0.06467878520581163,-10,-1,-100,471.57131261366885,-0.009216227766927607,0.0003237250227020448,0.9999574772698375,3.660145017706481,-0.2663113168286179,18.325502608328776,-4.278466750020219,-90.03174591064453,6400.70751953125,True
1598631913.4089475,0,5,0.5,0.5,0.0020299583435058597,-0.14,-0.011,-0.56,0.002106417580780477,10,1,100,0.060515856804230224,-10,-1,-100,471.427437783801,-0.008829154100202224,0.00030995075892139917,0.9999609742226955,3.4631806906224387,-0.25026315399564947,13.468177061617288,-3.3687708292944496,-90.02863311767578,6397.54931640625,True
1598631913.4673054,0,5,0.5,0.5,0.0006779159545898437,-0.14,-0.011,-0.56,0.0018474679300406421,10,1,100,0.05329542537543455,-10,-1,-100,471.31984813907184,-0.008414316280413336,0.000295170747690229,0.9999645554497233,3.4389868312721457,-0.2469213063316058,9.63525036218858,-2.458439510082077,-90.0240478515625,6394.3916015625,True
1598631913.529998,0,5,0.5,0.5,-0.00041282501220703087,-0.14,-0.011,-0.56,0.0016112346078523674,10,1,100,0.04678241097197917,-10,-1,-100,471.2487877411768,-0.007981089299824573,0.00027969762974992726,0.9999681114829734,4.298048053351178,-0.3067447533372217,7.48854612666127,-1.5474831112941954,-90.01866912841797,6391.23388671875,True
1598631913.586957,0,5,0.5,0.5,-0.001319443511962891,-0.14,-0.011,-0.56,0.0013822919422055025,10,1,100,0.04017248355824497,-10,-1,-100,471.2142266005976,-0.0075306364756721885,0.00026367316532793653,0.9999716095923588,11.036248223924396,-0.7832033317917164,7.81189545119469,-0.6359033365843542,-90.01293182373047,6388.076171875,True
1598631913.700944,0,5,0.5,0.5,-0.0020883239746093754,-0.14,-0.011,-0.56,0.0011252879540534118,10,1,100,0.033394368452061396,-10,-1,-100,471.21616471908055,-0.0070633169849175954,0.0002469034483228135,0.9999750239840282,2.7657026856774842,-0.19523432020414244,-0.8416353949426653,0.27632366253716817,-90.00713348388672,6384.91796875,True
1598631913.8081124,0,5,0.5,0.5,-0.0064153678894042976,-0.14,-0.011,-0.56,-0.001041282639149186,10,1,100,-0.02804732065978377,-10,-1,-100,471.3294779196149,-0.006083926563027851,0.00021210392489877391,0.9999814702530747,1.4036861474727895,-0.09816481907784086,-3.1892426283011632,2.1027572970527055,-89.99624633789062,6378.6025390625,True
1598631913.9139683,0,5,0.5,0.5,-0.00678593978881836,-0.14,-0.011,-0.56,-0.0014816783542740265,10,1,100,-0.043698745446012086,-10,-1,-100,471.5890940609388,-0.005055826518980158,0.00017662533305545555,0.9999872036289774,2.6422564007287557,-0.18334983454805107,-11.04782559162975,3.9317240496288623,-89.98699951171875,6372.287109375,True
1598631914.028921,0,5,0.5,0.5,-0.005228391265869142,-0.14,-0.011,-0.56,-0.001820050167178619,10,1,100,-0.05303783589909968,-10,-1,-100,471.995502332109,-0.004041294007469167,0.00014147260404320395,0.9999918239306995,3.602428112066738,-0.2484181826400436,-21.796446798274022,5.763169893612734,-89.98187255859375,6365.97119140625,True
1598631914.1413057,0,5,0.5,0.5,-0.0016143760681152346,-0.14,-0.011,-0.56,-0.001981400695882182,10,1,100,-0.059959023550506425,-10,-1,-100,472.56380895816255,-0.003061724382434659,0.00010824760314238252,0.9999953070521193,4.510673600565708,-0.3095520469099008,-35.61784235628073,7.597080910464963,-89.98300170898438,6359.6552734375,True
1598631914.2028935,0,5,0.5,0.5,0.0025692543029785155,-0.14,-0.011,-0.56,-0.0021277717004789354,10,1,100,-0.0631714095170858,-10,-1,-100,473.2552564503858,-0.0021479388862581197,7.692028718158091e-05,0.9999976902182377,5.403812717351934,-0.36953486516544115,-52.59401078850405,9.433428707997578,-89.98995971679688,6353.33935546875,True
1598631914.2610633,0,5,0.5,0.5,0.002050114440917969,-0.14,-0.011,-0.56,-0.0006501557735174193,10,1,100,-0.01950542669829206,-10,-1,-100,473.6519455204252,-0.0017206139961599993,6.209814904006638e-05,0.9999985178145495,5.846844148608357,-0.39929806741773105,-62.275853898110164,10.352507621034093,-89.9948501586914,6350.18212890625,True
1598631914.3228037,0,5,0.5,0.5,0.0025908035278320316,-0.14,-0.011,-0.56,-0.0007289646463217878,10,1,100,-0.02221017217476305,-10,-1,-100,474.075520973769,-0.0013140105372883737,4.813235425854194e-05,0.9999991355294184,6.2875391115458985,-0.4289379629437836,-72.75634272388265,11.272185630294679,-89.99958801269531,6347.02392578125,True
1598631914.3839476,0,5,0.5,0.5,0.0028266540527343755,-0.14,-0.011,-0.56,-0.0008744982225292649,10,1,100,-0.026702849890966197,-10,-1,-100,474.56855476938654,-0.0009099833279333446,3.433772503111692e-05,0.9999995853755458,6.725813473555868,-0.4584643126374306,-84.03829332303815,12.192459475093626,-90.00375366210938,6343.8662109375,True
1598631914.4463093,0,5,0.5,0.5,0.002944829559326172,-0.14,-0.011,-0.56,-0.001002598364510012,10,1,100,-0.029297967429468198,-10,-1,-100,475.07794641214423,-0.0005255221654168374,2.085566071974084e-05,0.999999861695738,7.16146850861722,-0.48788045203243113,-96.12479891611618,13.113325241217295,-90.00727844238281,6340.70849609375,True
1598631914.565064,0,5,0.5,0.5,0.0028552978515625,-0.14,-0.011,-0.56,-0.001096981336622148,10,1,100,-0.03253868631205729,-10,-1,-100,475.64080547564663,-0.00015291922266034405,7.961954785296075e-06,0.9999999882761591,7.594107206574962,-0.5171780495116405,-109.017903205614,14.034779779208282,-90.00997924804688,6337.55078125,True
1598631914.6819851,0,5,0.5,0.5,0.0033380119323730474,-0.14,-0.011,-0.56,-0.002529711803845808,10,1,100,-0.07446622003005988,-10,-1,-100,476.8521864191862,0.0005606879429526216,-1.6567198953925606e-05,0.999999842677267,8.448508231220684,-0.575353693499864,-137.22789621808118,15.879440718446084,-90.01282501220703,6331.2353515625,True
1598631914.7970722,0,5,0.5,0.5,0.0012659469604492189,-0.14,-0.011,-0.56,-0.0025692818788666445,10,1,100,-0.0760034492328159,-10,-1,-100,478.2189640289871,0.0012173559821658446,-3.90182747408141e-05,0.9999992582607183,9.285402935600507,-0.6328670727294985,-168.67312787451365,17.726350955644612,-90.01211547851562,6324.91943359375,True
1598631914.9149418,0,5,0.5,0.5,-0.001561497497558594,-0.14,-0.011,-0.56,-0.00254904821387907,10,1,100,-0.07366091549341675,-10,-1,-100,479.72517665475607,0.0017873282724550131,-5.904836158555636e-05,0.9999984009841903,10.100862611383237,-0.6895452139101661,-203.33865936711067,19.5756103324652,-90.0074691772461,6318.603515625,True
1598631915.0267754,0,5,0.5,0.5,-0.004565720367431641,-0.14,-0.011,-0.56,-0.002313736369622538,10,1,100,-0.06864952613036818,-10,-1,-100,481.38702922908124,0.0022546280673447936,-7.493604107332743e-05,0.9999974555151967,10.892600488472967,-0.745268036522932,-241.1976869363861,21.427124435160014,-89.99942016601562,6312.28857421875,True
1598631915.1409974,0,5,0.5,0.5,-0.006512992095947266,-0.14,-0.011,-0.56,-0.00209422793530876,10,1,100,-0.06197103741704377,-10,-1,-100,483.187919093878,0.0026138994812600273,-8.721732425552522e-05,0.9999965799554718,11.660053670291056,-0.799987279791998,-282.2274860454363,23.280864116237442,-89.99017333984375,6305.97265625,True
1598631915.201099,0,5,0.5,0.5,-0.0067819221496582035,-0.14,-0.011,-0.56,-0.0018875833905213548,10,1,100,-0.05461783493034737,-10,-1,-100,485.15497622604016,0.0028693336182425287,-9.635432436724035e-05,0.9999958788117235,12.403773533048794,-0.8536987198337591,-326.40506607804593,25.13682048623544,-89.98239135742188,6299.65673828125,True
1598631915.3121533,0,5,0.5,0.5,-0.004274874877929688,-0.14,-0.011,-0.56,-0.001327921594169351,10,1,100,-0.0396073963290311,-10,-1,-100,486.167999885045,0.002960915257656107,-9.94288058897747e-05,0.9999956115377453,12.767169973898516,-0.8801826763032596,-349.6667976590644,26.065617988979675,-89.97976684570312,6296.4990234375,True
1598631915.3719058,0,5,0.5,0.5,-0.004023240661621095,-0.14,-0.011,-0.56,-0.0014927386617750533,10,1,100,-0.0436697259877166,-10,-1,-100,488.37629754515365,0.0030772152669338243,-0.00010358797956108656,0.9999952599966317,13.478394975148822,-0.9324460862122355,-398.5238795601665,27.924836585432192,-89.97805786132812,6290.18359375,True
1598631915.432164,0,5,0.5,0.5,-0.002667228698730469,-0.14,-0.011,-0.56,-0.0012238760893435554,10,1,100,-0.035980543649086844,-10,-1,-100,489.5019304496236,0.0031094161644761448,-0.000104799454326909,0.9999951602623838,13.826934733623697,-0.958250106971713,-424.1175034333446,28.855251164578362,-89.97866821289062,6287.025390625,True
1598631915.54703,0,5,0.5,0.5,-0.0022714538574218754,-0.14,-0.011,-0.56,-0.0011805096614452488,10,1,100,-0.034251877996409524,-10,-1,-100,490.6810905635357,0.0031196700760085577,-0.00010539232284672057,0.9999951282636707,14.171253095843626,-0.9838513665066122,-450.4865250838008,29.78617247951976,-89.97976684570312,6283.8681640625,True
1598631915.609024,0,5,0.5,0.5,-0.0009545898437500003,-0.14,-0.011,-0.56,-0.0010507401539545445,10,1,100,-0.030951982227285336,-10,-1,-100,493.1679817007389,0.003096017680138105,-0.00010464852208969558,0.9999952018500943,14.848540752180446,-1.0344892356116067,-505.54383819497866,31.649626134408518,-89.98257446289062,6277.5517578125,True
1598631915.740683,0,5,0.5,0.5,-0.0015774650573730465,-0.14,-0.011,-0.56,-0.0010106209013031934,10,1,100,-0.029739878844563368,-10,-1,-100,494.4490699535236,0.0030611915351973253,-0.00010352754517453715,0.9999953091832142,15.182295628055094,-1.0595557366384334,-534.2296199176944,32.58213070012527,-89.98397827148438,6274.39453125,True
1598631915.8457458,0,5,0.5,0.5,-0.001240984344482422,-0.14,-0.011,-0.56,-0.0006899444713313107,10,1,100,-0.021188860123191537,-10,-1,-100,497.14491376676597,0.0029501186554632074,-9.95345901878908e-05,0.9999956434369022,15.84194069077642,-1.109232521604206,-593.904430456603,34.44872926219807,-89.98562622070312,6268.0791015625,True
1598631915.9549387,0,5,0.5,0.5,-0.0024228485107421873,-0.14,-0.011,-0.56,-0.00042292711304979264,10,1,100,-0.01446758743198543,-10,-1,-100,500.0125093845418,0.0027869837490730374,-9.344039491692365e-05,0.999996111987679,16.493931859489717,-1.1583994154307777,-656.6334362034802,36.31732908800173,-89.98529052734375,6261.7626953125,True
1598631916.0163696,0,5,0.5,0.5,-0.003959387207031251,-0.14,-0.011,-0.56,-0.0002965989300832907,10,1,100,-0.007986865152629332,-10,-1,-100,503.00327353854664,0.00257927967192262,-8.67349572310366e-05,0.9999966698911659,17.142087176569824,-1.207192180734199,-722.4073298465341,38.18802438376949,-89.98284912109375,6255.447265625,True
1598631916.0780435,0,5,0.5,0.5,-0.00403153076171875,-0.14,-0.011,-0.56,-0.00046344661017363314,10,1,100,-0.015776668928651184,-10,-1,-100,504.56274255889,0.0024613056541218366,-8.215634039652828e-05,0.9999969676078088,17.465961117309536,-1.2314907326396827,-756.4345453655221,39.12412574097266,-89.98080444335938,6252.2900390625,True
1598631916.1370666,0,5,0.5,0.5,-0.004469067382812501,-0.14,-0.011,-0.56,-0.00040646433515411945,10,1,100,-0.01387689821273866,-10,-1,-100,506.16542449139524,0.0023371568386711204,-7.74888480322258e-05,0.999997265842957,17.790365538260435,-1.2557508489793305,-791.2227246234487,40.06072508329774,-89.97854614257812,6249.1318359375,True
1598631916.2512553,0,5,0.5,0.5,-0.004872021484375001,-0.14,-0.011,-0.56,-0.0003313143020776912,10,1,100,-0.011319312587057357,-10,-1,-100,507.79468679311685,0.002201610553863353,-7.258243645294469e-05,0.9999975738184365,18.115773798263493,-1.279989639102329,-826.7722673907303,40.99780938576292,-89.97616577148438,6245.97412109375,True
1598631916.3806446,0,5,0.5,0.5,-0.006959063720703125,-0.14,-0.011,-0.56,0.000332623046644647,10,1,100,0.007260298025680741,-10,-1,-100,511.149738298147,0.001910277111843282,-6.211445506803891e-05,0.9999981734899072,18.770973784888486,-1.3284348610309182,-900.1275413577198,42.873460360197164,-89.97128295898438,6239.658203125,True
1598631916.4309092,0,5,0.5,0.5,-0.007778955078125001,-0.14,-0.011,-0.56,0.0005727158384259771,10,1,100,0.013761371171551028,-10,-1,-100,514.6765734261135,0.0015874179896376993,-5.045425115580236e-05,0.9999987387784519,19.435408812256668,-1.376953566428863,-976.4799267325019,44.7510636986193,-89.96621704101562,6233.3427734375,True
1598631916.5488853,0,5,0.5,0.5,-0.00675137939453125,-0.14,-0.011,-0.56,8.381000873050972e-05,10,1,100,-0.0002676942974844526,-10,-1,-100,516.4880865329178,0.001422839611975102,-4.434860793435604e-05,0.9999989867798065,19.77243821041794,-1.401285619241464,-1015.7791235265784,45.69058581390776,-89.96365356445312,6230.18505859375,True
1598631916.6079378,0,5,0.5,0.5,-0.0080923828125,-0.14,-0.011,-0.56,0.0008487506019338913,10,1,100,0.020490137452451006,-10,-1,-100,520.2505782773951,0.0010860364146171122,-3.189883589860622e-05,0.999999409753511,20.45913586849408,-1.450232270661757,-1096.6663606871766,47.57105497195216,-89.959716796875,6223.869140625,True
1598631916.6750102,0,5,0.5,0.5,-0.006897146606445312,-0.14,-0.011,-0.56,0.00032515628445419897,10,1,100,0.006244453235152818,-10,-1,-100,522.1747011572588,0.0009111535054676324,-2.5405926669808977e-05,0.9999995845768279,20.8095068786839,-1.474880116844826,-1138.258174724979,48.51199549771603,-89.95831298828125,6220.71142578125,True
1598631916.7800293,0,5,0.5,0.5,-0.006888739013671875,-0.14,-0.011,-0.56,0.00036963516393756133,10,1,100,0.0072616499162641655,-10,-1,-100,524.1685262093088,0.0007447754047307254,-1.916631816061554e-05,0.9999997224710858,21.164903117322122,-1.4996522664157776,-1180.6089106570798,49.45340192974161,-89.95724487304688,6217.5537109375,True
1598631916.8399684,0,5,0.5,0.5,-0.007261386108398438,-0.14,-0.011,-0.56,0.001216794122563863,10,1,100,0.02896947227570677,-10,-1,-100,528.1989010687685,0.0003980352992880066,-5.86002359816086e-06,0.9999999207667771,21.892366151638132,-1.5496492590068,-1267.6013330345252,51.33759981502801,-89.95590209960938,6211.2373046875,True
1598631916.9030204,0,5,0.5,0.5,-0.00696632080078125,-0.14,-0.011,-0.56,0.0006092903564108358,10,1,100,0.013659640969835605,-10,-1,-100,530.2891007616417,0.00022398025564130422,6.403236448314418e-07,0.9999999749162171,22.264907910422256,-1.574884655440135,-1312.2308416512499,52.28038512155874,-89.95529174804688,6208.080078125,True
1598631916.966097,0,5,0.5,0.5,-0.0071011962890625,-0.14,-0.011,-0.56,0.000716160394771552,10,1,100,0.014748012991799573,-10,-1,-100,532.395413940656,5.788803885233923e-05,7.446006338066082e-06,0.9999999982967659,22.643880474390546,-1.6003081563884747,-1357.618381668522,53.22362111435402,-89.95465087890625,6204.921875,True
1598631917.027703,0,5,0.5,0.5,-0.007259927368164063,-0.14,-0.011,-0.56,0.0007877771565163532,10,1,100,0.017355411299534086,-10,-1,-100,534.5446955711814,-0.00011473644393538014,1.420683857107732e-05,0.999999993316857,23.029818159258504,-1.6259532162576638,-1403.7822936002233,54.16730480577015,-89.95394897460938,6201.7646484375,True
1598631917.0878973,0,5,0.5,0.5,-0.007510806274414064,-0.14,-0.011,-0.56,0.0008394990183630876,10,1,100,0.01885333528765164,-10,-1,-100,536.7473828144139,-0.0002831795127272858,2.0744349095126917e-05,0.9999999596895168,23.422765525445723,-1.6518109240082364,-1450.712763553208,55.111437423092966,-89.95306396484375,6198.6064453125,True
1598631917.1493533,0,5,0.5,0.5,-0.007782922363281251,-0.14,-0.011,-0.56,0.0009434613700468386,10,1,100,0.02051989756090375,-10,-1,-100,538.9931002913509,-0.0004494660899089732,2.7557326583057774e-05,0.9999998986104087,23.822961268565727,-1.6778830542435552,-1498.4062623116893,56.05601497347548,-89.95199584960938,6195.44921875,True
1598631917.2098968,0,5,0.5,0.5,-0.008119000244140626,-0.14,-0.011,-0.56,0.0010283854305426139,10,1,100,0.02218747140621555,-10,-1,-100,541.2549918828299,-0.0006139437549592085,3.445205977864846e-05,0.9999998109430428,24.230694868118373,-1.7041989146902357,-1546.8651677611924,57.001032439694235,-89.95068359375,6192.291015625,True
1598631917.2704802,0,5,0.5,0.5,-0.008466519165039063,-0.14,-0.011,-0.56,0.0010200244981234579,10,1,100,0.02372768851747947,-10,-1,-100,543.5702279134421,-0.0007756192575009722,4.057235360018129e-05,0.9999996983842804,24.646254743785803,-1.7307659046845787,-1596.0938435216315,57.94648608013988,-89.94915771484375,6189.1328125,True
1598631917.3873856,0,5,0.5,0.5,-0.00884129333496094,-0.14,-0.011,-0.56,0.0011613724098152606,10,1,100,0.025247349763488535,-10,-1,-100,545.9016995615093,-0.0009347196750734598,4.735535519013772e-05,0.9999995620282037,25.069856669792056,-1.7576008057785788,-1646.0919860254933,58.89237296794315,-89.94741821289062,6185.9755859375,True
1598631917.5067399,0,5,0.5,0.5,-0.010763067626953126,-0.14,-0.011,-0.56,0.0019170473990922409,10,1,100,0.04328815427739977,-10,-1,-100,550.7306583714671,-0.0012416856655562405,6.0325346281834346e-05,0.9999992272884818,25.942099994181056,-1.812097633953473,-1748.4148821795093,60.78543173320105,-89.94329833984375,6179.65966796875,True
1598631917.621989,0,5,0.5,0.5,-0.012081509399414065,-0.14,-0.011,-0.56,0.002006318094182647,10,1,100,0.04395111182236241,-10,-1,-100,555.6721660364419,-0.0015249666699763498,7.285553389834183e-05,0.9999988345836843,26.8488543718827,-1.867773645736186,-1853.8571666410978,62.6801810993941,-89.93814086914062,6173.34423828125,True
1598631917.6820042,0,5,0.5,0.5,-0.013164889526367188,-0.14,-0.011,-0.56,0.0020419675666057714,10,1,100,0.043348658986703294,-10,-1,-100,560.7797498685541,-0.0017752698282438532,8.449914006492567e-05,0.999998420637219,27.791873651760426,-1.9247782525303654,-1962.5390330047765,64.5765912414554,-89.9324951171875,6167.0283203125,True
1598631917.7439864,0,5,0.5,0.5,-0.011886865234375002,-0.14,-0.011,-0.56,0.0014083896442721037,10,1,100,0.03057344650407272,-10,-1,-100,563.4060818271246,-0.0018848623585686827,8.924820199840483e-05,0.9999982196627392,28.276895656583307,-1.9537981400481994,-2018.1212457423007,65.52540725879439,-89.92984008789062,6163.8701171875,True
1598631917.8722157,0,5,0.5,0.5,-0.01207223815917969,-0.14,-0.011,-0.56,0.001450111559264936,10,1,100,0.03079658134241303,-10,-1,-100,566.0590251117246,-0.0019847542933966933,9.387045553272041e-05,0.9999980259674178,28.770671505998266,-1.9831451448453212,-2074.536022128584,66.47462610786927,-89.927490234375,6160.712890625,True
1598631917.975158,0,5,0.5,0.5,-0.013712060546875002,-0.14,-0.011,-0.56,0.0020061979934330254,10,1,100,0.040852053390551715,-10,-1,-100,571.4615302098682,-0.0021652785092693624,0.0001030554139500248,0.9999976504715195,29.78308299638069,-2.0427701071468944,-2189.8294542837716,68.37426920262071,-89.92330932617188,6154.396484375,True
1598631918.0870109,0,5,0.5,0.5,-0.014501016235351565,-0.14,-0.011,-0.56,0.0019710254294553926,10,1,100,0.03979599288907507,-10,-1,-100,577.0354825793765,-0.0023180798836887812,0.00011101079732518223,0.9999973070875019,30.82701596548214,-2.103571738756524,-2308.3503285120078,70.27548994360156,-89.91888427734375,6148.0810546875,True
1598631918.1512582,0,5,0.5,0.5,-0.01515694580078125,-0.14,-0.011,-0.56,0.0019335670142550574,10,1,100,0.037916891389063,-10,-1,-100,582.7326641994296,-0.0024382087433483433,0.00011782656619101128,0.9999970206230737,31.901846556810955,-2.165561458677646,-2430.1277693989514,72.17825367277308,-89.91445922851562,6141.765625,True
1598631918.2133837,0,5,0.5,0.5,-0.014128677368164063,-0.14,-0.011,-0.56,0.0016032351073386214,10,1,100,0.03138123472023276,-10,-1,-100,585.653734043357,-0.002486343314241862,0.00012094390736396793,0.999996901729948,32.450657189804915,-2.197009482441658,-2492.270139759576,73.13020478652618,-89.91244506835938,6138.60791015625,True
1598631918.3299174,0,5,0.5,0.5,-0.014322869873046878,-0.14,-0.011,-0.56,0.0016055487474026207,10,1,100,0.031181360556251446,-10,-1,-100,588.6014156949241,-0.00252672977351183,0.00012372582192745235,0.9999968001591667,33.00662783419716,-2.2287401227844637,-2555.2477136183998,74.08252779721839,-89.91061401367188,6135.4501953125,True
1598631918.4030852,0,5,0.5,0.5,-0.015880078125000002,-0.14,-0.011,-0.56,0.0018781993366885981,10,1,100,0.03409076618870349,-10,-1,-100,594.6364261464914,-0.002588446596690057,0.00012866404919073134,0.9999966416892502,34.13860921415643,-2.293003096420625,-2683.6881236254594,75.98828498529477,-89.906982421875,6129.13427734375,True
1598631918.51002,0,5,0.5,0.5,-0.015338970947265626,-0.14,-0.011,-0.56,0.0016276029745041411,10,1,100,0.03043150935919914,-10,-1,-100,597.6965949746082,-0.0026100625002828297,0.00013081307186211817,0.999996585225012,34.71391714568789,-2.325509824870138,-2749.132067243058,76.94171195846553,-89.9049072265625,6125.9765625,True
1598631918.637941,0,5,0.5,0.5,-0.017439126586914065,-0.14,-0.011,-0.56,0.0018117206083177123,10,1,100,0.030980777278901313,-10,-1,-100,603.9404663798632,-0.002633720215700546,0.0001343878368362625,0.9999965227228216,35.88210799514144,-2.391230075540452,-2882.4723693428346,78.84963996453175,-89.90029907226562,6119.6611328125,True
1598631918.6871443,0,5,0.5,0.5,-0.018568292236328127,-0.14,-0.011,-0.56,0.001715633862254189,10,1,100,0.02902362838459133,-10,-1,-100,610.3560300668469,-0.002636654557597964,0.00013671875394238774,0.9999965146742894,37.0721584476221,-2.4578337409651847,-3019.1018462499237,80.75897611505724,-89.89505004882812,6113.3447265625,True
1598631918.7968285,0,5,0.5,0.5,-0.017846063232421876,-0.14,-0.011,-0.56,0.0016064675483280222,10,1,100,0.02806830716438497,-10,-1,-100,613.625243640272,-0.002629953955321896,0.00013780219341049646,0.9999965321703612,37.67455918699944,-2.491438539658024,-3088.635715722323,81.71416244963109,-89.89193725585938,6110.1875,True
1598631918.9676416,0,5,0.5,0.5,-0.02026493225097657,-0.14,-0.011,-0.56,0.0016580894012538326,10,1,100,0.02590513167587462,-10,-1,-100,620.2496686159866,-0.002603610721846353,0.00013921649001003196,0.999996600909212,38.89278055564028,-2.5591987461269565,-3230.133871125246,83.62555319112558,-89.88604736328125,6103.8720703125,True
1598631919.0850117,0,5,0.5,0.5,-0.02339490966796875,-0.14,-0.011,-0.56,0.001689306362366191,10,1,100,0.02097320594548055,-10,-1,-100,630.4810141801136,-0.0025344281554899348,0.00014075313104148566,0.9999967784260511,40.74946640743959,-2.6620419675449685,-3448.397202422188,86.49512897974324,-89.87692260742188,6094.3984375,True
1598631919.1471307,0,5,0.5,0.5,-0.022988186645507818,-0.14,-0.011,-0.56,0.0014680060010546989,10,1,100,0.021118694846940914,-10,-1,-100,637.4965512546478,-0.0024726608594775566,0.00014011121748205155,0.9999969331538576,42.00379399481102,-2.7312799336136853,-3597.881623070772,88.40979552851677,-89.87026977539062,6088.0830078125,True
1598631919.2069101,0,5,0.5,0.5,-0.021340628051757814,-0.14,-0.011,-0.56,0.001509355619046414,10,1,100,0.023640213520835934,-10,-1,-100,641.0607471123803,-0.0024394003491234138,0.00013988330654495336,0.999997014874843,42.63509810756061,-2.7660690309976026,-3673.798385314743,89.36760268981055,-89.86737060546875,6084.9248046875,True
1598631919.377945,0,5,0.5,0.5,-0.021368847656250002,-0.14,-0.011,-0.56,0.0014901284983272988,10,1,100,0.023084700136916336,-10,-1,-100,644.6676668021828,-0.002404156075279577,0.00013948410514179853,0.9999971002846708,43.26870684423476,-2.800929960093083,-3750.4749702792865,90.32571999673492,-89.86508178710938,6081.76708984375,True
1598631919.5471063,0,5,0.5,0.5,-0.02460191650390625,-0.14,-0.011,-0.56,0.0013646322433994596,10,1,100,0.014033915891282094,-10,-1,-100,655.7137685492635,-0.002289947400186898,0.00013796599401848255,0.9999973685496824,45.18228851463973,-2.905926109382388,-3985.0509653949657,93.20190740832652,-89.85870361328125,6072.29345703125,True
1598631919.7139573,0,5,0.5,0.5,-0.027299676513671878,-0.14,-0.011,-0.56,0.0012380942239936994,10,1,100,0.012055423202170828,-10,-1,-100,667.0814631937537,-0.0021684063976529994,0.00013542709105284498,0.9999976398338136,47.112203537861475,-3.0113945095101977,-4226.417583946137,96.08077117943473,-89.84982299804688,6062.81982421875,True
1598631919.8299646,0,5,0.5,0.5,-0.030013467407226567,-0.14,-0.011,-0.56,0.001199226420079323,10,1,100,0.011989672451231094,-10,-1,-100,678.8135376864811,-0.00205771834861603,0.00013276145921287038,0.9999978740825365,49.052899470415255,-3.1170218052924707,-4474.23282272536,98.96221582436917,-89.83892822265625,6053.3466796875,True
1598631919.9428952,0,5,0.5,0.5,-0.028594158935546878,-0.14,-0.011,-0.56,0.0012761146639205167,10,1,100,0.01652502259390634,-10,-1,-100,686.8259599859593,-0.001998846943395001,0.0001310386201001983,0.999997993717876,50.34276363961944,-3.186776530942174,-4641.993654100688,100.8845811253148,-89.83233642578125,6047.03125,True
1598631920.1188846,0,5,0.5,0.5,-0.02796246032714844,-0.14,-0.011,-0.56,0.0013132506764367059,10,1,100,0.01739478074883017,-10,-1,-100,695.0045202284819,-0.0019538142015244663,0.00012981516659686378,0.9999980828772066,51.61758730278903,-3.2551667044553505,-4810.491874556582,102.80806214556645,-89.82806396484375,6040.71484375,True
1598631920.2392237,0,5,0.5,0.5,-0.02779773559570313,-0.14,-0.011,-0.56,0.0012767325624387523,10,1,100,0.01674604783909999,-10,-1,-100,707.5511684587691,-0.00190759244587534,0.00012837821421822702,0.9999981723033771,53.50397820947357,-3.3551995344617906,-5064.337588901288,105.69538177682327,-89.82498168945312,6031.2421875,True
1598631920.3561473,0,5,0.5,0.5,-0.027826455688476564,-0.14,-0.011,-0.56,0.0013035992856341445,10,1,100,0.01938067978012131,-10,-1,-100,716.0836706464179,-0.0018901566113635744,0.00012732598979014426,0.9999982055464285,54.745963286536714,-3.4202310344936775,-5234.154114184881,107.62166679490225,-89.82257080078125,6024.92626953125,True
1598631920.4690742,0,5,0.5,0.5,-0.029590954589843756,-0.14,-0.011,-0.56,0.001374474028556165,10,1,100,0.020349522858498694,-10,-1,-100,724.798240665812,-0.0018836992184691514,0.00012702594446504316,0.9999982177692437,55.97639007422862,-3.4839554519075024,-5404.286891174652,109.5490847872547,-89.81820678710938,6018.6103515625,True
1598631920.5839465,0,5,0.5,0.5,-0.03237405395507813,-0.14,-0.011,-0.56,0.001381649356982425,10,1,100,0.02125472481918002,-10,-1,-100,733.6522751881275,-0.0018865933896995138,0.0001268303019488418,0.9999982123381304,57.19622442532451,-3.546373439978243,-5574.602223984824,111.47764291274484,-89.81082153320312,6012.294921875,True
1598631920.811952,0,5,0.5,0.5,-0.03573459777832032,-0.14,-0.011,-0.56,0.0014619752386906895,10,1,100,0.022149177844372713,-10,-1,-100,742.6617666038219,-0.0018978583973737985,0.00012739454677200307,0.9999981909504301,58.40682912799853,-3.6075357485617556,-5745.0221187709385,113.40735214137636,-89.80020141601562,6005.97900390625,True
1598631920.926337,0,5,0.5,0.5,-0.04867889099121094,-0.14,-0.011,-0.56,0.001530096026126553,10,1,100,0.026103629776234198,-10,-1,-100,761.1679308133898,-0.0019445091470745306,0.00012853776700463008,0.999998101179307,60.804378273003884,-3.726303146494004,-6085.773289077009,117.27026799962269,-89.7733154296875,5993.34765625,True
1598631921.0441067,0,5,0.5,0.5,-0.04437645568847657,-0.14,-0.011,-0.56,0.0015686363935190238,10,1,100,0.025209983058778418,-10,-1,-100,770.6277384657878,-0.0019791088932375185,0.0001299359962169624,0.9999980331203786,61.99335149610662,-3.784010369754518,-6255.906149826464,119.20350116780612,-89.75808715820312,5987.0322265625,True
1598631921.17096,0,5,0.5,0.5,-0.04248639831542969,-0.14,-0.011,-0.56,0.0015763623109368219,10,1,100,0.025952823428832802,-10,-1,-100,780.2801728723571,-0.0020174883908447433,0.0001312823412000044,0.9999979562506813,63.17750207775632,-3.8406706702640165,-6425.781266388048,121.13793720686617,-89.74874877929688,5980.716796875,True
1598631921.2744613,0,5,0.5,0.5,-0.037591088867187504,-0.14,-0.011,-0.56,0.001661771476298938,10,1,100,0.026839659043041565,-10,-1,-100,790.0613302146085,-0.002060477557851183,0.00013328408279516442,0.9999978683315214,64.35787294545992,-3.896379629732641,-6595.359467673671,123.07359179208379,-89.7484130859375,5974.400390625,True
1598631921.3912275,0,5,0.5,0.5,-0.03401336059570313,-0.14,-0.011,-0.56,0.001666441277787642,10,1,100,0.027672476721977084,-10,-1,-100,800.0086247280706,-0.002107073660743309,0.00013514425929275723,0.9999977709858245,65.53537441633995,-3.951167072423855,-6764.570455031489,125.01048199001708,-89.75338745117188,5968.0849609375,True
1598631921.5099444,0,5,0.5,0.5,-0.033270919799804684,-0.14,-0.011,-0.56,0.001693781145156618,10,1,100,0.028485266920979545,-10,-1,-100,810.0844593767542,-0.002156683429309611,0.00013707902845510876,0.9999976649602367,66.71084878669917,-4.005126120218719,-6933.373563125487,126.94862430560042,-89.758544921875,5961.76953125,True
1598631921.681987,0,5,0.5,0.5,-0.03638171997070313,-0.14,-0.011,-0.56,0.001781187737119856,10,1,100,0.029286145189556762,-10,-1,-100,820.3425724974368,-0.002208837484099283,0.0001396246050621515,0.9999975507679698,67.87926825687352,-4.057935062123733,-7100.151845589338,128.8654568561107,-89.75833129882812,5955.50439453125,True
1598631921.8510199,0,5,0.5,0.5,-0.048338369750976565,-0.14,-0.011,-0.56,0.0019335124173026777,10,1,100,0.033120472618044024,-10,-1,-100,835.9848647958133,-0.0022908180733736553,0.0001433123548745142,0.9999973658035923,69.54061234408056,-4.130294825645997,-7326.983022195637,131.44056076581643,-89.74118041992188,5946.78515625,True
1598631921.9709263,0,5,0.5,0.5,-0.06498742980957033,-0.14,-0.011,-0.56,0.002026939100819017,10,1,100,0.03427967769637206,-10,-1,-100,851.9387477032142,-0.0023755140017397897,0.00014749938236280203,0.9999971675845686,70.99934900750213,-4.189189415777958,-7515.889326774467,133.66406187978563,-89.70379638671875,5938.8583984375,True
1598631922.0920935,0,5,0.5,0.5,-0.06476336059570313,-0.14,-0.011,-0.56,0.0019050462668967882,10,1,100,0.03176626229477075,-10,-1,-100,862.7006117557175,-0.0024292165960471362,0.00015017886424339438,0.999997038172133,71.83320265020187,-4.219604721857036,-7617.0158273563175,134.93170175645318,-89.67437744140625,5934.056640625,True
1598631922.2109118,0,5,0.5,0.5,-0.06139407653808594,-0.14,-0.011,-0.56,0.0019357530279232426,10,1,100,0.031973983276245094,-10,-1,-100,873.5305063578999,-0.002479442455977515,0.00015287319621919937,0.9999969144926866,72.6512336866647,-4.248657844597971,-7708.604256891185,136.03217424612149,-89.65585327148438,5929.63037109375,True
1598631922.3293426,0,5,0.5,0.5,-0.05127792358398438,-0.14,-0.011,-0.56,0.0019118916377346981,10,1,100,0.03223934308426231,-10,-1,-100,884.4740615234477,-0.0025270283875244676,0.0001550835440780221,0.9999967950331756,73.38771592482695,-4.272581897033737,-7784.460125450479,136.98152184566842,-89.65567016601562,5925.5419921875,True
1598631922.5019069,0,5,0.5,0.5,-0.04028645629882813,-0.14,-0.011,-0.56,0.0019692599937524086,10,1,100,0.03245963698503541,-10,-1,-100,895.4605439438019,-0.0025717928884884645,0.00015759162032451187,0.9999966805176004,74.08136430337063,-4.2937313212460655,-7850.308761403198,137.81647143118093,-89.67138671875,5921.7109375,True
1598631922.6148696,0,5,0.5,0.5,-0.023345797729492194,-0.14,-0.011,-0.56,0.0021250737027779815,10,1,100,0.035003984330023996,-10,-1,-100,912.1010499456897,-0.0026351144065941364,0.0001612642603768946,0.9999965150768788,75.06689707212325,-4.321832599547277,-7934.537975704439,138.8871997063553,-89.70828247070312,5916.37109375,True
1598631922.780891,0,5,0.5,0.5,-0.028777514648437502,-0.14,-0.011,-0.56,0.0019938691087047202,10,1,100,0.03307961692185327,-10,-1,-100,923.2273553432897,-0.002674662776753429,0.00016338481849877495,0.9999964097357709,75.66900843335819,-4.337182668184891,-7980.639336143499,139.51527516486723,-89.7301025390625,5913.0029296875,True
1598631922.95302,0,5,0.5,0.5,-0.043500393676757815,-0.14,-0.011,-0.56,0.002098471464885499,10,1,100,0.03483419054528472,-10,-1,-100,940.0235085212626,-0.0027260505197330624,0.00016623785588466779,0.999996270499815,76.55289634101155,-4.358790030897405,-8041.338870447847,140.3231102558693,-89.7265625,5908.2529296875,True
1598631923.0690472,0,5,0.5,0.5,-0.08107341613769531,-0.14,-0.011,-0.56,0.0020586143389612916,10,1,100,0.034483798066274454,-10,-1,-100,956.9160172931151,-0.0027690636570958872,0.0001684426807021416,0.9999961519493595,77.39710569551376,-4.377843358502892,-8091.203426507087,140.98940015005334,-89.67010498046875,5903.8193359375,True
1598631923.236015,0,5,0.5,0.5,-0.08862590942382814,-0.14,-0.011,-0.56,0.0019767473487024307,10,1,100,0.03279931694953073,-10,-1,-100,968.2141519373981,-0.0027923437480253336,0.00016967662328327363,0.9999960870054623,77.91127884873097,-4.387654399126661,-8116.233777680925,141.36610171998205,-89.61428833007812,5901.0146484375,True
1598631923.349359,0,5,0.5,0.5,-0.09399498291015626,-0.14,-0.011,-0.56,0.002005936197778643,10,1,100,0.03362974529153875,-10,-1,-100,985.2195606087334,-0.0028206008831843108,0.0001710397749228058,0.9999960074700565,78.67617181340218,-4.401886982267588,-8148.934173235243,141.83826209922336,-89.56216430664062,5897.015625,True
1598631923.4610026,0,5,0.5,0.5,-0.05885170593261719,-0.14,-0.011,-0.56,0.001960967557209128,10,1,100,0.032613046700023934,-10,-1,-100,996.5709299956216,-0.0028366418489682967,0.0001718487975057849,0.9999959619573529,79.15357295489392,-4.409495454225451,-8165.440353161199,142.11048035606137,-89.57089233398438,5894.4462890625,True
1598631923.6310575,0,5,0.5,0.5,-0.02894722900390625,-0.14,-0.011,-0.56,0.0019819259647043267,10,1,100,0.03262608727219923,-10,-1,-100,1007.965221896884,-0.002850972709198131,0.0001727551036191201,0.9999959210468238,79.62925680057344,-4.416961167565025,-8180.211543001075,142.34726096429398,-89.62075805664062,5891.9560546875,True
1598631923.7499108,0,5,0.5,0.5,0.02388159790039062,-0.14,-0.011,-0.56,0.0019751649797141416,10,1,100,0.0334159270390728,-10,-1,-100,1025.056697578868,-0.002870843370693903,0.0001734994803064232,0.9999958640695826,80.31247514079702,-4.426401439178969,-8196.748424152456,142.64459468188915,-89.73617553710938,5888.3505859375,True
1598631923.868078,0,5,0.5,0.5,0.008512390136718749,-0.14,-0.011,-0.56,0.0019202910663098632,10,1,100,0.03287522744245408,-10,-1,-100,1036.4778990930645,-0.002883679598463372,0.0001736605908673613,0.9999958271082797,80.7518557905685,-4.431758909503461,-8205.078693286605,142.8187539187769,-89.80642700195312,5886.00146484375,True
1598631923.9858723,0,5,0.5,0.5,-0.01636714172363281,-0.14,-0.011,-0.56,0.0019316977845537753,10,1,100,0.032990833940289996,-10,-1,-100,1047.898827260593,-0.0028961163312250563,0.00017389614429721073,0.9999957911263062,81.19103651596315,-4.437062363981402,-8212.442567925991,142.97071596724595,-89.82687377929688,5883.703125,True
1598631924.0986423,0,5,0.5,0.5,-0.06075573425292969,-0.14,-0.011,-0.56,0.0018664715437047847,10,1,100,0.03310295695120015,-10,-1,-100,1059.3629860458896,-0.0029082044775397427,0.00017350583442215546,0.9999957561122157,81.6201133210748,-4.441764817021455,-8217.927007415541,143.10232338333307,-89.77963256835938,5881.45068359375,True
1598631924.213517,0,5,0.5,0.5,-0.10031978149414063,-0.14,-0.011,-0.56,0.0018455298728431856,10,1,100,0.03323929143134059,-10,-1,-100,1070.800414086203,-0.0029202207951900196,0.00017295142751343307,0.9999957211900014,82.0444477662748,-4.446172174887032,-8222.282422332482,143.21840725083885,-89.68524169921875,5879.2333984375,True
1598631924.3291917,0,5,0.5,0.5,-0.12122766113281251,-0.14,-0.011,-0.56,0.0018890427213686125,10,1,100,0.033426963205560586,-10,-1,-100,1082.2643342308002,-0.002932674308932765,0.00017283688933607226,0.999995684765093,82.46373166952033,-4.450286633202142,-8225.574696729598,143.3211024646726,-89.57992553710938,5877.046875,True
1598631924.4502296,0,5,0.5,0.5,-0.11376887512207033,-0.14,-0.011,-0.56,0.0018924076039688285,10,1,100,0.03357798043272932,-10,-1,-100,1093.7285005828599,-0.00294521983198967,0.0001727593588269881,0.9999956479077022,82.87682216493505,-4.45404838281014,-8227.766233352719,143.41208963679873,-89.5064697265625,5874.8876953125,True
1598631924.5689752,0,5,0.5,0.5,-0.080634912109375,-0.14,-0.011,-0.56,0.0018968756688235884,10,1,100,0.033764627133270164,-10,-1,-100,1105.2355159657309,-0.0029581826628790786,0.00017272669283055147,0.9999956096507737,83.28306530047547,-4.457438152851224,-8228.85798604921,143.49277832479555,-89.49520874023438,5872.751953125,True
1598631924.6859381,0,5,0.5,0.5,-0.03466852416992188,-0.14,-0.011,-0.56,0.0018721209623735137,10,1,100,0.03391131261443957,-10,-1,-100,1116.6998079788173,-0.002971175484625813,0.00017247042012251046,0.9999955711752895,83.6825117723237,-4.4604600140832265,-8228.916422955172,143.56440767681747,-89.55197143554688,5870.63818359375,True
1598631924.7989187,0,5,0.5,0.5,0.005770867919921874,-0.14,-0.011,-0.56,0.0019401034937399112,10,1,100,0.03410742174691779,-10,-1,-100,1128.206582197803,-0.002984647647749321,0.00017285490283433432,0.9999955309898146,84.076032924739,-4.46315371258375,-8228.079762914882,143.62806533398742,-89.65518188476562,5868.54296875,True
1598631924.9279213,0,5,0.5,0.5,0.024103411865234382,-0.14,-0.011,-0.56,0.0019308458076826465,10,1,100,0.034270008517042524,-10,-1,-100,1139.6707553634187,-0.0029982516076458706,0.00017312018106345795,0.9999954902481811,84.46537948118542,-4.465608457964312,-8226.565701280908,143.68470746594863,-89.76388549804688,5866.4638671875,True
1598631925.0275793,0,5,0.5,0.5,0.012350445556640628,-0.14,-0.011,-0.56,0.001922779493486734,10,1,100,0.034428912611199604,-10,-1,-100,1151.1778987440048,-0.00301194760091966,0.00017328835777837383,0.9999954490610415,84.85253433776687,-4.467926989552119,-8224.606018385004,143.73517310652863,-89.83401489257812,5864.3994140625,True
1598631925.1449807,0,5,0.5,0.5,-0.022512396240234378,-0.14,-0.011,-0.56,0.0018310083195297571,10,1,100,0.034633614119487115,-10,-1,-100,1162.6850427713944,-0.0030261428194234856,0.00017260730069513301,0.9999954063226272,85.23899686517102,-4.470188892164494,-8222.377762918448,143.78019915467365,-89.84027099609375,5862.349609375,True
1598631925.262871,0,5,0.5,0.5,-0.07032785949707032,-0.14,-0.011,-0.56,0.0018814525352463644,10,1,100,0.03480525437766435,-10,-1,-100,1174.1919439664343,-0.0030404897236029397,0.0001724479133474306,0.9999953628312274,85.62542087549512,-4.47243075515632,-8219.970452410354,143.82043544377296,-89.77694702148438,5860.31005859375,True
1598631925.383063,0,5,0.5,0.5,-0.11096191711425782,-0.14,-0.011,-0.56,0.001842859227863487,10,1,100,0.03493603368192438,-10,-1,-100,1185.699211940053,-0.003054601007217477,0.00017195312925610652,0.9999953199114524,86.01144480073323,-4.4746530468667345,-8217.37294486996,143.8564539152251,-89.66824340820312,5858.28125,True
1598631925.5538747,0,5,0.5,0.5,-0.12797219238281252,-0.14,-0.011,-0.56,0.0018730535596746698,10,1,100,0.03514331281156961,-10,-1,-100,1197.2059922100743,-0.0030691916387619884,0.0001717787270061475,0.9999952752662152,86.39584597213326,-4.476793971510274,-8214.490392113163,143.88876168611154,-89.5570068359375,5856.26220703125,True
1598631925.6749947,0,5,0.5,0.5,-0.12120419006347656,-0.14,-0.011,-0.56,0.001849308086402799,10,1,100,0.036077634999550495,-10,-1,-100,1214.4799568703165,-0.003090825580666071,0.00017140527353310406,0.9999952086972528,86.96659286519048,-4.479719311518046,-8209.410145862765,143.93124615236385,-89.47772216796875,5853.2490234375,True
1598631925.7876086,0,5,0.5,0.5,-0.05288925476074219,-0.14,-0.011,-0.56,0.0019173207847513946,10,1,100,0.03554250499206418,-10,-1,-100,1225.987107787514,-0.0031054956134665647,0.00017168529862013714,0.9999951631988792,87.3409828599218,-4.4813754069077865,-8205.370806384059,143.95687569375275,-89.51193237304688,5851.24755859375,True
1598631925.9552608,0,5,0.5,0.5,0.004192129516601563,-0.14,-0.011,-0.56,0.0019257709185556398,10,1,100,0.03559692178965582,-10,-1,-100,1237.4942546952516,-0.0031191927842173124,0.0001720176330013062,0.9999951205112498,87.71194302124229,-4.482871702132942,-8200.934938067729,143.9798806347465,-89.62081909179688,5849.2529296875,True
1598631926.1248405,0,5,0.5,0.5,0.09515592346191407,-0.14,-0.011,-0.56,0.0019226956162974563,10,1,100,0.03651889404780282,-10,-1,-100,1254.7843353223288,-0.003139891762428791,0.00017229220949740474,0.9999950556853344,88.2619637048036,-4.484794460783974,-8193.570744522673,144.00980327760718,-89.8377685546875,5846.27392578125,True
1598631926.2462835,0,5,0.5,0.5,0.08001436157226563,-0.14,-0.011,-0.56,0.0018926150920570493,10,1,100,0.03668149572551753,-10,-1,-100,1272.0584262595512,-0.0031600460814051054,0.00017226887672197876,0.9999949922035598,88.8107181350083,-4.486634794415697,-8186.051930372355,144.0365106878327,-89.98941040039062,5843.3046875,True
1598631926.3640242,0,5,0.5,0.5,-0.01619263916015625,-0.14,-0.011,-0.56,0.00185191087034707,10,1,100,0.036168281341357786,-10,-1,-100,1283.608546521049,-0.0031735555183696126,0.00017187840064181121,0.9999949494888397,89.17842114301507,-4.487931803273888,-8181.186536187223,144.05242504732496,-89.97293090820312,5841.3310546875,True
1598631926.483099,0,5,0.5,0.5,-0.11531046142578126,-0.14,-0.011,-0.56,0.0018248915881902866,10,1,100,0.03619135509797126,-10,-1,-100,1295.1155733090127,-0.003185899669836151,0.00017127907432853956,0.999994910340434,89.55121810739799,-4.489490931378474,-8176.789367946328,144.06681052442133,-89.81793212890625,5839.36181640625,True
1598631926.598035,0,5,0.5,0.5,-0.1937517822265625,-0.14,-0.011,-0.56,0.0017950206919038515,10,1,100,0.03626758480786526,-10,-1,-100,1306.6490908467676,-0.0031976693895771195,0.00017046388610147647,0.9999948729131257,89.92677001014272,-4.491216361671501,-8172.630036019227,144.07980591147816,-89.5819091796875,5837.396484375,True
1598631926.7108917,0,5,0.5,0.5,-0.2134871978759766,-0.14,-0.011,-0.56,0.0018784517875373044,10,1,100,0.036404302889169876,-10,-1,-100,1318.172354863491,-0.0032094691358389746,0.00017048307406194682,0.9999948351083556,90.30141543876742,-4.492937020999847,-8168.390596919601,144.0918096020852,-89.36520385742188,5835.435546875,True
1598631926.883879,0,5,0.5,0.5,-0.16710545349121095,-0.14,-0.011,-0.56,0.001908008344214012,10,1,100,0.03653426414131021,-10,-1,-100,1329.7063608514145,-0.0032212368546159172,0.00017077055004597553,0.9999947972217385,90.6710935158868,-4.494471086690957,-8163.7124906436875,144.10293458589496,-89.25857543945312,5833.4765625,True
1598631927.0570502,0,5,0.5,0.5,-0.009262951660156254,-0.14,-0.011,-0.56,0.001976576121018514,10,1,100,0.03731757674082567,-10,-1,-100,1346.9965666120406,-0.0032389175814852293,0.00017165615179964272,0.9999947399596988,91.21141555573789,-4.49617699989397,-8155.453190619119,144.11817418461445,-89.39923095703125,5830.54443359375,True
1598631927.2850523,0,5,0.5,0.5,0.23236091308593754,-0.14,-0.011,-0.56,0.0019969253684411904,10,1,100,0.037556186004389015,-10,-1,-100,1364.2866514144698,-0.0032570255155798897,0.0001726460093902131,0.999994680974927,91.73494748392348,-4.497119510988455,-8145.783045672282,144.1324942233715,-89.8570556640625,5827.61767578125,True
1598631927.3969665,0,5,0.5,0.5,0.4559050689697266,-0.14,-0.011,-0.56,0.0018842179861856207,10,1,100,0.03842272525485038,-10,-1,-100,1387.343556736596,-0.003281227148940945,0.0001725203939877082,0.9999946018779855,92.42286983273526,-4.4977604155836755,-8132.149069529968,144.15012409297566,-90.54212188720703,5823.72216796875,True
1598631927.5121117,0,5,0.5,0.5,0.17615693588256837,-0.14,-0.011,-0.56,0.0017178056609807686,10,1,100,0.037286746916866606,-10,-1,-100,1398.8935556487413,-0.0032927542540468484,0.0001708929017917629,0.9999945642677457,92.7721265721894,-4.49821278645826,-8125.889759040045,144.158893989447,-90.6890869140625,5821.7763671875,True
1598631927.6258733,0,5,0.5,0.5,-0.08209225234985353,-0.14,-0.011,-0.56,0.0016128952622253279,10,1,100,0.03731028741303323,-10,-1,-100,1410.4168192323996,-0.0033033084791158954,0.0001684609046319501,0.9999945298720466,93.13657030239511,-4.4993049151632825,-8120.981749114954,144.16680957664985,-90.43639373779297,5819.833984375,True
1598631927.7439306,0,5,0.5,0.5,-0.3731009674072266,-0.14,-0.011,-0.56,0.001610280452731666,10,1,100,0.03742349275027748,-10,-1,-100,1421.9669395362725,-0.003313802130064785,0.00016622968892044158,0.9999944955264171,93.51869271297248,-4.501218769450487,-8117.636946961745,144.17411382312287,-89.81781005859375,5817.89404296875,True
1598631927.9791176,0,5,0.5,0.5,-0.524157830810547,-0.14,-0.011,-0.56,0.0016259561069406061,10,1,100,0.03752869029879712,-10,-1,-100,1433.4740906558,-0.0033241706571760497,0.00016434895214071635,0.9999944614240941,93.90659015522239,-4.503468369068079,-8114.814995088548,144.1810386858052,-89.10739135742188,5815.9560546875,True
1598631928.1348107,0,5,0.5,0.5,-0.6128196746826172,-0.14,-0.011,-0.56,0.0018601601231948146,10,1,100,0.03899558295183218,-10,-1,-100,1456.5474761091173,-0.0033468062777708453,0.00016477461896344787,0.9999943858527728,94.6523049453349,-4.506876810014433,-8106.664329164528,144.19445617188913,-88.41351318359375,5812.0849609375,True
1598631928.2501225,0,5,0.5,0.5,0.11374299011230468,-0.14,-0.011,-0.56,0.0022520851848882775,10,1,100,0.038819296870293216,-10,-1,-100,1473.8642958913697,-0.0033656459349446746,0.0001687297159696335,0.9999943219627416,95.16478709804986,-4.5075568090853215,-8096.688140304857,144.20504843357273,-88.898193359375,5809.18310546875,True
1598631928.3658273,0,5,0.5,0.5,0.5133110656738281,-0.14,-0.011,-0.56,0.0022305890280440483,10,1,100,0.03834958935018076,-10,-1,-100,1485.3876821346348,-0.0033783608487388556,0.0001721314330567568,0.9999942785080049,95.4759833374035,-4.506656728053757,-8087.5001397583355,144.21139115178357,-89.85748291015625,5807.251953125,True
1598631928.48229,0,5,0.5,0.5,0.7784095611572266,-0.14,-0.011,-0.56,0.0021393276100157834,10,1,100,0.03850817928740593,-10,-1,-100,1496.937435999862,-0.00339121874798641,0.00017439301671478397,0.9999942345946194,95.76959490555487,-4.504843406641113,-8076.898654391603,144.21750410663887,-91.002685546875,5805.322265625,True
1598631928.5989006,0,5,0.5,0.5,0.6733500885009767,-0.14,-0.011,-0.56,0.0019360153629098278,10,1,100,0.03871372727624135,-10,-1,-100,1508.4875566514675,-0.0034046379097767802,0.00017459822064392258,0.9999941889611982,96.07475158760356,-4.5033976662688415,-8067.347408675836,144.22344211386886,-91.76624298095703,5803.39501953125,True
1598631928.7169218,0,5,0.5,0.5,0.2760776359558106,-0.14,-0.011,-0.56,0.0016719038762350149,10,1,100,0.038900798319055074,-10,-1,-100,1520.010943675181,-0.0034184036005261535,0.00017238198141768327,0.9999941423834824,96.41146729010855,-4.503249984520208,-8060.5064065169145,144.22931107575246,-91.80655670166016,5801.46875,True
1598631928.8341646,0,5,0.5,0.5,-0.27244100112915043,-0.14,-0.011,-0.56,0.0014489631944880294,10,1,100,0.039109266820268926,-10,-1,-100,1531.560941887903,-0.0034326883271715413,0.00016834061084392043,0.9999940941387041,96.78805557925934,-4.504856496540916,-8057.030939279371,144.2350799459645,-91.05322265625,5799.54443359375,True
1598631928.9514055,0,5,0.5,0.5,-0.7456171119689942,-0.14,-0.011,-0.56,0.0014033503049422262,10,1,100,0.03927623968295463,-10,-1,-100,1543.0844512971817,-0.003447065164625287,0.00016425429522730857,0.9999940453634099,97.19441569745621,-4.507871538904699,-8056.038579208188,144.2407151661994,-89.77401733398438,5797.62109375,True
1598631929.0659008,0,5,0.5,0.5,-0.9486766586303712,-0.14,-0.011,-0.56,0.0014751477567541997,10,1,100,0.03940287336581634,-10,-1,-100,1554.6342055539135,-0.00346115554425879,0.00016119599114631996,0.9999939971910586,97.60713029256678,-4.511319687083771,-8055.559772375287,144.24617941490143,-88.46160888671875,5795.69921875,True
1598631929.177871,0,5,0.5,0.5,-0.7899511947631837,-0.14,-0.011,-0.56,0.0017227460513221389,10,1,100,0.039544746625956424,-10,-1,-100,1566.1843262107577,-0.0034751207795503444,0.0001606711843849244,0.9999939488418608,97.99966889403017,-4.514049881497749,-8053.406061798765,144.25151871228087,-87.64056396484375,5793.77880859375,True
1598631929.3599055,0,5,0.5,0.5,-0.3241959304809571,-0.14,-0.011,-0.56,0.0019351328265970616,10,1,100,0.03969938468607193,-10,-1,-100,1577.7073469797615,-0.00348908502115974,0.00016212821962047848,0.9999938999814727,98.35355717049491,-4.515205249830871,-8048.0926613186175,144.25679478769277,-87.65139770507812,5791.859375,True
1598631929.5208488,0,5,0.5,0.5,0.7625847610473634,-0.14,-0.011,-0.56,0.002524967237649718,10,1,100,0.04061842594860918,-10,-1,-100,1595.0406456111232,-0.0035100053625155394,0.00016881733393449993,0.9999938256624702,98.80389924313803,-4.513445531703552,-8033.652037922056,144.26472619080343,-89.21380615234375,5788.9833984375,True
1598631929.6390905,0,5,0.5,0.5,1.880621601867676,-0.14,-0.011,-0.56,0.002368963324469748,10,1,100,0.04100251339481849,-10,-1,-100,1612.3308534211246,-0.003532384322870377,0.0001734800499020062,0.9999937460632781,99.17541237978648,-4.50773759838818,-8013.032031779498,144.27304450701405,-92.06043243408203,5786.109375,True
1598631929.7578378,0,5,0.5,0.5,1.4513158729553224,-0.14,-0.011,-0.56,0.0017959124800267109,10,1,100,0.04044835491769777,-10,-1,-100,1623.8972098611994,-0.0035475510066062853,0.00017250810345312495,0.9999936925415128,99.50217832376768,-4.506949314594498,-8005.777649697429,144.27868185955515,-93.72097778320312,5784.1953125,True
1598631930.2538245,0,5,0.5,0.5,1.0045557807922363,-0.14,-0.011,-0.56,0.0012393296769364274,10,1,100,0.0406257861179184,-10,-1,-100,1635.420230671065,-0.003562809791587644,0.0001665663856653773,0.9999936393007849,99.88680364135436,-4.5082117194781866,-8003.193354624123,144.28414775163577,-94.40691375732422,5782.2822265625,True
1598631930.354138,0,5,0.5,0.5,0.3368411643981934,-0.14,-0.011,-0.56,0.0007033747086996119,10,1,100,0.040792845290779776,-10,-1,-100,1646.970228852937,-0.0035780563414314274,0.00015629980781525253,0.9999935865210274,100.21970394844035,-4.506602684064406,-7996.48202941049,144.2894684872986,-93.99763488769531,5780.37060546875,True
1598631930.5079677,0,5,0.5,0.5,-0.4680408248901367,-0.14,-0.011,-0.56,0.00024627282154898863,10,1,100,0.04087910778551472,-10,-1,-100,1658.4938602109905,-0.0035925559069316343,0.0001428257036806811,0.9999935365505489,100.50007903923695,-4.50222113630709,-7985.642142438776,144.29477478827866,-92.51693725585938,5778.4609375,True
1598631930.6178274,0,5,0.5,0.5,-1.168863905334473,-0.14,-0.011,-0.56,0.00014052016076931658,10,1,100,0.0409377186702096,-10,-1,-100,1670.0437366495607,-0.003606124822174721,0.00012963832564867663,0.9999934895076426,100.92617969379849,-4.50417283818423,-7986.416739693594,144.30002525074974,-90.32890319824219,5776.55224609375,True
1598631930.7268403,0,5,0.5,0.5,-1.438411917114258,-0.14,-0.011,-0.56,0.0003014928917437435,10,1,100,0.041013694123314536,-10,-1,-100,1681.6099706506357,-0.0036190062859170727,0.00011914465769169338,0.9999934442775378,101.38631332797823,-4.507655891647891,-7989.855106272497,144.30513622292833,-88.19253540039062,5774.64453125,True
1598631930.839873,0,5,0.5,0.5,-1.2192828491210939,-0.14,-0.011,-0.56,0.000762730418171051,10,1,100,0.04105715912015727,-10,-1,-100,1693.1332356197527,-0.003630968343161728,0.00011383625645600652,0.9999934015333288,101.8103649063312,-4.5096639286496965,-7990.41768658227,144.31018753061605,-86.79690551757812,5772.73828125,True
1598631930.9532075,0,5,0.5,0.5,-0.7090408294677735,-0.14,-0.011,-0.56,0.001340962459096444,10,1,100,0.0411618063404134,-10,-1,-100,1704.683356182999,-0.0036426525994195506,0.00011430966927554833,0.9999933589856181,102.18025455894424,-4.509459733831389,-7986.729715254936,144.3151609863846,-86.41064453125,5770.8330078125,True
1598631931.0660074,0,5,0.5,0.5,-0.06734474487304687,-0.14,-0.011,-0.56,0.0019072250816639328,10,1,100,0.04131192235786387,-10,-1,-100,1716.222734792158,-0.0036544997347414303,0.00011993135799878617,0.9999933151017352,102.49661550916663,-4.5071200539155685,-7978.90519572756,144.3201292845808,-87.02029418945312,5768.92919921875,True
1598631931.1809258,0,5,0.5,0.5,0.590837484741211,-0.14,-0.011,-0.56,0.002321612003238054,10,1,100,0.041424529435782564,-10,-1,-100,1727.772611221415,-0.0036661621999494673,0.00012885357973961778,0.9999932713031017,102.76378612989656,-4.502821482784657,-7967.3434868325285,144.32516676014595,-88.45172119140625,5767.0263671875,True
1598631931.2958064,0,5,0.5,0.5,1.017398450469971,-0.14,-0.011,-0.56,0.002450664444823742,10,1,100,0.041593597508884694,-10,-1,-100,1739.3389672294725,-0.0036781798072785393,0.00013817846394584586,0.9999932259270646,103.00084981968564,-4.497310346410859,-7953.564789928072,144.3303132675918,-90.21190643310547,5765.125,True
1598631931.4650495,0,5,0.5,0.5,1.0196331375122072,-0.14,-0.011,-0.56,0.0024175070748389074,10,1,100,0.041787628720747,-10,-1,-100,1750.8624766597059,-0.0036907500715031055,0.00014638540953301586,0.999993178444344,103.24383238482334,-4.49207544336028,-7940.356487034089,144.33556852183114,-91.6287612915039,5763.224609375,True
1598631931.5849903,0,5,0.5,0.5,0.4915077423095703,-0.14,-0.011,-0.56,0.002347816557534297,10,1,100,0.04270260562629964,-10,-1,-100,1768.1952868509106,-0.003710379246957812,0.00015323106534233973,0.9999931047792702,103.6955083702653,-4.488129746607035,-7927.398561145632,144.3435367592302,-92.01214599609375,5760.376953125,True
1598631931.702137,0,5,0.5,0.5,-0.4942972061157227,-0.14,-0.011,-0.56,0.001825655454446553,10,1,100,0.042175778874280125,-10,-1,-100,1779.735032106284,-0.0037233143242568893,0.0001547102594522664,0.9999930564734829,104.07518219329377,-4.489186487304011,-7924.826429043686,144.34894005842452,-90.91368103027344,5758.4794921875,True
1598631931.844087,0,5,0.5,0.5,-1.208256527709961,-0.14,-0.011,-0.56,0.0017457335798481003,10,1,100,0.04221583428763477,-10,-1,-100,1791.2845416842028,-0.003735318754270797,0.00015531761473242146,0.9999930116107024,104.50696674415552,-4.492957956402771,-7926.223492700593,144.35423971412584,-89.01748657226562,5756.5830078125,True
1598631931.9509957,0,5,0.5,0.5,-1.4901092422485354,-0.14,-0.011,-0.56,0.001976502733026713,10,1,100,0.04223836159179488,-10,-1,-100,1802.8511417204281,-0.003746319217110263,0.00015794431248047368,0.9999929700482487,104.94976097488342,-4.4978623127221,-7928.4307465658785,144.35931276984275,-87.09994506835938,5754.6884765625,True
1598631932.056086,0,5,0.5,0.5,-1.3150037185668948,-0.14,-0.011,-0.56,0.0023836162269659515,10,1,100,0.042327411242116364,-10,-1,-100,1814.374529142282,-0.0037570134411207064,0.00016399797887379716,0.9999929289523333,105.35953365103437,-4.50209393713137,-7928.122200468489,144.36422198307716,-85.81777954101562,5752.794921875,True
1598631932.229886,0,5,0.5,0.5,-0.8035093460083008,-0.14,-0.011,-0.56,0.002923737256111674,10,1,100,0.042391540652363106,-10,-1,-100,1825.9405188263627,-0.003767203871134299,0.00017436590156685435,0.9999928888604787,105.71519146168237,-4.504746519965687,-7923.754408388068,144.36906834019638,-85.5242919921875,5750.9033203125,True
1598631932.3469613,0,5,0.5,0.5,0.35289542694091797,-0.14,-0.011,-0.56,0.0042440904797476225,10,1,100,0.043091172262903654,-10,-1,-100,1843.246962237521,-0.003782714957359102,0.00019573990038242287,0.9999928263509908,106.14246914315207,-4.505436616639121,-7909.378288115354,144.37653852383204,-86.94290161132812,5748.06689453125,True
1598631932.4669023,0,5,0.5,0.5,0.9912868576049806,-0.14,-0.011,-0.56,0.0037644917204881054,10,1,100,0.04273322842747924,-10,-1,-100,1854.8131960427854,-0.003793445350675412,0.0002107419028193226,0.9999927826540658,106.35703756078019,-4.5034679144228305,-7894.698839369122,144.3816424373612,-88.98989868164062,5746.177734375,True
1598631932.5838237,0,5,0.5,0.5,1.3828453445434572,-0.14,-0.011,-0.56,0.0035514305403961982,10,1,100,0.04294763114720547,-10,-1,-100,1866.379307604977,-0.003805033657368909,0.00022236872310377802,0.9999927361091265,106.54191379086642,-4.500326050377061,-7877.955133434068,144.38686483074386,-91.18601989746094,5744.2890625,True
1598631932.7019637,0,5,0.5,0.5,1.1546085502624512,-0.14,-0.011,-0.56,0.0031232948649192248,10,1,100,0.04314818505425,-10,-1,-100,1877.9025730084395,-0.0038172763772905925,0.00022896988062243962,0.9999926879601935,106.79640474800593,-4.499971322530867,-7866.467494859378,144.39215272161582,-92.6153335571289,5742.40283203125,True
1598631932.8189137,0,5,0.5,0.5,0.5835023124694825,-0.14,-0.011,-0.56,0.0025165395497394197,10,1,100,0.0433077144797436,-10,-1,-100,1889.468684440595,-0.003829741366264076,0.000229379898709507,0.9999926402058815,107.15433211040684,-4.503799822772677,-7862.647867513151,144.397316124085,-92.94136810302734,5740.517578125,True
1598631932.9379258,0,5,0.5,0.5,-0.1364757568359375,-0.14,-0.011,-0.56,0.0019885448081834976,10,1,100,0.04351628636355766,-10,-1,-100,1901.0086735601071,-0.0038428607714389106,0.0002248834640169079,0.999992590896812,107.44935429602812,-4.504878276441882,-7854.256697335096,144.40252419494504,-92.17219543457031,5738.6328125,True
1598631933.0559862,0,5,0.5,0.5,-0.8413473419189453,-0.14,-0.011,-0.56,0.001528532741265196,10,1,100,0.04364689319283376,-10,-1,-100,1912.5584278085735,-0.0038558661596392865,0.00021655007441113812,0.9999925426733062,107.81638104221142,-4.509010271977949,-7851.171717917991,144.40774513418856,-90.54792022705078,5736.75,True
