Timestamp,Input Throttle,horizon,dT,dt,Input Roll,Roll P,Roll I,Roll D,Input Pitch,Pitch P,Pitch I,Pitch D,Input Yaw,Yaw P,Yaw I,Yaw D,Altitude,Direction X,Direction Y,Direction Z,Drag X,Drag Y,Drag Z,Vertical Velocity,Roll,Mass,Has Fuel
1598629540.7437558,0,5,0.5,0.5,-0.009390869140625,-0.14,-0.011,-0.56,0.004301086248813928,10,1,100,0.1279682645601113,-10,-1,-100,478.5157323178137,-0.011753072010136485,0.00041396157220450314,0.9999308445758341,5.398520435002365,-0.4421124931169397,112.67014309424832,-14.23984759941848,-89.92266845703125,6440.1796875,True
1598629540.8097737,0,5,0.5,0.5,-0.009330670166015626,-0.14,-0.011,-0.56,0.004327827317787234,10,1,100,0.12357426631680724,-10,-1,-100,477.66389691841323,-0.011797328728449474,0.00041529625800924635,0.9999303228544933,5.585629642541651,-0.45790411338506515,121.47453576622407,-14.823231146477273,-89.9249267578125,6440.1796875,True
1598629540.8566203,0,5,0.5,0.5,-0.008669842529296876,-0.14,-0.011,-0.56,0.004069161476225585,10,1,100,0.11755256807719446,-10,-1,-100,477.0766209446592,-0.011772094553166211,0.00041378055903753495,0.9999306208810089,6.030974659150267,-0.49163057437765606,127.54968127473553,-14.566437544030766,-89.92779541015625,6438.60107421875,True
1598629540.904829,0,5,0.5,0.5,-0.006724121093750002,-0.14,-0.011,-0.56,0.0040765401071492435,10,1,100,0.11763851936880616,-10,-1,-100,476.50644957413897,-0.011739233865056837,0.00041209356519979646,0.9999310079036228,5.872716891298724,-0.47314679572256213,114.05426758955252,-13.663575895091528,-89.9329833984375,6435.443359375,True
1598629540.9556763,0,5,0.5,0.5,-0.00446934814453125,-0.14,-0.011,-0.56,0.004012441724379506,10,1,100,0.11492910522915586,-10,-1,-100,475.9754881062545,-0.011674057443810533,0.00040960259135376404,0.9999317719767262,5.709430909013014,-0.4547858056362319,101.4215819469206,-12.760167004545131,-89.94046020507812,6432.28515625,True
1598629541.0068567,0,5,0.5,0.5,-0.0020781768798828126,-0.14,-0.011,-0.56,0.0038720462537589814,10,1,100,0.11105676896430791,-10,-1,-100,475.5146653687116,-0.011568990315320903,0.00040568938122322637,0.9999329946947494,5.528143601418282,-0.4355266429805531,89.41385113678241,-11.856215289839113,-89.949951171875,6429.126953125,True
1598629541.0566342,0,5,0.5,0.5,0.0002849822998046876,-0.14,-0.011,-0.56,0.003747325726086545,10,1,100,0.10711268781646005,-10,-1,-100,475.0700141489506,-0.01142710219688142,0.00040062928596096704,0.9999346282790477,5.335170257967012,-0.41588613283772613,78.15399737925054,-10.95171404318025,-89.96099853515625,6425.9697265625,True
1598629541.1048129,0,5,0.5,0.5,0.0024509429931640625,-0.14,-0.011,-0.56,0.0036098318746669105,10,1,100,0.1028140351168501,-10,-1,-100,474.6520336336689,-0.01124864606267009,0.00039441504681331555,0.9999366541929182,5.1295097464877415,-0.39579496751454823,67.62761060969967,-10.046737248787906,-89.97299194335938,6422.8115234375,True
1598629541.1567025,0,5,0.5,0.5,0.004335296630859376,-0.14,-0.011,-0.56,0.0034134447896614862,10,1,100,0.09825342199060491,-10,-1,-100,474.2610309867887,-0.011034727052182407,0.00038662184222738915,0.9999390408032058,4.911741665306557,-0.37530161621044283,57.84143868486424,-9.141197425939925,-89.98532104492188,6419.654296875,True
1598629541.2089553,0,5,0.5,0.5,0.005890347290039064,-0.14,-0.011,-0.56,0.0032709511315304795,10,1,100,0.09347099858174629,-10,-1,-100,473.9393328781007,-0.010786747077974723,0.0003778902394915129,0.9999417499466872,4.682404676252397,-0.3544440193904865,48.79758243113248,-8.235006405939483,-89.99742889404297,6416.49658203125,True
1598629541.261198,0,5,0.5,0.5,0.007085944366455079,-0.14,-0.011,-0.56,0.003105105622674507,10,1,100,0.08847469539474806,-10,-1,-100,473.6338992622914,-0.01050608366601505,0.0003681011957970334,0.9999447418270233,4.442837706072956,-0.33331915887409536,40.503216158170176,-7.3282388483841485,-90.00882720947266,6413.3388671875,True
1598629541.3129065,0,5,0.5,0.5,0.0079380126953125,-0.14,-0.011,-0.56,0.0028567832910496383,10,1,100,0.08211141682481626,-10,-1,-100,473.37155635736417,-0.010194220748456077,0.0003569862806749236,0.9999479738587038,4.19518030693085,-0.3120751131873901,32.9645877283485,-6.420888061542234,-90.01902770996094,6410.1806640625,True
1598629541.3636892,0,5,0.5,0.5,0.008428181457519533,-0.14,-0.011,-0.56,0.0026292066884173377,10,1,100,0.07552632527625536,-10,-1,-100,473.1358239245601,-0.00985230190748827,0.0003448659432466523,0.9999514054265861,3.9436065555979005,-0.29100473290974843,26.191982231691657,-5.512947157747299,-90.02774047851562,6407.0224609375,True
1598629541.5097873,0,5,0.5,0.5,0.008481510925292968,-0.14,-0.011,-0.56,0.00238803515431261,10,1,100,0.06890150851454384,-10,-1,-100,472.94296838517766,-0.00948298625663441,0.0003317176358343544,0.9999549804541534,3.696774334271633,-0.2707149637740696,20.202259235608548,-4.604410629581347,-90.03462982177734,6403.865234375,True
1598629541.555823,0,5,0.5,0.5,0.008201323699951173,-0.14,-0.011,-0.56,0.0021100245182484145,10,1,100,0.062101775307715,-10,-1,-100,472.78597016015556,-0.009087480133621933,0.0003173103287038322,0.9999586576548934,3.4769989718143184,-0.25279317385810407,15.034688228793758,-3.69527164129384,-90.03958129882812,6400.70751953125,True
1598629541.6010256,0,5,0.5,0.5,0.007550926971435547,-0.14,-0.011,-0.56,0.001916565622362703,10,1,100,0.05529615235627489,-10,-1,-100,472.6654711817391,-0.008668411247061306,0.00030253796158862363,0.9999623828510917,3.3569932692794504,-0.24241971375977162,10.796233742854287,-2.7855234516840457,-90.0424575805664,6397.54931640625,True
1598629541.6849618,0,5,0.5,0.5,0.006634770202636719,-0.14,-0.011,-0.56,0.001647077310064712,10,1,100,0.04838754242803532,-10,-1,-100,472.58122719998937,-0.008227270877266067,0.00028675241720812014,0.9999661143193619,3.672879320945708,-0.2635481138947263,7.851700767687806,-1.87516275207406,-90.04330444335938,6394.3916015625,True
1598629541.7847009,0,5,0.5,0.5,0.005476679992675781,-0.14,-0.011,-0.56,0.0014220709070340307,10,1,100,0.0415457090258524,-10,-1,-100,472.5335736309644,-0.00776694462954111,0.0002704599339880679,0.9999698002552605,6.93210908236677,-0.49446329759237334,7.529696338986452,-0.9641804996186463,-90.04219818115234,6391.23388671875,True
1598629541.8740513,0,5,0.5,0.5,0.0010400199890136718,-0.14,-0.011,-0.56,-0.000811812500109288,10,1,100,-0.019936247443059107,-10,-1,-100,472.54758116730954,-0.006792704528649343,0.00023545324109837683,0.9999769015967108,0.7055027189325227,-0.049785235078901126,-0.6687633721653045,0.8597160179713081,-90.03486633300781,6384.91796875,True
1598629541.967647,0,5,0.5,0.5,-0.004124291229248048,-0.14,-0.011,-0.56,-0.0013525268828487405,10,1,100,-0.036759381583850254,-10,-1,-100,472.70758593443315,-0.005757950510671029,0.0001988508155384163,0.9999834030944064,1.8436042162004695,-0.1289266576860438,-5.361841339589179,2.686231677319727,-90.02154541015625,6378.6025390625,True
1598629542.05916,0,5,0.5,0.5,-0.008312545776367189,-0.14,-0.011,-0.56,-0.0016956619192579074,10,1,100,-0.047387083882215957,-10,-1,-100,473.0138338073157,-0.004725221197584968,0.00016261923690196256,0.9999888228573446,2.928368466176483,-0.20327139879967618,-14.1024559473189,4.515250190960383,-90.00486755371094,6372.287109375,True
1598629542.1086493,0,5,0.5,0.5,-0.00975458450317383,-0.14,-0.011,-0.56,-0.0019312643380213798,10,1,100,-0.05528858065299304,-10,-1,-100,473.4798740898259,-0.0037197999081982395,0.00012772639975178676,0.9999930733633157,3.8549713799877514,-0.26601034012834857,-25.78411427788386,6.3467409431980295,-89.98947143554688,6365.97119140625,True
1598629542.1590335,0,5,0.5,0.5,-0.005202745819091797,-0.14,-0.011,-0.56,-0.0003312101758720994,10,1,100,-0.008472976589854624,-10,-1,-100,473.7478991484968,-0.003237262791911797,0.0001107600037083687,0.9999947539171582,4.304308671956075,-0.29629094126663885,-32.7852794343392,7.263409445699429,-89.98370361328125,6362.8134765625,True
1598629542.2099164,0,5,0.5,0.5,-0.00456332015991211,-0.14,-0.011,-0.56,-0.00043421038626655713,10,1,100,-0.011908676975811591,-10,-1,-100,474.0749453428434,-0.0027733727182477643,9.461246533761929e-05,0.9999961497187113,4.7497642661252915,-0.3262600787640867,-40.57294719732536,8.18065037820098,-89.98007202148438,6359.6552734375,True
1598629542.260659,0,5,0.5,0.5,-0.003380047607421875,-0.14,-0.011,-0.56,0.00022567665102140645,10,1,100,0.007863650810258367,-10,-1,-100,474.23048794991337,-0.0025375025525523585,8.614740822182562e-05,0.9999967768245155,4.971448285544411,-0.3411635981857442,-44.76320551371781,8.639479997361303,-89.97894287109375,6358.0771484375,True
1598629542.312699,0,5,0.5,0.5,-0.0038184539794921877,-0.14,-0.011,-0.56,-0.0015305195400775922,10,1,100,-0.04412249573017016,-10,-1,-100,474.80945418355986,-0.0018564283220808846,6.269662994336957e-05,0.9999982748700208,5.6332180097096325,-0.38564699405432945,-58.52671844131018,10.016755600134902,-89.97750854492188,6353.3408203125,True
1598629542.366639,0,5,0.5,0.5,-0.0028730522155761724,-0.14,-0.011,-0.56,-0.0009669234593363529,10,1,100,-0.02645675121883498,-10,-1,-100,475.2327858135104,-0.0014040603198689375,4.671937890755285e-05,0.9999990132154721,6.071920770447828,-0.4151610107268887,-68.70490047340077,10.935843961087249,-89.97781372070312,6350.1826171875,True
1598629542.4172046,0,5,0.5,0.5,-0.0023255851745605472,-0.14,-0.011,-0.56,-0.001044180687420343,10,1,100,-0.028849375953498523,-10,-1,-100,475.6992991649313,-0.0009772684662314962,3.1710478654501885e-05,0.9999995219702811,6.508189968569404,-0.4445563131987006,-79.68679041228286,11.855528932529264,-89.97894287109375,6347.02490234375,True
1598629542.4697,0,5,0.5,0.5,-0.001745751953125,-0.14,-0.011,-0.56,-0.0011928203116372605,10,1,100,-0.03418062085437597,-10,-1,-100,476.1923946464667,-0.000546982442156127,1.6931799527332274e-05,0.9999998502617498,6.941520476881159,-0.47382301213282474,-91.47343900776451,12.775807185767517,-89.98077392578125,6343.8671875,True
1598629542.5258083,0,5,0.5,0.5,-0.001143022155761719,-0.14,-0.011,-0.56,-0.0013444047742953602,10,1,100,-0.03761488046865429,-10,-1,-100,476.7551314069424,-0.00013027071658189136,2.3172519708053965e-06,0.9999999915120854,7.371453735914478,-0.5029447943687045,-104.06620656944571,13.696675254859626,-89.98318481445312,6340.708984375,True
1598629542.6237524,0,5,0.5,0.5,-0.0005913467407226564,-0.14,-0.011,-0.56,-0.001457019661271331,10,1,100,-0.04087267382897515,-10,-1,-100,477.33416473818943,0.00027305835558479513,-1.1813805177120946e-05,0.9999999626497835,7.797510466058871,-0.5319129646977465,-117.46672378751643,14.618129244396375,-89.9859619140625,6337.5517578125,True
1598629542.675862,0,5,0.5,0.5,0.0021478668212890624,-0.14,-0.011,-0.56,-0.0030153194572469797,10,1,100,-0.08545520104696545,-10,-1,-100,478.58842424617615,0.0010404729599424495,-3.866800705494253e-05,0.9999994579602556,8.635923485226385,-0.58930668987161,-146.69303866268194,16.462781158408703,-89.99212646484375,6331.23583984375,True
1598629542.7297723,0,5,0.5,0.5,0.0009096374511718752,-0.14,-0.011,-0.56,-0.0017723313385907724,10,1,100,-0.048955759883029096,-10,-1,-100,479.26383283082396,0.0014019819779880404,-5.162975822262688e-05,0.9999990158899665,9.047275135246906,-0.6176923953176173,-162.51892865263446,17.385972179452416,-89.99528503417969,6328.078125,True
1598629542.781608,0,5,0.5,0.5,0.0010868667602539064,-0.14,-0.011,-0.56,-0.0017731267917311913,10,1,100,-0.04930160410617738,-10,-1,-100,479.98218013276346,0.0017295530829945622,-6.327277271095192e-05,0.9999985023202231,9.452729588621262,-0.6458442753600706,-179.1520973911466,18.309735519168715,-89.998046875,6324.919921875,True
1598629542.8326862,0,5,0.5,0.5,0.0011141159057617188,-0.14,-0.011,-0.56,-0.0018840407825399478,10,1,100,-0.05266549116214404,-10,-1,-100,480.74325199006125,0.002053832219144513,-7.472210830946468e-05,0.9999978880926811,9.851799368087294,-0.6737385695331304,-196.58811096921409,19.234067296688938,-90.0002670288086,6321.7626953125,True
1598629542.9318244,0,5,0.5,0.5,0.001079894256591797,-0.14,-0.011,-0.56,-0.001871248665801795,10,1,100,-0.05349101670046094,-10,-1,-100,481.5578215266578,0.002351962270745807,-8.486805823182826e-05,0.9999972305316098,10.244336717031787,-0.7013689740680086,-214.82783170845022,20.158960319421723,-90.00196075439453,6318.6044921875,True
1598629542.9840305,0,5,0.5,0.5,0.001359934997558594,-0.14,-0.011,-0.56,-0.002978082880421145,10,1,100,-0.08296437990371397,-10,-1,-100,483.24631687870715,0.0028871034462376226,-0.00010401962857762996,0.9999958268980965,11.008942665592878,-0.7558116424073366,-253.71829936081056,22.010432468628316,-90.00367736816406,6312.2890625,True
1598629543.0366535,0,5,0.5,0.5,0.000389697265625,-0.14,-0.011,-0.56,-0.002012080575819966,10,1,100,-0.05603829278884408,-10,-1,-100,484.1469455467304,0.0031249117558530865,-0.00011251127247972518,0.9999951111219152,11.38054957103606,-0.7825985710283748,-274.36485058308193,22.937005041210984,-90.00362396240234,6309.130859375,True
1598629543.0869653,0,5,0.5,0.5,-4.457931518554687e-05,-0.14,-0.011,-0.56,-0.0019491588640495304,10,1,100,-0.05520475580080867,-10,-1,-100,485.11700165097136,0.003329794264501291,-0.00011952782250995848,0.9999944490762215,11.74478405090154,-0.8090813224846191,-295.80803464237425,23.864115659781216,-90.00292205810547,6305.97314453125,True
1598629543.139612,0,5,0.5,0.5,-0.0005350479125976563,-0.14,-0.011,-0.56,-0.0020075625192949456,10,1,100,-0.05643807772920732,-10,-1,-100,486.08714938233607,0.003523738765615413,-0.0001263133924741859,0.9999937836356977,12.101436424784286,-0.835243454659442,-318.0399567840978,24.791775397334213,-90.00162506103516,6302.8154296875,True
1598629543.1937292,0,5,0.5,0.5,-0.001032799530029297,-0.14,-0.011,-0.56,-0.002000563134585256,10,1,100,-0.05580813083767819,-10,-1,-100,487.1001434599748,0.003691003331721443,-0.00013230152472208184,0.9999931794720961,12.450763688718228,-0.8611007891981703,-341.06267086881303,25.71999341954575,-89.99984741210938,6299.6572265625,True
1598629543.243759,0,5,0.5,0.5,-0.0015441062927246097,-0.14,-0.011,-0.56,-0.0019184119398749058,10,1,100,-0.055325180621675706,-10,-1,-100,488.15613634407055,0.003835564348966778,-0.00013688891797776137,0.9999926348266516,12.792864943527128,-0.8866533706665601,-364.87442212180986,26.648740639888807,-89.99767303466797,6296.5,True
1598629543.2956228,0,5,0.5,0.5,-0.002040019226074219,-0.14,-0.011,-0.56,-0.001948707522708222,10,1,100,-0.05472607542446038,-10,-1,-100,489.26565724087413,0.00395899605249783,-0.0001412453981351158,0.9999921531692104,13.127779167575184,-0.9118976711000274,-389.4706113359978,27.578024369084627,-89.9952163696289,6293.341796875,True
1598629543.3468027,0,5,0.5,0.5,-0.0025282234191894536,-0.14,-0.011,-0.56,-0.0019314966167140726,10,1,100,-0.05389523845955772,-10,-1,-100,490.3911688294029,0.004061329070504663,-0.00014496790309647984,0.999991742261149,13.455680387593116,-0.9368398609315098,-414.8487039160448,28.507856391481575,-89.9925537109375,6290.1845703125,True
1598629543.3989522,0,5,0.5,0.5,-0.0029657844543457034,-0.14,-0.011,-0.56,-0.0018613593774666664,10,1,100,-0.05278255131943742,-10,-1,-100,491.57045216299593,0.004142123952884771,-0.0001476401189496657,0.9999914104688871,13.776797195728008,-0.9614829956818352,-441.0057033319085,29.43822458380276,-89.98980712890625,6287.0263671875,True
1598629543.4486144,0,5,0.5,0.5,-0.0034045364379882816,-0.14,-0.011,-0.56,-0.0018224034397369081,10,1,100,-0.051494222199048575,-10,-1,-100,492.76557361287996,0.0042019633160142985,-0.00014964897209989123,0.9999911605156699,14.091377032529426,-0.9858372325886148,-467.9376331325902,30.3691213191959,-89.98699951171875,6283.86865234375,True
1598629543.4998024,0,5,0.5,0.5,-0.003771335601806641,-0.14,-0.011,-0.56,-0.0017399601374592688,10,1,100,-0.04996576738683668,-10,-1,-100,494.00378611590713,0.004240785874161698,-0.00015066682593041947,0.999990996476807,14.399681550327223,-1.00990571957511,-495.63923971058864,31.300544958868237,-89.9842529296875,6280.7109375,True
1598629543.554568,0,5,0.5,0.5,-0.00407041244506836,-0.14,-0.011,-0.56,-0.0017178988712609005,10,1,100,-0.04825172149871717,-10,-1,-100,495.2952817463083,0.00425926625310559,-0.00015134918408604836,0.9999909178309618,14.70210258213736,-1.0337048670874263,-524.1078773298549,32.232491957515634,-89.98165893554688,6277.552734375,True
1598629543.6076252,0,5,0.5,0.5,-0.004308197021484375,-0.14,-0.011,-0.56,-0.001632706008636377,10,1,100,-0.04636179921914617,-10,-1,-100,496.6032256972976,0.004257854254606434,-0.00015115972192039138,0.9999909238727545,14.999036523581761,-1.0572453734515437,-553.3397798661525,33.16495917926221,-89.97927856445312,6274.39501953125,True
1598629543.65957,0,5,0.5,0.5,-0.004539282989501954,-0.14,-0.011,-0.56,-0.0015503677657692045,10,1,100,-0.04425232355007008,-10,-1,-100,497.9645144031383,0.004236549877170051,-0.00015021019783517398,0.9999910145006478,15.290914357481245,-1.08053322245587,-583.3306728039013,34.097944053339106,-89.97708129882812,6271.2373046875,True
1598629543.709991,0,5,0.5,0.5,-0.004681637573242188,-0.14,-0.011,-0.56,-0.0014243836457810282,10,1,100,-0.04200897308441667,-10,-1,-100,499.3420993540203,0.004196140156075077,-0.0001481799595711193,0.9999911851863944,15.578221139546242,-1.1035942030541808,-614.0764778884061,35.03144305054418,-89.97515869140625,6268.0791015625,True
1598629543.772136,0,5,0.5,0.5,-0.004742974853515625,-0.14,-0.011,-0.56,-0.0013851738998722177,10,1,100,-0.03964938430721694,-10,-1,-100,500.78914200130384,0.004137494023628417,-0.0001459634012456722,0.9999914298822214,15.861491765652358,-1.1264410127364217,-645.5740046166783,35.96545319381133,-89.97357177734375,6264.921875,True
1598629543.815374,0,5,0.5,0.5,-0.004820755767822265,-0.14,-0.011,-0.56,-0.001271297093897456,10,1,100,-0.037110722417565675,-10,-1,-100,502.23639789875597,0.004060826131794023,-0.00014290485500161526,0.999991744600589,16.141296609538202,-1.1490943691530155,-677.8201982744,36.89997164809456,-89.97222900390625,6261.763671875,True
1598629543.866647,0,5,0.5,0.5,-0.004841769409179688,-0.14,-0.011,-0.56,-0.001173674391335009,10,1,100,-0.03450676238855652,-10,-1,-100,503.7530809902819,0.003967363111608766,-0.00013923537070475352,0.9999921202906811,16.418184682780765,-1.1715749565358289,-710.8108235846934,37.83499521742674,-89.97116088867188,6258.60595703125,True
1598629543.916747,0,5,0.5,0.5,-0.004865301513671875,-0.14,-0.011,-0.56,-0.0010667216052460565,10,1,100,-0.0317073967014486,-10,-1,-100,505.29649728618097,0.0038570333742474574,-0.00013493238922715394,0.9999925525156678,16.692800268027195,-1.1939055882823535,-744.5438023441011,38.770521340320755,-89.97030639648438,6255.4482421875,True
1598629543.9696424,0,5,0.5,0.5,-0.004835482788085937,-0.14,-0.011,-0.56,-0.0009978135287685534,10,1,100,-0.028911403775476532,-10,-1,-100,506.87241447577253,0.0037315746687543736,-0.00013040570330656112,0.9999930291481256,16.965731758362782,-1.2161074343131422,-779.0138731089403,39.70654685748538,-89.96969604492188,6252.2900390625,True
1598629544.0216143,0,5,0.5,0.5,-0.004854516601562501,-0.14,-0.011,-0.56,-0.0008129276408294677,10,1,100,-0.025956836188943726,-10,-1,-100,508.48550213722046,0.0035910892208351444,-0.00012462724736911536,0.9999935442522903,17.2376791822977,-1.2382012206840234,-814.2209606295893,40.64306903622587,-89.96920776367188,6249.13232421875,True
1598629544.074802,0,5,0.5,0.5,-0.0048112518310546885,-0.14,-0.011,-0.56,-0.0007582913006814041,10,1,100,-0.02299485647445631,-10,-1,-100,510.1579464117531,0.003437038722279893,-0.00011890108395060163,0.999994086296191,17.509300811798646,-1.2602152141137233,-850.1615721224437,41.58008440881695,-89.96890258789062,6245.974609375,True
1598629544.1339135,0,5,0.5,0.5,-0.004868008422851562,-0.14,-0.011,-0.56,-0.0005895855635610354,10,1,100,-0.01995194081733845,-10,-1,-100,511.8301770481048,0.003270077424465707,-0.00011219129059643621,0.9999946469890488,17.781286975994714,-1.2821777069877462,-886.8341829676746,42.51759017715287,-89.96859741210938,6242.81640625,True
1598629544.1815438,0,5,0.5,0.5,-0.004901119995117188,-0.14,-0.011,-0.56,-0.0005406762377685338,10,1,100,-0.0168409606596619,-10,-1,-100,513.5559959880775,0.003090910767592243,-0.00010568227406846667,0.9999952175395059,18.054322440639016,-1.30410736899154,-924.2367982217413,43.455583365740836,-89.96832275390625,6239.65869140625,True
1598629544.2326424,0,5,0.5,0.5,-0.00494920654296875,-0.14,-0.011,-0.56,-0.0003859477911323415,10,1,100,-0.013676438255116129,-10,-1,-100,515.3245397689752,0.002900305093220112,-9.83988440043169e-05,0.9999957892651516,18.329096891968543,-1.3260332990499206,-962.3677612982113,44.394061092102,-89.96804809570312,6236.5009765625,True
1598629544.2846415,0,5,0.5,0.5,-0.005080929565429688,-0.14,-0.011,-0.56,-0.00026467836902931423,10,1,100,-0.010635530531391692,-10,-1,-100,517.1359911538893,0.002700560623632366,-9.072035021375941e-05,0.9999963493644044,18.606276664519072,-1.3479829582573852,-1001.2246817793514,45.333020614371115,-89.9676513671875,6233.3427734375,True
1598629544.335769,0,5,0.5,0.5,-0.0052284332275390625,-0.14,-0.011,-0.56,-0.00010942969810719789,10,1,100,-0.0074205262366272735,-10,-1,-100,518.9905334900832,0.0024910537335092807,-8.237877071489874e-05,0.9999968939276935,18.886590053229867,-1.369986334717978,-1040.8082655268383,46.27245861502718,-89.96713256835938,6230.185546875,True
1598629544.387636,0,5,0.5,0.5,-0.005434844970703126,-0.14,-0.011,-0.56,-1.2598336400753123e-05,10,1,100,-0.004320615631042166,-10,-1,-100,520.8450753862271,0.002273838984617779,-7.39702552315911e-05,0.999997412088988,19.170731586339237,-1.392066178074935,-1081.1183866397464,47.21237177441333,-89.9664306640625,6227.02734375,True
1598629544.4378004,0,5,0.5,0.5,-0.005645126342773438,-0.14,-0.011,-0.56,0.00010668241869817561,10,1,100,-0.0012223257299744834,-10,-1,-100,522.7529625167372,0.002049744326640336,-6.530111166902403e-05,0.9999978971397692,19.45939481286252,-1.4142518945946634,-1122.1567834130374,48.152757389981296,-89.965576171875,6223.86962890625,True
1598629544.4867,0,5,0.5,0.5,-0.005919494628906251,-0.14,-0.011,-0.56,0.00024706138091107224,10,1,100,0.0018402967338532923,-10,-1,-100,524.7200533855939,0.0018198228779420507,-5.620720084435322e-05,0.9999983425413482,19.753211825315443,-1.4365673811757669,-1163.9222481659187,49.09359192263274,-89.96450805664062,6220.7119140625,True
1598629544.5367327,0,5,0.5,0.5,-0.006202911376953125,-0.14,-0.011,-0.56,0.0003396723814482936,10,1,100,0.004901936386465279,-10,-1,-100,526.713939050911,0.0015847082475478754,-4.716554418291611e-05,0.9999987432368012,20.052792248491297,-1.4590374425495012,-1206.4143987747952,50.034892631711514,-89.9632568359375,6217.55419921875,True
1598629544.5867236,0,5,0.5,0.5,-0.006555526733398438,-0.14,-0.011,-0.56,0.00044766932976286137,10,1,100,0.007845044903008126,-10,-1,-100,528.7343136892887,0.0013460361251966787,-3.80344855998283e-05,0.9999990933696528,20.358785391355244,-1.4816950471585826,-1249.6372195877136,50.97667670246028,-89.96176147460938,6214.396484375,True
1598629544.6377943,0,5,0.5,0.5,-0.006900906372070313,-0.14,-0.011,-0.56,0.0006060697528204916,10,1,100,0.010726494673841154,-10,-1,-100,530.7976575542707,0.0011047673820490024,-2.8367034494997995e-05,0.9999993893419851,20.67180980000091,-1.5045603419779738,-1293.592812235905,51.91891495558651,-89.9600830078125,6211.23828125,True
1598629544.6867115,0,5,0.5,0.5,-0.007252069091796875,-0.14,-0.011,-0.56,0.0006766626499017897,10,1,100,0.013593050596934308,-10,-1,-100,532.9040918496903,0.0008613410253797379,-1.901289284086904e-05,0.999999628865005,20.992392137032816,-1.5276511775353447,-1338.2815087363076,52.86161037562481,-89.958251953125,6208.0810546875,True
1598629544.7410114,0,5,0.5,0.5,-0.00764766845703125,-0.14,-0.011,-0.56,0.0008452488337499387,10,1,100,0.016306518319314532,-10,-1,-100,535.0533734880155,0.000617403330697143,-9.055316375975545e-06,0.9999998093655461,21.321128506709385,-1.5510056665781826,-1383.7089995866065,53.80476565794498,-89.95623779296875,6204.9228515625,True
1598629544.7937317,0,5,0.5,0.5,-0.008028091430664063,-0.14,-0.011,-0.56,0.0008849367999555025,10,1,100,0.018943789488392274,-10,-1,-100,537.2561213157605,0.0003737419628690982,2.766041688615392e-07,0.9999999301584319,21.65849116441161,-1.5746328854008143,-1429.8749675124325,54.748355005496855,-89.9541015625,6201.76513671875,True
1598629544.8456085,0,5,0.5,0.5,-0.008427517700195314,-0.14,-0.011,-0.56,0.0010447147318746986,10,1,100,0.021501780734120984,-10,-1,-100,539.4587476555025,0.00013109245230130855,1.012997045035829e-05,0.9999999913560762,22.004950629263526,-1.5985581411437964,-1476.7833036179618,55.69239208001987,-89.95184326171875,6198.607421875,True
1598629544.898855,0,5,0.5,0.5,-0.007991455078125001,-0.14,-0.011,-0.56,0.0005593020544218389,10,1,100,0.010729241510949304,-10,-1,-100,540.5683301915415,1.0579582251431356e-05,1.4590634782906377e-05,0.9999999998375929,22.181751190523972,-1.6106396836380699,-1500.5182815682942,56.164585310088626,-89.95068359375,6197.0283203125,True
1598629544.949609,0,5,0.5,0.5,-0.00985875244140625,-0.14,-0.011,-0.56,0.0017343518194408258,10,1,100,0.03832471970481781,-10,-1,-100,544.0092640616931,-0.0003477880473723831,2.924754486720043e-05,0.9999999390940257,22.726986531102938,-1.6473839771315582,-1572.8483229777023,57.58181875250596,-89.94711303710938,6192.29150390625,True
1598629545.001747,0,5,0.5,0.5,-0.009631259155273438,-0.14,-0.011,-0.56,0.0013496109170506802,10,1,100,0.029111226949691312,-10,-1,-100,546.3245609235018,-0.0005876382016437802,3.898841068888804e-05,0.9999998265806089,23.103235780674947,-1.672317260706397,-1622.0044744195209,58.52715517199346,-89.94461059570312,6189.1337890625,True
1598629545.052694,0,5,0.5,0.5,-0.01000348815917969,-0.14,-0.011,-0.56,0.001418040970445458,10,1,100,0.030163819681614832,-10,-1,-100,548.7094996329397,-0.000813064220290186,4.837929318352636e-05,0.999999668292954,23.490090023396096,-1.6976159660242311,-1671.9089356281956,59.47292335933511,-89.94210815429688,6185.9765625,True
1598629545.1059258,0,5,0.5,0.5,-0.010313006591796877,-0.14,-0.011,-0.56,0.0015174122900878302,10,1,100,0.03281636254173779,-10,-1,-100,551.1105517939432,-0.001039931197362729,5.773297577779508e-05,0.999999457604857,23.88815414983895,-1.7233140081709828,-1722.5901499862532,60.41915249672594,-89.939697265625,6182.818359375,True
1598629545.1558285,0,5,0.5,0.5,-0.010610714721679688,-0.14,-0.011,-0.56,0.0015385725345767511,10,1,100,0.03447913391183324,-10,-1,-100,553.5546943501104,-0.001259120945954491,6.634162812123172e-05,0.9999992051062999,24.29750318802406,-1.7494211943458076,-1774.0461993806477,61.365820137454804,-89.9373779296875,6179.6611328125,True
1598629545.2109997,0,5,0.5,0.5,-0.010939035034179688,-0.14,-0.011,-0.56,0.0016791447715991887,10,1,100,0.03604851112262411,-10,-1,-100,556.0521815764951,-0.001470502429928734,7.535950634945426e-05,0.9999989159711867,24.718342640893578,-1.7759439631468426,-1826.281591131174,62.31290475628392,-89.93508911132812,6176.50244140625,True
1598629545.2616827,0,5,0.5,0.5,-0.01122086181640625,-0.14,-0.011,-0.56,0.001728800132304211,10,1,100,0.03763187922239392,-10,-1,-100,558.5496689224383,-0.0016749418131256726,8.392319674589284e-05,0.9999985937624211,25.150741343922974,-1.8028853111633705,-1879.2952107682138,63.26038171347581,-89.93289184570312,6173.3447265625,True
1598629545.3128588,0,5,0.5,0.5,-0.011490072631835938,-0.14,-0.011,-0.56,0.0017884710744200945,10,1,100,0.039047602404222004,-10,-1,-100,561.1329107445199,-0.001871582058463306,9.216630702268879e-05,0.999998244341444,25.59489371598929,-1.8302596760945764,-1933.0962816966867,64.20828212634605,-89.9307861328125,6170.18701171875,True
1598629545.3627973,0,5,0.5,0.5,-0.011746432495117188,-0.14,-0.011,-0.56,0.001857138210594325,10,1,100,0.040259134435118527,-10,-1,-100,563.716335688252,-0.0020593186417590024,0.00010020075423694736,0.9999978745810116,26.05090291556148,-1.8580765556052121,-1987.6945796659825,65.15662427477173,-89.92877197265625,6167.029296875,True
1598629545.4126494,0,5,0.5,0.5,-0.01203243103027344,-0.14,-0.011,-0.56,0.0019325733161031963,10,1,100,0.041360314198294126,-10,-1,-100,566.3531663168687,-0.0022380077052439043,0.00010810868831472981,0.9999974898138608,26.51878193661545,-1.8863411329245927,-2043.0913030257586,66.1053643410926,-89.92678833007812,6163.87158203125,True
1598629545.4637928,0,5,0.5,0.5,-0.012293701171875001,-0.14,-0.011,-0.56,0.0019472328402000928,10,1,100,0.04234882421631817,-10,-1,-100,569.0223454663064,-0.002407394592859947,0.00011534597128311126,0.9999970955690727,26.998530841550625,-1.9150569497934087,-2099.293138536554,67.05451100262268,-89.92486572265625,6160.7138671875,True
1598629545.5128567,0,5,0.5,0.5,-0.011903744506835939,-0.14,-0.011,-0.56,0.0016006578350956323,10,1,100,0.0345309460447782,-10,-1,-100,570.3674016656587,-0.002488438683182816,0.00011869636627485756,0.9999968967872314,27.24285684770201,-1.929587550507985,-2127.699277862197,67.52924098939391,-89.92391967773438,6159.134765625,True
1598629545.5649788,0,5,0.5,0.5,-0.013362051391601563,-0.14,-0.011,-0.56,0.0024259313809615927,10,1,100,0.05163735507541692,-10,-1,-100,574.4943095929921,-0.0027158999378625584,0.00012917220490651205,0.9999963035942028,27.993446799140848,-1.9738463160711515,-2214.1351022333693,68.95396964895735,-89.92111206054688,6154.3984375,True
1598629545.619739,0,5,0.5,0.5,-0.013180068969726563,-0.14,-0.011,-0.56,0.0021046518245562227,10,1,100,0.04476124251912445,-10,-1,-100,577.259801985696,-0.0028584429318618725,0.00013570152323003732,0.9999959054361681,28.508361246592674,-2.0039153022070244,-2272.782580781035,69.90430117263853,-89.91915893554688,6151.240234375,True
1598629545.6707675,0,5,0.5,0.5,-0.013476098632812503,-0.14,-0.011,-0.56,0.0021252954025672644,10,1,100,0.04448840465465895,-10,-1,-100,580.0950570785208,-0.002983893935152927,0.00014175405555384046,0.9999955381314316,29.03474314813983,-2.034432695174898,-2332.2519660799303,70.855032042016,-89.91720581054688,6148.0830078125,True
1598629545.722765,0,5,0.5,0.5,-0.013750363159179688,-0.14,-0.011,-0.56,0.00215647958476429,10,1,100,0.04517997491623582,-10,-1,-100,582.9571074630367,-0.003102659328714404,0.0001474712934796048,0.9999951758670177,29.57256474783872,-2.065405569178062,-2392.561301457815,71.80615489395186,-89.915283203125,6144.9248046875,True
1598629545.7738001,0,5,0.5,0.5,-0.014062677001953124,-0.14,-0.011,-0.56,0.0021717012937451743,10,1,100,0.04517692859641493,-10,-1,-100,585.8618204162922,-0.003209116395500297,0.00015274160550546212,0.9999948391076636,30.121523536791003,-2.0968253051899977,-2453.715246425309,72.75767161983025,-89.913330078125,6141.76708984375,True
1598629545.8277926,0,5,0.5,0.5,-0.014378994750976565,-0.14,-0.011,-0.56,0.0021362534999337856,10,1,100,0.04513083843284659,-10,-1,-100,588.8096853134921,-0.0033040818414710564,0.00015714798339544744,0.9999945291588831,30.681316029178074,-2.1286771631678634,-2515.715015159379,73.70956514176098,-89.91134643554688,6138.609375,True
1598629545.8788292,0,5,0.5,0.5,-0.01474217529296875,-0.14,-0.011,-0.56,0.002236755644262802,10,1,100,0.04500280949513852,-10,-1,-100,591.7841004824731,-0.0033879478931171207,0.00016200836308354082,0.9999942477646377,31.251611410689478,-2.160962808559533,-2578.56245214293,74.66183454921985,-89.90927124023438,6135.451171875,True
1598629545.9292438,0,5,0.5,0.5,-0.015118240356445312,-0.14,-0.011,-0.56,0.0021752075638011127,10,1,100,0.04474506909035883,-10,-1,-100,594.774933814304,-0.0034606388188870383,0.00016581117333320437,0.9999939982247992,31.832070920917115,-2.1936644793766473,-2642.2617143725047,75.6144784847873,-89.9071044921875,6132.2939453125,True
1598629545.9797108,0,5,0.5,0.5,-0.015485961914062502,-0.14,-0.011,-0.56,0.002232904668243406,10,1,100,0.044381095136964144,-10,-1,-100,597.8351639732718,-0.003522301141725518,0.00016974033588690256,0.9999937822721127,32.42234848134782,-2.2267694198131793,-2706.8165113873515,76.56749029284515,-89.90487670898438,6129.1357421875,True
1598629546.034085,0,5,0.5,0.5,-0.015862564086914065,-0.14,-0.011,-0.56,0.002185073574762539,10,1,100,0.04387092971145273,-10,-1,-100,600.9223104552366,-0.0035727063799386996,0.00017282802429988958,0.9999936029293371,33.02207728154351,-2.2602763551842413,-2772.231447730658,77.52085311592343,-89.902587890625,6125.97802734375,True
1598629546.0866354,0,5,0.5,0.5,-0.016291912841796877,-0.14,-0.011,-0.56,0.0021811664328659584,10,1,100,0.04330289732776604,-10,-1,-100,604.0790368169546,-0.003612379695101935,0.00017555028369624974,0.999993459926132,33.63079799652163,-2.2941650993382585,-2838.5067072054785,78.47457567467421,-89.90017700195312,6122.8203125,True
1598629546.1378086,0,5,0.5,0.5,-0.0166951904296875,-0.14,-0.011,-0.56,0.002174533893159002,10,1,100,0.042628689412431885,-10,-1,-100,607.2357631901978,-0.0036415022007861664,0.00017792260726034144,0.9999933538805483,34.248137804958844,-2.3284148156050235,-2905.647702298455,79.42866710581316,-89.897705078125,6119.662109375,True
1598629546.1899378,0,5,0.5,0.5,-0.017128945922851562,-0.14,-0.011,-0.56,0.0021779017641679124,10,1,100,0.041844460806871916,-10,-1,-100,610.4515712629072,-0.003660135982931355,0.00018007149925138735,0.9999932854668784,34.87359019532863,-2.363011931467144,-2973.6531747426716,80.38311100034014,-89.8951416015625,6116.5048828125,True
1598629546.2447577,0,5,0.5,0.5,-0.017554827880859374,-0.14,-0.011,-0.56,0.0021532268371698845,10,1,100,0.040995319723765314,-10,-1,-100,613.6779382094974,-0.0036687415549916677,0.0001817658858671765,0.9999932536255258,35.50670433293633,-2.3979431259312483,-3042.5253792181616,81.33790265667238,-89.89251708984375,6113.3466796875,True
1598629546.2958882,0,5,0.5,0.5,-0.018011389160156252,-0.14,-0.011,-0.56,0.0021211494432443324,10,1,100,0.04006409780238732,-10,-1,-100,616.9634481418179,-0.003667584528282809,0.00018298344776185475,0.9999932576476632,36.14696387631913,-2.43318377215544,-3112.261176149401,82.29303718738996,-89.88980102539062,6110.18896484375,True
1598629546.346937,0,5,0.5,0.5,-0.018460244750976566,-0.14,-0.011,-0.56,0.002097027095040116,10,1,100,0.039079507739444075,-10,-1,-100,620.2756301801419,-0.0036571650778545605,0.00018384353555310902,0.9999932956500996,36.79391030928733,-2.4687184186619198,-3182.865217297455,83.24851152692037,-89.88702392578125,6107.03076171875,True
1598629546.3995922,0,5,0.5,0.5,-0.018918518066406254,-0.14,-0.011,-0.56,0.0020788083271312033,10,1,100,0.03797714646870246,-10,-1,-100,623.6575751723722,-0.0036373503993345165,0.00018443553969857036,0.999993367810809,37.44698829819715,-2.5045295236771756,-3254.332973040027,84.20432203172047,-89.88418579101562,6103.873046875,True
1598629546.451901,0,5,0.5,0.5,-0.019386175537109376,-0.14,-0.011,-0.56,0.002029566293902583,10,1,100,0.03686741431799018,-10,-1,-100,627.0393977778731,-0.0036090218515768945,0.00018450568209544318,0.9999934704381465,38.105728150503985,-2.540590839642104,-3326.6662086000597,85.16046356905304,-89.88128662109375,6100.71484375,True
1598629546.5056522,0,5,0.5,0.5,-0.019820458984375004,-0.14,-0.011,-0.56,0.0020231529721432377,10,1,100,0.035696970374293494,-10,-1,-100,630.4641285256948,-0.0035724933331884594,0.00018449414997773149,0.9999936016061767,38.769552016947415,-2.5768825002119646,-3399.8588454446394,86.11693235766809,-89.87838745117188,6097.5576171875,True
1598629546.5558605,0,5,0.5,0.5,-0.02027684326171875,-0.14,-0.011,-0.56,0.001969614976355725,10,1,100,0.03450338851188479,-10,-1,-100,633.9585607532645,-0.003528389215730291,0.00018398354462347908,0.9999937582903194,39.437936657896365,-2.6133814940471582,-3473.908572883698,87.07372432653231,-89.87545776367188,6094.3994140625,True
1598629546.6056151,0,5,0.5,0.5,-0.02071684265136719,-0.14,-0.011,-0.56,0.0018992340105352138,10,1,100,0.0332550497968251,-10,-1,-100,637.4529932086589,-0.0034769863180534213,0.00018286938959367807,0.9999939385440946,40.11034112971122,-2.650068306955294,-3548.8094225188615,88.03083549845248,-89.87252807617188,6091.24169921875,True
1598629546.6547616,0,5,0.5,0.5,-0.021178775024414065,-0.14,-0.011,-0.56,0.0019240482287905896,10,1,100,0.03201349979595568,-10,-1,-100,641.016883369186,-0.0034190926777729527,0.00018207545145445563,0.9999941383097156,40.78622206414271,-2.6869279418163896,-3624.5573437205303,88.98826052535924,-89.86956787109375,6088.083984375,True
1598629546.7038147,0,5,0.5,0.5,-0.02160279235839844,-0.14,-0.011,-0.56,0.0018624479752241737,10,1,100,0.030708303861347094,-10,-1,-100,644.5810784276109,-0.003354798868587915,0.00018078991189165498,0.9999943563038539,41.46512930209877,-2.7239297119315333,-3701.1506808929576,89.94597807958087,-89.86663818359375,6084.92578125,True
1598629546.7536745,0,5,0.5,0.5,-0.022087026977539066,-0.14,-0.011,-0.56,0.0017947659655668546,10,1,100,0.02945451502022814,-10,-1,-100,648.2309670571703,-0.003285229449968021,0.00017900529546255125,0.9999945875976355,42.14643541876043,-2.7610421037208908,-3778.5757209067833,90.90400489433623,-89.8636474609375,6081.7685546875,True
1598629546.802759,0,5,0.5,0.5,-0.02251612243652344,-0.14,-0.011,-0.56,0.0017897504358128436,10,1,100,0.028170600746650003,-10,-1,-100,651.8914753994904,-0.003210661223376519,0.00017733983079324287,0.9999948300891824,42.82975516315539,-2.7982519723031993,-3856.8352353249493,91.86235363534287,-89.86068725585938,6078.6103515625,True
1598629546.853532,0,5,0.5,0.5,-0.022962576293945314,-0.14,-0.011,-0.56,0.0017282689004838583,10,1,100,0.026867585918784118,-10,-1,-100,655.5842713258462,-0.0031314417219535607,0.00017527197951539776,0.9999950816641424,43.51452978135389,-2.835539488683767,-3935.91592971273,92.82100190537044,-89.85772705078125,6075.453125,True
1598629546.9037786,0,5,0.5,0.5,-0.023409231567382817,-0.14,-0.011,-0.56,0.0017034579661689775,10,1,100,0.025622454776820368,-10,-1,-100,659.330473028589,-0.003048582549692929,0.0001731743530927103,0.9999953380666737,44.200303195065246,-2.8728734126915634,-4015.809111779955,93.77993632556553,-89.85476684570312,6072.294921875,True
1598629546.9546359,0,5,0.5,0.5,-0.023856021118164063,-0.14,-0.011,-0.56,0.001655124239295639,10,1,100,0.024376264486996688,-10,-1,-100,663.1197652809788,-0.0029624622703209045,0.00017083825990651486,0.999995597306101,44.886612754180675,-2.91024243010872,-4096.506261940326,94.73916231949892,-89.851806640625,6069.13671875,True
1598629547.005628,0,5,0.5,0.5,-0.02432424011230469,-0.14,-0.011,-0.56,0.0015935282238296433,10,1,100,0.023123091493319606,-10,-1,-100,666.9357909795363,-0.0028733664069322323,0.00016816699998045443,0.9999958577340965,45.57307566601039,-2.947624331553479,-4178.001169493937,95.69868594550967,-89.84881591796875,6065.9794921875,True
1598629547.0579965,0,5,0.5,0.5,-0.02475410766601563,-0.14,-0.011,-0.56,0.001552053470109305,10,1,100,0.021968839532772642,-10,-1,-100,670.7945410818793,-0.002782512537779609,0.0001653763815138485,0.9999961151297685,46.25920731642715,-2.98499939003041,-4260.277736284198,96.65849069537785,-89.84585571289062,6062.8212890625,True
1598629547.1110172,0,5,0.5,0.5,-0.0252224609375,-0.14,-0.011,-0.56,0.0015173700956790143,10,1,100,0.020823740522973172,-10,-1,-100,674.6964431140805,-0.002690186189986275,0.00016254106783403102,0.9999963682327374,46.944715933378184,-3.0223430555584736,-4343.332490751554,97.6185755527364,-89.84286499023438,6059.66357421875,True
1598629547.1628714,0,5,0.5,0.5,-0.02571651611328125,-0.14,-0.011,-0.56,0.0015222110678734906,10,1,100,0.01971948449880651,-10,-1,-100,678.6248953946633,-0.0025969297282526995,0.00016002599907392824,0.9999966151681046,47.62915398415562,-3.0596277267902927,-4427.146651609052,98.57894080303836,-89.83981323242188,6056.505859375,True
1598629547.2148209,0,5,0.5,0.5,-0.026155130004882815,-0.14,-0.011,-0.56,0.00141699832046227,10,1,100,0.01861919112365098,-10,-1,-100,682.5963160074316,-0.0025028958804930532,0.00015680313836316965,0.9999968554575496,48.31169830096791,-3.0968132536918778,-4511.659171065494,99.53958013640474,-89.8367919921875,6053.34814453125,True
1598629547.2705803,0,5,0.5,0.5,-0.026632296752929687,-0.14,-0.011,-0.56,0.0014217123042979817,10,1,100,0.01766107121640341,-10,-1,-100,686.6106446539052,-0.002409474840634847,0.00015393792554601238,0.9999970853628061,48.988511798414706,-3.133646822283057,-4596.52596561332,100.50049120466582,-89.833740234375,6050.1904296875,True
1598629547.3207107,0,5,0.5,0.5,-0.027135165405273443,-0.14,-0.011,-0.56,0.0013725290104928127,10,1,100,0.016735916739855805,-10,-1,-100,690.6517676138319,-0.0023169322678945293,0.00015090885428665563,0.999997304522059,49.65866620679113,-3.1700744402718497,-4681.666709382099,101.46167442137474,-89.83062744140625,6047.0322265625,True
1598629547.3719313,0,5,0.5,0.5,-0.02762538452148438,-0.14,-0.011,-0.56,0.0013453139781739848,10,1,100,0.015842584594432316,-10,-1,-100,694.7356763316784,-0.0022254939358590108,0.00014793177191752978,0.9999975126433728,50.32179819644853,-3.206079889345208,-4767.047588141404,102.42312916755054,-89.82748413085938,6043.875,True
1598629547.4216502,0,5,0.5,0.5,-0.026987875366210938,-0.14,-0.011,-0.56,0.0014589242925500553,10,1,100,0.019913938850481372,-10,-1,-100,696.7991141651291,-0.002180204079778162,0.00014628300917410498,0.9999976126528761,50.650727315403486,-3.2239169075081886,-4809.826143071457,102.903958498831,-89.825927734375,6042.2958984375,True
1598629547.4757526,0,5,0.5,0.5,-0.029523260498046877,-0.14,-0.011,-0.56,0.0011352279186103563,10,1,100,0.009800474287712179,-10,-1,-100,703.0428976450348,-0.0020478803313794115,0.00014186588632055663,0.9999978930278897,51.62629689841935,-3.2767497701335135,-4938.44553618439,104.34685385099426,-89.82110595703125,6037.55908203125,True
1598629547.5288231,0,5,0.5,0.5,-0.029228051757812498,-0.14,-0.011,-0.56,0.0012178708813587987,10,1,100,0.013398068627983883,-10,-1,-100,707.2233632893767,-0.001961122855872964,0.0001386279582728494,0.9999980673878492,52.267315087264954,-3.3113877237040175,-5024.411861235607,105.30912367196505,-89.81771850585938,6034.400390625,True
1598629547.5903914,0,5,0.5,0.5,-0.029779226684570313,-0.14,-0.011,-0.56,0.001208796212473802,10,1,100,0.01314637974169221,-10,-1,-100,711.4628504206194,-0.0018807936551290506,0.0001356287440048043,0.9999982221084549,52.900692561420705,-3.345549885207543,-5110.533983293175,106.27166380679215,-89.81427001953125,6031.2431640625,True
1598629547.6350477,0,5,0.5,0.5,-0.030254034423828124,-0.14,-0.011,-0.56,0.0012060860139669369,10,1,100,0.012385806912445563,-10,-1,-100,715.7557432386093,-0.0018016725549892965,0.00013290459071789093,0.9999983681548558,53.526074743765015,-3.379204484478714,-5196.755733915417,107.23447683041681,-89.81088256835938,6028.08544921875,True
1598629547.6859,0,5,0.5,0.5,-0.03080618286132813,-0.14,-0.011,-0.56,0.0011488825022524895,10,1,100,0.012000287122191469,-10,-1,-100,720.0648712365655,-0.0017270472964372075,0.00012993499805703484,0.9999985002111413,54.14357534146873,-3.412353628124266,-5283.060923471231,108.19756572110839,-89.80743408203125,6024.927734375,True
1598629547.7372,0,5,0.5,0.5,-0.03136731262207032,-0.14,-0.011,-0.56,0.0011685993378545575,10,1,100,0.01163038538335454,-10,-1,-100,724.4274655266199,-0.0016566342114293503,0.00012744196778083618,0.9999986196598645,54.75326098061848,-3.444995923907895,-5369.430429798936,109.16092967010825,-89.80392456054688,6021.76953125,True
1598629547.7868247,0,5,0.5,0.5,-0.031894799804687506,-0.14,-0.011,-0.56,0.001129257500806347,10,1,100,0.011385824754567626,-10,-1,-100,728.8061737166718,-0.0015911683663142025,0.00012484461552983762,0.9999987262977149,55.35523863133242,-3.4771143000058857,-5455.8437661076505,110.12456970617592,-89.8004150390625,6018.6123046875,True
1598629547.8362427,0,5,0.5,0.5,-0.03244415283203125,-0.14,-0.011,-0.56,0.0010766322961501455,10,1,100,0.011183322667418831,-10,-1,-100,733.2547058098717,-0.0015305569485757342,0.00012203142372297906,0.9999988212511848,55.949494435461745,-3.508723395581046,-5542.268166476756,111.08848734063218,-89.796875,6015.4541015625,True
1598629547.8859136,0,5,0.5,0.5,-0.03297688598632813,-0.14,-0.011,-0.56,0.0011283359776652485,10,1,100,0.01107780149783116,-10,-1,-100,737.7297882898711,-0.0014752112630166195,0.00011997026230375739,0.9999989046788329,56.536250999853614,-3.539818409046126,-5628.688097843937,112.05268254848401,-89.7933349609375,6012.2958984375,True
1598629547.9366934,0,5,0.5,0.5,-0.03351005554199219,-0.14,-0.011,-0.56,0.0010959525126498313,10,1,100,0.011023736892421228,-10,-1,-100,742.2212281308603,-0.0014250875821617361,0.00011782750361306459,0.9999989776205086,57.11568533223853,-3.5703800658879805,-5715.079429517108,113.01715773261782,-89.789794921875,6009.138671875,True
1598629547.986625,0,5,0.5,0.5,-0.03404540710449219,-0.14,-0.011,-0.56,0.0010577280128594101,10,1,100,0.01103622438923653,-10,-1,-100,746.7821867273888,-0.0013803205918079963,0.00011555791435575916,0.9999990406802561,57.688044703971045,-3.6004370707722977,-5801.423051650018,113.98191573264985,-89.7862548828125,6005.98046875,True
1598629548.0387845,0,5,0.5,0.5,-0.034622073364257815,-0.14,-0.011,-0.56,0.0010914054748751689,10,1,100,0.011151466180980594,-10,-1,-100,751.3698788711336,-0.0013412778529927891,0.00011382472647832003,0.9999990940084159,58.25355596347395,-3.62998338397798,-5887.698156770757,114.94695833967792,-89.78265380859375,6002.82275390625,True
1598629548.090994,0,5,0.5,0.5,-0.035164794921875,-0.14,-0.011,-0.56,0.0010871769594858792,10,1,100,0.011383766450895064,-10,-1,-100,756.0004784472985,-0.0013084597701626234,0.00011223320847874049,0.9999991376679965,58.812497911095704,-3.659029534551504,-5973.88225213463,115.91228684281943,-89.779052734375,5999.6650390625,True
1598629548.1426587,0,5,0.5,0.5,-0.03570768432617188,-0.14,-0.011,-0.56,0.0010713567625346406,10,1,100,0.011581983122311325,-10,-1,-100,760.6739860469243,-0.0012809474226798628,0.00011066382263004425,0.9999991734632677,59.365205583619755,-3.6875763850948187,-6059.959841961217,116.87790346503039,-89.77545166015625,5996.5068359375,True
1598629548.1948912,0,5,0.5,0.5,-0.036272171020507823,-0.14,-0.011,-0.56,0.0011255602359551663,10,1,100,0.011990139097803783,-10,-1,-100,765.3742877240293,-0.001260120093047566,0.00010975008595149595,0.9999992000258149,59.91206894630484,-3.715645422498414,-6145.915307751998,117.84381036060648,-89.77182006835938,5993.349609375,True
1598629548.2457366,0,5,0.5,0.5,-0.03681976928710938,-0.14,-0.011,-0.56,0.0010619766310678842,10,1,100,0.012369247547884012,-10,-1,-100,770.1176194142317,-0.0012450570767492887,0.00010835973339211814,0.9999992190452169,60.453441849940276,-3.7432436573512815,-6231.727561343584,118.81000979586997,-89.7681884765625,5990.19140625,True
1598629548.2987378,0,5,0.5,0.5,-0.03738886413574219,-0.14,-0.011,-0.56,0.001099400363461936,10,1,100,0.01284995919799754,-10,-1,-100,774.887562040356,-0.001236107692510687,0.00010745333975480125,0.9999992302454799,60.98977990946265,-3.7703857178223257,-6317.389436504577,119.77650462891934,-89.7645263671875,5987.033203125,True
1598629548.3499734,0,5,0.5,0.5,-0.03796239929199219,-0.14,-0.011,-0.56,0.0011443448600326632,10,1,100,0.013377047783941439,-10,-1,-100,779.7002904077526,-0.001233086385505815,0.00010705374212222437,0.9999992340184378,61.52149236242481,-3.7970838128148294,-6402.883978777187,120.74329703823798,-89.76083374023438,5983.8759765625,True
1598629548.4028149,0,5,0.5,0.5,-0.03856173706054688,-0.14,-0.011,-0.56,0.0011216271529277913,10,1,100,0.013950157929827726,-10,-1,-100,784.5827818049584,-0.001235820262794052,0.00010649756301129269,0.9999992307029776,62.0490437355985,-3.823354858797166,-6488.2014645130985,121.71039005224935,-89.757080078125,5980.7177734375,True
1598629548.4539824,0,5,0.5,0.5,-0.03912713012695313,-0.14,-0.011,-0.56,0.0011598005898273396,10,1,100,0.014594435987430987,-10,-1,-100,789.4654564118246,-0.0012443803072163177,0.00010635122479070748,0.9999992201032298,62.57292207549792,-3.849207411531935,-6573.332542790038,122.67778196089228,-89.75332641601562,5977.56005859375,True
1598629548.5077612,0,5,0.5,0.5,-0.03971412048339844,-0.14,-0.011,-0.56,0.001178488819243987,10,1,100,0.015324259107482209,-10,-1,-100,794.4070299236337,-0.0012589612007597025,0.00010639851602016531,0.9999992018477069,63.09349188090719,-3.874668120355563,-6658.255769349902,123.64547956751979,-89.74954223632812,5974.40234375,True
1598629548.5586987,0,5,0.5,0.5,-0.04032701416015625,-0.14,-0.011,-0.56,0.0011821604741247195,10,1,100,0.016033559033213955,-10,-1,-100,799.3857735256897,-0.0012787750663885667,0.00010648321345343873,0.9999991766974885,63.61136312259178,-3.8997734578891925,-6742.977661415674,124.6134894585945,-89.74569702148438,5971.244140625,True
1598629548.6108217,0,5,0.5,0.5,-0.04092735900878906,-0.14,-0.011,-0.56,0.0012379740258235265,10,1,100,0.016803472393947198,-10,-1,-100,804.3971100214403,-0.001303843704591113,0.00010707428114733542,0.9999991442629801,64.12698863935118,-3.924514940900679,-6827.483381127226,125.58181174776622,-89.7418212890625,5968.0869140625,True
1598629548.6630373,0,5,0.5,0.5,-0.04151091613769531,-0.14,-0.011,-0.56,0.0012417699514248811,10,1,100,0.01766635300564567,-10,-1,-100,809.4618520410731,-0.0013344819413048424,0.00010765081376300964,0.9999991037842236,64.64091058741548,-3.948929451640252,-6911.774055765397,126.55044632310523,-89.73794555664062,5964.9287109375,True
1598629548.71658,0,5,0.5,0.5,-0.0421375,-0.14,-0.011,-0.56,0.0012652041482799177,10,1,100,0.018498867477164678,-10,-1,-100,814.5265332391718,-0.0013698545294051102,0.00010839071157491112,0.9999990558745653,65.1535892249515,-3.9730284263334155,-6995.840955775855,127.51939855314946,-89.7340087890625,5961.77099609375,True
1598629548.7680051,0,5,0.5,0.5,-0.042772964477539074,-0.14,-0.011,-0.56,0.0013405110156434214,10,1,100,0.019391954288449892,-10,-1,-100,819.6769076845376,-0.0014100306401112579,0.00010974918962937757,0.9999989998838545,65.66548394333671,-3.9968529218646034,-7079.675813092477,128.48867306426177,-89.73001098632812,5958.61328125,True
1598629548.8191183,0,5,0.5,0.5,-0.043374652099609376,-0.14,-0.011,-0.56,0.001348508744746766,10,1,100,0.020303770658625153,-10,-1,-100,824.854320526938,-0.00145469364087902,0.00011105561316507088,0.9999989357659647,66.17717737929917,-4.0204198134606965,-7163.28561090343,129.45826993143515,-89.72601318359375,5955.45556640625,True
1598629548.872619,0,5,0.5,0.5,-0.0439980712890625,-0.14,-0.011,-0.56,0.0013537340027698426,10,1,100,0.021225384492764246,-10,-1,-100,830.0316113387235,-0.0015034759619342788,0.00011228749847644707,0.9999988634751291,66.68917441642408,-4.043731155226921,-7246.6736565805595,130.4281932893357,-89.72198486328125,5952.29736328125,True
1598629548.9236135,0,5,0.5,0.5,-0.04462613220214844,-0.14,-0.011,-0.56,0.0014009977747559848,10,1,100,0.02218436375533991,-10,-1,-100,835.2784819902154,-0.001556295711120267,0.00011383230690815924,0.9999987824921915,67.20194760526199,-4.066824708923419,-7329.8279241294695,131.39844700879692,-89.71792602539062,5949.1396484375,True
1598629548.9784043,0,5,0.5,0.5,-0.04528016357421875,-0.14,-0.011,-0.56,0.0014384768961566968,10,1,100,0.023139287382256228,-10,-1,-100,840.5682602142915,-0.001612703447490108,0.00011557072954617962,0.9999986929146443,67.7159387363046,-4.089725222996332,-7412.759203670878,132.3690332273158,-89.71380615234375,5945.9814453125,True
1598629549.0278385,0,5,0.5,0.5,-0.045900418090820315,-0.14,-0.011,-0.56,0.0014584144010382695,10,1,100,0.024087637855420688,-10,-1,-100,845.9012518393574,-0.001672269736545755,0.0001173239824389802,0.9999985948735185,68.23162686049969,-4.112461892897829,-7495.470794424978,133.33995440767586,-89.70968627929688,5942.82421875,True
1598629549.0797095,0,5,0.5,0.5,-0.046563766479492195,-0.14,-0.011,-0.56,0.0015540740651605787,10,1,100,0.02506306455371784,-10,-1,-100,851.2606100594858,-0.0017349126888210574,0.00011977754977316643,0.9999984878645071,68.7494208820616,-4.135048343433988,-7577.96813760399,134.31121454882145,-89.70550537109375,5939.666015625,True
1598629549.13269,0,5,0.5,0.5,-0.047193304443359375,-0.14,-0.011,-0.56,0.0015520764495389056,10,1,100,0.026017293787945376,-10,-1,-100,856.6630591853755,-0.001800120967907553,0.00012197781962921168,0.9999983723416317,69.26965687011776,-4.157497609255537,-7660.245912498772,135.28281570025106,-89.70132446289062,5936.5078125,True
1598629549.1836712,0,5,0.5,0.5,-0.04782317810058594,-0.14,-0.011,-0.56,0.0015772126189274745,10,1,100,0.026977569768077223,-10,-1,-100,862.0921806012047,-0.0018676798421116418,0.0001241930269123472,0.9999982481725153,69.79289350483505,-4.179847202684493,-7742.329701715667,136.25476091265753,-89.6971435546875,5933.3505859375,True
1598629549.2362049,0,5,0.5,0.5,-0.048496112060546874,-0.14,-0.011,-0.56,0.0016575615964559143,10,1,100,0.02787737699634022,-10,-1,-100,867.5642707075458,-0.0019367923408261073,0.0001269222585898659,0.9999981163613102,70.31937659690911,-4.202114512169985,-7824.210427402762,137.22705328956386,-89.69290161132812,5930.1923828125,True
1598629549.2869124,0,5,0.5,0.5,-0.04915656433105469,-0.14,-0.011,-0.56,0.0016694858437404638,10,1,100,0.028843332343665953,-10,-1,-100,873.1060629145941,-0.002007887899350018,0.00012949493368381976,0.9999979758065742,70.84951332799571,-4.224326770891876,-7905.9047583116535,138.1996952203514,-89.68862915039062,5927.03515625,True
1598629549.3867233,0,5,0.5,0.5,-0.049800228881835946,-0.14,-0.011,-0.56,0.001695572258938591,10,1,100,0.02974212432736764,-10,-1,-100,878.6641514356015,-0.0020801475548970078,0.00013205292777643856,0.9999978277717277,71.38361401902468,-4.246503566737493,-7987.418003900225,139.17268922994435,-89.68435668945312,5923.876953125,True
1598629549.4838574,0,5,0.5,0.5,-0.053563092041015635,-0.14,-0.011,-0.56,0.002082438591542079,10,1,100,0.03875474511313465,-10,-1,-100,889.9028870151378,-0.002227202472615773,0.00013787625514374976,0.9999975102765428,72.46503443875942,-4.290823363113041,-8149.963758553511,141.11974590230645,-89.67562866210938,5917.5615234375,True
1598629549.5840855,0,5,0.5,0.5,-0.05532734069824219,-0.14,-0.011,-0.56,0.0021563438013026456,10,1,100,0.040556097560448194,-10,-1,-100,901.2810264602304,-0.0023766067595986998,0.00014381879215124937,0.9999971655242155,73.56557902193197,-4.335224838106802,-8311.910350592416,143.06824252851996,-89.66619873046875,5911.24609375,True
1598629549.6366222,0,5,0.5,0.5,-0.05661898193359376,-0.14,-0.011,-0.56,0.002244185112203933,10,1,100,0.04127510946748515,-10,-1,-100,912.8148055255879,-0.0025182195732394433,0.00014999239545240335,0.9999968180311686,74.68752454661453,-4.379891540660709,-8473.420230773592,145.01819953674863,-89.65689086914062,5904.93017578125,True
1598629549.7367804,0,5,0.5,0.5,-0.054331735229492195,-0.14,-0.011,-0.56,0.0019992909724993457,10,1,100,0.03461643968802208,-10,-1,-100,918.6512138748076,-0.002585601936621592,0.00015334715930531416,0.9999966455680109,75.25732528447047,-4.402393848300009,-8554.124792456541,145.9937306340048,-89.65280151367188,5901.77197265625,True
1598629549.8328302,0,5,0.5,0.5,-0.056633078002929695,-0.14,-0.011,-0.56,0.0023079629761418377,10,1,100,0.04164759578530561,-10,-1,-100,930.4368843318662,-0.00270994792948969,0.00015917030540755906,0.9999963154167286,76.41448706740104,-4.447819923004375,-8715.534409040634,147.94590450148914,-89.64633178710938,5895.45654296875,True
1598629549.927649,0,5,0.5,0.5,-0.05724077148437501,-0.14,-0.011,-0.56,0.002395565410613077,10,1,100,0.042033590685313676,-10,-1,-100,942.3779500004603,-0.002825612390060154,0.00016522464876330716,0.9999959942996954,77.59347903343183,-4.493783343254251,-8876.948954831196,149.8995723694339,-89.640380859375,5889.140625,True
1598629550.0216756,0,5,0.5,0.5,-0.0587390838623047,-0.14,-0.011,-0.56,0.002340755681715965,10,1,100,0.041666726666138104,-10,-1,-100,954.4582971580094,-0.002926494507293386,0.00017019101170661887,0.9999957033232284,78.7930578387403,-4.540271264888411,-9038.347017257223,151.85474633632265,-89.63357543945312,5882.8251953125,True
1598629550.1167028,0,5,0.5,0.5,-0.06042399902343751,-0.14,-0.011,-0.56,0.002420420035042717,10,1,100,0.04128685781591752,-10,-1,-100,966.6941621325677,-0.0030137896109896085,0.0001753882921536961,0.9999954431451814,80.01384947880935,-4.587375391473543,-9199.994796144589,153.81143591097546,-89.62582397460938,5876.509765625,True
1598629550.2226508,0,5,0.5,0.5,-0.06241611938476563,-0.14,-0.011,-0.56,0.002409233015931527,10,1,100,0.040595169439930995,-10,-1,-100,979.0958586082561,-0.003085881631595239,0.0001799673323558793,0.9999952224617451,81.25405529011397,-4.635135986101411,-9361.996829149353,155.7696495038368,-89.61688232421875,5870.19384765625,True
1598629550.3156059,0,5,0.5,0.5,-0.0644731903076172,-0.14,-0.011,-0.56,0.002396957705403626,10,1,100,0.039776391658868614,-10,-1,-100,991.653194217477,-0.003142996403470477,0.0001839726184451812,0.99999504385156,82.51193316556626,-4.683497085764829,-9524.432820756814,157.72939403356298,-89.60690307617188,5863.8779296875,True
1598629550.4126244,0,5,0.5,0.5,-0.06666044006347657,-0.14,-0.011,-0.56,0.0023880801621111664,10,1,100,0.038969481650731455,-10,-1,-100,1004.3662304236786,-0.0031866171516025613,0.00018748588295946174,0.9999949051471076,83.78573711829509,-4.732405497467271,-9687.37538528537,159.69067494211788,-89.59591674804688,5857.5625,True
1598629550.5122788,0,5,0.5,0.5,-0.06837165832519532,-0.14,-0.011,-0.56,0.002370838178875485,10,1,100,0.03815191378011462,-10,-1,-100,1017.2451594445156,-0.0032179677468270424,0.00019047791482683265,0.9999948041873741,85.0736911203003,-4.781813942649657,-9850.866549195363,161.65349711472615,-89.58480834960938,5851.2470703125,True
1598629550.610546,0,5,0.5,0.5,-0.06956775512695312,-0.14,-0.011,-0.56,0.0023505129425733674,10,1,100,0.03742825505797446,-10,-1,-100,1030.2794224625686,-0.0032391246986596344,0.00019297075153744552,0.9999947354028798,86.37424461359802,-4.831659081553821,-10014.958081129136,163.61786501656968,-89.5743408203125,5844.9306640625,True
1598629550.7080138,0,5,0.5,0.5,-0.07037633361816407,-0.14,-0.011,-0.56,0.0023190879217681835,10,1,100,0.0367143124152208,-10,-1,-100,1043.469202909735,-0.0032512125352774845,0.00019491221348878732,0.9999946957990724,87.6861664900528,-4.881902422915429,-10179.711009406203,165.58378276797086,-89.56494140625,5838.615234375,True
1598629550.806868,0,5,0.5,0.5,-0.07106257934570313,-0.14,-0.011,-0.56,0.002279567629920567,10,1,100,0.036203161020640244,-10,-1,-100,1056.7973384979414,-0.0032569495462532925,0.0001962801171057711,0.9999946768627165,88.96190831467376,-4.929834772244641,-10334.611447143896,167.41682815466717,-89.55657958984375,5832.59375,True
1598629550.9047537,0,5,0.5,0.5,-0.07194743957519532,-0.14,-0.011,-0.56,0.0022846362144971514,10,1,100,0.035695564036475155,-10,-1,-100,1070.2807439519092,-0.003257053218541832,0.00019753600769763604,0.9999946762777575,90.1351168612161,-4.971688316008878,-10469.682461002663,169.05500044110616,-89.54876708984375,5827.00146484375,True
1598629551.001654,0,5,0.5,0.5,-0.0731206024169922,-0.14,-0.011,-0.56,0.0022610928198834226,10,1,100,0.03532120165764554,-10,-1,-100,1083.8872238012264,-0.003253351952788888,0.00019843432159472087,0.9999946881483378,91.22064661191988,-5.0083349089508085,-10586.891455672456,170.50251017734658,-89.54098510742188,5821.828125,True
1598629551.052745,0,5,0.5,0.5,-0.07452555236816406,-0.14,-0.011,-0.56,0.002227804257565706,10,1,100,0.03504688785834244,-10,-1,-100,1097.5797944585793,-0.003247196260796642,0.00019892267156201138,0.999994708059105,92.23698834436983,-5.040849610089129,-10689.144823193858,171.7775438952387,-89.53289794921875,5817.03271484375,True
1598629551.15222,0,5,0.5,0.5,-0.07298287353515626,-0.14,-0.011,-0.56,0.0021946597695488073,10,1,100,0.03533084789627641,-10,-1,-100,1104.4823255139636,-0.0032439694441941756,0.00019904391765993248,0.999994718507935,92.74191452717642,-5.056805083039847,-10737.559106405193,172.35698740446875,-89.52877807617188,5814.7626953125,True
1598629551.2467816,0,5,0.5,0.5,-0.0761986846923828,-0.14,-0.011,-0.56,0.002211931320875231,10,1,100,0.0349064646819257,-10,-1,-100,1118.330556414905,-0.0032370342291409278,0.00019929381313800638,0.9999947409318589,93.6233467285167,-5.081401923626018,-10812.704164368739,173.34375333055056,-89.52102661132812,5810.5986328125,True
