Timestamp,Input Throttle,horizon,dT,dt,Input Roll,Roll P,Roll I,Roll D,Input Pitch,Pitch P,Pitch I,Pitch D,Input Yaw,Yaw P,Yaw I,Yaw D,Altitude,Direction X,Direction Y,Direction Z,Drag X,Drag Y,Drag Z,Vertical Velocity,Roll,Mass,Has Fuel
1598627527.5538545,0,5,0.5,0.5,-0.009600219726562501,-0.14,-0.011,-0.56,0.004316138181460684,10,1,100,0.12635939455153633,-10,-1,-100,478.81276013329625,-0.011738083640399225,0.0004140679929769011,0.9999310205909946,5.336061474472879,-0.4368518592106226,109.80937124172439,-14.045369023140113,-89.92178344726562,6440.1796875,True
1598627527.596592,0,5,0.5,0.5,-0.009519631958007814,-0.14,-0.011,-0.56,0.004256785696009574,10,1,100,0.12334271236935418,-10,-1,-100,477.9333972407039,-0.01178161152768397,0.0004147470744945636,0.9999305083927957,5.52327916289387,-0.45263671760342705,118.5022226302828,-14.628779625444857,-89.9239501953125,6440.1796875,True
1598627527.6411061,0,5,0.5,0.5,-0.010004898071289063,-0.14,-0.011,-0.56,0.004176498995454887,10,1,100,0.1187868717748617,-10,-1,-100,477.6538870931836,-0.011769055045695004,0.00041425749943785545,0.9999306564627647,5.585627891023048,-0.45790410082988037,121.47454308232591,-14.823231906362574,-89.92510986328125,6440.1796875,True
1598627527.6849487,0,5,0.5,0.5,-0.005972897338867189,-0.14,-0.011,-0.56,0.003978271885183218,10,1,100,0.11624325069553604,-10,-1,-100,476.8316447957186,-0.011723817093124169,0.00041163376883888937,0.9999311889677247,5.808807568809575,-0.4678475301182901,111.17420081034061,-13.469150820534393,-89.93191528320312,6435.443359375,True
1598627527.7257855,0,5,0.5,0.5,-0.00447552490234375,-0.14,-0.011,-0.56,0.00398405244762522,10,1,100,0.11471223430496298,-10,-1,-100,476.28676695388276,-0.011658115335333542,0.00040892689725399397,0.9999319582479704,5.644083051936036,-0.4494448490928331,98.70601310666628,-12.565748539844643,-89.93960571289062,6432.28515625,True
1598627527.7678518,0,5,0.5,0.5,-0.0020553863525390624,-0.14,-0.011,-0.56,0.0038741679066393144,10,1,100,0.11101254633557499,-10,-1,-100,475.8120584478602,-0.01155415465095187,0.00040509540280671356,0.9999331664706478,5.461381907714179,-0.43014329931943246,86.86417784207482,-11.661838289155847,-89.94931030273438,6429.1279296875,True
1598627527.8121614,0,5,0.5,0.5,0.0002728881835937502,-0.14,-0.011,-0.56,0.0037358947741975134,10,1,100,0.10696875141912122,-10,-1,-100,475.4071717442712,-0.011412379388954449,0.0003999869290117089,0.9999347966778329,5.267117270784404,-0.41046898111782754,75.7709009815883,-10.75737696338956,-89.96047973632812,6425.9697265625,True
1598627527.8540087,0,5,0.5,0.5,0.002455368041992188,-0.14,-0.011,-0.56,0.0036072743030523815,10,1,100,0.10271177219852182,-10,-1,-100,474.9879098414676,-0.011234418085688659,0.000393809960434011,0.9999368143857847,5.060308168116147,-0.3903519188331322,65.41087582818027,-9.852325409045228,-89.97259521484375,6422.8115234375,True
1598627527.894213,0,5,0.5,0.5,0.004356375122070313,-0.14,-0.011,-0.56,0.003459953180771854,10,1,100,0.09817232953431779,-10,-1,-100,474.59785343229305,-0.01102115431478546,0.0003864972424695226,0.9999391905398306,4.841399416950458,-0.3698310939392369,55.78990688955642,-8.946738531347268,-89.98504638671875,6419.654296875,True
1598627527.9378748,0,5,0.5,0.5,0.005938894653320313,-0.14,-0.011,-0.56,0.0032489161487345005,10,1,100,0.09339617173004243,-10,-1,-100,474.26269664091524,-0.010773839311821153,0.00037757943744467587,0.9999418892216944,4.6112765751554505,-0.34897258395319275,46.913876864491336,-8.040577338679247,-89.9972915649414,6416.49609375,True
1598627527.9807694,0,5,0.5,0.5,0.007137545013427735,-0.14,-0.011,-0.56,0.003091420982052509,10,1,100,0.08841594202764709,-10,-1,-100,473.98329479794484,-0.010493938276093805,0.0003676973136909383,0.999944869509386,4.371202212399486,-0.32786443103373475,38.787245191682835,-7.133849008698561,-90.00880432128906,6413.3388671875,True
1598627528.0249271,0,5,0.5,0.5,0.00802260513305664,-0.14,-0.011,-0.56,0.002848681248256728,10,1,100,0.08203145039402994,-10,-1,-100,473.71817437338177,-0.010182572997276339,0.00035654899513420246,0.9999480926928004,4.123769066515449,-0.30668966075065407,31.418470518369897,-6.226550027223021,-90.0191421508789,6410.1806640625,True
1598627528.0706735,0,5,0.5,0.5,0.008495816040039064,-0.14,-0.011,-0.56,0.002633867976778795,10,1,100,0.07550256113472167,-10,-1,-100,473.52303068281617,-0.009841613785567119,0.0003445142195049708,0.9999515107984229,3.8735712352806226,-0.28576888312881915,24.81695431596773,-5.318620029771548,-90.02793884277344,6407.0234375,True
1598627528.1729863,0,5,0.5,0.5,0.006294322204589845,-0.14,-0.011,-0.56,0.0031256408393557063,10,1,100,0.08953121299590722,-10,-1,-100,473.3976266592508,-0.009660936283896904,0.0003381075797563075,0.9999532749050744,3.7503320354547447,-0.2756084623099073,21.810064074109253,-4.864424821934312,-90.03166961669922,6405.4443359375,True
1598627528.2087917,0,5,0.5,0.5,0.006595244598388672,-0.14,-0.011,-0.56,0.0029874286994507285,10,1,100,0.0866970227080187,-10,-1,-100,473.30933120357804,-0.00947279398958793,0.00033109372979391613,0.9999550772664604,3.6310451433621065,-0.2658403571904945,19.0034790342356,-4.410081543555703,-90.03492736816406,6403.865234375,True
1598627528.2477796,0,5,0.5,0.5,0.008432581329345705,-0.14,-0.011,-0.56,0.002147058310866243,10,1,100,0.06154542168812671,-10,-1,-100,473.16029880708084,-0.009075091277622339,0.0003171485291750287,0.9999587702176091,3.423964232258774,-0.24887995116522516,14.025315633354246,-3.500940234229143,-90.04000854492188,6400.70751953125,True
1598627528.2850115,0,5,0.5,0.5,0.008090149688720703,-0.14,-0.011,-0.56,0.001854554761794911,10,1,100,0.05416822262020849,-10,-1,-100,473.0474289873382,-0.00864873160555739,0.00030189190259687505,0.999962553450325,3.349313581012561,-0.2418087063797206,10.019084818906387,-2.5911886777158966,-90.04344177246094,6397.54931640625,True
1598627528.3778403,0,5,0.5,0.5,0.007348278045654297,-0.14,-0.011,-0.56,0.0016241638018411916,10,1,100,0.047774501451653,-10,-1,-100,472.97114941233303,-0.008205519572860021,0.000286016956095715,0.9999662932533476,3.9028679099781725,-0.2799867886940913,7.4780448704855695,-1.6808195606583805,-90.04499816894531,6394.392578125,True
1598627528.4438467,0,5,0.5,0.5,0.006262607574462892,-0.14,-0.011,-0.56,0.0013570854297165463,10,1,100,0.04039160922889452,-10,-1,-100,472.9312473840546,-0.0077382358852126345,0.0002692551949883803,0.9999700231542067,8.84927810905092,-0.6310735546173086,7.6741603950110235,-0.7698274564479803,-90.0445785522461,6391.23388671875,True
1598627528.4846675,0,5,0.5,0.5,0.004934202575683595,-0.14,-0.011,-0.56,0.0011338668024132575,10,1,100,0.033443512070815466,-10,-1,-100,472.9276615618728,-0.0072532524844866305,0.00025209455377666533,0.9999736630415484,7.099108971292048,-0.5034569387631077,-1.1215260666555187,0.14180704423871335,-90.04225158691406,6388.076171875,True
1598627528.5257075,0,5,0.5,0.5,0.0034829566955566407,-0.14,-0.011,-0.56,0.0008321062571803946,10,1,100,0.026593191534426616,-10,-1,-100,472.9606355942087,-0.006753283376066123,0.00023386477033996025,0.999977168974828,0.5446534889220324,-0.03842735054547268,-0.6330464211868204,1.054102414618,-90.03824615478516,6384.91796875,True
1598627528.5667362,0,5,0.5,0.5,0.001966575622558594,-0.14,-0.011,-0.56,0.0006646597737440512,10,1,100,0.019870810599786348,-10,-1,-100,473.03013975697104,-0.006241054046187139,0.0002158916651329443,0.9999805011274877,1.2603966580356436,-0.0885093648637216,-2.707991981224879,1.9670547123780597,-90.03282928466797,6381.7607421875,True
1598627528.6059873,0,5,0.5,0.5,0.000491610717773437,-0.14,-0.011,-0.56,0.00041056590460963405,10,1,100,0.013237672554635732,-10,-1,-100,473.136204530485,-0.005718672963114957,0.00019737040461625444,0.9999836287782237,1.9738200114345492,-0.13801626906371633,-6.15698025010826,2.88063424345872,-90.0263671875,6378.6025390625,True
1598627528.6470454,0,5,0.5,0.5,-0.0009168258666992189,-0.14,-0.011,-0.56,0.00017125831603401328,10,1,100,0.006777825795615311,-10,-1,-100,473.27886030706577,-0.005188803317805925,0.00017849113862756594,0.999986522139695,2.5302158174049802,-0.17623624391363793,-10.316174754363711,3.7948302586868996,-90.0191879272461,6375.44482421875,True
1598627528.6878886,0,5,0.5,0.5,-0.0021652969360351567,-0.14,-0.011,-0.56,-2.9849999922857166e-05,10,1,100,0.00044865114621218255,-10,-1,-100,473.45813790673856,-0.004653631264317769,0.00015964501798472187,0.9999891590559989,3.0222484083602255,-0.20977336380633207,-15.185397108767223,4.70964737206023,-90.01168060302734,6372.287109375,True
1598627528.7306776,0,5,0.5,0.5,-0.003241893768310547,-0.14,-0.011,-0.56,-0.0002432971756545345,10,1,100,-0.005701196678344324,-10,-1,-100,473.6838335770881,-0.004115584565219177,0.00014072761463167492,0.9999915210437662,3.488045003811274,-0.24135159504062262,-20.801548463783835,5.625093280926816,-90.0041732788086,6369.12939453125,True
1598627528.7806246,0,5,0.5,0.5,-0.0016193252563476562,-0.14,-0.011,-0.56,0.0005751741303100647,10,1,100,0.01801496960551685,-10,-1,-100,473.8235679048812,-0.003846561356539562,0.00013113100610544074,0.9999925933577656,3.71599120812845,-0.2567600895394311,-23.896968234425227,6.083047007070893,-90.00054168701172,6367.55078125,True
1598627528.8229523,0,5,0.5,0.5,-0.006698406219482423,-0.14,-0.011,-0.56,-0.0016156427979973835,10,1,100,-0.04435393489792544,-10,-1,-100,474.2161591803888,-0.0030393703715713614,0.0001026455361846978,0.9999953758351278,4.389882443100249,-0.30220302918300296,-34.35528666448535,7.457828996462229,-89.99044799804688,6362.8134765625,True
1598627528.8657,0,5,0.5,0.5,-0.005207508087158204,-0.14,-0.011,-0.56,-0.0009316514314084172,10,1,100,-0.02429420274295269,-10,-1,-100,474.57991827023216,-0.0024926180859193756,8.313445906202302e-05,0.9999968899670335,4.83410962247554,-0.3321107297650429,-42.314868273154474,8.375113195812752,-89.98458862304688,6359.6552734375,True
1598627528.9101882,0,5,0.5,0.5,-0.005346128845214845,-0.14,-0.011,-0.56,-0.0010376938158621319,10,1,100,-0.027229574795835886,-10,-1,-100,474.9436168781249,-0.001973654096481626,6.460229521539978e-05,0.9999980502561246,5.275448986447123,-0.3618235480175484,-51.07133930179363,9.293000769230678,-89.97979736328125,6356.498046875,True
1598627528.9528778,0,5,0.5,0.5,-0.005167025756835938,-0.14,-0.011,-0.56,-0.001233596224412698,10,1,100,-0.03382674074726313,-10,-1,-100,475.32181222795043,-0.001446694050514338,4.614439005761101e-05,0.999998952472961,5.713924002307899,-0.3913712863371504,-60.628032316954446,10.211491660959243,-89.976318359375,6353.34033203125,True
1598627528.9991684,0,5,0.5,0.5,-0.00484635238647461,-0.14,-0.011,-0.56,-0.0014050615832524,10,1,100,-0.03809833334894117,-10,-1,-100,475.75539735192433,-0.0009336309753702319,2.797635517951698e-05,0.9999995637751676,6.149276334079853,-0.4207608806081802,-70.98751292334579,11.130583154720997,-89.97409057617188,6350.1826171875,True
1598627529.0418382,0,5,0.5,0.5,-0.004368362426757813,-0.14,-0.011,-0.56,-0.0015883595050055661,10,1,100,-0.04235465057852555,-10,-1,-100,476.20347911363933,-0.0004333411350346565,9.964447192542196e-06,0.9999999060580808,6.5811527948249315,-0.44999470618413223,-82.152838356058,12.050226937969793,-89.97308349609375,6347.0244140625,True
1598627529.0850093,0,5,0.5,0.5,-0.003777560424804688,-0.14,-0.011,-0.56,-0.0016811298168477825,10,1,100,-0.0464897293174975,-10,-1,-100,476.72132461797446,5.425458850826592e-05,-7.083012032888021e-06,0.9999999985031354,7.008823171002752,-0.47904690932267496,-94.1236185331841,12.97045821089936,-89.97320556640625,6343.86669921875,True
1598627529.1267512,0,5,0.5,0.5,-0.003084732818603516,-0.14,-0.011,-0.56,-0.0018415048942622518,10,1,100,-0.05029144039667495,-10,-1,-100,477.2948351090308,0.0005273180216249775,-2.3869953713719345e-05,0.999999860682955,7.431890332931585,-0.5079124265302779,-106.90379224561373,13.891320847300763,-89.974365234375,6340.708984375,True
1598627529.1717505,0,5,0.5,0.5,-0.0023225570678710936,-0.14,-0.011,-0.56,-0.0019482844764713075,10,1,100,-0.05371845655536042,-10,-1,-100,477.88250581675675,0.0009838204265500898,-3.993470146937702e-05,0.9999995152511766,7.849668272808115,-0.5365650890136165,-120.492690423746,14.81277234655407,-89.9764404296875,6337.55078125,True
1598627529.2166946,0,5,0.5,0.5,-0.001592565155029297,-0.14,-0.011,-0.56,-0.002099573924687623,10,1,100,-0.05688690721549008,-10,-1,-100,478.4704208661569,0.0014229908870361258,-5.575013776184954e-05,0.9999989859939146,8.261571202949447,-0.5649858137131265,-134.89060771336904,15.73480592185458,-89.97918701171875,6334.3935546875,True
1598627529.2591388,0,5,0.5,0.5,-0.0008683746337890626,-0.14,-0.011,-0.56,-0.002176048395375444,10,1,100,-0.05972605247034722,-10,-1,-100,479.12809998879675,0.0018432566695734274,-7.065313763047085e-05,0.9999982987050449,8.667055734634575,-0.5931513035652332,-150.0976832135557,16.657417001251048,-89.98245239257812,6331.2353515625,True
1598627529.303709,0,5,0.5,0.5,-0.00020639343261718733,-0.14,-0.011,-0.56,-0.0022387477274324434,10,1,100,-0.062208547445618254,-10,-1,-100,479.8411683860468,0.0022434458561633066,-8.461376900808552e-05,0.9999974798924248,9.065557664300885,-0.6210406010749941,-166.11260465375955,17.58060179579629,-89.98602294921875,6328.078125,True
1598627529.353878,0,5,0.5,0.5,0.00038051147460937485,-0.14,-0.011,-0.56,-0.0023488807107756803,10,1,100,-0.06433743676052152,-10,-1,-100,480.5686718779616,0.002622302234160424,-9.815396262897364e-05,0.9999965569424689,9.456628411296379,-0.648634406405949,-182.93498008528863,18.504357609249737,-89.98971557617188,6324.919921875,True
1598627529.3917704,0,5,0.5,0.5,0.0008443023681640627,-0.14,-0.011,-0.56,-0.0023911149508746322,10,1,100,-0.06615761000619592,-10,-1,-100,481.3660608412465,0.002979086010636078,-0.00011069921695991297,0.9999955563862394,9.839836679845988,-0.6759168487070609,-200.56333237019984,19.428680823437066,-89.99331665039062,6321.76171875,True
1598627529.4357383,0,5,0.5,0.5,4.8028564453124955e-05,-0.14,-0.011,-0.56,-0.001820976957380393,10,1,100,-0.04963414663130693,-10,-1,-100,481.72973651229404,0.003149198158513909,-0.00011677833585898517,0.999995034444561,10.028333037352969,-0.6894327116658476,-209.67838267385196,19.89105416029621,-89.99503326416016,6320.18359375,True
1598627529.479093,0,5,0.5,0.5,0.0023408103942871095,-0.14,-0.011,-0.56,-0.003080767166897317,10,1,100,-0.08515076216794532,-10,-1,-100,482.9610217419686,0.0036230122258869364,-0.00013362585068007874,0.9999934279416757,10.581285923524108,-0.7294826427184824,-238.2314440802273,21.279009550178344,-89.99964904785156,6315.4462890625,True
1598627529.5247655,0,5,0.5,0.5,0.0015689460754394534,-0.14,-0.011,-0.56,-0.00252115472001806,10,1,100,-0.07046763806266598,-10,-1,-100,483.88359409279656,0.003916581746759039,-0.0001437238507295591,0.9999923198359453,10.939005379769176,-0.7557454594758223,-258.2676979824886,22.20501374131093,-90.002197265625,6312.2890625,True
1598627529.5659187,0,5,0.5,0.5,0.0015196601867675783,-0.14,-0.011,-0.56,-0.002567762908019892,10,1,100,-0.06956671498105574,-10,-1,-100,484.7652719722828,0.00417176171302972,-0.00015320334263028819,0.9999912864285097,11.287781609549368,-0.7816441544648467,-279.102846299093,23.131571471169547,-90.00411987304688,6309.130859375,True
1598627529.6189096,0,5,0.5,0.5,0.0012340919494628908,-0.14,-0.011,-0.56,-0.002520171254282581,10,1,100,-0.07067066215332947,-10,-1,-100,485.7578204073943,0.004410466253304278,-0.00016127083533432402,0.9999902608421475,11.627365202492381,-0.8071648899262552,-300.73044859339575,24.058668771311712,-90.00520324707031,6305.97314453125,True
1598627529.658896,0,5,0.5,0.5,0.0008352806091308595,-0.14,-0.011,-0.56,-0.0021344436150642727,10,1,100,-0.05909559989628431,-10,-1,-100,486.20596867171116,0.004519127409556416,-0.00016498799913249474,0.9999897750809337,11.793666884543184,-0.8197785419069348,-311.8390913320694,24.52241705878463,-90.00545501708984,6304.39453125,True
1598627529.7038922,0,5,0.5,0.5,0.0004187713623046875,-0.14,-0.011,-0.56,-0.0028674857328686116,10,1,100,-0.0799548093820594,-10,-1,-100,487.7718475770671,0.004804724786454024,-0.0001749319510550797,0.999988441942475,12.279124094342727,-0.8570695514849593,-346.3527041654367,25.914512702378826,-90.00502014160156,6299.6572265625,True
1598627529.754571,0,5,0.5,0.5,0.0006871261596679688,-0.14,-0.011,-0.56,-0.0018835184219525751,10,1,100,-0.051691218503986655,-10,-1,-100,487.7718475770671,0.004804724786454024,-0.0001749319510550797,0.999988441942475,12.279124094342727,-0.8570695514849593,-346.3527041654367,25.914512702378826,-90.00502014160156,6299.6572265625,True
1598627529.794689,0,5,0.5,0.5,-0.0014602508544921877,-0.14,-0.011,-0.56,-0.002987898241365276,10,1,100,-0.08393477266800406,-10,-1,-100,489.92567436234094,0.005095519570735736,-0.00018488966015697063,0.9999870006635677,12.894998086886602,-0.9054750601600172,-395.1112824560677,27.77252291629285,-90.00192260742188,6293.341796875,True
1598627529.8407323,0,5,0.5,0.5,-0.0014692535400390625,-0.14,-0.011,-0.56,-0.0024345237895882976,10,1,100,-0.06780323565286327,-10,-1,-100,491.0722434131894,0.005210979749639126,-0.00018883259550841894,0.9999864049237369,13.189850037683792,-0.9291205324405506,-420.6559360992718,28.702336193627698,-89.9994125366211,6290.18359375,True
1598627529.8890858,0,5,0.5,0.5,-5.6908416748046884e-05,-0.14,-0.011,-0.56,-0.0020480435922983174,10,1,100,-0.05648040713642458,-10,-1,-100,491.0722434131894,0.005210979749639126,-0.00018883259550841894,0.9999864049237369,13.189850037683792,-0.9291205324405506,-420.6559360992718,28.702336193627698,-89.9994125366211,6290.18359375,True
1598627529.9358323,0,5,0.5,0.5,-0.003229734039306641,-0.14,-0.011,-0.56,-0.0024211526929943444,10,1,100,-0.06852841173775914,-10,-1,-100,492.86236340005416,0.00531863271729569,-0.0001921589925514288,0.999985837510182,13.616505766895516,-0.9639099730881155,-460.4171125921975,30.098046136727394,-89.994873046875,6285.447265625,True
1598627529.985112,0,5,0.5,0.5,-0.00443127670288086,-0.14,-0.011,-0.56,-0.002279116929522669,10,1,100,-0.06446967376496453,-10,-1,-100,494.72212307399604,0.005378059960420426,-0.0001938385437027213,0.9999855193439959,14.025565369504433,-0.9979191017630793,-501.89647269302634,31.494947858420385,-89.98953247070312,6280.7099609375,True
1598627530.0254881,0,5,0.5,0.5,-0.004167498016357423,-0.14,-0.011,-0.56,-0.0021034881249587687,10,1,100,-0.059060916878374156,-10,-1,-100,496.0086438473081,0.005381585593188762,-0.00019372322407788524,0.9999855003987885,14.289282602849974,-1.0201860242720167,-530.49728069185,32.42684690336206,-89.98565673828125,6277.552734375,True
1598627530.0748208,0,5,0.5,0.5,-0.00338458480834961,-0.14,-0.011,-0.56,-0.002052535126221034,10,1,100,-0.05818132790384994,-10,-1,-100,496.6518590952037,0.005375694610591431,-0.0001931183427200116,0.9999855322017212,14.418518033121188,-1.0311958429057253,-545.0762366222546,32.892980112820034,-89.98370361328125,6275.9736328125,True
1598627530.1174016,0,5,0.5,0.5,-0.006095612335205078,-0.14,-0.011,-0.56,-0.0018742377870612928,10,1,100,-0.05296785369843757,-10,-1,-100,498.65153959789313,0.0053220664714925744,-0.00019091861339559638,0.9999858194787344,14.797219735176167,-1.0638072969656338,-589.9445207616184,34.29222413094097,-89.97830200195312,6271.2373046875,True
1598627530.1617024,0,5,0.5,0.5,-0.005429069519042969,-0.14,-0.011,-0.56,-0.0017980210623097864,10,1,100,-0.051183365578157065,-10,-1,-100,500.07770814653486,0.005256361053889304,-0.0001882024068626933,0.999986167528494,15.04272590009389,-1.0852033501619358,-620.7839372811557,35.225697400845036,-89.9749755859375,6268.0791015625,True
1598627530.205645,0,5,0.5,0.5,-0.005650106811523437,-0.14,-0.011,-0.56,-0.0016586963167907112,10,1,100,-0.04826634929601064,-10,-1,-100,501.5037235736381,0.005169699947805513,-0.00018445447555005563,0.999986619999986,15.283449261422257,-1.1063544098433655,-652.3604895274193,36.15968135343456,-89.9720458984375,6264.92138671875,True
1598627530.2506988,0,5,0.5,0.5,-0.004921607971191407,-0.14,-0.011,-0.56,-0.0018284951460668902,10,1,100,-0.051300926616595244,-10,-1,-100,502.2314711897634,0.005118172395042516,-0.00018258223414608212,0.9999868854015349,15.402200709818638,-1.1168433902723318,-668.4223256150746,36.62686429817692,-89.97079467773438,6263.34228515625,True
1598627530.2938774,0,5,0.5,0.5,-0.005045570373535157,-0.14,-0.011,-0.56,-0.0017566670531166543,10,1,100,-0.05020735069041631,-10,-1,-100,502.9998982521938,0.005061366972452431,-0.00018022931150293213,0.9999871749586419,15.52013491411741,-1.1272903518872486,-684.6719357810515,37.094173884945924,-89.96966552734375,6261.763671875,True
1598627530.3357124,0,5,0.5,0.5,-0.006902632904052735,-0.14,-0.011,-0.56,-0.0007751076137486026,10,1,100,-0.025244989290020604,-10,-1,-100,506.06194967392366,0.004782931132618927,-0.0001691748444549094,0.9999885474092453,15.98427298194844,-1.1686030688519409,-751.482079686678,38.96467285350108,-89.96615600585938,6255.447265625,True
1598627530.3776565,0,5,0.5,0.5,-0.005913824462890625,-0.14,-0.011,-0.56,-0.001141694862481898,10,1,100,-0.0343785118467827,-10,-1,-100,507.64238290232606,0.004613228800210869,-0.00016247581099160368,0.999989345804068,16.213202422927697,-1.189033228192739,-785.9685635060497,39.90067288084227,-89.96481323242188,6252.2900390625,True
1598627530.4220343,0,5,0.5,0.5,-0.005793081665039063,-0.14,-0.011,-0.56,-0.0010528695141003939,10,1,100,-0.031531823900179445,-10,-1,-100,509.2781137460843,0.004433716247522683,-0.00015560526211382103,0.9999901589251959,16.44120675223237,-1.2093532236836213,-821.1729610092136,40.83717071515593,-89.96395874023438,6249.1318359375,True
1598627530.4679823,0,5,0.5,0.5,-0.005641769409179688,-0.14,-0.011,-0.56,-0.0008791063397053506,10,1,100,-0.027199530614106182,-10,-1,-100,510.9138747166144,0.004231997027671754,-0.00014781440089550813,0.999991034135837,16.6692286252707,-1.2296067367810422,-857.1003103545705,41.774162235617574,-89.96353149414062,6245.974609375,True
1598627530.5161002,0,5,0.5,0.5,-0.005490936279296876,-0.14,-0.011,-0.56,-0.0007544029011627459,10,1,100,-0.023683130792720164,-10,-1,-100,512.619551710668,0.004017693728126962,-0.00013963986745863853,0.9999919192862582,16.89798865390332,-1.2498168939853687,-893.7464749316699,42.71164577862312,-89.96343994140625,6242.81640625,True
1598627530.5556843,0,5,0.5,0.5,-0.005397869873046875,-0.14,-0.011,-0.56,-0.0005841178625039017,10,1,100,-0.019967330623129508,-10,-1,-100,514.339754698216,0.0037903270914376574,-0.00013070904441482337,0.9999928081419813,17.128272520000095,-1.2700119247965647,-931.106831832111,43.649593927935165,-89.96353149414062,6239.65869140625,True
1598627530.6016567,0,5,0.5,0.5,-0.005273126220703126,-0.14,-0.011,-0.56,-0.0004519217903811031,10,1,100,-0.01622361030996626,-10,-1,-100,516.1152558400063,0.003550988818309583,-0.00012144306787294848,0.9999936878450751,17.36087905466037,-1.2902238040882448,-969.1785579245784,44.58802483814992,-89.96380615234375,6236.5009765625,True
1598627530.6496773,0,5,0.5,0.5,-0.005204235839843751,-0.14,-0.011,-0.56,-0.00033740081143999773,10,1,100,-0.012445724302855152,-10,-1,-100,517.9606418019393,0.0033006144901608506,-0.0001120390433344974,0.9999945466807507,17.596690570747278,-1.3104922998519462,-1007.9649382322816,45.52696156636938,-89.96414184570312,6233.3427734375,True
1598627530.693742,0,5,0.5,0.5,-0.005187295532226564,-0.14,-0.011,-0.56,-0.00014599183039428203,10,1,100,-0.008634584952503604,-10,-1,-100,519.805905947811,0.0030400539118021204,-0.00010181568068295859,0.9999953738421897,17.836519866357126,-1.3308383969156068,-1047.4652468022898,46.466374739548925,-89.96444702148438,6230.185546875,True
1598627530.7368884,0,5,0.5,0.5,-0.0052370025634765624,-0.14,-0.011,-0.56,-1.970223801086397e-05,10,1,100,-0.004917859687725505,-10,-1,-100,521.6659407353727,0.002771281445871874,-9.144705157213145e-05,0.9999961558109034,18.081105877015748,-1.3512959499565882,-1087.6757521702198,47.406264828050055,-89.96463012695312,6227.02734375,True
1598627530.788035,0,5,0.5,0.5,-0.00534508056640625,-0.14,-0.011,-0.56,-0.0010476869231004985,10,1,100,-0.031566097728092074,-10,-1,-100,521.6659407353727,0.002771281445871874,-9.144705157213145e-05,0.9999961558109034,18.081105877015748,-1.3512959499565882,-1087.6757521702198,47.406264828050055,-89.96463012695312,6227.02734375,True
1598627530.8267934,0,5,0.5,0.5,-0.005517657470703125,-0.14,-0.011,-0.56,0.0013292722910850283,10,1,100,0.030040964366266448,-10,-1,-100,525.5661859948887,0.0022130460174565668,-6.990899307306555e-05,0.9999975487670244,18.5878520045591,-1.392684034704092,-1170.242334639167,49.28747351846633,-89.96438598632812,6220.7119140625,True
1598627530.87369,0,5,0.5,0.5,-0.0057659301757812505,-0.14,-0.011,-0.56,0.00045144297951361684,10,1,100,0.0068645777842842,-10,-1,-100,527.565869071288,0.0019184356721722662,-5.839335801358078e-05,0.9999981580956976,18.851462652844766,-1.4136717572846185,-1212.5979372385582,50.22878148511108,-89.96383666992188,6217.55419921875,True
1598627530.9227552,0,5,0.5,0.5,-0.005714794921875,-0.14,-0.011,-0.56,-0.00010496764578901815,10,1,100,-0.007116568089002797,-10,-1,-100,528.5583870185073,0.0017799960303758297,-5.3071251738709706e-05,0.99999841439753,18.985965368381823,-1.4242363723559834,-1234.0318440327949,50.69961004769625,-89.96347045898438,6215.9755859375,True
1598627530.9638348,0,5,0.5,0.5,-0.006641986083984376,-0.14,-0.011,-0.56,0.00125922358373477,10,1,100,0.027211065354590797,-10,-1,-100,531.6902972121025,0.001344301507434851,-3.5917364992389565e-05,0.9999990957812912,19.402954195279005,-1.4563839604639905,-1299.4690955095107,52.11275165698635,-89.96185302734375,6211.23828125,True
1598627531.0076544,0,5,0.5,0.5,-0.006806085205078126,-0.14,-0.011,-0.56,0.0008253889572372865,10,1,100,0.016389922249934987,-10,-1,-100,533.7596831230912,0.0010490199622769161,-2.436116682977224e-05,0.9999994494816746,19.69216673719402,-1.4781873720503307,-1344.0046942480935,53.05537117810384,-89.9603271484375,6208.0810546875,True
1598627531.050734,0,5,0.5,0.5,-0.007194131469726563,-0.14,-0.011,-0.56,0.000909369504503961,10,1,100,0.01844393641991255,-10,-1,-100,535.9399700246286,0.0007644014352509617,-1.3188752504591311e-05,0.9999997077582086,19.990941347142304,-1.500297156299679,-1389.2658079613102,53.99850986167938,-89.95855712890625,6204.9228515625,True
1598627531.0930636,0,5,0.5,0.5,-0.007639968872070314,-0.14,-0.011,-0.56,0.0010773809802167356,10,1,100,0.022193665027105083,-10,-1,-100,538.1491270097904,0.0004741021391465789,-1.6030481710092071e-06,0.9999998876122896,20.300092116466573,-1.522760019449957,-1435.273896490765,54.9421065260226,-89.95651245117188,6201.76513671875,True
1598627531.1380122,0,5,0.5,0.5,-0.008105514526367189,-0.14,-0.011,-0.56,0.00118626211603828,10,1,100,0.024895326718213664,-10,-1,-100,540.3584058296401,0.000188202683997075,9.818842462294484e-06,0.9999999822416697,20.619923650604086,-1.5455873676108438,-1482.0252526489235,55.886155160328386,-89.9542236328125,6198.607421875,True
1598627531.1829886,0,5,0.5,0.5,-0.00858673095703125,-0.14,-0.011,-0.56,0.0012886684597997783,10,1,100,0.027582297937952915,-10,-1,-100,542.6229828514624,-9.354033065664448e-05,2.1031860232997593e-05,0.9999999954039335,20.950861982157967,-1.5688020106336686,-1529.5193970307748,56.830629221021255,-89.95172119140625,6195.44970703125,True
1598627531.2298245,0,5,0.5,0.5,-0.009036721801757814,-0.14,-0.011,-0.56,0.0013800781719290663,10,1,100,0.030255159441639954,-10,-1,-100,544.9020251064794,-0.0003713647014876093,3.195425657862565e-05,0.9999999305335895,21.29331821446444,-1.5924171092561934,-1577.7601062074643,57.77553512760279,-89.9490966796875,6192.29150390625,True
1598627531.2737584,0,5,0.5,0.5,-0.009506689453125002,-0.14,-0.011,-0.56,0.0015491457695728825,10,1,100,0.03278785015749876,-10,-1,-100,547.2364875979256,-0.0006440998213441488,4.330850295491243e-05,0.9999997916298751,21.64770851105049,-1.6164555951379926,-1626.7555418269549,58.72089947142796,-89.94635009765625,6189.1337890625,True
1598627531.3218496,0,5,0.5,0.5,-0.009932412719726565,-0.14,-0.011,-0.56,0.0016018990779919562,10,1,100,0.035091084881430215,-10,-1,-100,549.6553617572645,-0.0009103819315778337,5.400719564986656e-05,0.9999995841438941,22.014401716776874,-1.6409310625561926,-1676.512703475731,59.66670952616704,-89.94357299804688,6185.9765625,True
1598627531.3660355,0,5,0.5,0.5,-0.010364859008789062,-0.14,-0.011,-0.56,0.001679525777596687,10,1,100,0.03727756185241782,-10,-1,-100,552.0596485454589,-0.001169761988250389,6.433679486562837e-05,0.9999993137585984,22.393660944895732,-1.6658679234854634,-1727.036259105251,60.612951539126335,-89.94076538085938,6182.818359375,True
1598627531.4119272,0,5,0.5,0.5,-0.010782901000976562,-0.14,-0.011,-0.56,0.001805615549608074,10,1,100,0.03928958125314312,-10,-1,-100,554.4784005030524,-0.0014211715270332818,7.476687567405686e-05,0.9999989873401898,22.785758856051707,-1.6912772220714536,-1778.3337104669984,61.55962199373368,-89.93795776367188,6179.6611328125,True
1598627531.4563453,0,5,0.5,0.5,-0.011138165283203126,-0.14,-0.011,-0.56,0.0018877748380585133,10,1,100,0.04113902460545355,-10,-1,-100,556.967099433532,-0.0016640247081892172,8.489504790338999e-05,0.9999986119063372,23.190877454367854,-1.7171646816614052,-1830.4102544310135,62.50671595205896,-89.93524169921875,6176.50244140625,True
1598627531.5035167,0,5,0.5,0.5,-0.010563342285156251,-0.14,-0.011,-0.56,0.0014269474444815592,10,1,100,0.030102193996167287,-10,-1,-100,558.2391588856699,-0.0017819990994552232,8.981381342959946e-05,0.9999984082050772,23.39832787847543,-1.7302888977057962,-1856.7400748814787,62.98042042183658,-89.93392944335938,6174.923828125,True
1598627531.5491226,0,5,0.5,0.5,-0.012547219848632813,-0.14,-0.011,-0.56,0.002484987410988756,10,1,100,0.05585719021063637,-10,-1,-100,562.0696185644483,-0.0021210699657061237,0.00010381032490718788,0.9999977451402664,24.040754930257435,-1.7704301145176489,-1936.9319286374573,64.40216582702773,-89.93008422851562,6170.18701171875,True
1598627531.5928545,0,5,0.5,0.5,-0.012196041870117188,-0.14,-0.011,-0.56,0.0021411046527731394,10,1,100,0.04621395424367779,-10,-1,-100,564.6980878346367,-0.002339291178866544,0.00011331238901841883,0.9999972574347807,24.48560150473372,-1.7978137404771513,-1991.385507737841,65.3505148209171,-89.92755126953125,6167.02880859375,True
1598627531.6362293,0,5,0.5,0.5,-0.012494546508789063,-0.14,-0.011,-0.56,0.002139534266222559,10,1,100,0.04641115213317833,-10,-1,-100,567.3264346888755,-0.0025371690863143274,0.00012184226783584521,0.9999967739585408,24.943738151339904,-1.825699588701797,-2046.6341208477438,66.29927431363943,-89.92514038085938,6163.87109375,True
1598627531.682205,0,5,0.5,0.5,-0.012711773681640627,-0.14,-0.011,-0.56,0.0022254881347280216,10,1,100,0.04805359327173813,-10,-1,-100,570.0246670091292,-0.0027297678954758945,0.00013028645610391627,0.9999962656893656,25.415407402680675,-1.8541161828183315,-2102.711679945274,67.24844136623905,-89.92294311523438,6160.7138671875,True
1598627531.7306917,0,5,0.5,0.5,-0.012962710571289063,-0.14,-0.011,-0.56,0.002254597939661904,10,1,100,0.04868761875384539,-10,-1,-100,572.7230209872359,-0.0029084775871019413,0.00013813823257472044,0.9999957608289918,25.900373414519,-1.883056456050398,-2159.617654862951,68.19801133844885,-89.92086791992188,6157.5556640625,True
1598627531.7676952,0,5,0.5,0.5,-0.013195819091796877,-0.14,-0.011,-0.56,0.0022737834663268184,10,1,100,0.04923444183831405,-10,-1,-100,575.4911385842133,-0.0030738535368337373,0.00014536441621820545,0.9999952651356008,26.398447512777125,-1.9125191247440232,-2217.355721816611,69.14796391667727,-89.91891479492188,6154.39794921875,True
1598627531.8137438,0,5,0.5,0.5,-0.013432293701171877,-0.14,-0.011,-0.56,0.002332205186555614,10,1,100,0.049752936497313056,-10,-1,-100,578.2592555019073,-0.0032269421047578556,0.0001523817286047551,0.9999947817986159,26.90940636445272,-1.9424918253456847,-2275.9294888543677,70.0983033539992,-89.91705322265625,6151.240234375,True
1598627531.860664,0,5,0.5,0.5,-0.013697634887695313,-0.14,-0.011,-0.56,0.0023812698845441646,10,1,100,0.05003198064399253,-10,-1,-100,581.097257716232,-0.0033667801313709517,0.0001591271053617515,0.9999943197189228,27.433041225766146,-1.972975616273286,-2335.3468313299836,71.0490272776037,-89.91522216796875,6148.08203125,True
1598627531.9052908,0,5,0.5,0.5,-0.013936267089843751,-0.14,-0.011,-0.56,0.002371109063951872,10,1,100,0.050170263801533964,-10,-1,-100,583.9907410240266,-0.0034933939946292904,0.00016509020383573858,0.9999938844531114,27.969096444171225,-2.003958282696986,-2395.6139108043803,72.00012954913987,-89.9134521484375,6144.9248046875,True
1598627531.9497297,0,5,0.5,0.5,-0.014208038330078126,-0.14,-0.011,-0.56,0.0024002702062774764,10,1,100,0.050155522022832626,-10,-1,-100,586.8985062275315,-0.0036067004275246407,0.000170703399055112,0.9999934812649409,28.517267605705786,-2.0354396305573506,-2456.738671519323,72.95163980501553,-89.91168212890625,6141.76708984375,True
1598627531.9957528,0,5,0.5,0.5,-0.014480313110351565,-0.14,-0.011,-0.56,0.0024001453695975195,10,1,100,0.050013648080202644,-10,-1,-100,589.8208585194079,-0.003706757693107351,0.00017573163293415595,0.9999931145091938,29.07723786466793,-2.067408486566704,-2518.731260007805,73.90354767512513,-89.909912109375,6138.60888671875,True
1598627532.0428154,0,5,0.5,0.5,-0.014793029785156252,-0.14,-0.011,-0.56,0.0023969677035056555,10,1,100,0.04966545708399291,-10,-1,-100,592.7985696221003,-0.003793111936646634,0.00018020848376151807,0.9999927898873764,29.648591959910558,-2.0998488689641537,-2581.5910339464795,74.85583123213576,-89.9080810546875,6135.451171875,True
1598627532.0907164,0,5,0.5,0.5,-0.015113519287109377,-0.14,-0.011,-0.56,0.002415264209361086,10,1,100,0.049239876089160875,-10,-1,-100,595.8460436825408,-0.0038664252210404365,0.00018438386538985747,0.9999925083512377,30.230888545752403,-2.1327544236633935,-2645.3224178093956,75.80848790231843,-89.90618896484375,6132.29345703125,True
1598627532.127715,0,5,0.5,0.5,-0.015441983032226565,-0.14,-0.011,-0.56,0.002400983977104742,10,1,100,0.04863081822915523,-10,-1,-100,598.8937005504267,-0.003926328357094091,0.00018799299057915014,0.9999922742722905,30.823743465204494,-2.166111221650379,-2709.9340823877774,76.76150183407266,-89.90423583984375,6129.1357421875,True
1598627532.1718183,0,5,0.5,0.5,-0.015821447753906252,-0.14,-0.011,-0.56,0.0024002154384446016,10,1,100,0.04793027506969356,-10,-1,-100,602.0111206577858,-0.003973329397091745,0.00019121456627752836,0.999992088013946,31.42660500260901,-2.1998921084075964,-2775.42522365344,77.71486902151776,-89.90216064453125,6125.9775390625,True
1598627532.2207005,0,5,0.5,0.5,-0.01623936462402344,-0.14,-0.011,-0.56,0.002382838972422753,10,1,100,0.047075474344998924,-10,-1,-100,605.1285401296336,-0.004007318652492398,0.0001939370523724892,0.9999919518604324,32.038975819936674,-2.234081561036407,-2841.8011192170825,78.66861502119741,-89.89993286132812,6122.81982421875,True
1598627532.2606702,0,5,0.5,0.5,-0.016636221313476564,-0.14,-0.011,-0.56,0.0023518277794080146,10,1,100,0.04616536105390974,-10,-1,-100,608.3159061553888,-0.004029095613741582,0.00019608596285308844,0.9999918639363173,32.6603422756073,-2.268670389298903,-2909.0641577709903,79.62271578244078,-89.89761352539062,6119.662109375,True
1598627532.3077836,0,5,0.5,0.5,-0.01535877685546875,-0.14,-0.011,-0.56,0.0021413071547729235,10,1,100,0.044067880279889726,-10,-1,-100,608.3159061553888,-0.004029095613741582,0.00019608596285308844,0.9999918639363173,32.6603422756073,-2.268670389298903,-2909.0641577709903,79.62271578244078,-89.89761352539062,6119.662109375,True
1598627532.3517556,0,5,0.5,0.5,-0.01892428894042969,-0.14,-0.011,-0.56,0.0024624947628772245,10,1,100,0.044880327863132764,-10,-1,-100,614.7750488288002,-0.004035879395878,0.00019897225123813542,0.9999918360104473,33.92774343643094,-2.338940746303383,-3046.2590785443444,81.53197136429911,-89.89254760742188,6113.3466796875,True
1598627532.4007032,0,5,0.5,0.5,-0.018161151123046875,-0.14,-0.011,-0.56,0.00230588312700625,10,1,100,0.04279780548295469,-10,-1,-100,618.1020015942631,-0.004022621280362898,0.0002001416057644398,0.9999918891977936,34.57259418431999,-2.374581416100661,-3116.1895241672823,82.48711521185746,-89.88961791992188,6110.1884765625,True
1598627532.443852,0,5,0.5,0.5,-0.01865966491699219,-0.14,-0.011,-0.56,0.002205381046296609,10,1,100,0.041386976918356314,-10,-1,-100,621.3736559310928,-0.003997364623986604,0.0002002642380485295,0.9999919904530726,35.2240598974355,-2.410533064245967,-3187.006932857568,83.4425954790266,-89.8865966796875,6107.03076171875,True
1598627532.4950185,0,5,0.5,0.5,-0.01906556091308594,-0.14,-0.011,-0.56,0.0022123564531043643,10,1,100,0.04009570870686063,-10,-1,-100,624.7706154703628,-0.003962401037239213,0.0002004168323640321,0.9999921295745849,35.88154805707486,-2.4467647732784434,-3258.7117075078804,84.39841020140162,-89.88363647460938,6103.873046875,True
1598627532.5377753,0,5,0.5,0.5,-0.01950687866210938,-0.14,-0.011,-0.56,0.002153176692735806,10,1,100,0.03863432787189593,-10,-1,-100,628.167452649097,-0.003917176778877731,0.00019999918542149984,0.9999923078336198,36.54446337799942,-2.4832598353258484,-3331.3060320582113,85.35455660232567,-89.88067626953125,6100.71484375,True
1598627532.588718,0,5,0.5,0.5,-0.01999209594726563,-0.14,-0.011,-0.56,0.002101829963247305,10,1,100,0.03718077284182448,-10,-1,-100,631.63423638721,-0.0038628035423140636,0.00019913852218745538,0.9999925195183423,37.212099081394044,-2.519978964906286,-3404.7788645742257,86.31102938402118,-89.87765502929688,6097.5576171875,True
1598627532.6276662,0,5,0.5,0.5,-0.01937619323730469,-0.14,-0.011,-0.56,0.0021220190088898023,10,1,100,0.03925002401157232,-10,-1,-100,633.3544750990113,-0.0038322424513582373,0.00019852950554270283,0.9999926372248095,37.54748295068021,-2.538415562820167,-3441.8433525913933,86.78938677580236,-89.87615966796875,6095.978515625,True
1598627532.6696923,0,5,0.5,0.5,-0.021771737670898437,-0.14,-0.011,-0.56,0.001953531328497444,10,1,100,0.030811580379586492,-10,-1,-100,638.5967943479773,-0.003727874778331009,0.00019643749791730164,0.9999930321566979,38.55913658813151,-2.5940080995028993,-3554.358770060243,88.22492739544549,-89.87158203125,6091.24169921875,True
1598627532.7136939,0,5,0.5,0.5,-0.021503851318359378,-0.14,-0.011,-0.56,0.00196791880343133,10,1,100,0.032373952193785756,-10,-1,-100,642.1478057802888,-0.0036474524955936688,0.0001946641948976588,0.9999933290758211,39.2372805166355,-2.631258896372235,-3630.4564202610454,89.18235287346238,-89.86834716796875,6088.083984375,True
1598627532.7587974,0,5,0.5,0.5,-0.02194620056152344,-0.14,-0.011,-0.56,0.0018783401412977218,10,1,100,0.031062167403308465,-10,-1,-100,645.7543593418086,-0.003562762961480973,0.00019223904228581924,0.999993634861858,39.917742849211464,-2.6686401535502187,-3707.4249617637056,90.14008764832379,-89.86517333984375,6084.92578125,True
1598627532.800693,0,5,0.5,0.5,-0.022362133789062502,-0.14,-0.011,-0.56,0.001869255755862558,10,1,100,0.029280278501019833,-10,-1,-100,649.3753777638776,-0.0034699974246779537,0.00018995526997161568,0.9999939614992024,40.59972551256585,-2.7061141274485654,-3785.2400954530594,91.09812750398936,-89.86209106445312,6081.7685546875,True
1598627532.843743,0,5,0.5,0.5,-0.022784429931640628,-0.14,-0.011,-0.56,0.001793494211675874,10,1,100,0.02777075761745697,-10,-1,-100,653.0518160175998,-0.003372456639525728,0.0001871985692672485,0.9999942957301857,41.28270490270758,-2.743647686866884,-3863.8945713935796,92.05646802695172,-89.85906982421875,6078.6103515625,True
1598627532.8876207,0,5,0.5,0.5,-0.023176919555664064,-0.14,-0.011,-0.56,0.00173635496360309,10,1,100,0.026161387250721736,-10,-1,-100,656.8124828735599,-0.003269743617545055,0.00018418479640488686,0.9999946374119396,41.96618647635459,-2.7812338797996827,-3943.3895648682665,93.01510449454818,-89.85614013671875,6075.453125,True
1598627532.931632,0,5,0.5,0.5,-0.02259518737792969,-0.14,-0.011,-0.56,0.0018879764694372434,10,1,100,0.03057006885784898,-10,-1,-100,658.6579045143444,-0.0032171085403605464,0.00018283799789363552,0.9999948083779765,42.307882309595605,-2.8000259094096336,-3983.4434860548754,93.49453203532414,-89.85467529296875,6073.87353515625,True
1598627532.9776363,0,5,0.5,0.5,-0.02481881713867188,-0.14,-0.011,-0.56,0.0014842661526197174,10,1,100,0.0177557661176973,-10,-1,-100,664.31941190816,-0.0030534423475522313,0.00017795952258003897,0.9999953223991792,43.33236413927753,-2.8564180256743947,-4104.846253931063,94.93325404990063,-89.85037231445312,6069.13671875,True
1598627533.020717,0,5,0.5,0.5,-0.024535989379882814,-0.14,-0.011,-0.56,0.0015847081841468386,10,1,100,0.021362064237209342,-10,-1,-100,668.1499639351387,-0.0029382246410232593,0.0001744576904568718,0.9999956681908543,44.01411258344141,-2.8939743309399586,-4186.792192382862,95.89275968476356,-89.84738159179688,6065.97900390625,True
1598627533.064352,0,5,0.5,0.5,-0.023941238403320318,-0.14,-0.011,-0.56,0.0016945322480533672,10,1,100,0.026634852871462028,-10,-1,-100,670.0652705488028,-0.0028822562398549373,0.00017229504440926155,0.9999958314480042,44.35446786184638,-2.9127372268558305,-4228.069787093658,96.37261825413933,-89.84588623046875,6064.400390625,True
1598627533.1127155,0,5,0.5,0.5,-0.026170584106445315,-0.14,-0.011,-0.56,0.0013309623706247128,10,1,100,0.013010059914190651,-10,-1,-100,675.9364946418209,-0.0027083777448280895,0.00016704767135402213,0.9999963183857563,45.37245168143068,-2.968907320640142,-4353.071645393294,97.81261172771516,-89.841552734375,6059.6630859375,True
1598627533.1580606,0,5,0.5,0.5,-0.025870364379882813,-0.14,-0.011,-0.56,0.0014093678021782146,10,1,100,0.017129168557114414,-10,-1,-100,679.8513967907056,-0.002588679643406174,0.0001630168268875302,0.9999966360759511,46.048103491771556,-3.0062150713535885,-4437.361624335834,98.77294943948101,-89.83856201171875,6056.505859375,True
1598627533.208834,0,5,0.5,0.5,-0.026321829223632815,-0.14,-0.011,-0.56,0.001363829413438107,10,1,100,0.016389507789560165,-10,-1,-100,683.821718879859,-0.002474101519546837,0.00015896720780945485,0.9999969267708265,46.71998968853918,-3.0433355194109253,-4522.319580389709,99.73355895780506,-89.8355712890625,6053.34765625,True
1598627533.2481422,0,5,0.5,0.5,-0.026751730346679693,-0.14,-0.011,-0.56,0.001343343010670462,10,1,100,0.014841803034517731,-10,-1,-100,687.8619260548148,-0.002356859237757903,0.00015512974301738628,0.9999972105707577,47.384206275550774,-3.080015114163092,-4607.580321980979,100.69443901038434,-89.83261108398438,6050.1904296875,True
1598627533.299677,0,5,0.5,0.5,-0.027219949340820317,-0.14,-0.011,-0.56,0.0012486580887744471,10,1,100,0.01380097629115384,-10,-1,-100,691.9021336126607,-0.0022418252277254915,0.0001508120262136822,0.9999974757345047,48.04036202751196,-3.1162239194026102,-4693.103996433242,101.65558874202485,-89.82962036132812,6047.03173828125,True
1598627533.339665,0,5,0.5,0.5,-0.027713769531250005,-0.14,-0.011,-0.56,0.0012989139349403604,10,1,100,0.012807896303263604,-10,-1,-100,696.0120429317467,-0.0021292487018168427,0.00014737677912369002,0.9999977222874313,48.68816473267255,-3.1519298604316384,-4778.866014147411,102.61700795801373,-89.82656860351562,6043.8740234375,True
1598627533.3853416,0,5,0.5,0.5,-0.02821626892089844,-0.14,-0.011,-0.56,0.0011441226365575964,10,1,100,0.01180519209635667,-10,-1,-100,700.1221965720179,-0.002018827726305943,0.00014288009543592765,0.9999979519578477,49.327384257584036,-3.187154128208252,-4864.839819472831,103.57869656950002,-89.82345581054688,6040.71630859375,True
1598627533.42933,0,5,0.5,0.5,-0.028729125976562502,-0.14,-0.011,-0.56,0.001158248738645242,10,1,100,0.01091563266548499,-10,-1,-100,704.3021128713153,-0.0019114474635736137,0.00013895694565008382,0.9999981635280943,49.95778155427399,-3.2218508148028904,-4950.994268632142,104.54065472359751,-89.82028198242188,6037.55859375,True
1598627533.474725,0,5,0.5,0.5,-0.02809572143554688,-0.14,-0.011,-0.56,0.001359579460230945,10,1,100,0.01578156498477229,-10,-1,-100,706.4126099159475,-0.0018591029684322704,0.00013725618202003215,0.9999982624469371,50.26963446885746,-3.2389957803810634,-4994.132177491324,105.02173492605961,-89.81869506835938,6035.9794921875,True
1598627533.5195925,0,5,0.5,0.5,-0.03065657348632813,-0.14,-0.011,-0.56,0.0008757111927644579,10,1,100,0.004327038474511085,-10,-1,-100,712.7871905333595,-0.0017083660242764847,0.0001313450503870506,0.999998532115925,51.19170654599947,-3.2896161115313793,-5123.750063072141,106.46537313984778,-89.81381225585938,6031.2431640625,True
1598627533.565042,0,5,0.5,0.5,-0.030371420288085937,-0.14,-0.011,-0.56,0.0010709146706638327,10,1,100,0.008533162075526297,-10,-1,-100,717.0513355510775,-0.0016106370988855255,0.00012778309869617278,0.9999986947589558,51.7950395347002,-3.32267835140717,-5210.292784937502,107.42814260755256,-89.81036376953125,6028.0849609375,True
1598627533.6114001,0,5,0.5,0.5,-0.030931240844726562,-0.14,-0.011,-0.56,0.0010325917447422408,10,1,100,0.008460799513844201,-10,-1,-100,721.3710835410748,-0.0015221327258293095,0.00012423226562577653,0.9999988338384748,52.38937371546038,-3.3551788777157525,-5296.9268756876245,108.39118435799622,-89.80685424804688,6024.92724609375,True
1598627533.658855,0,5,0.5,0.5,-0.031436090087890625,-0.14,-0.011,-0.56,0.0010005809581905747,10,1,100,0.007768180353921576,-10,-1,-100,725.7605945940595,-0.0014363472551585227,0.00012074848710336638,0.9999989611626431,52.97445422119846,-3.3871102507892856,-5383.592475484695,109.35449885994012,-89.80337524414062,6021.76953125,True
1598627533.7026844,0,5,0.5,0.5,-0.031937203979492186,-0.14,-0.011,-0.56,0.0009738000699695556,10,1,100,0.007525047620686384,-10,-1,-100,730.150105725741,-0.001357093579032386,0.00011737269739071706,0.9999990722599034,53.550489321821765,-3.418448338080488,-5470.268501407459,110.31808758889028,-89.7999267578125,6018.611328125,True
1598627533.74688,0,5,0.5,0.5,-0.03247730712890625,-0.14,-0.011,-0.56,0.0009551135702583976,10,1,100,0.007339278751985088,-10,-1,-100,734.6093799076043,-0.0012842648525283641,0.00011416824496877685,0.9999991688143547,54.11774828916325,-3.449216005440577,-5556.938783605018,111.28195217568175,-89.79644775390625,6015.4541015625,True
1598627533.7918131,0,5,0.5,0.5,-0.033022219848632815,-0.14,-0.011,-0.56,0.0009685664452839685,10,1,100,0.007225020416814993,-10,-1,-100,739.0832418610808,-0.001217888716636977,0.00011141071779564995,0.9999992521670834,54.67642192650838,-3.479406771287295,-5643.58074681637,112.24609415460446,-89.79293823242188,6012.2958984375,True
1598627533.8376064,0,5,0.5,0.5,-0.033571908569335944,-0.14,-0.011,-0.56,0.0009468344102973036,10,1,100,0.0071414735879138935,-10,-1,-100,743.6126454721671,-0.001157615767368597,0.00010873900737595403,0.9999993240505533,55.22673248860571,-3.50904118511358,-5730.166577975669,113.21051579195098,-89.78939819335938,6009.13818359375,True
1598627533.883769,0,5,0.5,0.5,-0.03162695007324219,-0.14,-0.011,-0.56,0.0012105913434608982,10,1,100,0.013082647318858174,-10,-1,-100,743.6126454721671,-0.001157615767368597,0.00010873900737595403,0.9999993240505533,55.22673248860571,-3.50904118511358,-5730.166577975669,113.21051579195098,-89.78939819335938,6009.13818359375,True
1598627533.9270563,0,5,0.5,0.5,-0.03665970153808594,-0.14,-0.011,-0.56,0.0007045818465313049,10,1,100,0.0021170511980881258,-10,-1,-100,752.7554370275466,-0.0010586138314490556,0.00010416639189320694,0.9999994342428993,56.30358605493595,-3.5666028403987937,-5903.091204198777,115.14019898009595,-89.78225708007812,6002.822265625,True
1598627533.9739342,0,5,0.5,0.5,-0.035456497192382815,-0.14,-0.011,-0.56,0.0009326600470261895,10,1,100,0.007354122541838599,-10,-1,-100,757.3689468684606,-0.001016949528408098,0.00010211298854077837,0.9999994776931608,56.83093172141246,-3.594569778352357,-5989.396150296465,116.10547000515977,-89.7783203125,5999.6650390625,True
1598627534.0179894,0,5,0.5,0.5,-0.036068048095703124,-0.14,-0.011,-0.56,0.0009218980986586858,10,1,100,0.008149934353494283,-10,-1,-100,762.0380596306641,-0.0009869361025639776,0.00010017499692781716,0.9999995079609287,57.35147340538453,-3.6220032693081468,-6075.5847094181945,117.0710290171231,-89.77435302734375,5996.5068359375,True
1598627534.0632358,0,5,0.5,0.5,-0.03649218139648437,-0.14,-0.011,-0.56,0.0009481147059237827,10,1,100,0.008274169917794751,-10,-1,-100,766.7769357225625,-0.0009613475851050739,9.867661743823363e-05,0.9999995330367638,57.86540068221568,-3.648913019238829,-6161.60927540657,118.03687757278435,-89.7706298828125,5993.349609375,True
1598627534.1059403,0,5,0.5,0.5,-0.03696781921386719,-0.14,-0.011,-0.56,0.0009449119077682819,10,1,100,0.00880682354281384,-10,-1,-100,771.5300940728048,-0.0009434374068614478,9.730857032645999e-05,0.9999995502283495,58.37331394460713,-3.6753094932632333,-6247.458529266875,119.00301894689701,-89.76702880859375,5990.19140625,True
1598627534.1496875,0,5,0.5,0.5,-0.03749058837890625,-0.14,-0.011,-0.56,0.000989086814351397,10,1,100,0.009426351344561976,-10,-1,-100,776.2834960959153,-0.0009332355974270409,9.648779020903674e-05,0.9999995598806162,58.87568626327977,-3.7012040905555175,-6333.115076458588,119.96945311287779,-89.76345825195312,5987.033203125,True
1598627534.1995494,0,5,0.5,0.5,-0.038030581665039066,-0.14,-0.011,-0.56,0.0009759481769435413,10,1,100,0.010093944489598357,-10,-1,-100,781.1620203749044,-0.0009304155792430066,9.564117058692753e-05,0.9999995625897125,59.37318239734608,-3.7266316759273588,-6418.579132445782,120.93618578596443,-89.7598876953125,5983.87548828125,True
1598627534.2367008,0,5,0.5,0.5,-0.03859203796386719,-0.14,-0.011,-0.56,0.0010025244716466162,10,1,100,0.010772102444647701,-10,-1,-100,785.9852469015168,-0.0009343386798245925,9.512996185902153e-05,0.9999995589806636,59.866297569718874,-3.751603340512016,-6503.832526342118,121.90322175924486,-89.75628662109375,5980.7177734375,True
1598627534.281006,0,5,0.5,0.5,-0.03922195434570313,-0.14,-0.011,-0.56,0.001025700294436441,10,1,100,0.011565923882140063,-10,-1,-100,790.9336559640942,-0.0009453794661821579,9.489071663713868e-05,0.9999995486266066,60.35559630138468,-3.7761460069715262,-6588.863217405499,122.8705611300604,-89.7525634765625,5977.56005859375,True
1598627534.324928,0,5,0.5,0.5,-0.03980507507324219,-0.14,-0.011,-0.56,0.001073947388313319,10,1,100,0.012400153934283531,-10,-1,-100,795.8267065956024,-0.0009631933963459637,9.51244202804339e-05,0.9999995316048031,60.84170823377103,-3.800268598791658,-6673.66896902929,123.83820716747768,-89.74880981445312,5974.40185546875,True
1598627534.3690226,0,5,0.5,0.5,-0.04041795959472657,-0.14,-0.011,-0.56,0.001051947253931451,10,1,100,0.01327761828691921,-10,-1,-100,800.8449400637764,-0.000987541574583405,9.514925381368123e-05,0.9999995078540079,61.325221884961174,-3.824014572241457,-6758.242313761665,124.80616049531874,-89.7449951171875,5971.244140625,True
1598627534.4114826,0,5,0.5,0.5,-0.041014367675781246,-0.14,-0.011,-0.56,0.0011205957560024805,10,1,100,0.01421135953784101,-10,-1,-100,805.8777611368569,-0.0010182294500411548,9.580410444280592e-05,0.9999994770150435,61.80664555230549,-3.847391618439922,-6842.567099265156,125.77442728055344,-89.74114990234375,5968.0859375,True
1598627534.4607508,0,5,0.5,0.5,-0.03890193481445313,-0.14,-0.011,-0.56,0.001054479804680215,10,1,100,0.011142699984229329,-10,-1,-100,805.8777611368569,-0.0010182294500411548,9.580410444280592e-05,0.9999994770150435,61.80664555230549,-3.847391618439922,-6842.567099265156,125.77442728055344,-89.74114990234375,5968.0859375,True
1598627534.4986846,0,5,0.5,0.5,-0.04306138305664063,-0.14,-0.011,-0.56,0.001170423858698884,10,1,100,0.017438810436511812,-10,-1,-100,813.4546106280759,-0.0010754383692914708,9.686211483614383e-05,0.9999994170248524,62.52628766144827,-3.88184809736421,-6968.592986214885,127.22742313850999,-89.73526000976562,5963.349609375,True
1598627534.545811,0,5,0.5,0.5,-0.04407441101074219,-0.14,-0.011,-0.56,0.0012927214821710576,10,1,100,0.01956150879941712,-10,-1,-100,821.1711083052214,-0.0011466400166507279,9.893738859129086e-05,0.9999993377138133,63.24477667857753,-3.9156499637895132,-7094.0630152980575,128.68114136296754,-89.72915649414062,5958.61279296875,True
1598627534.590728,0,5,0.5,0.5,-0.043710186767578124,-0.14,-0.011,-0.56,0.0012274349360821412,10,1,100,0.01825982280098885,-10,-1,-100,826.3436993072974,-0.0011993505482554415,0.00010022900629673908,0.999999275755942,63.72397733603046,-3.9378544520035117,-7177.382247630371,129.65069349658154,-89.724853515625,5955.455078125,True
1598627534.6337585,0,5,0.5,0.5,-0.04424825744628907,-0.14,-0.011,-0.56,0.0013042391912532897,10,1,100,0.01936485129057993,-10,-1,-100,831.5306947762147,-0.0012570730042098016,0.00010209802360680454,0.9999992046714116,64.20421599771292,-3.959844920968775,-7260.452217274406,130.62057431285496,-89.720703125,5952.296875,True
1598627534.6818378,0,5,0.5,0.5,-0.044765603637695314,-0.14,-0.011,-0.56,0.0013682181339074433,10,1,100,0.0205292279662839,-10,-1,-100,836.773110170383,-0.0013198362453792861,0.00010437288713733828,0.9999991235689089,64.68601328976877,-3.9816412007874904,-7343.288472852827,131.59078725945884,-89.71670532226562,5949.1396484375,True
1598627534.7220902,0,5,0.5,0.5,-0.045347473144531254,-0.14,-0.011,-0.56,0.0013439677934970365,10,1,100,0.02157635902423218,-10,-1,-100,842.0708838645369,-0.0013860626582732976,0.00010621208459293042,0.9999990337741835,65.16986752503752,-4.003263882152202,-7425.888965763273,132.56133490029927,-89.71273803710938,5945.9814453125,True
1598627534.7656198,0,5,0.5,0.5,-0.04596806335449219,-0.14,-0.011,-0.56,0.0014101823175437424,10,1,100,0.022693499250806846,-10,-1,-100,847.3974665738642,-0.001456023687334813,0.0001084757403457517,0.9999989341134498,65.65617709684318,-4.024735730313521,-7508.249597917173,133.53221930102802,-89.708740234375,5942.82421875,True
1598627534.806888,0,5,0.5,0.5,-0.04520464477539063,-0.14,-0.011,-0.56,0.0013360786765684144,10,1,100,0.019716283254822567,-10,-1,-100,850.081509859534,-0.0014921109953445256,0.00010984780218484505,0.9999988807684926,65.90037632617245,-4.035424914096357,-7549.3374267861855,134.01778906163457,-89.70669555664062,5941.24462890625,True
1598627534.84889,0,5,0.5,0.5,-0.04841694030761719,-0.14,-0.011,-0.56,0.0016228681658452529,10,1,100,0.02862019255504184,-10,-1,-100,858.2171966395108,-0.001605403569518293,0.00011368894598801829,0.9999987048762624,66.63817082017731,-4.067342428286493,-7672.283630567955,135.47501535566954,-89.70053100585938,5936.5078125,True
1598627534.892747,0,5,0.5,0.5,-0.048042919921875,-0.14,-0.011,-0.56,0.0015612477985221945,10,1,100,0.02621542945464027,-10,-1,-100,863.6692059891066,-0.001686001541382179,0.00011660445079565234,0.9999985719000827,67.13473487641198,-4.08853663689548,-7753.965760886806,136.44693241979095,-89.69619750976562,5933.35009765625,True
1598627534.9337559,0,5,0.5,0.5,-0.04874178161621094,-0.14,-0.011,-0.56,0.0015945431916628444,10,1,100,0.026947238792404626,-10,-1,-100,869.1210935685085,-0.001765318171518714,0.0001195386856980957,0.999998434679903,67.63555292426261,-4.109691177425232,-7835.429866004899,137.41919906617292,-89.69180297851562,5930.1923828125,True
1598627534.9786947,0,5,0.5,0.5,-0.04931936950683594,-0.14,-0.011,-0.56,0.0016650843993697888,10,1,100,0.02826680082649668,-10,-1,-100,874.657514755032,-0.0018487930539507398,0.00012282684061505102,0.9999982834374322,68.14123479682844,-4.130823250302406,-7916.71063951767,138.39181819588651,-89.68753051757812,5927.03466796875,True
1598627535.0211186,0,5,0.5,0.5,-0.04998466491699219,-0.14,-0.011,-0.56,0.0016794255834760622,10,1,100,0.029192611142822743,-10,-1,-100,880.2345853052102,-0.0019324574471852728,0.00012592472907504583,0.9999981248738307,68.65204853544324,-4.151979167412282,-7997.819072366037,139.36479326632144,-89.6832275390625,5923.876953125,True
1598627535.070652,0,5,0.5,0.5,-0.05061150817871095,-0.14,-0.011,-0.56,0.0017482394815173472,10,1,100,0.030190195675070336,-10,-1,-100,885.8407694965135,-0.0020169184759653448,0.00012934321245470888,0.9999979576530119,69.16824831959097,-4.173159010096828,-8078.75782510752,140.33812636588377,-89.678955078125,5920.71875,True
1598627535.1088035,0,5,0.5,0.5,-0.05125557556152344,-0.14,-0.011,-0.56,0.0017761225612129184,10,1,100,0.031169522657430636,-10,-1,-100,891.4878471842967,-0.0021019134333579987,0.00013267963880722784,0.9999977821755565,69.69011242891435,-4.194403170404282,-8159.53900733541,141.31182020497056,-89.6746826171875,5917.56103515625,True
1598627535.1577342,0,5,0.5,0.5,-0.05042594604492188,-0.14,-0.011,-0.56,0.0016347599695417069,10,1,100,0.027421419365549062,-10,-1,-100,894.3260040155146,-0.0021443969308905983,0.0001344019057928069,0.9999976917463012,69.95323055091562,-4.205047919374831,-8199.872722404773,141.79880330552461,-89.67251586914062,5915.98193359375,True
1598627535.2001133,0,5,0.5,0.5,-0.05387106933593751,-0.14,-0.011,-0.56,0.002059099025377073,10,1,100,0.03721861176527324,-10,-1,-100,902.8955278834328,-0.0022713942829426202,0.00013979960372256401,0.9999974106086885,70.75186721744082,-4.237120547672492,-8320.686850433412,143.26029999665207,-89.66592407226562,5911.2451171875,True
1598627535.2411282,0,5,0.5,0.5,-0.05340974426269532,-0.14,-0.011,-0.56,0.0019427347401863586,10,1,100,0.034061187873028934,-10,-1,-100,908.6414215475088,-0.0023574013216098666,0.00014362026846299417,0.9999972110122245,71.29219576332459,-4.258636166811756,-8401.083224459577,144.23509058681498,-89.661376953125,5908.087890625,True
1598627535.2869492,0,5,0.5,0.5,-0.0543311767578125,-0.14,-0.011,-0.56,0.001968337911788645,10,1,100,0.03474085250585216,-10,-1,-100,914.4427957430016,-0.0024409816804000606,0.0001472956539086077,0.9999970099517429,71.83874929425463,-4.280244064085129,-8481.33642470075,145.21025141913012,-89.656494140625,5904.9296875,True
1598627535.3336487,0,5,0.5,0.5,-0.05502048645019532,-0.14,-0.011,-0.56,0.0019937024642199476,10,1,100,0.035621999024520554,-10,-1,-100,920.2586353422375,-0.0025242146311873297,0.00015083694869224946,0.9999968027892442,72.39212039858815,-4.302015667358893,-8561.50724478971,146.18578465299362,-89.65167236328125,5901.77197265625,True
1598627535.37599,0,5,0.5,0.5,-0.05572315063476563,-0.14,-0.011,-0.56,0.0020722756328627884,10,1,100,0.036312428499386075,-10,-1,-100,926.1295895334333,-0.002605395569774711,0.00015473948866695272,0.9999965939790074,72.9523563084986,-4.32394944387043,-8641.613121734414,147.16169223010445,-89.64688110351562,5898.6142578125,True
1598627535.4210908,0,5,0.5,0.5,-0.056379254150390634,-0.14,-0.011,-0.56,0.002093508866677802,10,1,100,0.036950161042734436,-10,-1,-100,932.0706730678212,-0.0026842302848861734,0.00015844828094866594,0.9999963848944254,73.51969558172229,-4.346074636757338,-8721.680472801336,148.13797590508906,-89.64218139648438,5895.4560546875,True
1598627535.4647052,0,5,0.5,0.5,-0.05706573486328125,-0.14,-0.011,-0.56,0.002134579017336102,10,1,100,0.03758138096192914,-10,-1,-100,938.0261002529878,-0.002760877082224786,0.00016216089217408649,0.999996175623478,74.09407560214913,-4.368406947849844,-8801.718248943458,149.11463768615093,-89.63751220703125,5892.29833984375,True
1598627535.5089045,0,5,0.5,0.5,-0.05608208618164063,-0.14,-0.011,-0.56,0.0019567953765264145,10,1,100,0.03407722663529453,-10,-1,-100,941.0039050707128,-0.0027979469317131744,0.0001638868364051998,0.9999960723093226,74.38387875776718,-4.379640495971961,-8841.731332167248,149.60311098259388,-89.63525390625,5890.7197265625,True
1598627535.5590925,0,5,0.5,0.5,-0.05962930297851564,-0.14,-0.011,-0.56,0.002385877502616692,10,1,100,0.042271046204444405,-10,-1,-100,950.0479151224717,-0.0029054260378260283,0.00016932521992162305,0.9999957649052863,75.26389501798306,-4.413676100964802,-8961.793479519534,151.0691012436565,-89.62844848632812,5885.98291015625,True
1598627535.60411,0,5,0.5,0.5,-0.059116195678710945,-0.14,-0.011,-0.56,0.0022557162491832674,10,1,100,0.039242813108697365,-10,-1,-100,956.1430511866929,-0.0029748744583268606,0.0001730526066497818,0.9999955600775198,75.85912560082055,-4.436636920438747,-9041.850346623656,152.0469059184477,-89.62380981445312,5882.8251953125,True
