Timestamp,Input Throttle,horizon,dT,dt,Input Roll,Roll P,Roll I,Roll D,Input Pitch,Pitch P,Pitch I,Pitch D,Input Yaw,Yaw P,Yaw I,Yaw D,Altitude,Direction X,Direction Y,Direction Z,Drag X,Drag Y,Drag Z,Vertical Velocity,Roll,Mass,Has Fuel
1598626495.3058858,0,5,0.5,0.5,-0.0100616455078125,-0.14,-0.011,-0.56,0.004255198742725885,10,1,100,0.1248588391172665,-10,-1,-100,479.0920261181891,-0.011724397976465583,0.00041353751712265157,0.999931181371404,5.273485146055986,-0.4315864123888965,106.98398912156483,-13.850882047857425,-89.92105102539062,6440.1796875,True
1598626495.353049,0,5,0.5,0.5,-0.009708425903320314,-0.14,-0.011,-0.56,0.004281328646401255,10,1,100,0.1230845800511135,-10,-1,-100,478.26829705922864,-0.011766835799091139,0.00041448842369958314,0.999930682484853,5.460958484723392,-0.44737673902508746,115.56844780793487,-14.434318811639434,-89.923095703125,6440.1796875,True
1598626495.3947635,0,5,0.5,0.5,-0.008972708129882814,-0.14,-0.011,-0.56,0.004031459046041777,10,1,100,0.1172581250493803,-10,-1,-100,477.6667081536725,-0.011741750741644895,0.0004127045347447079,0.9999309781002328,5.906321455540615,-0.4811445311619553,121.4980863172312,-14.177552990705149,-89.9259033203125,6438.60107421875,True
1598626495.4368558,0,5,0.5,0.5,-0.006994888305664063,-0.14,-0.011,-0.56,0.004094646625780813,10,1,100,0.11729859696427719,-10,-1,-100,477.11100255849306,-0.011708639751609514,0.00041128206411540825,0.9999313669458673,5.745006911300751,-0.4625647188937461,108.33297893873579,-13.274708006877091,-89.93109130859375,6435.443359375,True
1598626495.4782236,0,5,0.5,0.5,-0.004656747436523437,-0.14,-0.011,-0.56,0.00399171260850847,10,1,100,0.11461261269391643,-10,-1,-100,476.6361018156167,-0.01164347659479988,0.00040867925241891873,0.9999321289137854,5.5788291112716495,-0.4441177553870811,96.02850357249655,-12.371312748987354,-89.93869018554688,6432.28515625,True
1598626495.522958,0,5,0.5,0.5,-0.0022077087402343756,-0.14,-0.011,-0.56,0.003869362283888995,10,1,100,0.11079278227841034,-10,-1,-100,476.1613019509241,-0.011538926651563974,0.00040482925769609764,0.9999333424208846,5.394776562496809,-0.4247792468643418,84.35257892919219,-11.46737321140793,-89.9483642578125,6429.126953125,True
1598626495.565812,0,5,0.5,0.5,0.00020070190429687454,-0.14,-0.011,-0.56,0.003741505241498285,10,1,100,0.10684477874332615,-10,-1,-100,475.742041365942,-0.0113975003740746,0.000399798899146621,0.9999349664583508,5.199200331074664,-0.4050705295039269,73.42458501759324,-10.562881723309701,-89.95962524414062,6425.9697265625,True
1598626495.6087923,0,5,0.5,0.5,0.002416421508789063,-0.14,-0.011,-0.56,0.003577200863385423,10,1,100,0.10256874065274976,-10,-1,-100,475.33730574080255,-0.011219696593375317,0.00039336871621048296,0.999936979848933,4.991185873612648,-0.38492590730668996,63.230477231028615,-9.657830483662552,-89.97186279296875,6422.8115234375,True
1598626495.6529734,0,5,0.5,0.5,0.004376437377929688,-0.14,-0.011,-0.56,0.003433440975172908,10,1,100,0.09804426465748177,-10,-1,-100,474.946944000083,-0.011006725468606827,0.00038585857936096143,0.9999393497145793,4.771262220781912,-0.36438841922673776,53.77604923973529,-8.752213359160786,-89.9844970703125,6419.65380859375,True
1598626495.6967351,0,5,0.5,0.5,0.005962625122070313,-0.14,-0.011,-0.56,0.0032466047503449955,10,1,100,0.09323120410075747,-10,-1,-100,474.667481927434,-0.010759354145148337,0.0003769818905635418,0.9999420454121497,4.540336365299411,-0.34352666437697105,45.066797357198155,-7.846024192526098,-89.99689483642578,6416.49609375,True
1598626495.7397542,0,5,0.5,0.5,0.007182201385498048,-0.14,-0.011,-0.56,0.0030976241950122,10,1,100,0.08827310484534694,-10,-1,-100,474.332568698097,-0.01047961626318675,0.00036721509398053164,0.999945019886619,4.299892070542226,-0.32244694729155615,37.108096076343394,-6.93925587118364,-90.00856018066406,6413.337890625,True
1598626495.7815626,0,5,0.5,0.5,0.008094501495361329,-0.14,-0.011,-0.56,0.0028470461545307474,10,1,100,0.0818604635851514,-10,-1,-100,474.13733397983015,-0.010168143978777421,0.0003561003171035475,0.9999482396807302,4.052711628688241,-0.30134291285453835,29.90781651629246,-6.031901887013007,-90.01905822753906,6410.1806640625,True
1598626495.8270626,0,5,0.5,0.5,0.008585649871826173,-0.14,-0.011,-0.56,0.0026182057939771134,10,1,100,0.07537161199449753,-10,-1,-100,473.87233499926515,-0.009827451152872372,0.0003439686876708889,0.9999516502758421,3.8042610038612152,-0.2805996408144101,23.478060056258887,-5.123956100409489,-90.02800750732422,6407.0224609375,True
1598626495.9598248,0,5,0.5,0.5,0.006351315307617188,-0.14,-0.011,-0.56,0.0031123971168619574,10,1,100,0.0894011575291382,-10,-1,-100,473.8023199412273,-0.009647011997445217,0.000337495069164765,0.9999534095429642,3.682870265620283,-0.2705978214802484,20.558372116168535,-4.669759234209214,-90.03181457519531,6405.443359375,True
1598626496.036777,0,5,0.5,0.5,0.010226148986816407,-0.14,-0.011,-0.56,0.0014677631659035547,10,1,100,0.043180457724907126,-10,-1,-100,473.57671106699854,-0.009064662428613125,0.00031672582278225836,0.9999588649438578,3.3760937416833796,-0.24535516677465014,13.059072806842362,-3.3062626151173333,-90.04023742675781,6400.70703125,True
1598626496.0848293,0,5,0.5,0.5,0.008675863647460938,-0.14,-0.011,-0.56,0.0009722659804120965,10,1,100,0.029599700617243402,-10,-1,-100,473.4328886209987,-0.008414136677938087,0.00029342376386609056,0.9999645574751435,3.5785627703980776,-0.2574804465406202,7.968499642229154,-1.9413938683209968,-90.04460144042969,6395.97021484375,True
1598626496.1586676,0,5,0.5,0.5,0.0068932968139648445,-0.14,-0.011,-0.56,0.0014959001887679688,10,1,100,0.04396787471992776,-10,-1,-100,473.3824575128965,-0.00795621011459757,0.0002771016626490187,0.9999683104655273,6.36154754629518,-0.4549144003251036,7.4290571149014335,-1.0307053916249957,-90.04539489746094,6392.81201171875,True
1598626496.2007265,0,5,0.5,0.5,0.0029330780029296873,-0.14,-0.011,-0.56,-0.0006549836236413678,10,1,100,-0.016385771754972092,-10,-1,-100,473.3909719227813,-0.006994372171115716,0.0002428214425538663,0.9999755095979496,0.8220036873156077,-0.05813230585913133,-0.7220037239988594,0.7925975079933815,-90.04023742675781,6386.49658203125,True
1598626496.2439802,0,5,0.5,0.5,0.001992512512207032,-0.14,-0.011,-0.56,0.0007707182334778513,10,1,100,0.023549144536523597,-10,-1,-100,473.4500695170136,-0.006486859938256955,0.0002247553932354085,0.9999789348447068,1.0002481042488671,-0.07039237917422195,-1.8716579407967522,1.7052424468124456,-90.03466033935547,6383.3388671875,True
1598626496.2872267,0,5,0.5,0.5,0.00038570480346679674,-0.14,-0.011,-0.56,0.0006386173417834038,10,1,100,0.019723675635123172,-10,-1,-100,473.54575841350015,-0.00599481715976385,0.00020727725228152056,0.9999820094398508,1.7850320571163614,-0.12505966361068444,-5.082895672691379,2.6185202447879714,-90.02782440185547,6380.18115234375,True
1598626496.32808,0,5,0.5,0.5,-0.001007274627685547,-0.14,-0.011,-0.56,0.0003153082677422943,10,1,100,0.011417748214097523,-10,-1,-100,473.6777935674181,-0.005476328509111144,0.00018860313677605055,0.9999849870147637,2.373807706115517,-0.1656309268124998,-9.043713176370321,3.532422004411486,-90.02031707763672,6377.02294921875,True
1598626496.3700306,0,5,0.5,0.5,-0.002269671630859375,-0.14,-0.011,-0.56,0.0001372719057635128,10,1,100,0.005979581346961353,-10,-1,-100,473.8465120487381,-0.0049600857531384235,0.00017017053025963842,0.9999876842198169,2.877891790056754,-0.200059454019864,-13.699893668545062,4.4469439512255535,-90.01248931884766,6373.86572265625,True
1598626496.4164724,0,5,0.5,0.5,-0.003351421356201172,-0.14,-0.011,-0.56,-7.429227700822875e-05,10,1,100,5.616439541507312e-05,-10,-1,-100,474.0517300523352,-0.004441659510172474,0.00015165933157119694,0.9999901242813566,3.3488458087103945,-0.23202243892601726,-19.093738101649816,5.362087764357721,-90.00469207763672,6370.70751953125,True
1598626496.462089,0,5,0.5,0.5,-0.004223015594482423,-0.14,-0.011,-0.56,-0.00024957753734788685,10,1,100,-0.005988990368351217,-10,-1,-100,474.31258255487774,-0.003920303147480736,0.0001334122934477984,0.9999923066826023,3.8055003775024443,-0.2628780539706727,-25.251617663673105,6.277847548551755,-89.99724578857422,6367.5498046875,True
1598626496.5069718,0,5,0.5,0.5,-0.004849572753906251,-0.14,-0.011,-0.56,-0.00051398455002896,10,1,100,-0.011815674325802383,-10,-1,-100,474.5510963491397,-0.00339857906255684,0.00011460590665280542,0.9999942182462065,4.255279136493291,-0.2931781503308163,-32.18865783615172,7.194221325025159,-89.99044799804688,6364.3916015625,True
1598626496.5529807,0,5,0.5,0.5,-0.005241865539550782,-0.14,-0.011,-0.56,-0.0006567693152709901,10,1,100,-0.01741401194758086,-10,-1,-100,474.900236785179,-0.0028785414463971815,9.639489344254739e-05,0.9999958523449813,4.701240041401439,-0.3231674245590322,-39.91423938885043,8.111204758719905,-89.98452758789062,6361.234375,True
1598626496.5957475,0,5,0.5,0.5,-0.00538912353515625,-0.14,-0.011,-0.56,-0.0008643443552572151,10,1,100,-0.022739644431439957,-10,-1,-100,475.22301132581197,-0.0023623974957001736,7.813149822464126e-05,0.9999972064828689,5.144576255875568,-0.35295690965153514,-48.43486306263956,9.028795902241479,-89.97967529296875,6358.076171875,True
1598626496.6429746,0,5,0.5,0.5,-0.0053289688110351565,-0.14,-0.011,-0.56,-0.001059558739354002,10,1,100,-0.027846962440871745,-10,-1,-100,475.64222174999304,-0.0018518308428161479,5.993461741150524e-05,0.9999982835637126,5.585523485416101,-0.3825931989137357,-57.75458043616306,9.946990432837167,-89.97598266601562,6354.91845703125,True
1598626496.6868489,0,5,0.5,0.5,-0.005040762329101563,-0.14,-0.011,-0.56,-0.0012229820879048033,10,1,100,-0.032639451626261,-10,-1,-100,476.0349435864482,-0.001348786294261949,4.2072592435594634e-05,0.9999990895023003,6.023906506641114,-0.412088623265708,-67.87656364160475,10.865784883677785,-89.97354125976562,6351.7607421875,True
1598626496.7310476,0,5,0.5,0.5,-0.004573935699462892,-0.14,-0.011,-0.56,-0.0013732123760986173,10,1,100,-0.03714206511326178,-10,-1,-100,476.53832250251435,-0.0008552111944617567,2.4634733292822875e-05,0.9999996340034045,6.459329157706192,-0.44144432846779325,-78.80333096263806,11.785176389333989,-89.97235107421875,6348.6025390625,True
1598626496.774863,0,5,0.5,0.5,-0.003968452453613281,-0.14,-0.011,-0.56,-0.0015208485583088041,10,1,100,-0.041379920033494555,-10,-1,-100,476.98640435631387,-0.0003726529735188312,7.6060256147456665e-06,0.9999999305359524,6.891274418084065,-0.47064766310699263,-90.53681777800111,12.705161063965404,-89.97235107421875,6345.4453125,True
1598626496.8246715,0,5,0.5,0.5,-0.003273534393310547,-0.14,-0.011,-0.56,-0.0016678561210464748,10,1,100,-0.04529349363894646,-10,-1,-100,477.55988371907733,9.697455508285267e-05,-9.046507289156707e-06,0.9999999952570483,7.319145853867768,-0.49968040227932736,-103.07808922866336,13.625734983343461,-89.97341918945312,6342.287109375,True
1598626496.8807771,0,5,0.5,0.5,-0.002504743957519532,-0.14,-0.011,-0.56,-0.0017990713409308458,10,1,100,-0.04888213739939321,-10,-1,-100,478.1474928300595,0.0005519353786264255,-2.521511462115424e-05,0.9999998473657562,7.742360262590908,-0.5285246107192331,-116.42831977281344,14.54689485001471,-89.97543334960938,6339.12890625,True
1598626496.9333508,0,5,0.5,0.5,-0.0017208885192871093,-0.14,-0.011,-0.56,-0.0018969631139500091,10,1,100,-0.052217825116295906,-10,-1,-100,478.73546747560613,0.0009913209293753353,-4.0642978817514984e-05,0.9999995078153606,8.160490651510383,-0.5571687707230627,-130.5874355126958,15.468256753974458,-89.97821044921875,6335.97265625,True
1598626496.9869206,0,5,0.5,0.5,-0.0009471496582031248,-0.14,-0.011,-0.56,-0.002022347797271131,10,1,100,-0.055196570603223305,-10,-1,-100,479.3781430844683,0.0014133767307765424,-5.5649938596884665e-05,0.9999989996341502,8.58400539331619,-0.5863388377182706,-145.54449279315392,16.367947518673624,-89.9815673828125,6332.869140625,True
1598626497.0397317,0,5,0.5,0.5,-0.00027332458496093746,-0.14,-0.011,-0.56,-0.002112848991175321,10,1,100,-0.05786860604140516,-10,-1,-100,480.04976119298954,0.00181698054894899,-6.99605893906682e-05,0.9999983468422339,8.981933615234047,-0.6139217954883324,-160.54807005622362,17.224548398525858,-89.9852294921875,6329.8701171875,True
1598626497.0918581,0,5,0.5,0.5,0.0003683166503906251,-0.14,-0.011,-0.56,-0.00218449836759975,10,1,100,-0.060203934666086215,-10,-1,-100,480.7624952138867,0.00220085471478891,-8.347039764084512e-05,0.9999975746326674,9.355019541666152,-0.6399669805106512,-175.49839748150885,18.0377627886073,-89.98907470703125,6326.9775390625,True
1598626497.156797,0,5,0.5,0.5,0.0008742614746093751,-0.14,-0.011,-0.56,-0.002269797509637711,10,1,100,-0.062249512711213886,-10,-1,-100,481.4892409258755,0.0025642789821350076,-9.63805774360188e-05,0.9999967075866231,9.702214571982353,-0.6643959994989036,-190.27340575499073,18.808082286583083,-89.99285888671875,6324.1884765625,True
1598626497.2128012,0,5,0.5,0.5,0.0012517120361328128,-0.14,-0.011,-0.56,-0.00231212601345539,10,1,100,-0.06393199175839762,-10,-1,-100,482.2863061608514,0.0029059452984922657,-0.00010835980438011237,0.9999957718610988,10.024582101517494,-0.6872697380293811,-204.8087333003501,19.537353258246924,-89.99639892578125,6321.4990234375,True
1598626497.2887235,0,5,0.5,0.5,0.0014840698242187503,-0.14,-0.011,-0.56,-0.0023887552078659434,10,1,100,-0.06529031650550488,-10,-1,-100,483.0831649241736,0.003225031509615517,-0.00011980988300864274,0.9999947923951173,10.323193347310335,-0.7086551814247395,-219.0521875697829,20.227690126098693,-89.99952697753906,6318.90380859375,True
1598626497.3389819,0,5,0.5,0.5,0.0015833908081054689,-0.14,-0.011,-0.56,-0.002402137941891926,10,1,100,-0.06640528557700284,-10,-1,-100,483.9354193097679,0.0035215366542829295,-0.00013020939332908705,0.9999937908932768,10.59950367176092,-0.7286385935450289,-232.96870474666125,20.881190795616597,-90.00212860107422,6316.3984375,True
1598626497.424859,0,5,0.5,0.5,0.0015371055603027345,-0.14,-0.011,-0.56,-0.0024256729960202505,10,1,100,-0.0671467225326485,-10,-1,-100,484.8024195886683,0.0037942869493702634,-0.00013975216191343588,0.9999927919019611,10.854781139798796,-0.7472942734834674,-246.5258381848583,21.499740649594433,-90.00409698486328,6313.9775390625,True
1598626497.4989266,0,5,0.5,0.5,0.0013711135864257814,-0.14,-0.011,-0.56,-0.0024194392136804785,10,1,100,-0.067572297886004,-10,-1,-100,485.6694561705226,0.004042749436848992,-0.00014825191201009663,0.9999918170657006,11.090195476411811,-0.764688177598498,-259.69666153748545,22.085210119969293,-90.00538635253906,6311.6357421875,True
1598626497.5709274,0,5,0.5,0.5,0.0010772186279296876,-0.14,-0.011,-0.56,-0.0024499153082860234,10,1,100,-0.0677375540020374,-10,-1,-100,486.5361626340309,0.0042669532864679375,-0.0001561441613240305,0.9999908843227782,11.30710031111201,-0.7809000268504369,-272.46477585627525,22.63937042496923,-90.00595092773438,6309.37060546875,True
1598626497.632075,0,5,0.5,0.5,0.0006954406738281251,-0.14,-0.011,-0.56,-0.002426911233340232,10,1,100,-0.06757668940603453,-10,-1,-100,487.4730643314542,0.004466334714924141,-0.0001630048043985482,0.9999900125919498,11.506610768917884,-0.7959928841788013,-284.81346844779256,23.163862378307954,-90.00581359863281,6307.1767578125,True
1598626497.694745,0,5,0.5,0.5,0.00022223358154296869,-0.14,-0.011,-0.56,-0.0024336479280490926,10,1,100,-0.06711968238184428,-10,-1,-100,488.40987911541015,0.00464066053331519,-0.0001692053999947342,0.9999892177615453,11.68992913536652,-0.8100350208218734,-296.73367282738155,23.660263840716578,-90.00498962402344,6305.05078125,True
1598626497.8070035,0,5,0.5,0.5,-0.00029863281250000007,-0.14,-0.011,-0.56,-0.002339234970069925,10,1,100,-0.06640903563071891,-10,-1,-100,489.3466065780958,0.0047901111432201255,-0.000173893782909089,0.9999885122321096,11.858104674776888,-0.8230834906840714,-308.21711602284364,24.130063382036546,-90.00355529785156,6302.9892578125,True
1598626497.8598847,0,5,0.5,0.5,-0.0025289505004882818,-0.14,-0.011,-0.56,-0.0027247184136407823,10,1,100,-0.07637703614574134,-10,-1,-100,491.3456235086778,0.005014239651062606,-0.00018157814105890276,0.999987412135823,12.153346059672511,-0.8464468126877024,-329.8654264138001,24.995440996918944,-89.99919891357422,6299.0458984375,True
1598626497.9148405,0,5,0.5,0.5,-0.0010490455627441408,-0.14,-0.011,-0.56,-0.002095384998755904,10,1,100,-0.05866384071352737,-10,-1,-100,491.8492236721795,0.0050547365536548,-0.00018276525600194102,0.9999872080358001,12.214986461081155,-0.8514624523097831,-334.92610960352647,25.200049284683974,-89.99781799316406,6298.087890625,True
1598626497.9680743,0,5,0.5,0.5,-0.0033396598815917974,-0.14,-0.011,-0.56,-0.0022406003449892582,10,1,100,-0.06356275414973893,-10,-1,-100,493.3736870571738,0.005134134049744933,-0.00018509694959625917,0.9999868031162605,12.408070182291153,-0.8671242173441497,-350.32680500382355,25.79267887752715,-89.99343872070312,6295.26611328125,True
1598626498.02384,0,5,0.5,0.5,-0.0029874702453613284,-0.14,-0.011,-0.56,-0.0020898630424344335,10,1,100,-0.058837892900336745,-10,-1,-100,494.43601507670246,0.005161624759795826,-0.00018578698005278853,0.9999866614675603,12.512770100126696,-0.8758708920966092,-359.6308614751749,26.154231013656844,-89.99044799804688,6293.46630859375,True
1598626498.0728207,0,5,0.5,0.5,-0.0033335708618164065,-0.14,-0.011,-0.56,-0.0020141663434369624,10,1,100,-0.05615986413967732,-10,-1,-100,495.5125842425041,0.005160779609194722,-0.00018567560357990757,0.999986665850298,12.617353081623595,-0.8845957434633708,-368.77303046572393,26.49600705530247,-89.98757934570312,6291.712890625,True
1598626498.1257238,0,5,0.5,0.5,-0.0035610908508300785,-0.14,-0.011,-0.56,-0.0019168137214988139,10,1,100,-0.05393632963683143,-10,-1,-100,496.53383114899043,0.0051385550743861886,-0.00018464757982179038,0.9999867804911317,12.706350882152686,-0.892194877316626,-377.21170117284555,26.814090576185023,-89.9849853515625,6290.017578125,True
1598626498.176704,0,5,0.5,0.5,-0.0029640251159667973,-0.14,-0.011,-0.56,-0.0019263662477538262,10,1,100,-0.05413976330881533,-10,-1,-100,497.09270436526276,0.005119204161907796,-0.0001837667669459915,0.9999868799031937,12.744643431593618,-0.8955525915331882,-381.2156577793295,26.96868232512861,-89.98379516601562,6289.1806640625,True
1598626498.2262485,0,5,0.5,0.5,-0.004458123016357422,-0.14,-0.011,-0.56,-0.0015605207646933888,10,1,100,-0.0461676400339212,-10,-1,-100,498.74257951031905,0.005028363801814365,-0.00017961504848051403,0.9999873415678376,12.861356225040078,-0.9056787153597808,-392.871764374946,27.399165719915427,-89.98074340820312,6286.7490234375,True
1598626498.2740273,0,5,0.5,0.5,-0.003908917999267578,-0.14,-0.011,-0.56,-0.0015888528230275343,10,1,100,-0.045711014066833415,-10,-1,-100,499.8193364277249,0.004941119575586002,-0.00017608322291122496,0.9999877770913195,12.926707092434675,-0.9115120933721399,-400.1183489832363,27.671892203359477,-89.9791259765625,6285.16259765625,True
1598626498.3216908,0,5,0.5,0.5,-0.00388609848022461,-0.14,-0.011,-0.56,-0.0015062504478522898,10,1,100,-0.04296850246597221,-10,-1,-100,500.96592700481415,0.004836601574423052,-0.0001721152891439904,0.9999882887621921,12.992598193861207,-0.9173309439339251,-407.1954933452374,27.930151162289295,-89.9779052734375,6283.611328125,True
1598626498.3708122,0,5,0.5,0.5,-0.0035084297180175785,-0.14,-0.011,-0.56,-0.0016784670657033715,10,1,100,-0.04683052601798529,-10,-1,-100,501.53920031746384,0.004776652250719395,-0.00017007529905766438,0.9999885772685949,13.018660111273965,-0.9197330155172894,-410.4449609703626,28.053957101106146,-89.97750854492188,6282.8486328125,True
1598626498.4208112,0,5,0.5,0.5,-0.0037160049438476565,-0.14,-0.011,-0.56,-0.0009663821940535136,10,1,100,-0.030132555904123674,-10,-1,-100,503.18927617021836,0.004570569125772186,-0.0001617577209114613,0.9999895418114663,13.100204893474821,-0.9270660535960148,-419.888211563519,28.398684059714476,-89.9769287109375,6280.62353515625,True
1598626498.4703906,0,5,0.5,0.5,-0.0033288269042968757,-0.14,-0.011,-0.56,-0.0011415239812523036,10,1,100,-0.032972839656998085,-10,-1,-100,504.3359238867415,0.004409481743962566,-0.0001558075820577116,0.9999902660499985,13.145697364038051,-0.93125432390837,-425.72215297399254,28.616962701206702,-89.97705078125,6279.16796875,True
1598626498.5195048,0,5,0.5,0.5,-0.0030734161376953124,-0.14,-0.011,-0.56,-0.001011473911992974,10,1,100,-0.030178079200431755,-10,-1,-100,505.4825249944115,0.00423829053117211,-0.00014924271825879844,0.9999910072695576,13.192484496629785,-0.9354621575972759,-431.4020341347635,28.823653488823705,-89.9775390625,6277.74072265625,True
1598626498.5669627,0,5,0.5,0.5,-0.002805633544921875,-0.14,-0.011,-0.56,-0.0008794760612796914,10,1,100,-0.026376732895812383,-10,-1,-100,506.6291926635895,0.004048943856982996,-0.000142107901854933,0.9999917928958152,13.232420625370471,-0.9391019637969088,-436.61076945528447,29.01638929610643,-89.97833251953125,6276.3466796875,True
1598626498.6148665,0,5,0.5,0.5,-0.002512460327148438,-0.14,-0.011,-0.56,-0.0007402426893724551,10,1,100,-0.023055424990921808,-10,-1,-100,507.84569108870346,0.003847627568359534,-0.00013439555419928498,0.9999925888225023,13.269488214693762,-0.9424589836731055,-441.5259338903836,29.198613127342167,-89.97940063476562,6274.978515625,True
1598626498.6628976,0,5,0.5,0.5,-0.0022836181640625,-0.14,-0.011,-0.56,-0.0005806813933688563,10,1,100,-0.019604951902789262,-10,-1,-100,508.9922750737751,0.003634418393815206,-0.00012597945548104724,0.9999933875441955,13.303915533096726,-0.9455487890098903,-446.1567568160831,29.370958992247424,-89.9805908203125,6273.63330078125,True
1598626498.7096999,0,5,0.5,0.5,-0.0020350677490234377,-0.14,-0.011,-0.56,-0.000505441724623137,10,1,100,-0.016107721793075104,-10,-1,-100,510.2089591945987,0.0034101486757484997,-0.0001176969935772018,0.9999941784997687,13.336148208854652,-0.9484008937410386,-450.5204174491795,29.53403389731846,-89.98190307617188,6272.310546875,True
1598626498.7572148,0,5,0.5,0.5,-0.0018287139892578129,-0.14,-0.011,-0.56,-0.00037629643474524244,10,1,100,-0.012629628456814687,-10,-1,-100,511.3554546367377,0.0031761191882000955,-0.00010904972380654628,0.9999949501747797,13.366539000762641,-0.9510395709928638,-454.63061790111914,29.688342717270594,-89.98324584960938,6271.009765625,True
1598626498.804975,0,5,0.5,0.5,-0.00167891845703125,-0.14,-0.011,-0.56,-0.00022123227126591286,10,1,100,-0.00918033113958831,-10,-1,-100,512.5720203026431,0.00293361240607893,-9.983983480077888e-05,0.9999956919658496,13.395381860934343,-0.9534822930920253,-458.4995013174593,29.834360842758315,-89.98452758789062,6269.7275390625,True
1598626498.8510673,0,5,0.5,0.5,-0.0019407989501953127,-0.14,-0.011,-0.56,-0.0006041100300962955,10,1,100,-0.019622427027396496,-10,-1,-100,513.1453656004742,0.0028098098296473486,-9.501362028885128e-05,0.9999960479627573,13.407892378570594,-0.9545371205061314,-460.31491635143306,29.905367073393307,-89.98516845703125,6269.091796875,True
1598626498.89894,0,5,0.5,0.5,-0.0011590576171874997,-0.14,-0.011,-0.56,0.0005061560571946083,10,1,100,0.010253335539608232,-10,-1,-100,514.9351479201578,0.0024274522299377516,-8.060106237424417e-05,0.9999970504852201,13.449638018988455,-0.9578700254994802,-465.56963570331203,30.103484517939325,-89.98678588867188,6267.220703125,True
1598626498.9461184,0,5,0.5,0.5,-0.0014344696044921875,-0.14,-0.011,-0.56,0.00015000983308618575,10,1,100,0.0016058502766946557,-10,-1,-100,516.1517235469073,0.002160416202497182,-7.081020872425719e-05,0.9999976637911442,13.474573588419815,-0.9597827691943681,-468.7856490707481,30.228903527524913,-89.9876708984375,6265.98828125,True
1598626498.9937093,0,5,0.5,0.5,-0.0014484222412109375,-0.14,-0.011,-0.56,0.00028752676572640803,10,1,100,0.0038386766746669326,-10,-1,-100,517.3682897812687,0.0018994023607891571,-6.073654908511561e-05,0.9999981942892415,13.501753264063762,-0.961770597581531,-471.9045968236986,30.34767768109403,-89.98834228515625,6264.77294921875,True
1598626499.0407264,0,5,0.5,0.5,-0.0015134429931640625,-0.14,-0.011,-0.56,0.0004102199669547971,10,1,100,0.007709193658384392,-10,-1,-100,518.5848598248558,0.0016290567940847787,-5.054374410125034e-05,0.9999986718087638,13.526634345671962,-0.9635069531629127,-474.743703892954,30.45844046104102,-89.98876953125,6263.576171875,True
1598626499.0856066,0,5,0.5,0.5,-0.0016344085693359377,-0.14,-0.011,-0.56,0.0005028525710149782,10,1,100,0.010669426999900086,-10,-1,-100,519.8014327336568,0.0013585767822151085,-4.051868331332908e-05,0.999999076313255,13.551462430109611,-0.9651582334585203,-477.40978004476847,30.562937198408008,-89.98892211914062,6262.3955078125,True
1598626499.1328995,0,5,0.5,0.5,-0.0017948333740234377,-0.14,-0.011,-0.56,0.0006473113822758445,10,1,100,0.013582191748253756,-10,-1,-100,521.0180038161343,0.0010884689562450517,-3.01770723772891e-05,0.9999994071621621,13.576332888555546,-0.9667284978317335,-479.8969696860039,30.660638144493536,-89.98880004882812,6261.23046875,True
1598626499.180807,0,5,0.5,0.5,-0.0019310668945312502,-0.14,-0.011,-0.56,0.0007651989626564393,10,1,100,0.016494134347777682,-10,-1,-100,522.3045222857036,0.0008187586812198463,-1.9790995689341678e-05,0.999999664621213,13.600593800344365,-0.9681760617175339,-482.17826764654467,30.75129543443931,-89.98849487304688,6260.08251953125,True
1598626499.227101,0,5,0.5,0.5,-0.00209471435546875,-0.14,-0.011,-0.56,0.0008300737689812825,10,1,100,0.019265755591796958,-10,-1,-100,523.5210352261784,0.0005507267744281468,-9.8483422772435e-06,0.9999998483015036,13.624431038999749,-0.9695155646180039,-484.2677912484634,30.835338861879002,-89.98800659179688,6258.9501953125,True
1598626499.2731822,0,5,0.5,0.5,-0.002307373046875,-0.14,-0.011,-0.56,0.0009832659784081395,10,1,100,0.021909505337001898,-10,-1,-100,524.737488458748,0.000285414036400895,4.929069271541778e-07,0.9999999592692916,13.64795010868578,-0.970757546934678,-486.177574480707,30.91322418459016,-89.9873046875,6257.8330078125,True
1598626499.3198051,0,5,0.5,0.5,-0.0024666717529296875,-0.14,-0.011,-0.56,0.0010352262114956168,10,1,100,0.02445226316521904,-10,-1,-100,525.9541262674611,2.3512111001126616e-05,1.0275196739467375e-05,0.9999999996708004,13.671372169566032,-0.9719202940312387,-487.9241042191413,30.985401592096693,-89.98651123046875,6256.7294921875,True
1598626499.367775,0,5,0.5,0.5,-0.002640365600585938,-0.14,-0.011,-0.56,0.0011402929099842015,10,1,100,0.026860234226035243,-10,-1,-100,527.2405895651318,-0.00023393819653458618,2.0027622175986217e-05,0.9999999724359069,13.694819158260252,-0.9730149832890282,-489.52012425400994,31.052292213298156,-89.98562622070312,6255.638671875,True
1598626499.4127672,0,5,0.5,0.5,-0.0027655426025390622,-0.14,-0.011,-0.56,0.0012367972233758035,10,1,100,0.029055892441942253,-10,-1,-100,528.457046928117,-0.0004855250140512322,2.96792947995177e-05,0.999999881692293,13.718413859226642,-0.9740541551579767,-490.9782240083443,31.114287807297927,-89.9847412109375,6254.5595703125,True
1598626499.4601176,0,5,0.5,0.5,-0.0029140289306640627,-0.14,-0.011,-0.56,0.00130034570603823,10,1,100,0.0311676049100143,-10,-1,-100,529.6881539218593,-0.0007310322876701577,3.8939902023728586e-05,0.9999997320377033,13.742311317906154,-0.975051587923217,-492.311861362968,31.171750653240817,-89.98382568359375,6253.4921875,True
1598626499.5037396,0,5,0.5,0.5,-0.0030258087158203124,-0.14,-0.011,-0.56,0.0014086096961057112,10,1,100,0.03310907486603647,-10,-1,-100,530.9602160616778,-0.0009694791408798739,4.825223899988936e-05,0.9999995288908475,13.766571724760814,-0.9760142769271579,-493.53090940772535,31.225016983686054,-89.98294067382812,6252.43359375,True
1598626499.548597,0,5,0.5,0.5,-0.0030920349121093755,-0.14,-0.011,-0.56,0.00146614668354612,10,1,100,0.03492617382939627,-10,-1,-100,532.191264422494,-0.0012004057835238282,5.715124887940184e-05,0.9999992778795841,13.79134041843424,-0.976954161885018,-494.64803169144085,31.27439793124149,-89.98214721679688,6251.3857421875,True
1598626499.595786,0,5,0.5,0.5,-0.003146484375,-0.14,-0.011,-0.56,0.001507940442204295,10,1,100,0.03652360220822927,-10,-1,-100,533.4632065511541,-0.0014225348234025057,6.553241027385774e-05,0.9999989860495758,13.81662001884168,-0.977876643546918,-495.6704339899669,31.320181385742476,-89.9814453125,6250.345703125,True
1598626499.6438024,0,5,0.5,0.5,-0.003167391967773438,-0.14,-0.011,-0.56,0.0015930969910826877,10,1,100,0.038010969061847685,-10,-1,-100,534.6943172689062,-0.0016357091003436095,7.383878972893837e-05,0.9999986595008876,13.84253285304701,-0.9787934516887206,-496.6095359552687,31.3626343217063,-89.98086547851562,6249.314453125,True
1598626499.689221,0,5,0.5,0.5,-0.0031501495361328127,-0.14,-0.011,-0.56,0.0016445417342327157,10,1,100,0.03932072429417366,-10,-1,-100,535.9663220841903,-0.0018391794289643367,8.177260527544984e-05,0.9999983053646986,13.869075706747045,-0.9797060584108258,-497.47187662553875,31.402003500671004,-89.98043823242188,6248.2900390625,True
1598626499.734832,0,5,0.5,0.5,-0.0031328399658203127,-0.14,-0.011,-0.56,0.001681417035996617,10,1,100,0.04042714013192418,-10,-1,-100,537.2527934166137,-0.0020320381387778277,8.923710310872056e-05,0.9999979314267315,13.896335454922458,-0.9806239074590525,-498.26719451777956,31.438518229588063,-89.98013305664062,6247.27294921875,True
1598626499.7789073,0,5,0.5,0.5,-0.003055279541015625,-0.14,-0.011,-0.56,0.0017128926974916824,10,1,100,0.04143789449708139,-10,-1,-100,538.4838450736133,-0.00221444613995045,9.622847606512039e-05,0.9999975434811695,13.924312808735214,-0.981550965909123,-499.0017553130538,31.47239009594727,-89.98001098632812,6246.26171875,True
1598626499.8237717,0,5,0.5,0.5,-0.0029940704345703126,-0.14,-0.011,-0.56,0.0017561595098158317,10,1,100,0.04226580608863764,-10,-1,-100,539.7558517776197,-0.002385763557075207,0.00010289946497449827,0.9999971487679102,13.953027951494446,-0.9824916121816865,-499.6823664051912,31.503814993644117,-89.98001098632812,6245.25732421875,True
1598626499.8679159,0,5,0.5,0.5,-0.002893435668945313,-0.14,-0.011,-0.56,0.0017856678750559794,10,1,100,0.04290091005200439,-10,-1,-100,540.9869657675736,-0.0025453241310732836,0.00010915692017357176,0.9999967546996512,13.982470740718119,-0.9834464141620138,-500.3145024980243,31.532974759035408,-89.98016357421875,6244.2578125,True
1598626499.9137716,0,5,0.5,0.5,-0.002834384155273438,-0.14,-0.011,-0.56,0.0018238029952727104,10,1,100,0.043409390620359714,-10,-1,-100,542.2735002192203,-0.002693129204313836,0.00011511994633345063,0.9999963668946438,14.012673298406924,-0.9844235950456621,-500.9050950846852,31.56003772188133,-89.98037719726562,6243.2646484375,True
1598626499.9580364,0,5,0.5,0.5,-0.002701458740234375,-0.14,-0.011,-0.56,0.0018189357830248035,10,1,100,0.043772697834196524,-10,-1,-100,543.5455080405809,-0.002829016521097724,0.00012042737723625979,0.9999959910733492,14.043599509129006,-0.9854217495825841,-501.45825207708174,31.585159499317875,-89.98074340820312,6242.2744140625,True
1598626500.0037227,0,5,0.5,0.5,-0.002631243896484375,-0.14,-0.011,-0.56,0.0018386684939848187,10,1,100,0.043953744564737426,-10,-1,-100,544.7766229630215,-0.002952505836287796,0.00012536608894005337,0.9999956334867821,14.075244282062739,-0.986443594106541,-501.9791174327689,31.608484444883207,-89.98114013671875,6241.2900390625,True
1598626500.0561898,0,5,0.5,0.5,-0.0025340850830078126,-0.14,-0.011,-0.56,0.0018477662149964727,10,1,100,0.04400587102322476,-10,-1,-100,546.063036378473,-0.0030636499087625065,0.00012987651991628015,0.9999952985796112,14.107593026761915,-0.9874914551839336,-502.4722904306866,31.630145944112616,-89.98159790039062,6240.3095703125,True
1598626500.1078367,0,5,0.5,0.5,-0.0024484680175781252,-0.14,-0.011,-0.56,0.0018435669427707938,10,1,100,0.04388267234863692,-10,-1,-100,547.3495716321049,-0.0031620780638929357,0.00013388024186566886,0.9999949916566577,14.140575082449496,-0.9885622518221906,-502.94024226317134,31.650267911069715,-89.98208618164062,6239.33251953125,True
1598626500.161803,0,5,0.5,0.5,-0.002400128173828125,-0.14,-0.011,-0.56,0.0018519216849605664,10,1,100,0.043632300065225484,-10,-1,-100,548.5661614016863,-0.0032478944851045406,0.00013754135815580496,0.9999947161179343,14.17420536971362,-0.9896608680933128,-503.38822953233563,31.66896432713459,-89.9825439453125,6238.35888671875,True
1598626500.211371,0,5,0.5,0.5,-0.0023337249755859373,-0.14,-0.011,-0.56,0.0018080582655577093,10,1,100,0.043273510066672335,-10,-1,-100,549.8527582011884,-0.0033213670361681162,0.00014042018846782965,0.9999944743863246,14.208394441523957,-0.9907844964393677,-503.8176629170424,31.686341055285094,-89.98300170898438,6237.388671875,True
1598626500.2640104,0,5,0.5,0.5,-0.002309207153320313,-0.14,-0.011,-0.56,0.0018042598567932346,10,1,100,0.04274132482897654,-10,-1,-100,551.1391723728739,-0.0033821500996128683,0.0001429562458669395,0.999994270295693,14.243135504185817,-0.991935059031315,-504.23261474476664,31.702486380169578,-89.9833984375,6236.421875,True
1598626500.3159568,0,5,0.5,0.5,-0.00229266357421875,-0.14,-0.011,-0.56,0.0017937456229368738,10,1,100,0.04210199859747801,-10,-1,-100,552.4257085173158,-0.0034305338243129633,0.00014512368885852536,0.9999941051710232,14.278342358759396,-0.9931082759093373,-504.63428800091083,31.717490974167806,-89.98373413085938,6235.45751953125,True
1598626500.3618078,0,5,0.5,0.5,-0.0022842956542968753,-0.14,-0.011,-0.56,0.0017700597084797185,10,1,100,0.04134424627045896,-10,-1,-100,553.656886129058,-0.0034666805799153876,0.00014684037942500741,0.9999939802637113,14.31398670064401,-0.9943037013264848,-505.0259229552812,31.73144915396351,-89.9840087890625,6234.49609375,True
1598626500.4089437,0,5,0.5,0.5,-0.00228433837890625,-0.14,-0.011,-0.56,0.0017340435746006676,10,1,100,0.04047514490539509,-10,-1,-100,554.9288962749997,-0.003490802748554427,0.00014803933012358934,0.9999938961716353,14.350001010209102,-0.9955216517363658,-505.4091200268899,31.744439604802807,-89.98422241210938,6233.537109375,True
1598626500.4558852,0,5,0.5,0.5,-0.0023142883300781253,-0.14,-0.011,-0.56,0.0017026255845327084,10,1,100,0.039496790882159336,-10,-1,-100,556.2153108145576,-0.003503112707520283,0.00014881374050005496,0.9999938530090218,14.386319173077235,-0.9967594331356611,-505.78534587799817,31.75653464550295,-89.98434448242188,6232.58056640625,True
1598626500.5027773,0,5,0.5,0.5,-0.00235732421875,-0.14,-0.011,-0.56,0.0016537927589718483,10,1,100,0.03841452250937019,-10,-1,-100,557.5018474281533,-0.0035038519612035027,0.00014904800937059427,0.9999938503841534,14.42290146012207,-0.9980157163983158,-506.1567853886541,31.767800954654213,-89.984375,6231.6259765625,True
1598626500.548686,0,5,0.5,0.5,-0.0023922180175781254,-0.14,-0.011,-0.56,0.001628593483667862,10,1,100,0.03724824509513891,-10,-1,-100,558.7329643592238,-0.0034934202643089494,0.000149010367731566,0.9999938868866987,14.459663702451772,-0.9992873803335455,-506.5239909392803,31.778300219995923,-89.98434448242188,6230.67333984375,True
1598626500.5982172,0,5,0.5,0.5,-0.00245755615234375,-0.14,-0.011,-0.56,0.0015731801670741234,10,1,100,0.035993218038450396,-10,-1,-100,560.0194399377797,-0.0034721368662935085,0.00014845499622903786,0.9999939610951136,14.496515806263888,-1.0005704337461645,-506.8871058452907,31.78808941081897,-89.98422241210938,6229.72265625,True
1598626500.6439419,0,5,0.5,0.5,-0.0025150207519531254,-0.14,-0.011,-0.56,0.0015403893686072871,10,1,100,0.03466487919840083,-10,-1,-100,561.3060378979426,-0.0034404306433677475,0.00014763876510034708,0.9999940708023141,14.533432704247344,-1.0018647019213327,-507.2483950885735,31.797221443774333,-89.98403930664062,6228.7734375,True
1598626500.6967452,0,5,0.5,0.5,-0.0025603729248046877,-0.14,-0.011,-0.56,0.001459492037752887,10,1,100,0.03325247321290964,-10,-1,-100,562.5780484671704,-0.0033985917170596238,0.00014615212706018405,0.9999942140902099,14.570314340533876,-1.0031670599717801,-507.6073634999718,31.805745138317622,-89.98382568359375,6227.826171875,True
1598626500.7397225,0,5,0.5,0.5,-0.0026320983886718753,-0.14,-0.011,-0.56,0.0014394672209862582,10,1,100,0.031756675445032814,-10,-1,-100,563.8091656138422,-0.003346887963725275,0.0001446133832907098,0.9999943886982205,14.607109094520576,-1.0044737609493717,-507.9650472496606,31.813705786013166,-89.98355102539062,6226.8798828125,True
1598626500.7908514,0,5,0.5,0.5,-0.0025635711669921876,-0.14,-0.011,-0.56,0.0014630050468480876,10,1,100,0.033705591817704196,-10,-1,-100,564.4523431574926,-0.0033176340296600503,0.00014342699906500097,0.9999944863513704,14.625313678443062,-1.005118275314372,-508.1397115471659,31.817559659270955,-89.98342895507812,6226.4072265625,True
1598626500.8401058,0,5,0.5,0.5,-0.0028159820556640626,-0.14,-0.011,-0.56,0.0012107864472760909,10,1,100,0.025521170910294468,-10,-1,-100,566.3820561555913,-0.0032167383538921693,0.00014005711403624162,0.9999948164757493,14.680296467731312,-1.007100243926725,-508.68642017774,31.82838881056113,-89.98297119140625,6224.9921875,True
1598626500.889907,0,5,0.5,0.5,-0.002753036499023438,-0.14,-0.011,-0.56,0.0012205215717893602,10,1,100,0.026888916922663236,-10,-1,-100,567.6685940977186,-0.0031376762871483783,0.00013708824992875263,0.9999950680850025,14.716402914928342,-1.0084027402655291,-509.04280930513204,31.835020354513738,-89.98269653320312,6224.04931640625,True
1598626500.9378543,0,5,0.5,0.5,-0.002729080200195313,-0.14,-0.011,-0.56,0.0013689939558136932,10,1,100,0.030275194699655485,-10,-1,-100,568.3118325674441,-0.003096907048500685,0.0001357489870314337,0.9999951953579305,14.734266858474154,-1.0090473512329292,-509.2204346594068,31.83829803398604,-89.98251342773438,6223.57861328125,True
1598626500.9888117,0,5,0.5,0.5,-0.0028849029541015625,-0.14,-0.011,-0.56,0.0009440944027823534,10,1,100,0.019335678033791576,-10,-1,-100,570.1861867109546,-0.002960763230639492,0.00013068062914583034,0.9999956083921895,14.787680687246368,-1.0109983372649678,-509.7583195645438,31.846921145735543,-89.98214721679688,6222.1689453125,True
1598626501.0402462,0,5,0.5,0.5,-0.0028531738281250005,-0.14,-0.011,-0.56,0.0010954371917397607,10,1,100,0.021774102509721227,-10,-1,-100,571.4727853037184,-0.002859657335756462,0.00012746557222237167,0.9999959030478325,14.822478900643175,-1.0122686894530202,-510.1099103837278,31.852350372871392,-89.98190307617188,6221.2294921875,True
1598626501.0901847,0,5,0.5,0.5,-0.0028473144531250003,-0.14,-0.011,-0.56,0.0009906592228945562,10,1,100,0.020470782900752875,-10,-1,-100,572.7592005939223,-0.002756470673898134,0.0001236098523892794,0.9999961932877687,14.856905191230071,-1.0135350488638843,-510.4661409124204,31.857449155338205,-89.98171997070312,6220.291015625,True
1598626501.1382635,0,5,0.5,0.5,-0.0027902526855468754,-0.14,-0.011,-0.56,0.0011284985236459427,10,1,100,0.024684725260966038,-10,-1,-100,573.3879730942426,-0.0027016237902037694,0.00012138032358769878,0.9999963432411706,14.873685724308782,-1.014146836744846,-510.636405562585,31.859879646729503,-89.98165893554688,6219.8232421875,True
1598626501.1850133,0,5,0.5,0.5,-0.002844140625,-0.14,-0.011,-0.56,0.0006503556803734946,10,1,100,0.011268951427067266,-10,-1,-100,575.31774835533,-0.002530473049130871,0.00011503059741243293,0.999996791731908,14.923507563317523,-1.0159819237972492,-511.15678565233696,31.86655495306087,-89.98153686523438,6218.41845703125,True
1598626501.2320757,0,5,0.5,0.5,-0.0027996612548828125,-0.14,-0.011,-0.56,0.0007835181420969837,10,1,100,0.014920074976889228,-10,-1,-100,576.5489271519473,-0.0024088626973974617,0.00011049697920481183,0.9999970925812348,14.95575442432205,-1.017167678079933,-511.49884997020115,31.87078128746013,-89.98150634765625,6217.4833984375,True
1598626501.2789128,0,5,0.5,0.5,-0.002784820556640625,-0.14,-0.011,-0.56,0.0007417421523973323,10,1,100,0.013744980322826849,-10,-1,-100,577.8354035598459,-0.0022884779037540934,0.00010602674129523755,0.9999973758101639,14.987365068003974,-1.018335494617269,-511.8421800857028,31.8747698024082,-89.98150634765625,6216.5478515625,True
1598626501.3260283,0,5,0.5,0.5,-0.0027442108154296873,-0.14,-0.011,-0.56,0.0006637708196465998,10,1,100,0.011714155183971162,-10,-1,-100,579.1218799788039,-0.0021615107320213487,0.00010128805858677223,0.9999976588033017,15.018021070407428,-1.0194634272556,-512.1757222149455,31.878459583425688,-89.9815673828125,6215.6142578125,True
1598626501.3719628,0,5,0.5,0.5,-0.0027372100830078123,-0.14,-0.011,-0.56,0.0006026937014106856,10,1,100,0.010194986779926777,-10,-1,-100,580.4084175579483,-0.0020332347064292416,9.646016328188588e-05,0.9999979283238868,15.047812501975352,-1.020558288256402,-512.5043273519655,31.881941255572528,-89.98162841796875,6214.6806640625,True
1598626501.4176743,0,5,0.5,0.5,-0.0026657531738281254,-0.14,-0.011,-0.56,0.000527367440502183,10,1,100,0.008673171684931872,-10,-1,-100,581.6948942755116,-0.0019037894928280261,9.142331798431814e-05,0.9999981836120223,15.076685367969988,-1.0216158089170444,-512.8269060432797,31.885232461179445,-89.98178100585938,6213.7490234375,True
1598626501.4647207,0,5,0.5,0.5,-0.002645196533203125,-0.14,-0.011,-0.56,0.0005016840056186315,10,1,100,0.007089024452823495,-10,-1,-100,582.9814323291648,-0.0017727953397674565,8.665117800490347e-05,0.9999984248428878,15.104630314458188,-1.0226360067933327,-513.1438337826734,31.88835010994326,-89.98193359375,6212.81640625,True
1598626501.5084019,0,5,0.5,0.5,-0.002624069213867188,-0.14,-0.011,-0.56,0.0004110240035437822,10,1,100,0.00559887625823826,-10,-1,-100,584.212611056515,-0.0016412429151169566,8.152871386942871e-05,0.9999986498364698,15.131594845086253,-1.0236154594458033,-513.4537475165458,31.891307488349952,-89.98208618164062,6211.884765625,True
1598626501.551719,0,5,0.5,0.5,-0.0026452301025390625,-0.14,-0.011,-0.56,0.0006390003771063349,10,1,100,0.011387970643027897,-10,-1,-100,584.85584983218,-0.0015753855820424439,7.898620155897754e-05,0.99999875595995,15.144617371943294,-1.0240838139068633,-513.6034627111045,31.89275643064815,-89.982177734375,6211.41943359375,True
1598626501.5958757,0,5,0.5,0.5,-0.0025250976562500005,-0.14,-0.011,-0.56,4.111751941017082e-05,10,1,100,-0.003835858247048709,-10,-1,-100,586.7856261730194,-0.0013781905485120592,7.128009498026616e-05,0.9999990477545265,15.182548336191854,-1.0254512700797576,-514.0525163222316,31.896788782782412,-89.982421875,6210.0234375,True
1598626501.6429727,0,5,0.5,0.5,-0.002554165649414063,-0.14,-0.011,-0.56,0.00024980593217213015,10,1,100,0.0010575876919378963,-10,-1,-100,588.0720422596205,-0.0012446113295131256,6.621725659618948e-05,0.999999223278655,15.206483196236855,-1.0263026481174722,-514.3405487202781,31.89938076514801,-89.98257446289062,6209.09375,True
1598626501.6878774,0,5,0.5,0.5,-0.002553024291992188,-0.14,-0.011,-0.56,0.0002073799489686896,10,1,100,0.000353065991059524,-10,-1,-100,589.3585804487811,-0.001117939898342126,6.127336125501235e-05,0.999999373227783,15.229482685139757,-1.0271162328471994,-514.6239478687206,31.90185558081326,-89.98269653320312,6208.16357421875,True
1598626501.7307632,0,5,0.5,0.5,-0.0025346252441406252,-0.14,-0.011,-0.56,0.00014484835645464536,10,1,100,-0.0012395204974629571,-10,-1,-100,590.5896985621657,-0.0009894795590174269,5.62551906655871e-05,0.9999995088826574,15.251327376630247,-1.027876185570556,-514.8942806006393,31.90417377486183,-89.98281860351562,6207.234375,True
1598626501.7768896,0,5,0.5,0.5,-0.002601541137695313,-0.14,-0.011,-0.56,0.0006416882603342051,10,1,100,0.01147661360053329,-10,-1,-100,590.5896985621657,-0.0009894795590174269,5.62551906655871e-05,0.9999995088826574,15.251327376630247,-1.027876185570556,-514.8942806006393,31.90417377486183,-89.98281860351562,6207.234375,True
1598626501.8238175,0,5,0.5,0.5,-0.002493353271484375,-0.14,-0.011,-0.56,-0.00043406771230767704,10,1,100,-0.015825217483720906,-10,-1,-100,593.1482492294163,-0.000742346577499665,4.6516529885134705e-05,0.9999997233788475,15.291744067787613,-1.0292461283491665,-515.4024662515475,31.90850914269834,-89.98297119140625,6205.37744140625,True
1598626501.8679712,0,5,0.5,0.5,-0.002555963134765625,-0.14,-0.011,-0.56,-6.132015716401652e-06,10,1,100,-0.004975755305646553,-10,-1,-100,594.4347876518732,-0.0006174852396741298,4.159892972045935e-05,0.9999998084907357,15.310347847486856,-1.0298582251772999,-515.6418047732866,31.91062032363496,-89.98300170898438,6204.44921875,True
1598626501.9108486,0,5,0.5,0.5,-0.002571710205078125,-0.14,-0.011,-0.56,-1.4424512052232019e-05,10,1,100,-0.004827740265714797,-10,-1,-100,595.7212039905135,-0.0005064898913349809,3.7098292684304984e-05,0.999999871045845,15.328114051500918,-1.0304353593969298,-515.8781457952648,31.912652598461094,-89.98300170898438,6203.521484375,True
1598626501.9561512,0,5,0.5,0.5,-0.0025918975830078127,-0.14,-0.011,-0.56,-3.694520978852751e-05,10,1,100,-0.0063926306332754675,-10,-1,-100,597.0077426882926,-0.0003925099399110508,3.2847118931398874e-05,0.9999999224285039,15.344620679369932,-1.0309484803322058,-516.0951950763158,31.914533193539345,-89.98297119140625,6202.59423828125,True
1598626502.0000079,0,5,0.5,0.5,-0.002616558837890625,-0.14,-0.011,-0.56,-0.00011871838904196588,10,1,100,-0.0070007096299933855,-10,-1,-100,598.2389224417275,-0.0002844990231693205,2.8283278976396634e-05,0.9999999591301801,15.3600169183777,-1.0314065931195846,-516.2979691569382,31.91634138069728,-89.98291015625,6201.6669921875,True
1598626502.0440264,0,5,0.5,0.5,-0.0026242980957031253,-0.14,-0.011,-0.56,-0.0001378858210212465,10,1,100,-0.007599807716972993,-10,-1,-100,599.5254607909592,-0.0001820344676669084,2.4006177747112575e-05,0.999999983143578,15.37439763048247,-1.0318150536712194,-516.4888411228909,31.918084805190972,-89.98284912109375,6200.740234375,True
1598626502.0897825,0,5,0.5,0.5,-0.0026537353515625004,-0.14,-0.011,-0.56,-0.0001624463059707198,10,1,100,-0.008230768069042828,-10,-1,-100,600.8118777730269,-8.423628317393997e-05,1.9937603054798358e-05,0.9999999962533703,15.387770091160721,-1.032174385065736,-516.667160017766,31.91977095144148,-89.98275756835938,6199.81396484375,True
1598626502.1328018,0,5,0.5,0.5,-0.0026663513183593753,-0.14,-0.011,-0.56,-0.00019257872647275448,10,1,100,-0.008735539553303449,-10,-1,-100,602.0984162038658,8.205102543546803e-06,1.6007040105895473e-05,0.9999999998382254,15.400123829321174,-1.032482040299038,-516.8315657840711,31.921404644313377,-89.982666015625,6198.8876953125,True
1598626502.17969,0,5,0.5,0.5,-0.0027005645751953127,-0.14,-0.011,-0.56,-0.00020651524461419825,10,1,100,-0.009212258221505454,-10,-1,-100,603.3848940014141,9.555276381502059e-05,1.2348256643015287e-05,0.999999995358595,15.411557312271487,-1.0327438263410897,-516.9843064077318,31.922989786803786,-89.9825439453125,6197.9619140625,True
1598626502.2250772,0,5,0.5,0.5,-0.0027179565429687504,-0.14,-0.011,-0.56,-0.00020611446195281015,10,1,100,-0.009551916838965866,-10,-1,-100,604.6714328412199,0.0001770611411997892,9.06564873188462e-06,0.9999999842835828,15.422043136475809,-1.0329568103994289,-517.1233828668996,31.924530205022414,-89.982421875,6197.03662109375,True
1598626502.2708454,0,5,0.5,0.5,-0.0027141204833984376,-0.14,-0.011,-0.56,-0.00025101218473445793,10,1,100,-0.009847520173991129,-10,-1,-100,605.9025516968686,0.00025278647759506556,5.716198189145127e-06,0.9999999680331604,15.431630320261625,-1.033122566292035,-517.2491945918027,31.92602934069757,-89.98233032226562,6196.111328125,True
1598626502.3138485,0,5,0.5,0.5,-0.002727642822265625,-0.14,-0.011,-0.56,-0.0002578663749371994,10,1,100,-0.010053119802928116,-10,-1,-100,607.1890902767191,0.00032259211362193057,2.646023540898838e-06,0.9999999479636621,15.440358604868603,-1.0332431868428997,-517.3618869546144,31.92749028604519,-89.98223876953125,6195.1865234375,True
1598626502.361724,0,5,0.5,0.5,-0.0027412994384765628,-0.14,-0.011,-0.56,-0.0002670630007878862,10,1,100,-0.010199955631341202,-10,-1,-100,608.4756902224617,0.0003865320381289304,-1.9323827780443119e-07,0.9999999252964704,15.448263686229424,-1.0333194324191308,-517.4614335874659,31.928916091323682,-89.98214721679688,6194.26171875,True
1598626502.4059918,0,5,0.5,0.5,-0.0027336944580078127,-0.14,-0.011,-0.56,-0.0002561526369768764,10,1,100,-0.010242482896389876,-10,-1,-100,609.762107102666,0.000444234015608951,-2.6412988683781246e-06,0.9999999013245765,15.455374308332328,-1.0333517802741203,-517.5474818152475,31.9303094480021,-89.98208618164062,6193.337890625,True
1598626502.4489892,0,5,0.5,0.5,-0.0027432128906250005,-0.14,-0.011,-0.56,-0.00027845504956967046,10,1,100,-0.010219787239832192,-10,-1,-100,611.0485848593526,0.0004957233582988817,-5.037295503561631e-06,0.9999998771164813,15.461722412631364,-1.0333425856947949,-517.6198434139874,31.931672917644626,-89.98202514648438,6192.4130859375,True
1598626502.4930258,0,5,0.5,0.5,-0.0027313690185546877,-0.14,-0.011,-0.56,-0.0002758201837575409,10,1,100,-0.010117806350048764,-10,-1,-100,612.3350627345499,0.0005408954595812709,-7.161229505909132e-06,0.9999998536903987,15.467386690839945,-1.0332939995132961,-517.6797924381763,31.93300862234136,-89.98199462890625,6191.4892578125,True
1598626502.5370326,0,5,0.5,0.5,-0.0027152191162109376,-0.14,-0.011,-0.56,-0.0002690410703964248,10,1,100,-0.009984840942263415,-10,-1,-100,613.5662424953189,0.0005800950207424415,-9.002116289075786e-06,0.9999998317043501,15.472393269835443,-1.0332086537594152,-517.7269260300277,31.934318813954565,-89.98199462890625,6190.5654296875,True
1598626502.582742,0,5,0.5,0.5,-0.0027160583496093752,-0.14,-0.011,-0.56,-0.000266181487865119,10,1,100,-0.00975103680447395,-10,-1,-100,614.8527206791332,0.0006130015557236774,-1.0623344687720987e-05,0.999999812058101,15.476803195617643,-1.0330873050817693,-517.7618979640717,31.93560549991915,-89.98199462890625,6189.6416015625,True
1598626502.629857,0,5,0.5,0.5,-0.002716796875,-0.14,-0.011,-0.56,-0.000275591346676752,10,1,100,-0.009443019264107406,-10,-1,-100,616.1392594879726,0.0006395666131094868,-1.2158523416782728e-05,0.9999997954033378,15.480610653993025,-1.0329300722870252,-517.7832492807969,31.936870594837714,-89.98199462890625,6188.71875,True
1598626502.6727388,0,5,0.5,0.5,-0.002696038818359375,-0.14,-0.011,-0.56,-0.00023194514650814896,10,1,100,-0.009117721954286225,-10,-1,-100,617.4257373983273,0.0006602648589624897,-1.3135077914342649e-05,0.9999997819388691,15.483928199941433,-1.0327422939913402,-517.7933682119739,31.938115746215367,-89.98202514648438,6187.794921875,True
1598626502.717664,0,5,0.5,0.5,-0.0026922027587890627,-0.14,-0.011,-0.56,-0.0002287917410144116,10,1,100,-0.008704173708040368,-10,-1,-100,618.7122150764335,0.0006748826404832002,-1.3974004928866575e-05,0.9999997721690485,15.486771306376152,-1.0325241618606043,-517.7914772985711,31.939342371191614,-89.9820556640625,6186.8720703125,True
1598626502.7620285,0,5,0.5,0.5,-0.0026668701171875,-0.14,-0.011,-0.56,-0.00023010246971934747,10,1,100,-0.008218378666747263,-10,-1,-100,619.9988149516284,0.0006833714904331015,-1.4730681382007733e-05,0.9999997663931792,15.489200011209252,-1.0322788635528595,-517.7783316426627,31.94055203124954,-89.98211669921875,6185.94921875,True
1598626502.81262,0,5,0.5,0.5,-0.00265845947265625,-0.14,-0.011,-0.56,-0.00025580548703924336,10,1,100,-0.00773809372042386,-10,-1,-100,621.2298725908622,0.0006863944187147888,-1.563643585602338e-05,0.9999997643090742,15.491259976368484,-1.032008310420056,-517.7541706711727,31.941746037210557,-89.982177734375,6185.0263671875,True
1598626502.851516,0,5,0.5,0.5,-0.0026498809814453125,-0.14,-0.011,-0.56,-0.00014715190934108105,10,1,100,-0.0071502948924080535,-10,-1,-100,622.5164116537198,0.0006835263074611009,-1.5458049946437746e-05,0.9999997662763906,15.493008677598606,-1.0317146827215922,-517.7196902960035,31.942925670810258,-89.98223876953125,6184.1044921875,True
1598626502.898678,0,5,0.5,0.5,-0.002641168212890625,-0.14,-0.011,-0.56,-0.00018640584690217458,10,1,100,-0.006544291718080211,-10,-1,-100,623.8029500920093,0.0006751922753803569,-1.5641083323662513e-05,0.9999997719353478,15.494456299139872,-1.0313982400523756,-517.6739753118251,31.9440921184559,-89.9822998046875,6183.181640625,True
1598626502.9432082,0,5,0.5,0.5,-0.0026109588623046873,-0.14,-0.011,-0.56,-0.00017741375041125366,10,1,100,-0.005912900691501509,-10,-1,-100,625.0894278250635,0.0006617128105952546,-1.5716091164112927e-05,0.9999997809445563,15.495705895028294,-1.0310642572645383,-517.6193179739105,31.945246390904018,-89.98239135742188,6182.2607421875,True
1598626502.9877057,0,5,0.5,0.5,-0.0026404296875,-0.14,-0.011,-0.56,-0.00010075366673920091,10,1,100,-0.005197780144058868,-10,-1,-100,626.3759668294806,0.0006428478218583976,-1.5079593111450821e-05,0.9999997932596204,15.496781555389205,-1.0307137529012833,-517.5554254463049,31.946389395800317,-89.982421875,6181.3388671875,True
1598626503.0330503,0,5,0.5,0.5,-0.002614324951171875,-0.14,-0.011,-0.56,-8.803746749583849e-05,10,1,100,-0.004499199168096381,-10,-1,-100,627.6624446129426,0.0006192900479514905,-1.4379831727888907e-05,0.9999998081365101,15.49772473249866,-1.0303487671592408,-517.4825653980957,31.9475220716219,-89.98248291015625,6180.4169921875,True
1598626503.0797093,0,5,0.5,0.5,-0.002626605224609375,-0.14,-0.011,-0.56,-9.328877135349217e-05,10,1,100,-0.003742350181667702,-10,-1,-100,628.9489833828993,0.0005909877277120163,-1.378800915332023e-05,0.9999998252716831,15.498596355778188,-1.02997223530678,-517.4017782707842,31.948645213816135,-89.98251342773438,6179.49609375,True
1598626503.1247416,0,5,0.5,0.5,-0.0026003997802734376,-0.14,-0.011,-0.56,-4.081882842703154e-05,10,1,100,-0.0029588579330794727,-10,-1,-100,630.1801020345883,0.0005581798514938716,-1.2771507799165847e-05,0.9999998441360589,15.499432863411055,-1.0295858735858237,-517.3132982215785,31.949759434911346,-89.98257446289062,6178.57470703125,True
1598626503.1677978,0,5,0.5,0.5,-0.0026126129150390626,-0.14,-0.011,-0.56,-2.5669438574945093e-05,10,1,100,-0.0021751166565424805,-10,-1,-100,631.4667018816108,0.0005213223933338299,-1.1710024451383965e-05,0.9999998640429095,15.500292064574275,-1.0291922533454405,-517.218069223494,31.950865672063117,-89.98260498046875,6177.6533203125,True
1598626503.213703,0,5,0.5,0.5,-0.002629098510742188,-0.14,-0.011,-0.56,2.5710400234010087e-05,10,1,100,-0.0013568739992005805,-10,-1,-100,632.7530579017475,0.0004805166438008195,-1.0280008310116736e-05,0.9999998844990314,15.501185854628922,-1.0287928278293816,-517.1156482253975,31.95196448972459,-89.98260498046875,6176.732421875,True
1598626503.2596679,0,5,0.5,0.5,-0.002628561401367188,-0.14,-0.011,-0.56,1.2174724916961212e-05,10,1,100,-0.0005384384354471987,-10,-1,-100,634.039657461457,0.0004361645980518087,-9.107091296457783e-06,0.9999999048387477,15.502193065263114,-1.0283906310906006,-517.0078503405617,31.95305647186626,-89.98260498046875,6175.8125,True
1598626503.3037164,0,5,0.5,0.5,-0.002628091430664063,-0.14,-0.011,-0.56,6.021945420970788e-05,10,1,100,0.0003258891568491103,-10,-1,-100,635.3261351197725,0.00038821451455061697,-7.6099686037060965e-06,0.9999999246157867,15.503337270763915,-1.0279885721273179,-516.8947233390406,31.95414213463414,-89.98260498046875,6174.8916015625,True
1598626503.3496811,0,5,0.5,0.5,-0.002649050903320313,-0.14,-0.011,-0.56,0.00012514840955485406,10,1,100,0.001145782395012734,-10,-1,-100,636.6127350996248,0.00033743841992341924,-5.6658193629239e-06,0.999999943051604,15.504644785019869,-1.0275866388158486,-516.7763916238401,31.95522188344149,-89.98257446289062,6173.9716796875,True
1598626503.3943622,0,5,0.5,0.5,-0.0026316589355468755,-0.14,-0.011,-0.56,9.230299949118082e-05,10,1,100,0.0020129623573067945,-10,-1,-100,637.8437314953189,0.00028370192865552707,-4.206074020937786e-06,0.9999999597477613,15.506155431054372,-1.027186744554303,-516.6535753783498,31.956296234495944,-89.98257446289062,6173.05126953125,True
1598626503.4419222,0,5,0.5,0.5,-0.0026528198242187504,-0.14,-0.011,-0.56,0.0002084509267996572,10,1,100,0.0028608278392524534,-10,-1,-100,639.1303316899575,0.0002274863511960643,-1.8336062046398747e-06,0.9999999741232987,15.507955929461023,-1.0267943765633825,-516.5286583155639,31.95736566525595,-89.9825439453125,6172.1318359375,True
1598626503.487617,0,5,0.5,0.5,-0.0026569580078125003,-0.14,-0.011,-0.56,0.00018844398908953412,10,1,100,0.003713590435084082,-10,-1,-100,640.4166869545588,0.00016900649488050366,1.2925966107818865e-07,0.999999985718394,15.509990069053442,-1.026406789338202,-516.3992162271736,31.958430581540696,-89.98251342773438,6171.2119140625,True
1598626503.5328379,0,5,0.5,0.5,-0.002682559204101563,-0.14,-0.011,-0.56,0.0002410570369651159,10,1,100,0.004519567628318969,-10,-1,-100,641.703286900185,0.00010892527243065044,2.3787935275190198e-06,0.9999999940648132,15.512363953015695,-1.0260303344175286,-516.2683512254152,31.959491265814247,-89.98245239257812,6170.2919921875,True
1598626503.5758002,0,5,0.5,0.5,-0.002648446655273438,-0.14,-0.011,-0.56,0.0002569772976816259,10,1,100,0.005385556540779327,-10,-1,-100,642.9898257394088,4.687159141321823e-05,4.553856864723649e-06,0.9999999988911581,15.515057436694482,-1.025662509398912,-516.1350587938737,31.96054798365427,-89.98245239257812,6169.373046875,True
1598626503.6228573,0,5,0.5,0.5,-0.002669943237304688,-0.14,-0.011,-0.56,0.0003083264682160181,10,1,100,0.006171583431155953,-10,-1,-100,644.2764257004019,-1.622171918779797e-05,6.982247480982432e-06,0.9999999998440521,15.518138520987366,-1.0253085936929973,-516.0012263460927,31.961600964523747,-89.982421875,6168.45361328125,True
1598626503.6668131,0,5,0.5,0.5,-0.0026744171142578125,-0.14,-0.011,-0.56,0.00031972662404618614,10,1,100,0.00699704071537382,-10,-1,-100,645.562781243585,-8.059475494295545e-05,9.276520119735247e-06,0.9999999967092158,15.52155783335653,-1.0249650315122658,-515.8650001368168,31.962650576680165,-89.98239135742188,6167.53515625,True
1598626503.7107742,0,5,0.5,0.5,-0.002657562255859375,-0.14,-0.011,-0.56,0.0003651021631209077,10,1,100,0.007796709244085277,-10,-1,-100,646.7940222485922,-0.0001458753091643448,1.1756948757071774e-05,0.9999999892910841,15.525416562709225,-1.0246382023680614,-515.7295590230239,31.963697164987366,-89.98239135742188,6166.6162109375,True
1598626503.7587297,0,5,0.5,0.5,-0.0026791595458984375,-0.14,-0.011,-0.56,0.0003924238931583441,10,1,100,0.008560282605410028,-10,-1,-100,648.0805000549881,-0.0002116337163710909,1.4241295936760284e-05,0.9999999775041777,15.529706013662407,-1.0243276242270691,-515.5944872224976,31.964740742161396,-89.98236083984375,6165.69677734375,True
1598626503.8047452,0,5,0.5,0.5,-0.0026623382568359377,-0.14,-0.011,-0.56,0.0003989502460950878,10,1,100,0.009248657108289569,-10,-1,-100,649.3669777382165,-0.00027712672001165435,1.6539259068137994e-05,0.9999999614636162,15.534433066379908,-1.0240335817536173,-515.4599197437345,31.965781652269328,-89.98236083984375,6164.77880859375,True
1598626503.8478086,0,5,0.5,0.5,-0.0026625732421875,-0.14,-0.011,-0.56,0.00045202185077353174,10,1,100,0.010014827038705524,-10,-1,-100,650.6535166621907,-0.0003430722998341888,1.9090599158802618e-05,0.9999999409684713,15.539615284958634,-1.023758098960191,-515.3264544143054,31.966820013327066,-89.98236083984375,6163.8603515625,True
1598626503.8989108,0,5,0.5,0.5,-0.0026628082275390627,-0.14,-0.011,-0.56,0.0004786287784777041,10,1,100,0.010672509074003477,-10,-1,-100,651.9401166929165,-0.0004084319597860291,2.1630701608372262e-05,0.99999991635772,15.545287108349909,-1.0235031939506258,-515.1952697973716,31.96785599420736,-89.98236083984375,6162.9423828125,True
1598626503.9377296,0,5,0.5,0.5,-0.0026416473388671874,-0.14,-0.011,-0.56,0.0005075890938554539,10,1,100,0.011328282023496306,-10,-1,-100,653.2264723900007,-0.0004732332971821986,2.4181830058857834e-05,0.9999998877327365,15.551440741152204,-1.02326915599644,-515.0661698926932,31.9688895934982,-89.98239135742188,6162.0244140625,True
1598626503.984429,0,5,0.5,0.5,-0.0026588714599609375,-0.14,-0.011,-0.56,0.0005248740929651957,10,1,100,0.011981621749768157,-10,-1,-100,654.513072167756,-0.0005374992016065853,2.663630812357166e-05,0.9999998551925473,15.558059214404338,-1.0230548324999085,-514.9394075437064,31.969958157702706,-89.98239135742188,6161.1064453125,True
