Timestamp,Input Throttle,horizon,dT,dt,Input Roll,Roll P,Roll I,Roll D,Input Pitch,Pitch P,Pitch I,Pitch D,Input Yaw,Yaw P,Yaw I,Yaw D,Altitude,Direction X,Direction Y,Direction Z,Drag X,Drag Y,Drag Z,Vertical Velocity,Roll,Mass,Has Fuel
1598620767.7417595,0,5,0.5,0.5,-0.010010375976562501,-0.14,-0.011,-0.56,0.004275931930036084,10,1,100,0.12474002892005125,-10,-1,-100,478.81092823680956,-0.011715541822814129,0.00041342407143581946,0.9999312852193071,5.336540418871461,-0.43684800402068097,109.8071932365148,-14.04557988427245,-89.92129516601562,6440.1796875,True
1598620767.7761745,0,5,0.5,0.5,-0.009097195434570314,-0.14,-0.011,-0.56,0.004349206030472012,10,1,100,0.12459666222444743,-10,-1,-100,477.6686269552447,-0.011772539002941626,0.00041500246151736706,0.9999306151420614,5.5860811424121195,-0.4578958746296837,121.47092874570548,-14.82344271890537,-89.92416381835938,6440.1796875,True
1598620767.8086011,0,5,0.5,0.5,-0.009932568359375001,-0.14,-0.011,-0.56,0.00412123552488108,10,1,100,0.11872963912168305,-10,-1,-100,477.35365515074227,-0.011760315739393365,0.0004139876274847497,0.9999307593968465,5.6483292600278405,-0.4631598238429653,124.47886574236237,-15.017885712344398,-89.92538452148438,6440.1796875,True
1598620767.8482149,0,5,0.5,0.5,-0.007878414916992189,-0.14,-0.011,-0.56,0.00404564359550281,10,1,100,0.11832883828533466,-10,-1,-100,476.79601895739324,-0.011734868841528693,0.0004120014993448544,0.9999310591775998,5.9450710050891376,-0.481747491601305,120.53508033884323,-14.115287502432816,-89.92941284179688,6437.0224609375,True
1598620767.889295,0,5,0.5,0.5,-0.005640386962890624,-0.14,-0.011,-0.56,0.004116718716690303,10,1,100,0.11700566147356346,-10,-1,-100,476.22729991027154,-0.011689038355325136,0.0004104675189563406,0.9999315966098598,5.794505537189154,-0.46417167063615045,107.68246475612384,-13.212149878714726,-89.93594360351562,6433.8642578125,True
1598620767.9256408,0,5,0.5,0.5,-0.0031943695068359377,-0.14,-0.011,-0.56,0.003950427170464581,10,1,100,0.1134433387367368,-10,-1,-100,475.7220236817375,-0.011604363126300456,0.0004071880977111339,0.9999325842046984,5.61981595791681,-0.4451831658755176,95.31967296156299,-12.308469565349732,-89.94476318359375,6430.70654296875,True
1598620767.9573305,0,5,0.5,0.5,-0.0006318389892578128,-0.14,-0.011,-0.56,0.0038452293315724305,10,1,100,0.10955242080251773,-10,-1,-100,475.27808936929796,-0.011481464243124845,0.00040288029068218903,0.9999340046554599,5.432684287268154,-0.42574803194055094,83.68953374971369,-11.404243654510976,-89.95556640625,6427.548828125,True
1598620767.9974926,0,5,0.5,0.5,0.0018998504638671875,-0.14,-0.011,-0.56,0.0036726458714059426,10,1,100,0.10538607190398816,-10,-1,-100,474.83743330382276,-0.011321424391848453,0.0003970289071173782,0.9999358318001144,5.233202367827862,-0.4058810447277288,72.79630802907491,-10.499464481924072,-89.9678955078125,6424.390625,True
1598620768.0613568,0,5,0.5,0.5,-0.0005109527587890627,-0.14,-0.011,-0.56,0.003947490282038317,10,1,100,0.11227501076699173,-10,-1,-100,474.64769996213727,-0.01122826813090463,0.0003938471176941014,0.9999368834477647,5.128742248772817,-0.39578110306789166,67.62505277653422,-10.046865218159624,-89.974365234375,6422.8115234375,True
1598620768.100493,0,5,0.5,0.5,0.014011782836914064,-0.14,-0.011,-0.56,0.0024774197224897714,10,1,100,0.071832475910268,-10,-1,-100,473.95623923430685,-0.010765713696684663,0.0003772322612064138,0.9999419768688692,4.681295814794401,-0.35441897001868267,48.79411707859546,-8.235051164664274,-90.00032806396484,6416.49609375,True
1598620768.1371963,0,5,0.5,0.5,0.008423764801025392,-0.14,-0.011,-0.56,0.0030552823869593815,10,1,100,0.08761936523411872,-10,-1,-100,473.6443357580574,-0.01047893982879544,0.00036703820474805204,0.999945027040497,4.441634793337332,-0.33329338658150476,40.500223866474684,-7.328282428644046,-90.01311492919922,6413.337890625,True
1598620768.176713,0,5,0.5,0.5,0.009118638610839846,-0.14,-0.011,-0.56,0.0029059895592093514,10,1,100,0.0826731354715495,-10,-1,-100,473.3326460160315,-0.01017439477104917,0.0003564558421397118,0.9999481759722728,4.1939428897036946,-0.3120512876797151,32.962531500039404,-6.420930741407686,-90.0241928100586,6410.1806640625,True
1598620768.2452364,0,5,0.5,0.5,0.0030250572204589847,-0.14,-0.011,-0.56,0.003958371158105611,10,1,100,0.1129678268229872,-10,-1,-100,473.3326460160315,-0.01017439477104917,0.0003564558421397118,0.9999481759722728,4.1939428897036946,-0.3120512876797151,32.962531500039404,-6.420930741407686,-90.0241928100586,6410.1806640625,True
1598620768.3572297,0,5,0.5,0.5,0.013708087158203128,-0.14,-0.011,-0.56,0.0011429365475221888,10,1,100,0.03439181435193908,-10,-1,-100,472.9597525880672,-0.009461509131283592,0.0003309132836665398,0.9999551841664492,3.696483677044957,-0.2707670305747928,20.2067743437979,-4.604452322858245,-90.03929901123047,6403.86474609375,True
1598620768.4192872,0,5,0.5,0.5,0.007062451934814454,-0.14,-0.011,-0.56,0.0029214648302573133,10,1,100,0.0840414153354131,-10,-1,-100,472.87679829006083,-0.009266857976537597,0.00032393493145731943,0.9999570092806005,3.5815665029624664,-0.26139485662362394,17.519911654492827,-4.14995643615109,-90.04171752929688,6402.2861328125,True
1598620768.4552915,0,5,0.5,0.5,0.008735047149658203,-0.14,-0.011,-0.56,0.0011878561282431016,10,1,100,0.03602653674133524,-10,-1,-100,472.6822556233965,-0.008655605467166701,0.0003019095617828981,0.9999624939689554,3.3677517413948936,-0.24327127890059472,10.834757288196153,-2.7855637334979217,-90.0458755493164,6397.548828125,True
1598620768.5622041,0,5,0.5,0.5,0.005914294433593751,-0.14,-0.011,-0.56,0.0016604435548921114,10,1,100,0.04828513827745709,-10,-1,-100,472.59810329950415,-0.008214043888666207,0.0002862784555356226,0.9999662231933841,3.7258342988465705,-0.26743462062409756,7.968058036957694,-1.8752033799293455,-90.04501342773438,6394.3916015625,True
1598620768.70517,0,5,0.5,0.5,0.004321859741210939,-0.14,-0.011,-0.56,0.0014673366210080706,10,1,100,0.043123891918608895,-10,-1,-100,472.55038890906144,-0.007768674232543919,0.00027041884303474143,0.9999697868307411,7.300175317160406,-0.5208908671859671,7.93289028130906,-0.9642209355941107,-90.04190826416016,6391.2333984375,True
1598620768.7656028,0,5,0.5,0.5,0.0027081748962402346,-0.14,-0.011,-0.56,0.0011641400701267446,10,1,100,0.03572541019582051,-10,-1,-100,472.5390821604524,-0.007299763575097675,0.00025335978126600343,0.9999733242744873,14.765356151329197,-1.047715487089054,0.8656336383257793,-0.052602439863318806,-90.03700256347656,6388.0751953125,True
1598620768.8242106,0,5,0.5,0.5,-0.0013063285827636722,-0.14,-0.011,-0.56,5.2890486351557e-06,10,1,100,0.0021874024468095665,-10,-1,-100,472.5906957591651,-0.006572161547478997,0.00022744424976852543,0.9999783772470818,0.6391673707490487,-0.04500925592677632,-0.9233047409566019,1.3160672050131605,-90.0272445678711,6383.3388671875,True
1598620768.8853545,0,5,0.5,0.5,-0.0012649711608886723,-0.14,-0.011,-0.56,0.0006155295293492444,10,1,100,0.01932481172505944,-10,-1,-100,472.6706375016365,-0.006070312108672657,0.0002095684873331625,0.9999815535258401,1.497503270628754,-0.10497462329273388,-3.630897857846183,2.2293256169492386,-90.01945495605469,6380.18115234375,True
1598620768.9182148,0,5,0.5,0.5,-0.005937409973144531,-0.14,-0.011,-0.56,-0.0006458421021715904,10,1,100,-0.015563180868816452,-10,-1,-100,472.8590626313817,-0.005300929620468134,0.0001819939336666567,0.999985933412749,2.4255163938521216,-0.1689987178401967,-9.382109595084286,3.6003896351250604,-90.00653839111328,6375.4443359375,True
1598620768.9602804,0,5,0.5,0.5,-0.007701062011718751,-0.14,-0.011,-0.56,-0.0009948665748912699,10,1,100,-0.025199704398177217,-10,-1,-100,473.1300389431417,-0.004518316658333997,0.00015391180958917528,0.999989780510646,3.1656613478666245,-0.21942141046981445,-16.735838880234326,4.972852638349022,-89.99371337890625,6370.70751953125,True
1598620768.9936495,0,5,0.5,0.5,-0.005871796417236329,-0.14,-0.011,-0.56,-0.0001945472688592027,10,1,100,-0.0041451514925605615,-10,-1,-100,473.3094093563268,-0.00400339724472922,0.00013584236687589328,0.999991977146493,3.6280529596590685,-0.25071327749640154,-22.57490168082434,5.888600611048872,-89.98611450195312,6367.5498046875,True
1598620769.0303638,0,5,0.5,0.5,-0.006011476135253907,-0.14,-0.011,-0.56,-0.0004271510184131438,10,1,100,-0.009699059727160883,-10,-1,-100,473.5738326923456,-0.00348976053194356,0.00011747835842859258,0.9999939038665511,4.080767134945643,-0.2812474984286667,-29.186997088336128,6.80496310511845,-89.97991943359375,6364.3916015625,True
1598620769.0972803,0,5,0.5,0.5,-0.004361924743652344,-0.14,-0.011,-0.56,0.00039562968593018157,10,1,100,0.0126005008101127,-10,-1,-100,473.76706455776,-0.003230793250154169,0.00010845131767328466,0.9999947750929935,4.3050816349481105,-0.2963503569198149,-32.78682119875079,7.263374036431748,-89.9774169921875,6362.8125,True
1598620769.1422925,0,5,0.5,0.5,-0.007521945953369141,-0.14,-0.011,-0.56,-0.0027168305762303897,10,1,100,-0.07384884817794476,-10,-1,-100,474.4246058835415,-0.002214396923378757,7.2125694825281e-05,0.9999975456190631,5.194248385900993,-0.3561347002716783,-49.16573676162766,9.098538310658867,-89.97100830078125,6356.49755859375,True
1598620769.1804557,0,5,0.5,0.5,-0.004548542022705078,-0.14,-0.011,-0.56,-0.00010877337214375868,10,1,100,-0.0009848902192493535,-10,-1,-100,474.6211954531027,-0.001958254104994057,6.300669660125645e-05,0.9999980806336662,5.414940450441694,-0.3709703978739695,-53.75873706248121,9.557707582980893,-89.97024536132812,6354.91845703125,True
1598620769.248555,0,5,0.5,0.5,-0.004584646606445314,-0.14,-0.011,-0.56,-0.0021323871357516646,10,1,100,-0.05788054417324537,-10,-1,-100,475.2110867240699,-0.0012134459797239563,3.650876595246543e-05,0.9999992631077106,6.073315105485838,-0.41527775468875844,-68.74335854320077,10.93611658735557,-89.96969604492188,6350.181640625,True
1598620769.2884061,0,5,0.5,0.5,-0.0025352706909179696,-0.14,-0.011,-0.56,-0.002380143216874756,10,1,100,-0.06497349052101069,-10,-1,-100,475.9297942528501,-0.0004773993695854291,1.0364547366366889e-05,0.9999998859912026,6.724498965730636,-0.4592416896617709,-85.5374107064955,12.315867978371731,-89.9722900390625,6345.4453125,True
1598620769.3264937,0,5,0.5,0.5,-0.0018694023132324222,-0.14,-0.011,-0.56,-0.0016467434706637866,10,1,100,-0.04367756771153254,-10,-1,-100,476.44843318487983,-7.406078798290682e-06,-6.5383084714391955e-06,0.9999999999512001,7.154000856666434,-0.4883518332432892,-97.74401680974577,13.236441472291402,-89.97540283203125,6342.287109375,True
1598620769.3673408,0,5,0.5,0.5,-0.0008198371887207035,-0.14,-0.011,-0.56,-0.001739229260106329,10,1,100,-0.04698087409805275,-10,-1,-100,477.03158689301927,0.0004443788744948604,-2.2548860231827287e-05,0.9999999010094774,7.578903479123304,-0.5172716228359121,-110.75855623027438,14.15760325288812,-89.97946166992188,6339.12890625,True
1598620769.406192,0,5,0.5,0.5,0.00012449951171874998,-0.14,-0.011,-0.56,-0.0018962309048138975,10,1,100,-0.05082943162229034,-10,-1,-100,477.61788411135785,0.0008848563472590095,-3.83452469714321e-05,0.9999996077793665,7.998596617623739,-0.5459755807396867,-124.58037841750705,15.079348839568432,-89.98410034179688,6335.9716796875,True
1598620769.4454315,0,5,0.5,0.5,0.0009769622802734378,-0.14,-0.011,-0.56,-0.0019939612610024027,10,1,100,-0.05381221022037394,-10,-1,-100,478.2653389434563,0.0013074946070220932,-5.341927719409506e-05,0.9999991438017501,8.412663997437473,-0.5744527558088127,-139.21084623255086,16.00167481164534,-89.98904418945312,6332.8134765625,True
1598620769.509299,0,5,0.5,0.5,0.001693685913085938,-0.14,-0.011,-0.56,-0.002074315901011355,10,1,100,-0.05632238618689177,-10,-1,-100,478.91590577329043,0.001709702904818921,-6.768138172017006e-05,0.9999985361665326,8.82163585856996,-0.6027440434600525,-154.4257879248832,16.898669099801506,-89.9940185546875,6329.71826171875,True
1598620769.5484002,0,5,0.5,0.5,0.0038315399169921885,-0.14,-0.011,-0.56,-0.002874235776723225,10,1,100,-0.07911247644137016,-10,-1,-100,479.9556443169713,0.0022778026656415113,-8.775060312293818e-05,0.9999974019540491,9.409522771136533,-0.6437301810131492,-177.5811531095782,18.157283146629,-90.00102996826172,6325.2861328125,True
1598620769.588378,0,5,0.5,0.5,0.0027990119934082035,-0.14,-0.011,-0.56,-0.002263814458810366,10,1,100,-0.06180303008520254,-10,-1,-100,480.7284257154679,0.0026318905759552553,-0.00010026769976188664,0.9999965315431771,9.751953492237519,-0.6678800807489698,-192.7850569574977,18.967295329609808,-90.005126953125,6322.40234375,True
1598620769.627735,0,5,0.5,0.5,0.0029187873840332036,-0.14,-0.011,-0.56,-0.0023084220676851995,10,1,100,-0.06301197541314194,-10,-1,-100,481.5075619025156,0.002960373372404168,-0.00011189568097380448,0.9999956118247982,10.090161111399235,-0.6918901163889518,-208.16343705908875,19.733258881860667,-90.0085220336914,6319.625,True
1598620769.6932755,0,5,0.5,0.5,0.0026885223388671874,-0.14,-0.011,-0.56,-0.002389141075263234,10,1,100,-0.0644076933998862,-10,-1,-100,482.3440338666551,0.003267210962257765,-0.00012304137998300733,0.9999946550823894,10.404598364285194,-0.7143895835332823,-223.03235974277322,20.437115889264312,-90.01084899902344,6316.9990234375,True
1598620769.7942345,0,5,0.5,0.5,0.0025308486938476565,-0.14,-0.011,-0.56,-0.0034012896022578786,10,1,100,-0.09397685179502888,-10,-1,-100,484.02784692589194,0.0038108914321332583,-0.00014223013828592898,0.9999927284121021,10.945387677107512,-0.7536984386196587,-251.21181998961322,21.72735294346433,-90.01242065429688,6312.029296875,True
1598620769.8394496,0,5,0.5,0.5,-0.0009754226684570311,-0.14,-0.011,-0.56,-0.003558335662791021,10,1,100,-0.09996450769715215,-10,-1,-100,486.28827589179855,0.00435568119403781,-0.00016096343303374788,0.9999905010209394,11.513288894007317,-0.7960712342748668,-285.2696689004734,23.224382149481734,-90.00860595703125,6306.10009765625,True
1598620769.9063563,0,5,0.5,0.5,-0.0011204788208007813,-0.14,-0.011,-0.56,-0.002329256641669658,10,1,100,-0.06381903620469137,-10,-1,-100,487.2571280802367,0.004518382975589727,-0.00016667986886287784,0.9999897781643107,11.726577863651036,-0.812175813458766,-298.36084344570133,23.75250436722701,-90.00529479980469,6303.8984375,True
1598620769.9779594,0,5,0.5,0.5,-0.003745260620117188,-0.14,-0.011,-0.56,-0.0024350233510460235,10,1,100,-0.06890197178477983,-10,-1,-100,488.6800362386275,0.004708798551273096,-0.000172707116057662,0.9999888986326076,12.014961728201087,-0.8342921932480944,-317.3695642457716,24.50790398287675,-89.99885559082031,6300.685546875,True
1598620770.0248134,0,5,0.5,0.5,-0.005025721740722657,-0.14,-0.011,-0.56,-0.0023001604685347786,10,1,100,-0.06431551600787688,-10,-1,-100,490.16423928609584,0.004836732256464301,-0.0001768382583309215,0.9999882873060613,12.238745407084929,-0.8519470850760904,-334.08386100584386,25.176127180771463,-89.99185180664062,6297.68212890625,True
1598620770.0646555,0,5,0.5,0.5,-0.006035206604003907,-0.14,-0.011,-0.56,-0.0020541099303328166,10,1,100,-0.05860939920136493,-10,-1,-100,491.71293474768754,0.004897953437806704,-0.00017824482006737884,0.9999879890683214,12.437066373692648,-0.8678326575302902,-349.66836557793346,25.780865877068447,-89.98480224609375,6294.83203125,True
1598620770.1313155,0,5,0.5,0.5,-0.0050028640747070315,-0.14,-0.011,-0.56,-0.0019240733136762348,10,1,100,-0.053902649028377464,-10,-1,-100,492.7468999506673,0.004907922009697196,-0.00017824084927787367,0.9999879401931537,12.550894699745605,-0.8771686247882964,-359.59366806557483,26.17171593042053,-89.98065185546875,6292.9619140625,True
1598620770.1974096,0,5,0.5,0.5,-0.005990856170654297,-0.14,-0.011,-0.56,-0.0017337068036601146,10,1,100,-0.04996691072831087,-10,-1,-100,494.3596536873374,0.004878813891102441,-0.00017642437097258157,0.9999880829537207,12.722592945777622,-0.8911491807443755,-373.7947592242508,26.693391797627164,-89.9759521484375,6290.31103515625,True
1598620770.2723923,0,5,0.5,0.5,-0.0047583000183105476,-0.14,-0.011,-0.56,-0.0017021034907494094,10,1,100,-0.047863979767311556,-10,-1,-100,495.4543624932412,0.004831191753357082,-0.00017441649087657262,0.9999883145142896,12.809126460315156,-0.8984860086048546,-382.28465686983316,27.02119463123235,-89.9739990234375,6288.591796875,True
1598620770.3133476,0,5,0.5,0.5,-0.0045356552124023435,-0.14,-0.011,-0.56,-0.0009679346157929312,10,1,100,-0.02977723675468039,-10,-1,-100,498.1690712834243,0.004621773220400151,-0.00016586004573523034,0.9999893057941892,13.015063547456592,-0.915917494695095,-402.3867311192298,27.766587568359668,-89.97280883789062,6284.47412109375,True
1598620770.3582654,0,5,0.5,0.5,-0.0031419525146484375,-0.14,-0.011,-0.56,-0.0013021547946035503,10,1,100,-0.037828964879926714,-10,-1,-100,499.32843377569225,0.004503358844070506,-0.00016108089844524097,0.9999898468544896,13.083351665080965,-0.9218375429704534,-409.85853082610714,28.049377368646773,-89.97390747070312,6282.8642578125,True
1598620770.3922842,0,5,0.5,0.5,-0.002496450805664063,-0.14,-0.011,-0.56,-0.0012387418540102625,10,1,100,-0.03548627042471421,-10,-1,-100,500.4261296244804,0.004373782672894408,-0.0001561426007578941,0.9999904227764477,13.162525516478247,-0.9284174670070646,-417.13585196372395,28.297318378826546,-89.97576904296875,6281.337890625,True
1598620770.429226,0,5,0.5,0.5,-0.0019301544189453128,-0.14,-0.011,-0.56,-0.001071665373934729,10,1,100,-0.032124276316561465,-10,-1,-100,501.585351674119,0.004225406114952152,-0.00015013874470714287,0.9999910616608138,13.212302321037896,-0.9328461195671148,-423.19742839178565,28.526771337439893,-89.97811889648438,6279.85546875,True
1598620770.4695349,0,5,0.5,0.5,-0.001417445373535156,-0.14,-0.011,-0.56,-0.0009666267698079252,10,1,100,-0.028998128464395152,-10,-1,-100,502.6775454849703,0.0040623651516764414,-0.00014374083473635784,0.999991738229845,13.424714559420103,-0.9480222773372349,-429.0891183468263,28.438301403054716,-89.98077392578125,6279.130859375,True
1598620770.507784,0,5,0.5,0.5,-0.0010869934082031252,-0.14,-0.011,-0.56,-0.000832019991167717,10,1,100,-0.02595081272035693,-10,-1,-100,503.83535112196114,0.0038870308904796268,-0.0001367271879401162,0.9999924361196602,13.257230713756423,-0.9356979328558098,-417.6981979418605,28.04600131246241,-89.9833984375,6279.130859375,True
1598620770.5451996,0,5,0.5,0.5,-0.0007715850830078124,-0.14,-0.011,-0.56,-0.0007492678209575265,10,1,100,-0.022728203125086062,-10,-1,-100,504.9337486503646,0.0036992030215855006,-0.00012963531755106825,0.9999931495223802,13.093559911655525,-0.9236630895437361,-406.58737664886473,27.653773749514016,-89.9859619140625,6279.130859375,True
1598620770.5822313,0,5,0.5,0.5,-0.0005609588623046876,-0.14,-0.011,-0.56,-0.0006297319997842129,10,1,100,-0.01941441053205296,-10,-1,-100,506.0321210959228,0.0034994147993961952,-0.000122145663825373,0.9999938695694582,12.926539817840586,-0.9114117630716425,-395.5317252495447,27.2616178781845,-89.98831176757812,6279.130859375,True
1598620770.6222155,0,5,0.5,0.5,-0.0018684509277343752,-0.14,-0.011,-0.56,-0.0013730878538084877,10,1,100,-0.0392523820299534,-10,-1,-100,506.0321210959228,0.0034994147993961952,-0.000122145663825373,0.9999938695694582,12.926539817840586,-0.9114117630716425,-395.5317252495447,27.2616178781845,-89.98831176757812,6279.130859375,True
1598620770.659516,0,5,0.5,0.5,0.0008795196533203126,-0.14,-0.011,-0.56,0.00042865575129321125,10,1,100,0.008168919908276652,-10,-1,-100,508.1609941055067,0.003069566053677473,-0.00010581552078549138,0.9999952832725352,12.592867274183313,-0.8869938812769554,-373.91167272574774,26.47751851408093,-89.99221801757812,6279.130859375,True
1598620770.6984115,0,5,0.5,0.5,-0.00015573730468749992,-0.14,-0.011,-0.56,-0.0001870008782700718,10,1,100,-0.008465683198939214,-10,-1,-100,509.25574930978473,0.002831619609180306,-9.662917917262074e-05,0.9999959862885404,12.425624165417918,-0.8747849547233635,-363.32869009877004,26.08557271103651,-89.99383544921875,6279.130859375,True
1598620770.7363389,0,5,0.5,0.5,-0.0001197906494140625,-0.14,-0.011,-0.56,-0.0001338998433247187,10,1,100,-0.007003071080671299,-10,-1,-100,510.2287702022586,0.0026036355982088275,-8.785815999465568e-05,0.9999966066755505,12.258111527067946,-0.8625757398229827,-352.89698846408805,25.693694863962737,-89.99514770507812,6279.130859375,True
1598620770.7711732,0,5,0.5,0.5,-0.0005161956787109375,-0.14,-0.011,-0.56,-0.0004918316877347862,10,1,100,-0.016128502290227983,-10,-1,-100,510.7439671767643,0.0024810628930906,-8.320499818064313e-05,0.9999969186971771,12.174354752029997,-0.8564780860465157,-347.74074740819947,25.497781305392248,-89.99559783935547,6279.130859375,True
1598620770.8073878,0,5,0.5,0.5,-0.00032455368041992195,-0.14,-0.011,-0.56,5.3670858974394454e-05,10,1,100,-0.0010839985414557163,-10,-1,-100,511.7779623150127,0.0022345855996122855,-7.408204392743668e-05,0.9999975005664007,12.006859609765808,-0.8442978124080691,-337.54772615128877,25.10600372044839,-89.99620056152344,6279.130859375,True
1598620770.8452876,0,5,0.5,0.5,-0.00046594924926757816,-0.14,-0.011,-0.56,0.0002342184431097104,10,1,100,0.0023777849441829306,-10,-1,-100,512.7475654298905,0.0019808544106855934,-6.421624993309131e-05,0.9999980360441099,11.839346301343323,-0.832134314144866,-327.51241708732516,24.714291373082744,-89.99645233154297,6279.130859375,True
1598620770.8822799,0,5,0.5,0.5,-0.0006110565185546876,-0.14,-0.011,-0.56,0.00030764273525061875,10,1,100,0.0049579178893841835,-10,-1,-100,513.7169853994856,0.0017286262219240354,-5.4652147814044775e-05,0.9999985044311456,11.671779484731385,-0.8199848962142156,-317.6334941225998,24.322643676933815,-89.99642181396484,6279.130859375,True
1598620770.9211714,0,5,0.5,0.5,-0.0008253074645996095,-0.14,-0.011,-0.56,0.0003984787482075018,10,1,100,0.00819865719007597,-10,-1,-100,514.6864668033086,0.0014718287881968352,-4.520634126087269e-05,0.9999989158376148,11.5042999486438,-0.8078592075562078,-307.914386099245,23.93105945939878,-89.9960708618164,6279.130859375,True
1598620770.9592378,0,5,0.5,0.5,-0.0007992340087890627,-0.14,-0.011,-0.56,2.2831579115812554e-05,10,1,100,-0.0031075492085486517,-10,-1,-100,515.2017252873629,0.0013431851559172303,-4.0110972273631784e-05,0.9999990971219658,11.42058953379972,-0.8018049157035291,-303.11450781241234,23.73529082463058,-89.99581146240234,6279.130859375,True
1598620770.9952133,0,5,0.5,0.5,-0.0013934013366699218,-0.14,-0.011,-0.56,0.0010943535194587453,10,1,100,0.02681187485137443,-10,-1,-100,516.5612211261177,0.0009562018438850878,-2.5812287092614973e-05,0.999999542505775,11.169778510421924,-0.7836901006302831,-288.95805579645497,23.14807695736261,-89.99474334716797,6279.130859375,True
1598620771.0283022,0,5,0.5,0.5,-0.001103276062011719,-0.14,-0.011,-0.56,0.0002405325246662576,10,1,100,0.0027999455076156057,-10,-1,-100,517.0120266081067,0.0008250011114859577,-2.066306722319754e-05,0.9999996594730438,11.08627288093624,-0.7776671274274276,-284.3198018627902,22.95236938838605,-89.99429321289062,6279.130859375,True
1598620771.0662732,0,5,0.5,0.5,-0.0015325119018554688,-0.14,-0.011,-0.56,0.000786120811370828,10,1,100,0.018039919258161716,-10,-1,-100,517.978213005932,0.0005692230160655944,-1.1099476056924047e-05,0.9999998379309667,10.919355070277497,-0.7656401746369272,-275.1622999101861,22.56099907352916,-89.99331665039062,6279.130859375,True
1598620771.1041713,0,5,0.5,0.5,-0.0016911636352539062,-0.14,-0.011,-0.56,0.0009128500234030706,10,1,100,0.021398195535511644,-10,-1,-100,518.8223286641296,0.000308224414610369,-1.3309727992147522e-06,0.9999999524979681,10.75269190776406,-0.7536473972555949,-266.16622376444667,22.169687430378378,-89.9923095703125,6279.130859375,True
1598620771.141348,0,5,0.5,0.5,-0.0018352767944335938,-0.14,-0.011,-0.56,0.0010155552628368129,10,1,100,0.02333674712699312,-10,-1,-100,519.7239403140265,5.541649989542199e-05,8.404507623377318e-06,0.999999998429188,10.586268457085168,-0.7416874831524174,-257.33051175627895,21.778433383625693,-89.99130249023438,6279.130859375,True
1598620771.1785536,0,5,0.5,0.5,-0.001916905975341797,-0.14,-0.011,-0.56,0.0010441436658119912,10,1,100,0.025807235392727175,-10,-1,-100,520.5681175438222,-0.00019466272826738923,1.7431557574777164e-05,0.9999999809012814,10.420154660069002,-0.7297650914886511,-248.6561547942276,21.387236049349315,-89.99038696289062,6279.130859375,True
1598620771.2163653,0,5,0.5,0.5,-0.001966025543212891,-0.14,-0.011,-0.56,0.0011673841867697581,10,1,100,0.02802690399524113,-10,-1,-100,521.4086939812405,-0.00043997787904927205,2.6675140810663803e-05,0.9999999028539466,10.254423763785654,-0.717885102585276,-240.14410593711497,20.996094522138037,-89.98959350585938,6279.130859375,True
1598620771.2482808,0,5,0.5,0.5,-0.0017428573608398441,-0.14,-0.011,-0.56,0.0007468974468655407,10,1,100,0.01691421131144168,-10,-1,-100,521.8596219408792,-0.0005597664169166843,3.117316303439172e-05,0.9999998428448839,10.171684725530817,-0.711959721562146,-235.94828125778912,20.80054437197901,-89.98928833007812,6279.130859375,True
1598620771.2863743,0,5,0.5,0.5,-0.0019429649353027345,-0.14,-0.011,-0.56,0.0012842705261054822,10,1,100,0.031011699754423104,-10,-1,-100,522.6394073433476,-0.0007947437166061259,4.0069460948281625e-05,0.9999996833883815,10.006531450131742,-0.7001429640925619,-227.67813807331217,20.409484368872487,-89.98876953125,6279.130859375,True
1598620771.323289,0,5,0.5,0.5,-0.0016604690551757814,-0.14,-0.011,-0.56,0.0004031683149374071,10,1,100,0.007740627035959239,-10,-1,-100,522.6394073433476,-0.0007947437166061259,4.0069460948281625e-05,0.9999996833883815,10.006531450131742,-0.7001429640925619,-227.67813807331217,20.409484368872487,-89.98876953125,6279.130859375,True
1598620771.363516,0,5,0.5,0.5,-0.0019459251403808595,-0.14,-0.011,-0.56,0.0022497973248434334,10,1,100,0.05770501240264171,-10,-1,-100,524.256534843822,-0.0012470218300554908,5.678410609904376e-05,0.9999992208557568,9.67734614399177,-0.6766319359033027,-211.6167499232954,19.627521664519808,-89.98837280273438,6279.130859375,True
1598620771.4013815,0,5,0.5,0.5,-0.0016880401611328126,-0.14,-0.011,-0.56,0.0015292760970975034,10,1,100,0.0373560617671629,-10,-1,-100,525.0328419316793,-0.0014711903604378873,6.535395744459937e-05,0.999998915663304,9.513281149034484,-0.6649348941868678,-203.8231686021677,19.23661740252992,-89.98843383789062,6279.130859375,True
1598620771.438299,0,5,0.5,0.5,-0.0014936798095703126,-0.14,-0.011,-0.56,0.0014757740515950355,10,1,100,0.03672915388319893,-10,-1,-100,525.8090880782111,-0.0016671933241386445,7.258015186811132e-05,0.9999986075983013,9.349584487120023,-0.6532775097732613,-196.18691414831753,18.845762903176144,-89.98876953125,6279.130859375,True
1598620771.4756238,0,5,0.5,0.5,-0.0013235107421875002,-0.14,-0.011,-0.56,0.001584349717576274,10,1,100,0.03918292900064187,-10,-1,-100,526.520881072036,-0.0018656517773522649,8.006039864574704e-05,0.9999982564653691,9.186413732449031,-0.6416705662954477,-188.710435087484,18.454957441803096,-89.98928833007812,6279.130859375,True
1598620771.5164454,0,5,0.5,0.5,-0.0013823760986328127,-0.14,-0.011,-0.56,0.0012333986975515275,10,1,100,0.029862959728431823,-10,-1,-100,526.9107131238561,-0.0019593653085336806,8.35961670147864e-05,0.9999980769477852,9.105020548144692,-0.635885571341935,-185.03169486028534,18.25957279040276,-89.9896240234375,6279.130859375,True
1598620771.5485506,0,5,0.5,0.5,-0.001016790771484375,-0.14,-0.011,-0.56,0.0016047540721071856,10,1,100,0.040256872011351,-10,-1,-100,527.6228112905519,-0.00213721791962657,9.011810379224507e-05,0.9999977120865285,8.942583944793776,-0.6243499235445619,-177.79189891795062,17.86883900334998,-89.99041748046875,6279.130859375,True
1598620771.586448,0,5,0.5,0.5,-0.0007988616943359375,-0.14,-0.011,-0.56,0.0016656599637386472,10,1,100,0.041167021788910144,-10,-1,-100,528.3345430324553,-0.002305410241151226,9.653474847184126e-05,0.9999973378787878,8.78057906153998,-0.612857337222213,-170.70755878596844,17.4781514264654,-89.99136352539062,6279.130859375,True
1598620771.622595,0,5,0.5,0.5,-0.0006003814697265625,-0.14,-0.011,-0.56,0.0016635792093548742,10,1,100,0.04149276869145116,-10,-1,-100,528.985423242324,-0.002459577839503921,0.00010228563713374789,0.9999969700026596,8.618989051056367,-0.6014063427423894,-163.77748020794112,17.087509295821064,-89.99240112304688,6279.130859375,True
1598620771.6620083,0,5,0.5,0.5,-0.0004303314208984376,-0.14,-0.011,-0.56,0.0016879978019122928,10,1,100,0.041997459006395635,-10,-1,-100,529.69746020413,-0.0026025911941216957,0.00010767105723682194,0.9999966074572553,8.45780399208038,-0.5899959301916482,-157.00062676963967,16.69691155211938,-89.99346923828125,6279.130859375,True
1598620771.7025027,0,5,0.5,0.5,-0.0006387847900390625,-0.14,-0.011,-0.56,0.0013822660700529806,10,1,100,0.035265018746132436,-10,-1,-100,530.0194822773337,-0.002669755834610448,0.00010972605831699683,0.9999964301756159,8.377371020088876,-0.5843063312067319,-153.66952994269099,16.501628888002543,-89.9940185546875,6279.130859375,True
1598620771.7433462,0,5,0.5,0.5,0.00019691467285156252,-0.14,-0.011,-0.56,0.0019340903443251915,10,1,100,0.04876235258408183,-10,-1,-100,530.9924449875252,-0.0028518130771106676,0.00011654750124929528,0.9999959267811311,8.136704239280018,-0.5672993554823935,-143.904252202886,15.915845314796242,-89.99564361572266,6279.130859375,True
1598620771.7802472,0,5,0.5,0.5,1.5856170654296865e-05,-0.14,-0.011,-0.56,0.0016832618566455404,10,1,100,0.042647365190808334,-10,-1,-100,531.5789324793732,-0.0029602699655837854,0.00012041422366779681,0.9999956111414419,7.976751982578488,-0.5560099986480276,-137.58240901644703,15.525375025067605,-89.99667358398438,6279.130859375,True
1598620771.8233988,0,5,0.5,0.5,9.968795776367192e-05,-0.14,-0.011,-0.56,0.0017033815947920358,10,1,100,0.04187532749419013,-10,-1,-100,532.2264555254951,-0.0030504949036763217,0.00012406227778938162,0.9999953395338369,7.817147200324167,-0.5447559147253277,-131.409526411821,15.134944997281583,-89.99760437011719,6279.130859375,True
1598620771.86335,0,5,0.5,0.5,0.00013824539184570319,-0.14,-0.011,-0.56,0.00165197202714148,10,1,100,0.04190720165278054,-10,-1,-100,532.8130040990654,-0.0031315497928571423,0.00012686452898861615,0.9999950886385823,7.657929984192219,-0.5335396126550203,-125.38554356811623,14.744554725963644,-89.9983901977539,6279.130859375,True
1598620771.9012778,0,5,0.5,0.5,0.0001461212158203125,-0.14,-0.011,-0.56,0.001624904114052625,10,1,100,0.04130058984128643,-10,-1,-100,533.3961956996936,-0.003198570586539301,0.00012912340893225533,0.9999948762235477,7.499078327064144,-0.5223591984856988,-119.50932807737296,14.354203055827575,-89.99901580810547,6279.130859375,True
1598620771.9343975,0,5,0.5,0.5,-1.7650604248046884e-05,-0.14,-0.011,-0.56,0.0015340228155079029,10,1,100,0.0378490197509381,-10,-1,-100,533.6572431576205,-0.003226994120630819,0.0001303093541288685,0.9999947847506093,7.4197674302879815,-0.5167807786309929,-116.62604891957054,14.15904137884566,-89.999267578125,6279.130859375,True
1598620771.9732935,0,5,0.5,0.5,-0.0001489067077636719,-0.14,-0.011,-0.56,0.0014194474208802472,10,1,100,0.035115643961886725,-10,-1,-100,533.6572431576205,-0.003226994120630819,0.0001303093541288685,0.9999947847506093,7.4197674302879815,-0.5167807786309929,-116.62604891957054,14.15904137884566,-89.999267578125,6279.130859375,True
1598620772.0102453,0,5,0.5,0.5,0.00033509902954101563,-0.14,-0.011,-0.56,0.0017024506491577418,10,1,100,0.04438618601254047,-10,-1,-100,534.7624684717739,-0.0033104339721099626,0.00013285140656261207,0.9999945116736493,7.103288019537993,-0.4945448018932687,-105.45656894126651,13.37848663085307,-89.99994659423828,6279.130859375,True
1598620772.0481887,0,5,0.5,0.5,8.06427001953125e-05,-0.14,-0.011,-0.56,0.001553690291371655,10,1,100,0.038854890926169554,-10,-1,-100,535.2844410473481,-0.003335230376185261,0.0001337822093684792,0.999994429154812,6.945467978007295,-0.48347008093289434,-100.08830863415044,12.988262607770821,-90.00011444091797,6279.130859375,True
1598620772.0846171,0,5,0.5,0.5,2.066116333007813e-05,-0.14,-0.011,-0.56,0.0014716669729165181,10,1,100,0.03743914244786824,-10,-1,-100,535.8031183111016,-0.0033442360853763718,0.00013385898979501019,0.9999943990677028,6.787899120340251,-0.4724217675992615,-94.86316722421438,12.598072916049986,-90.00015258789062,6279.130859375,True
1598620772.1236458,0,5,0.5,0.5,-5.8040618896484374e-05,-0.14,-0.011,-0.56,0.0014436123596250766,10,1,100,0.0366074049117064,-10,-1,-100,536.2607599055627,-0.0033442486795388503,0.00013365180921513615,0.9999943990532963,6.630553904183161,-0.4613976020278667,-89.78021568619523,12.207916825515966,-90.00006103515625,6279.130859375,True
1598620772.1632884,0,5,0.5,0.5,-6.599884033203126e-05,-0.14,-0.011,-0.56,0.0014305659554642782,10,1,100,0.03613189688866804,-10,-1,-100,536.5219292042311,-0.0033394896598385473,0.00013332931018836537,0.9999944150004574,6.551977089053633,-0.45589528819382147,-87.29205787985399,12.012851028733785,-89.99996948242188,6279.130859375,True
1598620772.2007756,0,5,0.5,0.5,-0.00028347320556640625,-0.14,-0.011,-0.56,0.0012699349890668461,10,1,100,0.03308599125271927,-10,-1,-100,537.2372000266332,-0.003307128481880324,0.0001315641067544875,0.9999945227810451,6.316565903848158,-0.4394225496222087,-80.0392373195809,11.42770117374079,-89.99958038330078,6279.130859375,True
1598620772.2394247,0,5,0.5,0.5,-0.00018623733520507814,-0.14,-0.011,-0.56,0.0013822250241016785,10,1,100,0.03456288762385908,-10,-1,-100,537.4338551721303,-0.0032909022565848433,0.00013097337501585598,0.9999945763894484,6.238165583442359,-0.43394037369734384,-77.69152914457838,11.232666849348288,-89.99940490722656,6279.130859375,True
1598620772.2772908,0,5,0.5,0.5,-0.0003485427856445313,-0.14,-0.011,-0.56,0.001222858633336951,10,1,100,0.03170795264444381,-10,-1,-100,537.8916794924298,-0.003250052322445424,0.00012898382547739596,0.9999947102475463,6.081546718046148,-0.4229941234083349,-73.10157843766848,10.842620697371341,-89.99903106689453,6279.130859375,True
1598620772.3102016,0,5,0.5,0.5,-0.00040620422363281253,-0.14,-0.011,-0.56,0.001227439173483856,10,1,100,0.030122831642345742,-10,-1,-100,538.2849897381384,-0.0031984590261760547,0.00012721691224690858,0.9999948768247341,5.925095473300469,-0.41206657411494246,-68.65096830989958,10.452603899228045,-89.99864959716797,6279.130859375,True
1598620772.3471441,0,5,0.5,0.5,-0.0004602897644042969,-0.14,-0.011,-0.56,0.0010482448633911039,10,1,100,0.028470357732020272,-10,-1,-100,538.6781775325071,-0.003136559480468628,0.00012398439962006046,0.9999950732991109,5.768813538567205,-0.4011575131631016,-64.33931610958389,10.062615786967267,-89.9982681274414,6279.130859375,True
1598620772.3863132,0,5,0.5,0.5,-0.000509454345703125,-0.14,-0.011,-0.56,0.0010808175427199898,10,1,100,0.0268158974724178,-10,-1,-100,539.0715486812405,-0.00306532883168382,0.00012134761700274186,0.9999952945058839,5.612673554173345,-0.39026467054836966,-60.165924093095605,9.672655157693855,-89.99789428710938,6279.130859375,True
1598620772.4242432,0,5,0.5,0.5,-0.0005266654968261719,-0.14,-0.011,-0.56,0.0009885694356529498,10,1,100,0.02507559328508821,-10,-1,-100,539.4614406765904,-0.0029849755721222944,0.00011812238073144265,0.9999955379740136,5.456672524031413,-0.37938751610629573,-56.13041121491925,9.282721523312215,-89.99757385253906,6279.130859375,True
1598620772.4631712,0,5,0.5,0.5,-0.0005209152221679688,-0.14,-0.011,-0.56,0.0008839614783516042,10,1,100,0.023309693521028282,-10,-1,-100,539.8513937600655,-0.002896191933578602,0.0001142536025353739,0.9999957995003771,5.3008097707945545,-0.3685256371308287,-52.23242339587853,8.892813828826839,-89.99732971191406,6279.130859375,True
1598620772.5001087,0,5,0.5,0.5,-0.0005047943115234375,-0.14,-0.011,-0.56,0.0008319700249565314,10,1,100,0.021469174676708166,-10,-1,-100,540.1803115258226,-0.002799154858273969,0.00011028170495104677,0.9999960762773146,5.14511124501882,-0.3576804498790113,-48.47186625075187,8.50293119824163,-89.99716186523438,6279.130859375,True
1598620772.5330617,0,5,0.5,0.5,-0.00045671386718750006,-0.14,-0.011,-0.56,0.0009997001651060396,10,1,100,0.02552429024490332,-10,-1,-100,540.3158701607026,-0.0027482995620908635,0.00010821695397053044,0.9999962175621505,5.067334631967722,-0.35226476976591287,-46.64311258768732,8.307999000857658,-89.99710083007812,6279.130859375,True
1598620772.5735166,0,5,0.5,0.5,-0.00044705200195312503,-0.14,-0.011,-0.56,0.0007223612117916553,10,1,100,0.018700667458657998,-10,-1,-100,540.6447876137681,-0.0026405719857746715,0.00010384147382740105,0.9999965082921721,4.911884106847923,-0.3414440484650648,-43.08803500915387,7.918152315908019,-89.9970703125,6279.130859375,True
1598620772.6113842,0,5,0.5,0.5,-0.00040602035522460943,-0.14,-0.011,-0.56,0.0006213608833168313,10,1,100,0.01661703701044355,-10,-1,-100,540.9704093318433,-0.0025243016909544617,9.897078219562782e-05,0.9999968090477876,4.756667074833659,-0.3306439659840357,-39.67008892334027,7.528330185261151,-89.99710845947266,6279.130859375,True
1598620772.649455,0,5,0.5,0.5,-0.0003818435668945313,-0.14,-0.011,-0.56,0.0008319026563596381,10,1,100,0.021671406530747887,-10,-1,-100,541.1024891185807,-0.002465247146362156,9.648599009696879e-05,0.9999969566188496,4.67917224333639,-0.3252533449802396,-38.012608316695676,7.333426832114696,-89.99717712402344,6279.130859375,True
1598620772.6916788,0,5,0.5,0.5,-0.0002300743103027344,-0.14,-0.011,-0.56,0.0002387282585490202,10,1,100,0.006833543167658954,-10,-1,-100,541.4992779099848,-0.0022773849890466,8.886413715025535e-05,0.9999974028070158,4.447111396524019,-0.3091164534833503,-33.24518285202929,6.748756556609405,-89.99745178222656,6279.130859375,True
1598620772.7681885,0,5,0.5,0.5,-0.00018759918212890627,-0.14,-0.011,-0.56,0.0004209334930482783,10,1,100,0.010749544162680156,-10,-1,-100,541.76368163398,-0.0021430385587482234,8.362645730786972e-05,0.9999977001935312,4.292927296572729,-0.2983990846454032,-30.238298904731366,6.35899818978099,-89.99773406982422,6279.130859375,True
1598620772.8086028,0,5,0.5,0.5,6.2103271484375004e-06,-0.14,-0.011,-0.56,4.905574119880448e-05,10,1,100,0.0017938546508229417,-10,-1,-100,542.1604089455213,-0.0019403932819343792,7.552091238189864e-05,0.9999981145834742,4.062685308632188,-0.2824002023716221,-25.98506266919288,5.774395196743646,-89.99823760986328,6279.130859375,True
1598620772.8472438,0,5,0.5,0.5,0.00014117050170898442,-0.14,-0.011,-0.56,-0.00010835306030079761,10,1,100,-0.0013911463293058979,-10,-1,-100,542.492866328219,-0.0017282384173294854,6.676290671249295e-05,0.9999985043662253,3.8343286222659265,-0.26653765711881294,-22.04163209964796,5.18983387704009,-89.99883270263672,6279.130859375,True
1598620772.9900062,0,5,0.5,0.5,9.769439697265625e-05,-0.14,-0.011,-0.56,0.00011423245770400699,10,1,100,0.0042156574641673515,-10,-1,-100,542.6320257663028,-0.0015874837904973323,6.0871278516730506e-05,0.9999987380941551,3.683654134012391,-0.25607361819173163,-19.58558773450302,4.8001480936623535,-89.9992446899414,6279.130859375,True
1598620773.0603604,0,5,0.5,0.5,0.0001307762145996094,-0.14,-0.011,-0.56,7.908535458624134e-05,10,1,100,0.002593112752817487,-10,-1,-100,542.8122617002809,-0.00144596436704045,5.524426315043827e-05,0.9999989530670123,3.534781747908255,-0.24573710159567919,-17.268664311469646,4.410485092986883,-89.99961853027344,6279.130859375,True
1598620773.1551075,0,5,0.5,0.5,0.0002766059875488281,-0.14,-0.011,-0.56,-0.0002925302255994141,10,1,100,-0.007155999514834643,-10,-1,-100,543.0535333291627,-0.0012299122255475681,4.680050521739447e-05,0.9999992425625283,3.316691101623815,-0.23059528461551973,-14.056414957264703,3.826017961348721,-90.0001220703125,6279.130859375,True
1598620773.2033741,0,5,0.5,0.5,9.941787719726563e-05,-0.14,-0.011,-0.56,0.00021245559876468856,10,1,100,0.006422412014114943,-10,-1,-100,543.1261649485677,-0.0011583216447595293,4.377097499862207e-05,0.9999993281873089,3.2459916749249365,-0.22568724725556785,-13.056453900687236,3.6311968808023702,-90.0002670288086,6279.130859375,True
1598620773.2374084,0,5,0.5,0.5,0.00028344573974609376,-0.14,-0.011,-0.56,-0.0004623278322345327,10,1,100,-0.009829732169358844,-10,-1,-100,543.3206832532305,-0.0009468400335942915,3.493707133504404e-05,0.999999551136575,3.0432236962042065,-0.21161340644088966,-10.271253201756688,3.0467641071479363,-90.00064086914062,6279.130859375,True
1598620773.2947495,0,5,0.5,0.5,0.0002061546325683594,-0.14,-0.011,-0.56,-0.00022800944793461745,10,1,100,-0.004850687549467939,-10,-1,-100,543.4309124944266,-0.0008012821214952292,2.909462941711832e-05,0.9999996785501805,2.920115367209078,-0.20307125038080337,-8.595821095885599,2.6571553720393966,-90.00082397460938,6279.130859375,True
1598620773.356383,0,5,0.5,0.5,0.00021977920532226564,-0.14,-0.011,-0.56,-0.0005508523001800415,10,1,100,-0.013126507905324644,-10,-1,-100,543.5669594743522,-0.0005952347118290815,2.0909648435572763e-05,0.9999998226291965,2.7695500825885064,-0.1926276110130107,-6.360039394887501,2.0727691460679027,-90.00098419189453,6279.130859375,True
1598620773.4172766,0,5,0.5,0.5,0.00015530548095703126,-0.14,-0.011,-0.56,-0.0003619509663534133,10,1,100,-0.007882270454462801,-10,-1,-100,543.6383704359178,-0.0004571229983015254,1.5247818295059498e-05,0.9999998954030287,2.7234878139221395,-0.18944182205989749,-5.0789861747019645,1.6831959195685007,-90.00101470947266,6279.130859375,True
1598620773.4545007,0,5,0.5,0.5,7.23968505859375e-05,-0.14,-0.011,-0.56,-0.0009543920974558257,10,1,100,-0.023130983028900085,-10,-1,-100,543.7341347875772,-0.00019447488583654153,4.777033920037153e-06,0.9999999810783491,2.8108734082597655,-0.19556270922398364,-2.8157793739557735,0.904075290047188,-90.00091552734375,6279.130859375,True
1598620773.5169878,0,5,0.5,0.5,2.9413604736328123e-05,-0.14,-0.011,-0.56,-0.0004935583864830052,10,1,100,-0.011124523063060242,-10,-1,-100,543.7586094981525,-6.64407090997346e-05,-4.881509770830993e-07,0.9999999977926969,2.762190812597539,-0.1921958681907386,-1.5747816037192253,0.5145219455716102,-90.00077056884766,6279.130859375,True
1598620773.5825567,0,5,0.5,0.5,-6.351699829101561e-05,-0.14,-0.011,-0.56,-0.0007258902561200444,10,1,100,-0.017753513760335987,-10,-1,-100,543.766117050196,0.0001087068236287514,-7.325653282356798e-06,0.9999999940645806,1.7137690952102322,-0.11925914574188878,0.13260441706294473,-0.06982908426620738,-90.00051879882812,6279.130859375,True
1598620773.622865,0,5,0.5,0.5,-0.00012940673828125003,-0.14,-0.011,-0.56,-0.0008065220644782622,10,1,100,-0.019125940655021417,-10,-1,-100,543.7385900085792,0.00027886647004803707,-1.421258369786297e-05,0.9999999610157465,1.2920360765231222,-0.08992225947547511,0.9366177801458605,-0.6541913891559241,-90.0002212524414,6279.130859375,True
1598620773.6576176,0,5,0.5,0.5,-0.00010097274780273439,-0.14,-0.011,-0.56,-0.0005688432488052645,10,1,100,-0.013616327523512398,-10,-1,-100,543.7008094433695,0.00038190163756358887,-1.8249570435979235e-05,0.9999999269090435,1.3383134709377338,-0.09315568284297068,1.5480070853512253,-1.0437817375645975,-90.0000228881836,6279.130859375,True
1598620773.7206168,0,5,0.5,0.5,-5.942535400390626e-05,-0.14,-0.011,-0.56,-0.00040575475091014215,10,1,100,-0.008990359317233024,-10,-1,-100,543.6760293330299,0.00043205042991781333,-2.0377799239171662e-05,0.9999999064585814,1.4517375254163192,-0.10105863560219908,1.9926507488792597,-1.238573477041849,-89.99992370605469,6279.130859375,True
1598620773.7603688,0,5,0.5,0.5,-0.00023390579223632815,-0.14,-0.011,-0.56,-0.0010206897464304998,10,1,100,-0.024708967503733515,-10,-1,-100,543.5379678277532,0.0006190908864128606,-2.784455377022458e-05,0.9999998079755592,1.9230704155024518,-0.13391593756805079,4.30097838052928,-2.0177271159107013,-89.99959564208984,6279.130859375,True
1598620773.8152323,0,5,0.5,0.5,-0.00014747009277343753,-0.14,-0.011,-0.56,-0.0006747578475269871,10,1,100,-0.015799473848251908,-10,-1,-100,543.4456218489213,0.0007067086946130643,-3.14306027855996e-05,0.9999997497874377,2.12229830374727,-0.14781804258960782,5.663718163139818,-2.4072960006644264,-89.99945831298828,6279.130859375,True
1598620773.8842618,0,5,0.5,0.5,-0.00017353897094726564,-0.14,-0.011,-0.56,-0.000854398569570621,10,1,100,-0.020011266242743367,-10,-1,-100,543.2778973601526,0.000823279368548528,-3.6268721879789275e-05,0.999999660447773,2.4089767434003178,-0.16783889580259073,7.991057193359941,-2.991613726045231,-89.99931335449219,6279.130859375,True
1598620773.9498708,0,5,0.5,0.5,-0.00012090301513671876,-0.14,-0.011,-0.56,-0.0008680275170254137,10,1,100,-0.020291205129101042,-10,-1,-100,543.0751390242949,0.0009305080492018578,-4.073893115108222e-05,0.9999995662474608,2.6768708523907545,-0.18656859782186333,10.616861031371958,-3.575918887589382,-89.99927520751953,6279.130859375,True
1598620774.0172408,0,5,0.5,0.5,-7.475128173828125e-05,-0.14,-0.011,-0.56,-0.0008574715063327139,10,1,100,-0.019547289508657716,-10,-1,-100,542.8371628958266,0.001019964315930397,-4.46558969828275e-05,0.9999994788391867,2.9345893959025284,-0.20460741454883116,13.544778971638307,-4.160193839491244,-89.99931335449219,6279.130859375,True
1598620774.0888054,0,5,0.5,0.5,-3.3789062500000006e-05,-0.14,-0.011,-0.56,-0.0007130843526632569,10,1,100,-0.016405586224466136,-10,-1,-100,542.6590015979018,0.0010716232201893575,-4.685922549568917e-05,0.999999424713778,3.102754032671246,-0.21639053326763805,15.665163537261506,-4.549678666754576,-89.99940490722656,6279.130859375,True
1598620774.1612926,0,5,0.5,0.5,0.0001911491394042969,-0.14,-0.011,-0.56,-0.0009630483559031074,10,1,100,-0.022013299992738922,-10,-1,-100,542.2008112105541,0.0011685304729279022,-5.109249592363606e-05,0.9999993159628113,3.515357205803315,-0.2453402063999649,21.55960867439792,-5.52335587086451,-89.99980163574219,6279.130859375,True
1598620774.233485,0,5,0.5,0.5,0.00029396743774414064,-0.14,-0.011,-0.56,-0.0007852605691092487,10,1,100,-0.017605078788523573,-10,-1,-100,541.7061820497038,0.0012155897611525314,-5.328488293942426e-05,0.9999992597508529,3.8404372594206837,-0.26819375723685784,26.88917887644039,-6.302216761399055,-90.0002670288086,6279.130859375,True
1598620774.3002498,0,5,0.5,0.5,0.00037519454956054694,-0.14,-0.011,-0.56,-0.0006758571948541011,10,1,100,-0.0146825512294403,-10,-1,-100,541.1472226585029,0.0012309509332822514,-5.424786564305622e-05,0.9999992409081964,4.162778272231521,-0.29089633658673236,32.76712967440472,-7.081002763289423,-90.0007553100586,6279.130859375,True
1598620774.3745883,0,5,0.5,0.5,0.0002948234558105469,-0.14,-0.011,-0.56,-0.0005565015184561189,10,1,100,-0.012595489934123162,-10,-1,-100,540.7100887364941,0.0012251704877193695,-5.400552713800628e-05,0.9999992480200568,4.403314897281008,-0.3078659681946943,37.537139323090955,-7.665041035331621,-90.00102996826172,6279.130859375,True
1598620774.4419584,0,5,0.5,0.5,0.00029710845947265624,-0.14,-0.011,-0.56,-0.0005366483293931142,10,1,100,-0.009903155232641677,-10,-1,-100,540.022283635335,0.0011947187489598256,-5.357416520748008e-05,0.9999992848882042,4.722832872913858,-0.33044769279806907,44.38083887536352,-8.443684529999182,-90.00125122070312,6279.130859375,True
1598620774.4853368,0,5,0.5,0.5,0.00020173110961914067,-0.14,-0.011,-0.56,-0.00040848280603941647,10,1,100,-0.008891244169199609,-10,-1,-100,539.5207575550303,0.001157312860544815,-5.1993486320661505e-05,0.9999993289615848,4.961732870520108,-0.34736319720696596,49.87711108190928,-9.0276074482965,-90.00128936767578,6279.130859375,True
1598620774.5522408,0,5,0.5,0.5,0.00018772354125976562,-0.14,-0.011,-0.56,-0.00047482709683139803,10,1,100,-0.009297124543567008,-10,-1,-100,539.1445977861295,0.0011265876888745712,-5.114094190026712e-05,0.9999993640921894,5.120714171503734,-0.3586355240874011,53.71488168290651,-9.416859561358415,-90.00129699707031,6279.130859375,True
1598620774.6210454,0,5,0.5,0.5,0.00017495193481445315,-0.14,-0.011,-0.56,-0.0003459574941745246,10,1,100,-0.006355271201624043,-10,-1,-100,538.5786796623142,0.0010716358585018443,-4.918083947573658e-05,0.9999994245887504,5.358776742719345,-0.3755391092998803,59.73207176793089,-10.00069087552932,-90.00128173828125,6279.130859375,True
1598620774.6931725,0,5,0.5,0.5,0.00019104461669921876,-0.14,-0.011,-0.56,-0.00015330919520678424,10,1,100,-0.002144492691921634,-10,-1,-100,537.7010551335989,0.0009832715464299798,-4.563990554616149e-05,0.999999515546915,5.675551597049746,-0.39807844518240637,68.24282016555595,-10.779040246534713,-90.00128936767578,6279.130859375,True
1598620774.7455592,0,5,0.5,0.5,0.0002850761413574219,-0.14,-0.011,-0.56,-8.856540829583229e-05,10,1,100,0.00028779051171085035,-10,-1,-100,536.8198904658202,0.0008808620452129899,-4.1831400266845174e-05,0.9999996111660201,5.991657923877714,-0.4206262919325996,77.3124158702948,-11.557278017309184,-90.00142669677734,6279.130859375,True
1598620774.8123214,0,5,0.5,0.5,0.0003011856079101563,-0.14,-0.011,-0.56,-0.00022771589747054837,10,1,100,-0.0038963512325367418,-10,-1,-100,536.3150072983699,0.0008259735701225011,-3.9638697937444894e-05,0.9999996580981589,6.149476816301643,-0.43190541238646724,82.05725605127097,-11.946353098904677,-90.00155639648438,6279.130859375,True
1598620774.8553581,0,5,0.5,0.5,0.0004174041748046875,-0.14,-0.011,-0.56,-6.706756223377031e-05,10,1,100,0.00016727137447788802,-10,-1,-100,535.620366100804,0.0007394443480699287,-3.619530531582501e-05,0.9999997259559404,6.385861113333178,-0.44882805328313696,89.43673769544317,-12.529908292298089,-90.00182342529297,6279.130859375,True
1598620774.9245949,0,5,0.5,0.5,0.00042445678710937505,-0.14,-0.011,-0.56,-0.00016590485286934343,10,1,100,-0.0017730879657917725,-10,-1,-100,535.1153610647889,0.000678853908763753,-3.397900519069724e-05,0.9999997690013722,6.54323993528514,-0.4601142730819152,94.53163512898914,-12.918905406452534,-90.00204467773438,6279.130859375,True
1598620774.9953787,0,5,0.5,0.5,0.0006597923278808594,-0.14,-0.011,-0.56,0.00015890003840731011,10,1,100,0.005970821975969713,-10,-1,-100,534.0444993262645,0.0005538744163098694,-2.902984139302274e-05,0.9999998461901879,6.857475955924876,-0.48269786704029527,105.14241695323454,-13.696800601604519,-90.00255584716797,6279.130859375,True
1598620775.0652392,0,5,0.5,0.5,0.0006849693298339845,-0.14,-0.011,-0.56,9.701332447867626e-05,10,1,100,0.0044360775659207565,-10,-1,-100,533.1599167111563,0.0004548191869626107,-2.5115913236074395e-05,0.9999998962543436,7.092688136028301,-0.499646126069585,113.46933234586866,-14.280132321124931,-90.00299835205078,6279.130859375,True
1598620775.1372516,0,5,0.5,0.5,0.0008609939575195313,-0.14,-0.011,-0.56,0.00033738940592639656,10,1,100,0.009273261823292151,-10,-1,-100,532.0212448032107,0.00032146721209081483,-1.9398430763843357e-05,0.9999999481412648,7.4057165868191746,-0.5222623373990611,125.06523175902765,-15.057782998367859,-90.00360107421875,6279.130859375,True
1598620775.2072444,0,5,0.5,0.5,0.0008250846862792969,-0.14,-0.011,-0.56,0.00021814844012880464,10,1,100,0.007194063156929707,-10,-1,-100,531.0723920982564,0.000219899809763799,-1.531436007411763e-05,0.9999999757047718,7.639946005861203,-0.5392330373898226,134.13127362185745,-15.640922850870552,-90.0040283203125,6279.130859375,True
1598620775.2774756,0,5,0.5,0.5,0.0009306282043457032,-0.14,-0.011,-0.56,0.0004372350971285831,10,1,100,0.011607558371081649,-10,-1,-100,529.7473189957673,8.826738559159492e-05,-9.64244127602912e-06,0.9999999960579458,7.9514711803908735,-0.5618699549237947,146.71138730925227,-16.41830734065268,-90.0045166015625,6279.130859375,True
1598620775.3202088,0,5,0.5,0.5,0.0008583503723144532,-0.14,-0.011,-0.56,0.0003418633364841127,10,1,100,0.009256607690725286,-10,-1,-100,528.7949265016941,-9.132204313614347e-06,-5.389111463807211e-06,0.9999999999437803,8.184456625310474,-0.5788511408994668,156.5148180186297,-17.00123983610661,-90.00479888916016,6279.130859375,True
1598620775.366192,0,5,0.5,0.5,0.0008323036193847656,-0.14,-0.011,-0.56,0.00023285962310097238,10,1,100,0.0064857198755875565,-10,-1,-100,528.1002852793317,-7.158521158914924e-05,-2.5499824780725275e-06,0.9999999974345275,8.339467351766622,-0.5901743364051328,163.22610505176334,-17.38980925800989,-90.0049819946289,6279.130859375,True
1598620775.4373698,0,5,0.5,0.5,0.0007763999938964844,-0.14,-0.011,-0.56,8.725458981401989e-05,10,1,100,0.003763384376391194,-10,-1,-100,527.7207078250358,-0.00010274630706803026,-1.328348628003086e-06,0.999999994720716,8.416877878257232,-0.5958367036791808,166.63448003216865,-17.584078055958727,-90.00504302978516,6279.130859375,True
1598620775.531064,0,5,0.5,0.5,0.001018424987792969,-0.14,-0.011,-0.56,0.000704971533450386,10,1,100,0.017422529467319234,-10,-1,-100,525.8838550020009,-0.0002544043311689129,5.3630085875638775e-06,0.9999999676248367,8.802818428367752,-0.6241465495223958,184.2010721615335,-18.555258934547005,-90.00543212890625,6279.130859375,True
1598620775.6045468,0,5,0.5,0.5,0.0011836799621582034,-0.14,-0.011,-0.56,0.0007458224518438713,10,1,100,0.018866770710749155,-10,-1,-100,523.9824267780641,-0.00040450122921977015,1.1779652301744266e-05,0.9999999181199941,9.187069676717211,-0.6524687134599583,202.64706280918045,-19.52615705551766,-90.00597381591797,6279.130859375,True
1598620775.6681862,0,5,0.5,0.5,0.0011730484008789063,-0.14,-0.011,-0.56,0.0005458806328632481,10,1,100,0.012980812124336251,-10,-1,-100,522.7758840522729,-0.00048645937199135624,1.5753713089818554e-05,0.9999998815545428,9.416790498157988,-0.6694690049097575,214.13744166857197,-20.108554364163375,-90.00638580322266,6279.130859375,True
1598620775.7326953,0,5,0.5,0.5,0.0012509613037109376,-0.14,-0.011,-0.56,0.000532110314487883,10,1,100,0.013322188704400117,-10,-1,-100,521.5695241914364,-0.0005631244399767413,1.9200598589671095e-05,0.9999998412610887,9.645646122001727,-0.6864585698131662,225.939911203679,-20.690842538753373,-90.00682067871094,6279.130859375,True
1598620775.8032966,0,5,0.5,0.5,0.0014068382263183593,-0.14,-0.011,-0.56,0.0006583032443447689,10,1,100,0.015803986144761483,-10,-1,-100,519.8580379465129,-0.0006544563479422498,2.3441051577485326e-05,0.9999997855686799,9.94934124265761,-0.7090897098557636,242.15989836325622,-21.467050846231142,-90.00738525390625,6279.130859375,True
1598620775.8693337,0,5,0.5,0.5,0.0014045921325683596,-0.14,-0.011,-0.56,0.0005954701334025007,10,1,100,0.013440748024667975,-10,-1,-100,518.587102906662,-0.0007151141690372864,2.66858537557128e-05,0.9999997439497625,10.176050942018282,-0.7260499315351185,254.68808070985375,-22.049071728868576,-90.00782775878906,6279.130859375,True
1598620775.9388967,0,5,0.5,0.5,0.0015721931457519532,-0.14,-0.011,-0.56,0.0006632446167707591,10,1,100,0.015206645582996349,-10,-1,-100,516.7467712210491,-0.0007854612442186676,3.021362357214937e-05,0.9999996910688376,10.476895835172103,-0.7486468317023555,271.8763937024763,-22.82491352842006,-90.00841522216797,6279.130859375,True
1598620776.0044875,0,5,0.5,0.5,0.001562596130371094,-0.14,-0.011,-0.56,0.0005702846211286714,10,1,100,0.013420818196400279,-10,-1,-100,515.3504702175269,-0.0008323840375692224,3.253936338593802e-05,0.9999996530389416,10.701368882631828,-0.7655773022903215,285.128664508269,-23.406651530069684,-90.00886535644531,6279.130859375,True
1598620776.0672064,0,5,0.5,0.5,0.001619406890869141,-0.14,-0.011,-0.56,0.0006110612925037925,10,1,100,0.013191359576797169,-10,-1,-100,513.9506899634143,-0.0008722067242249206,3.498988888838358e-05,0.9999996190154963,10.924850826803217,-0.7824945396708743,298.69060979299155,-23.98826370088637,-90.0093002319336,6279.130859375,True
1598620776.113194,0,5,0.5,0.5,0.0017918510437011721,-0.14,-0.011,-0.56,0.0006200336237131089,10,1,100,0.014229512629663526,-10,-1,-100,511.9815737353638,-0.0009171190839264898,3.7265078836722005e-05,0.9999995787518612,11.221220350018,-0.8050276042527534,317.2533766452579,-24.763545486058042,-90.0098876953125,6279.130859375,True
1598620776.1713333,0,5,0.5,0.5,0.0016818237304687502,-0.14,-0.011,-0.56,0.0005143290146356607,10,1,100,0.01187620617840081,-10,-1,-100,510.9648505897494,-0.0009358144679374748,3.8337397409539476e-05,0.9999995613906666,11.36870759318016,-0.8162842144920784,326.74034778704265,-25.151098255670025,-90.01019287109375,6279.130859375,True
1598620776.2444797,0,5,0.5,0.5,0.0018472778320312501,-0.14,-0.011,-0.56,0.0006174645495892856,10,1,100,0.012670691194856762,-10,-1,-100,509.439707957441,-0.0009594133988818166,4.021985153093197e-05,0.9999995389540405,11.589556432761729,-0.8331924877873181,341.22798715597406,-25.731262284827615,-90.01066589355469,6279.1279296875,True
1598620776.3141496,0,5,0.5,0.5,0.0019293434143066407,-0.14,-0.011,-0.56,0.0005915911738610207,10,1,100,0.012583509381821824,-10,-1,-100,507.9113713281695,-0.000979569944922117,4.1670106226278024e-05,0.9999995193530471,11.808101012837344,-0.8499894045387026,355.7002345451565,-26.290742222292632,-90.01115417480469,6279.0771484375,True
1598620776.3826845,0,5,0.5,0.5,0.0021952087402343752,-0.14,-0.011,-0.56,0.0006239301167922111,10,1,100,0.012756524912212987,-10,-1,-100,505.749413008336,-0.0009990186638050998,4.325894961857029e-05,0.9999995000450614,12.08385397686327,-0.8713384075519168,374.44936712654334,-26.99657145407109,-90.01191711425781,6278.9130859375,True
1598620776.4476912,0,5,0.5,0.5,0.0022061553955078127,-0.14,-0.011,-0.56,0.0005690991105416429,10,1,100,0.011968600421684732,-10,-1,-100,504.09916626266204,-0.0010091400999449834,4.4183017781077284e-05,0.9999994898419298,12.273781441025479,-0.886181550458433,387.6342358407347,-27.478468063605472,-90.01253509521484,6278.677734375,True
1598620776.510536,0,5,0.5,0.5,0.002447873687744141,-0.14,-0.011,-0.56,0.0005908474655574812,10,1,100,0.011768208009424668,-10,-1,-100,501.87288406305015,-0.0010161972165497837,4.5201935732406175e-05,0.9999994826498672,12.504939676739767,-0.9044421354115108,404.1269311358316,-28.06938709919799,-90.01336669921875,6278.24072265625,True
1598620776.58218,0,5,0.5,0.5,0.002378130340576172,-0.14,-0.011,-0.56,0.000574424207404617,10,1,100,0.011248422075213774,-10,-1,-100,500.1547510520322,-0.0010176137385635826,4.596208963042759e-05,0.999999481174748,12.657992382015543,-0.916707332826182,415.35186781655074,-28.46415017420466,-90.01392364501953,6277.7978515625,True
1598620776.6457305,0,5,0.5,0.5,0.002403415679931641,-0.14,-0.011,-0.56,0.0005366731584230014,10,1,100,0.010876915711439311,-10,-1,-100,498.4367850259878,-0.0010153131075469547,4.6295630486924845e-05,0.9999994834978707,12.797032546259766,-0.9279877616040074,425.67891177683344,-28.81919273167075,-90.01439666748047,6277.26171875,True
1598620776.7104237,0,5,0.5,0.5,0.002395614624023438,-0.14,-0.011,-0.56,0.0005306437438246511,10,1,100,0.010557494462056987,-10,-1,-100,496.718537354609,-0.0010101514961102012,4.653153089002736e-05,0.999999488714255,12.922844674897084,-0.9383427603065569,435.34260086640654,-29.15064244046264,-90.01475524902344,6276.66796875,True
1598620776.7534883,0,5,0.5,0.5,0.002451816558837891,-0.14,-0.011,-0.56,0.0005546339083897494,10,1,100,0.009864541483731861,-10,-1,-100,494.3633732838789,-0.000999034145208483,4.6953585805256316e-05,0.9999994998629437,13.069828734382849,-0.9506818473897639,446.84284695039423,-29.536855027907052,-90.0151138305664,6275.7451171875,True
1598620776.8201551,0,5,0.5,0.5,0.0023101654052734375,-0.14,-0.011,-0.56,0.0005086516781182676,10,1,100,0.010631254621193586,-10,-1,-100,493.7906413390301,-0.0009958231137644985,4.691044408302505e-05,0.9999995030677447,13.100568532115467,-0.9533372996036403,449.4204163337515,-29.625783204709542,-90.01519012451172,6275.49609375,True
1598620776.8635228,0,5,0.5,0.5,0.0023690681457519533,-0.14,-0.011,-0.56,0.0004270972360141626,10,1,100,0.009948246973894601,-10,-1,-100,492.59721957927104,-0.0009866402805255882,4.612202663761977e-05,0.9999995122067388,13.198312574296637,-0.9608718270277218,438.19937960495287,-28.6865959086788,-90.01532745361328,6272.3388671875,True
