Timestamp,Input Throttle,horizon,dT,dt,Input Roll,Roll P,Roll I,Roll D,Input Pitch,Pitch P,Pitch I,Pitch D,Input Yaw,Yaw P,Yaw I,Yaw D,Altitude,Direction X,Direction Y,Direction Z,Drag X,Drag Y,Drag Z,Vertical Velocity,Roll,Mass,Has Fuel
1598628738.5264993,0,5,0.5,0.5,-0.0095745849609375,-0.14,-0.011,-0.56,0.004313836184970388,10,1,100,0.12638925690978034,-10,-1,-100,478.81062352622394,-0.011738671371001898,0.00041387424712775744,0.9999310137717259,5.336061553930839,-0.43685249139763654,109.8095176702222,-14.045367994106417,-89.92184448242188,6440.1796875,True
1598628738.574561,0,5,0.5,0.5,-0.009532382202148438,-0.14,-0.011,-0.56,0.0042736680115769135,10,1,100,0.12333220520958882,-10,-1,-100,477.9424911271781,-0.011782049774297077,0.00041472459363308984,0.9999305032384138,5.523282559896332,-0.45263767678488603,118.5024588037938,-14.628778493055215,-89.92398071289062,6440.1796875,True
1598628738.621372,0,5,0.5,0.5,-0.008825598144531252,-0.14,-0.011,-0.56,0.0039961949110806855,10,1,100,0.11741005230878701,-10,-1,-100,477.35521461977623,-0.01175693597839968,0.0004125981308210326,0.9999307997152512,5.968627487582697,-0.4863834990700511,124.5048502760792,-14.372000469424966,-89.92681884765625,6438.60107421875,True
1598628738.66842,0,5,0.5,0.5,-0.006885223388671874,-0.14,-0.011,-0.56,0.004088288898758194,10,1,100,0.11753316029679678,-10,-1,-100,476.82798187516164,-0.011724536294767227,0.0004111271116700297,0.9999311807435404,5.808833588074172,-0.46784903062907834,111.17465163102506,-13.469148105043217,-89.93197631835938,6435.443359375,True
1598628738.7204242,0,5,0.5,0.5,-0.004614468383789064,-0.14,-0.011,-0.56,0.004008240540788264,10,1,100,0.11477271345980766,-10,-1,-100,476.29711197840516,-0.011659328396315307,0.0004086883572678731,0.9999319442017911,5.644094320183573,-0.4494426740055856,98.70605308521652,-12.565746006884101,-89.939453125,6432.28515625,True
1598628738.7696822,0,5,0.5,0.5,-0.0021603179931640624,-0.14,-0.011,-0.56,0.0038682512207437575,10,1,100,0.11095621955540122,-10,-1,-100,475.83628920745105,-0.01155475370004958,0.0004048271427589008,0.9999331596571422,5.461433280189754,-0.4301409026703155,86.86448207980008,-11.66180235422026,-89.94903564453125,6429.126953125,True
1598628738.8162246,0,5,0.5,0.5,0.00019328918457031316,-0.14,-0.011,-0.56,0.003727594861477085,10,1,100,0.1070052596335876,-10,-1,-100,475.3915158638265,-0.011413263655336932,0.00039967022890035725,0.9999347867118344,5.2671552470787395,-0.41046354968450355,75.77057935255444,-10.757307994985181,-89.96014404296875,6425.9697265625,True
1598628738.8648658,0,5,0.5,0.5,0.0023882171630859378,-0.14,-0.011,-0.56,0.0035931274773130266,10,1,100,0.10275088610483132,-10,-1,-100,475.0001774056582,-0.01123558452474098,0.000393396358055735,0.9999368014428175,5.060359355553515,-0.390346526652967,65.41062160308482,-9.852253863696745,-89.97222900390625,6422.8115234375,True
1598628738.9136553,0,5,0.5,0.5,0.004305911254882814,-0.14,-0.011,-0.56,0.0034427572796409834,10,1,100,0.09819673691816902,-10,-1,-100,474.62528800975997,-0.011022442518388874,0.00038596820425628185,0.9999391765449908,4.841462507713062,-0.3698245448243355,55.78947089214012,-8.946634656032813,-89.98468017578125,6419.65380859375,True
1598628738.962936,0,5,0.5,0.5,0.005898709106445313,-0.14,-0.011,-0.56,0.003274362241350491,10,1,100,0.09340491746989077,-10,-1,-100,474.30377327254973,-0.010775094660794985,0.00037733359299572337,0.9999418757879933,4.611304617136872,-0.34896138706058305,46.9128667901969,-8.040445055738244,-89.99694061279297,6416.49609375,True
1598628739.0118518,0,5,0.5,0.5,0.007115131378173828,-0.14,-0.011,-0.56,0.0030544981332428374,10,1,100,0.08842413631371979,-10,-1,-100,473.99833954114,-0.010495157602780083,0.00036714215123696814,0.9999448569163869,4.371279980116836,-0.3278550193264621,38.78649904996931,-7.133677502333275,-90.00849151611328,6413.337890625,True
1598628739.0631757,0,5,0.5,0.5,0.008005120849609375,-0.14,-0.011,-0.56,0.0028389689457959926,10,1,100,0.08203448698017225,-10,-1,-100,473.7358436373761,-0.010183712114069031,0.0003559603316575746,0.9999480813021344,4.123810374158732,-0.30667620593699185,31.41717464987566,-6.22632821409247,-90.01886749267578,6410.1806640625,True
1598628739.1147342,0,5,0.5,0.5,0.008499358367919922,-0.14,-0.011,-0.56,0.0026344152492227867,10,1,100,0.07550608040738403,-10,-1,-100,473.52693634084426,-0.009842683735179299,0.0003439888841274382,0.9999515004481652,3.8735834915227585,-0.28575121426057837,24.815502933371658,-5.318388106277859,-90.02772521972656,6407.0224609375,True
1598628739.2310333,0,5,0.5,0.5,0.006266910552978516,-0.14,-0.011,-0.56,0.0031298113764675044,10,1,100,0.08954820207520278,-10,-1,-100,473.4304633780848,-0.009662053817026277,0.0003376717232083512,0.9999532642548072,3.7503578604263383,-0.2755911116247005,21.808761335227913,-4.864192858395015,-90.03146362304688,6405.443359375,True
1598628739.2716115,0,5,0.5,0.5,0.006589969635009766,-0.14,-0.011,-0.56,0.0029970144646040923,10,1,100,0.08672038771058102,-10,-1,-100,473.34225931426045,-0.00947401238127946,0.0003307883826181154,0.9999550658246827,3.631077417811567,-0.2658232444004175,19.00226503431555,-4.4098479092141165,-90.03475952148438,6403.86474609375,True
1598628739.357962,0,5,0.5,0.5,0.008453992462158205,-0.14,-0.011,-0.56,0.0021279845220564106,10,1,100,0.06154521148536568,-10,-1,-100,473.193104615435,-0.009076187034021337,0.00031670134621714915,0.9999587604142387,3.424031730663557,-0.24886486756492032,14.02434632680923,-3.500704060003619,-90.03990936279297,6400.70703125,True
1598628739.437264,0,5,0.5,0.5,0.009419126892089845,-0.14,-0.011,-0.56,3.704524877805749e-05,10,1,100,0.0042079040118399025,-10,-1,-100,473.0039250908885,-0.008195532620087381,0.0002849665250015055,0.9999663754542713,3.9038170937710124,-0.2800258599454101,7.478638039933013,-1.6805834906502841,-90.0452651977539,6394.3916015625,True
1598628739.4828124,0,5,0.5,0.5,0.006529514312744141,-0.14,-0.011,-0.56,0.0013224992659953967,10,1,100,0.039993178347179345,-10,-1,-100,472.9640532510821,-0.007723183584137097,0.00026790690923825873,0.9999701398847936,8.85609684989391,-0.6314915208733581,7.677590073628787,-0.7695917608394305,-90.0452880859375,6391.2333984375,True
1598628739.5682259,0,5,0.5,0.5,0.005080338287353516,-0.14,-0.011,-0.56,0.0011630617062789016,10,1,100,0.03469484513807203,-10,-1,-100,472.9604976614937,-0.007248801795863685,0.0002510628165913549,0.9999736955740318,7.093878927423749,-0.5030317591830958,-1.1225560192169286,0.14204148638529593,-90.04312133789062,6388.076171875,True
1598628739.6162324,0,5,0.5,0.5,-0.0005153190612792969,-0.14,-0.011,-0.56,-0.001176623566442723,10,1,100,-0.030435863251636608,-10,-1,-100,473.0631287993165,-0.006228878858183709,0.00021460278024003202,0.999980577318288,1.2604872929841522,-0.08850561247948174,-2.708631797287104,1.9672902949982751,-90.0333023071289,6381.759765625,True
1598628739.664274,0,5,0.5,0.5,3.1944274902339503e-06,-0.14,-0.011,-0.56,0.0003698820926563281,10,1,100,0.01361010999831401,-10,-1,-100,473.1692241473356,-0.005706227049658384,0.00019566437210587141,0.9999837002113142,1.9738028089246455,-0.13799751629378587,-6.157802329620712,2.8808728012270173,-90.02613067626953,6378.6025390625,True
1598628739.7106931,0,5,0.5,0.5,-0.0013926551818847664,-0.14,-0.011,-0.56,0.00027393257666719875,10,1,100,0.009610515221657429,-10,-1,-100,473.31166663218755,-0.0051990826626231385,0.00017773125800139795,0.9999864688839879,2.5300970680963255,-0.17620259308914618,-10.317114668088772,3.795078677525756,-90.01837158203125,6375.4443359375,True
1598628739.7566402,0,5,0.5,0.5,-0.0025168579101562502,-0.14,-0.011,-0.56,-4.374845608665122e-05,10,1,100,0.0012926208347440737,-10,-1,-100,473.49094434373546,-0.0046669565703932,0.00015870244403925633,0.9999890971055156,3.022034546045359,-0.20972391288078865,-15.186270308139427,4.7099059416608,-90.01055908203125,6372.2861328125,True
1598628739.8088915,0,5,0.5,0.5,-0.003522679138183594,-0.14,-0.011,-0.56,-0.00022228395971707945,10,1,100,-0.0038119654593390395,-10,-1,-100,473.69942772143986,-0.004141505454024123,0.00013994891444074931,0.9999914141365792,3.4877400177343314,-0.24128247830684832,-20.801785177303987,5.625352078286983,-90.00289916992188,6369.12841796875,True
1598628739.8595293,0,5,0.5,0.5,-0.0043274154663085936,-0.14,-0.011,-0.56,-0.00040834906258324297,10,1,100,-0.00948008568225897,-10,-1,-100,473.9405964219477,-0.00361731293562842,0.0001213884982422029,0.9999934501345289,3.9417054074355216,-0.2719282983032021,-27.186482479308278,6.541413685394009,-89.99566650390625,6365.970703125,True
1598628739.9073253,0,5,0.5,0.5,-0.004891658020019532,-0.14,-0.011,-0.56,-0.0006116566633105613,10,1,100,-0.015232317405013795,-10,-1,-100,474.22476521309,-0.0030938055391033286,0.00010285750522270865,0.9999952088823326,4.389727074777574,-0.30209919031603183,-34.35354080925909,7.45808757781233,-89.9891357421875,6362.8125,True
1598628739.9582286,0,5,0.5,0.5,-0.0052209465026855474,-0.14,-0.011,-0.56,-0.0007987357181942379,10,1,100,-0.020763062136817882,-10,-1,-100,474.57869739690796,-0.0025730487551504067,8.450483274331176e-05,0.9999966861340275,4.834158802816239,-0.3319886533994797,-42.31106996633238,8.37537119604918,-89.9835205078125,6359.6552734375,True
1598628740.008609,0,5,0.5,0.5,-0.005327317810058595,-0.14,-0.011,-0.56,-0.0010351473945554243,10,1,100,-0.02599191777987454,-10,-1,-100,474.9324780338211,-0.002057209794678996,6.585362587899306e-05,0.9999978817733368,5.275910390264043,-0.36168847710755503,-51.06518114029503,9.293260763148272,-89.97897338867188,6356.49755859375,True
1598628740.0588973,0,5,0.5,0.5,-0.005182368469238282,-0.14,-0.011,-0.56,-0.001172225313800886,10,1,100,-0.03096577783776546,-10,-1,-100,475.3130230625393,-0.0015481992608054856,4.783550517588939e-05,0.9999988003946871,5.715041808266496,-0.39123040157130917,-60.619372535380506,10.211753122335786,-89.97564697265625,6353.33935546875,True
1598628740.1063528,0,5,0.5,0.5,-0.004889158630371094,-0.14,-0.011,-0.56,-0.001373629522032418,10,1,100,-0.03565422275105239,-10,-1,-100,475.76324010500684,-0.0010480225512861023,2.980920019952254e-05,0.9999994503799209,6.151301178941766,-0.42062328460923987,-70.97648954694516,11.130844119808408,-89.9735107421875,6350.181640625,True
1598628740.1553237,0,5,0.5,0.5,-0.004399509429931641,-0.14,-0.011,-0.56,-0.0015035692070822747,10,1,100,-0.04001020444370834,-10,-1,-100,476.2296932999743,-0.0005584264875233339,1.240837452059081e-05,0.9999998440029328,6.584271824319279,-0.4498646781167676,-82.13901837217158,12.050530941456051,-89.97259521484375,6347.02392578125,True
1598628740.2062898,0,5,0.5,0.5,-0.0037748046874999997,-0.14,-0.011,-0.56,-0.0016418854430430175,10,1,100,-0.04409956442433647,-10,-1,-100,476.7389939407585,-8.084297569886604e-05,-4.501381880276351e-06,0.9999999967220754,7.013396665579672,-0.4789367541470369,-94.10835531236127,12.970810189766715,-89.97283935546875,6343.8662109375,True
1598628740.259148,0,5,0.5,0.5,-0.00308575439453125,-0.14,-0.011,-0.56,-0.0017578997966188619,10,1,100,-0.04782539078388262,-10,-1,-100,477.3017618082231,0.000382542056785684,-2.0762897604589017e-05,0.9999999266152356,7.438084287580559,-0.5078238422723838,-106.88545391004311,13.891675521247876,-89.97409057617188,6340.70849609375,True
1598628740.3152475,0,5,0.5,0.5,-0.0023098297119140626,-0.14,-0.011,-0.56,-0.0019368742089709262,10,1,100,-0.05130551665186765,-10,-1,-100,477.880917849252,0.0008308482318195217,-3.700998351930671e-05,0.9999996541606787,7.857763111229413,-0.5365057092563168,-120.47137003576371,14.813125833280074,-89.97625732421875,6337.55029296875,True
1598628740.3584194,0,5,0.5,0.5,-0.0015444580078124999,-0.14,-0.011,-0.56,-0.0020097194204664877,10,1,100,-0.05443938489260597,-10,-1,-100,478.4865329689346,0.0012623686897789556,-5.2281419093591485e-05,0.9999992018456536,8.271858696852215,-0.5649627431463881,-134.86653277993148,15.735159187994464,-89.9791259765625,6334.392578125,True
1598628740.410204,0,5,0.5,0.5,-0.0007551574707031249,-0.14,-0.011,-0.56,-0.00209461701788288,10,1,100,-0.05731628827848146,-10,-1,-100,479.161851021694,0.0016763776081360295,-6.677845694005776e-05,0.9999985926483859,8.679801588288889,-0.5931722288690504,-150.0706236033289,16.657769728661226,-89.98257446289062,6331.234375,True
1598628740.4595182,0,5,0.5,0.5,-6.596374511718761e-05,-0.14,-0.011,-0.56,-0.002216400298669257,10,1,100,-0.05977667610495043,-10,-1,-100,479.8371993218316,0.0020707799840219607,-8.091048847839166e-05,0.9999978526595698,9.081045545048815,-0.6211115575026834,-166.08278752007655,17.58095596238198,-89.986328125,6328.0771484375,True
1598628740.5095735,0,5,0.5,0.5,0.0005480865478515624,-0.14,-0.011,-0.56,-0.002272629466792113,10,1,100,-0.061964273353816365,-10,-1,-100,480.5822810769314,0.0024449931836905228,-9.411858656779234e-05,0.9999970065705313,9.47517867158366,-0.6487668484846705,-182.90330958892332,18.504712629230536,-89.99020385742188,6324.9189453125,True
1598628740.558384,0,5,0.5,0.5,0.0010175933837890628,-0.14,-0.011,-0.56,-0.0023420561292846432,10,1,100,-0.0638402079845906,-10,-1,-100,481.34335380629636,0.0027981480409613726,-0.00010661167066040979,0.9999960794930611,9.861717187865906,-0.6761160081512615,-200.52988183143415,19.429036648225082,-89.99395751953125,6321.7607421875,True
1598628740.6083066,0,5,0.5,0.5,0.0013389434814453126,-0.14,-0.011,-0.56,-0.0024021506259287125,10,1,100,-0.06533368644883741,-10,-1,-100,482.1312821324682,0.00312882376333551,-0.00011837492691788419,0.9999950982126036,10.240312028716627,-0.7031453969259696,-218.96129163173572,20.353924162602837,-89.99739074707031,6318.603515625,True
1598628740.6574476,0,5,0.5,0.5,0.0015200881958007816,-0.14,-0.011,-0.56,-0.002447710927235303,10,1,100,-0.06651124239910958,-10,-1,-100,482.9889433112694,0.0034363459774829986,-0.00012934826795735956,0.9999940873801948,10.610625479008519,-0.7298374844818983,-238.19497474849157,21.279372321953172,-90.00035858154297,6315.4453125,True
1598628740.709298,0,5,0.5,0.5,0.0015495597839355472,-0.14,-0.011,-0.56,-0.0024740624007261614,10,1,100,-0.06742780756783193,-10,-1,-100,483.8627479329007,0.003720612426000913,-0.00013943472171363774,0.999993068776546,10.972453634366897,-0.7561859653954787,-258.2296705493788,22.20537772066889,-90.00273132324219,6312.28759765625,True
1598628740.7616954,0,5,0.5,0.5,0.0014393135070800782,-0.14,-0.011,-0.56,-0.0024868009260698544,10,1,100,-0.0679350604655001,-10,-1,-100,484.7898664465174,0.003980191991539909,-0.00014859736323171206,0.9999920679638085,11.325585703529274,-0.7821741505852742,-279.0622724539208,23.131937132604573,-90.00442504882812,6309.1298828125,True
1598628740.814475,0,5,0.5,0.5,0.0011810859680175783,-0.14,-0.011,-0.56,-0.002495347663237879,10,1,100,-0.0681919462339518,-10,-1,-100,485.7333427815465,0.004215238149075145,-0.00015688852179910064,0.9999911035370956,11.669916363219828,-0.8077992623187606,-300.6900730676767,24.059046617421597,-90.00536346435547,6305.9716796875,True
1598628740.9122205,0,5,0.5,0.5,0.0008050827026367189,-0.14,-0.011,-0.56,-0.0024689236323939723,10,1,100,-0.0681461920517667,-10,-1,-100,486.7301332040224,0.004425423808889808,-0.0001640767397269822,0.9999901943033919,12.005369162280978,-0.833057347724666,-323.1092682968749,24.986703241390053,-90.00553131103516,6302.814453125,True
1598628740.9620497,0,5,0.5,0.5,-0.0006003501892089843,-0.14,-0.011,-0.56,-0.0030598818686737536,10,1,100,-0.08528855337590718,-10,-1,-100,488.8258851515129,0.004769465825196132,-0.00017588219879066037,0.9999886105657376,12.649793245471173,-0.8824593554916963,-370.3086300146682,26.843644662113938,-90.00361633300781,6296.49853515625,True
1598628741.012493,0,5,0.5,0.5,-0.0009467720031738282,-0.14,-0.011,-0.56,-0.0023940620442507166,10,1,100,-0.06588189772008997,-10,-1,-100,489.90858148015104,0.004902995253860762,-0.000180462341588476,0.9999879639630087,12.958987554097945,-0.9066091753676437,-395.0809115717491,27.772924015998647,-90.00155639648438,6293.3408203125,True
1598628741.0626638,0,5,0.5,0.5,-0.0016242958068847658,-0.14,-0.011,-0.56,-0.002301417198996409,10,1,100,-0.06388758678721963,-10,-1,-100,491.06100993277505,0.00500368080301175,-0.00018369338021771462,0.9999874646390142,13.259687773347553,-0.9303883119804756,-420.6271198444678,28.702738500899247,-89.99891662597656,6290.1826171875,True
1598628741.110435,0,5,0.5,0.5,-0.0022459678649902346,-0.14,-0.011,-0.56,-0.002288597855217858,10,1,100,-0.06306447813768534,-10,-1,-100,492.2295511061093,0.005085404234862954,-0.00018643271694299024,0.999987051869478,13.552165913553173,-0.9538063777682746,-446.94037516204054,29.633084715059827,-89.99590301513672,6287.0244140625,True
1598628741.160549,0,5,0.5,0.5,-0.0028579940795898442,-0.14,-0.011,-0.56,-0.0022034743776603903,10,1,100,-0.06103735812773952,-10,-1,-100,493.45152818842325,0.0051391905762791755,-0.00018807660867337057,0.9999867765862755,13.836906903923992,-0.9768783155096721,-474.01862031519516,30.56395943861854,-89.99261474609375,6283.8671875,True
1598628741.2104757,0,5,0.5,0.5,-0.003435757446289063,-0.14,-0.011,-0.56,-0.0021211214194476846,10,1,100,-0.058968530512415705,-10,-1,-100,494.7002384964144,0.005167452120324666,-0.00018875902727927765,0.9999866308149393,14.114365456072852,-0.9996185097579047,-501.8593223245139,31.495360380591215,-89.98916625976562,6280.70947265625,True
1598628741.2657566,0,5,0.5,0.5,-0.003973581695556641,-0.14,-0.011,-0.56,-0.0019953603169045346,10,1,100,-0.056809941302351744,-10,-1,-100,495.98138858145103,0.005171947161962857,-0.00018818211529850824,0.9999866076853455,14.384993694286448,-1.0220454229593865,-530.4581464227417,32.427283663369856,-89.98565673828125,6277.5517578125,True
1598628741.3525918,0,5,0.5,0.5,-0.004419609832763672,-0.14,-0.011,-0.56,-0.0019829572372788134,10,1,100,-0.05443629726858135,-10,-1,-100,497.31597414566204,0.005153135586112425,-0.00018750057877977053,0.9999867049302027,14.649298581226459,-1.0441736080395794,-559.8105800834916,33.359727252712936,-89.98223876953125,6274.3935546875,True
1598628741.4025748,0,5,0.5,0.5,-0.0070160362243652345,-0.14,-0.011,-0.56,-0.0015099855123258702,10,1,100,-0.044755730226700256,-10,-1,-100,500.0813668135088,0.005046962686236229,-0.0001825458906126658,0.9999872473410056,15.161155598187804,-1.0876154844146215,-620.7570225413215,35.2261620268018,-89.975830078125,6268.078125,True
1598628741.4502497,0,5,0.5,0.5,-0.00548907470703125,-0.14,-0.011,-0.56,-0.0016584285738960693,10,1,100,-0.0459678660285998,-10,-1,-100,501.5018585032085,0.004960705171332264,-0.0001793677861397419,0.9999876795398034,15.409930970338293,-1.1089697095482518,-652.3412994931971,36.16014775904908,-89.97293090820312,6264.919921875,True
1598628741.50028,0,5,0.5,0.5,-0.005546297454833985,-0.14,-0.011,-0.56,-0.0014978497991169062,10,1,100,-0.04319441254960929,-10,-1,-100,502.9756949673174,0.004856589415826525,-0.00017500489226053434,0.9999881913865452,15.654864459779342,-1.1301094834378633,-684.6616447839593,37.0946419037548,-89.9705810546875,6261.7626953125,True
1598628741.5512545,0,5,0.5,0.5,-0.005505731964111329,-0.14,-0.011,-0.56,-0.0013975809666826786,10,1,100,-0.039779282726881915,-10,-1,-100,504.49246881972067,0.0047308128909868494,-0.00017012788780869825,0.999988795170172,15.896691494973718,-1.1510667431652066,-717.7157712572016,38.02964129237156,-89.96881103515625,6258.6044921875,True
1598628741.605247,0,5,0.5,0.5,-0.005469120025634767,-0.14,-0.011,-0.56,-0.0012559470265603085,10,1,100,-0.03657023606170933,-10,-1,-100,506.05212015577126,0.004587453973597279,-0.00016441606108208006,0.9999894640611966,16.13614299563175,-1.171862370375021,-751.5004779824434,38.965142721146464,-89.96749877929688,6255.44677734375,True
1598628741.6634653,0,5,0.5,0.5,-0.0054310478210449235,-0.14,-0.011,-0.56,-0.0011157775228435186,10,1,100,-0.03322057598145278,-10,-1,-100,507.6385348343756,0.004427054617812987,-0.00015796674795057964,0.9999901880688217,16.373918807555636,-1.1925287183364923,-786.0105352289559,39.90114433444171,-89.966552734375,6252.2890625,True
1598628741.7542558,0,5,0.5,0.5,-0.005360794067382812,-0.14,-0.011,-0.56,-0.00102546771161807,10,1,100,-0.029695397095508655,-10,-1,-100,509.2679790406255,0.004249788440516002,-0.00015130861588261374,0.9999909581610793,16.610839998520934,-1.2130908022945734,-821.2449676769537,40.837642692084955,-89.9659423828125,6249.130859375,True
1598628741.8074179,0,5,0.5,0.5,-0.005432858276367188,-0.14,-0.011,-0.56,3.9453492480655055e-05,10,1,100,-0.003163145708735146,-10,-1,-100,512.6391414827667,0.0038482436323078596,-0.00013560809214064793,0.9999925862882143,17.085170371441862,-1.2540184693286265,-893.8714155774394,42.71211869331981,-89.96539306640625,6242.8154296875,True
1598628741.9034183,0,5,0.5,0.5,-0.00517275390625,-0.14,-0.011,-0.56,-0.0005224225481417944,10,1,100,-0.018791658958517293,-10,-1,-100,514.3647772719851,0.003626479571196674,-0.00012649117177646366,0.9999934163012791,17.324197822579436,-1.2744408955247941,-931.2585359913795,43.6500904130486,-89.96536254882812,6239.65771484375,True
1598628741.9523435,0,5,0.5,0.5,-0.005028451538085938,-0.14,-0.011,-0.56,0.000504832559056613,10,1,100,0.009993071256862766,-10,-1,-100,517.9451372390613,0.00316460148422011,-0.00010892046223769431,0.9999949867043229,17.810432215977016,-1.3154045983555818,-1008.1973087674075,45.52748567403956,-89.965576171875,6233.341796875,True
1598628742.0475948,0,5,0.5,0.5,-0.005123684692382812,-0.14,-0.011,-0.56,-0.00018824271614975986,10,1,100,-0.00861296713110617,-10,-1,-100,519.7996176764136,0.0029156658760428537,-9.931921071936381e-05,0.9999957445050422,18.059206836297367,-1.3360127945292675,-1047.7641582418537,46.46690390245979,-89.96563720703125,6230.1845703125,True
1598628742.140303,0,5,0.5,0.5,-0.005425424194335938,-0.14,-0.011,-0.56,0.0009869246045396442,10,1,100,0.02085752546690852,-10,-1,-100,523.6049536782084,0.0024233847511817537,-7.99831215872445e-05,0.9999970604002034,18.571246016827818,-1.3775996912742767,-1129.0862763151297,48.34716598853606,-89.96527099609375,6223.86865234375,True
1598628742.198321,0,5,0.5,0.5,-0.006254162597656251,-0.14,-0.011,-0.56,0.0013164105383270234,10,1,100,0.029094939361836096,-10,-1,-100,527.5495719625615,0.0019032775299179126,-5.949988176411668e-05,0.9999981869955605,19.106635742386235,-1.4198598728672487,-1213.349321908548,50.22930637864313,-89.96380615234375,6217.552734375,True
1598628742.2875073,0,5,0.5,0.5,-0.006274432373046876,-0.14,-0.011,-0.56,0.0003938767081553071,10,1,100,0.005308067663894741,-10,-1,-100,529.6130375913344,0.0016493819004647135,-4.937043039055828e-05,0.9999986385500267,19.3843389379167,-1.4412821343663222,-1256.5656405629516,51.171073556398234,-89.96261596679688,6214.39501953125,True
1598628742.3813925,0,5,0.5,0.5,-0.007985958862304689,-0.14,-0.011,-0.56,0.0016075809381147009,10,1,100,0.036182669512407395,-10,-1,-100,533.7828151495196,0.0011406907941485286,-2.9237942921709007e-05,0.9999993489846155,19.963595503841443,-1.4849157145485574,-1345.2549365710217,53.05598627087434,-89.959228515625,6208.0791015625,True
1598628742.475641,0,5,0.5,0.5,-0.00928106689453125,-0.14,-0.011,-0.56,0.0018354594727332768,10,1,100,0.041918028481972194,-10,-1,-100,538.1344236999284,0.0006292381279372702,-8.986947742732045e-06,0.9999998019892868,20.57343435574147,-1.5293800455908744,-1435.7225192370067,54.90649259167515,-89.95468139648438,6201.84912109375,True
1598628742.5724084,0,5,0.5,0.5,-0.009546200561523438,-0.14,-0.011,-0.56,0.0014809913767598307,10,1,100,0.030981610504891323,-10,-1,-100,541.488538527512,0.0002671557007094757,6.06517445639037e-06,0.9999999642955221,21.045679929458466,-1.5627844772688075,-1502.1027662047936,56.1958409102623,-89.95068359375,6197.41015625,True
1598628742.6683457,0,5,0.5,0.5,-0.01185302429199219,-0.14,-0.011,-0.56,0.0025376418721902226,10,1,100,0.05804828334045689,-10,-1,-100,547.2274547579,-0.0003044502291483821,2.92117684228334e-05,0.9999999532283642,21.78402217878154,-1.6129461769711848,-1603.3498127843645,58.1375333703555,-89.9442138671875,6190.50390625,True
1598628742.7652628,0,5,0.5,0.5,-0.011457620239257813,-0.14,-0.011,-0.56,0.0021612627809674094,10,1,100,0.047839915238423236,-10,-1,-100,551.9431494537275,-0.0007275134609448048,4.668266223524377e-05,0.9999997342724113,22.35034088617872,-1.649775341580807,-1677.5487408018676,59.52796174276639,-89.93963623046875,6185.36376953125,True
1598628742.8593142,0,5,0.5,0.5,-0.011101397705078127,-0.14,-0.011,-0.56,0.0021524881605200783,10,1,100,0.04623151957020095,-10,-1,-100,556.771081140847,-0.001093536444655767,6.232809293881228e-05,0.9999994001464465,22.89533536920556,-1.6839210722008817,-1744.841477751231,60.74788445066393,-89.9365234375,6180.6259765625,True
1598628742.9542372,0,5,0.5,0.5,-0.010201959228515627,-0.14,-0.011,-0.56,0.0021432846658083985,10,1,100,0.04537337566308597,-10,-1,-100,561.6688502416946,-0.0014146122689384366,7.631186312178973e-05,0.9999989965238105,23.402764907300313,-1.7144035134643485,-1804.6112017518467,61.82141702771581,-89.93536376953125,6176.2333984375,True
1598628743.010199,0,5,0.5,0.5,-0.009457672119140625,-0.14,-0.011,-0.56,0.0020933370370307632,10,1,100,0.04332178359589817,-10,-1,-100,566.663198352675,-0.0016839119284528096,8.841064750484423e-05,0.9999985783110769,23.883356164338153,-1.7422184519551043,-1858.39530735726,62.773923055286346,-89.935546875,6172.125,True
1598628743.0982306,0,5,0.5,0.5,-0.00937928466796875,-0.14,-0.011,-0.56,0.0015030048890008283,10,1,100,0.029678377236131814,-10,-1,-100,569.2030474457424,-0.0018009649277592413,9.388980126271974e-05,0.9999983738536949,24.123858259047992,-1.7559271020944314,-1884.0002592615044,63.20978069563465,-89.93585205078125,6170.16650390625,True
1598628743.190703,0,5,0.5,0.5,-0.0094100341796875,-0.14,-0.011,-0.56,0.002021830236905512,10,1,100,0.040314504871920606,-10,-1,-100,574.2834002273157,-0.002000701321583462,0.00010344799903898839,0.9999979932443531,24.55578685251469,-1.7794713858460753,-1928.4094577487758,63.98405459186349,-89.93609619140625,6166.4775390625,True
1598628743.285308,0,5,0.5,0.5,-0.010280880737304689,-0.14,-0.011,-0.56,0.001990069136283098,10,1,100,0.03921247177210119,-10,-1,-100,579.4336119629443,-0.002168943121223442,0.00011170960662136563,0.9999976416005691,24.96214374091648,-1.8008044053200183,-1968.2923648302465,64.68122349010163,-89.93508911132812,6162.97021484375,True
1598628743.3775773,0,5,0.5,0.5,-0.011495178222656251,-0.14,-0.011,-0.56,0.001944190937251955,10,1,100,0.03683591002029653,-10,-1,-100,584.6428632225143,-0.0022972763468657705,0.0001186749502963863,0.9999973542153212,25.358842052916515,-1.8211674323099876,-2005.263172775857,65.31219238737881,-89.93258666992188,6159.61865234375,True
1598628743.4685194,0,5,0.5,0.5,-0.012767041015625,-0.14,-0.011,-0.56,0.0018569756597373917,10,1,100,0.03456617937373141,-10,-1,-100,589.8894826389151,-0.0023906485329583836,0.0001240981584798735,0.9999971346955145,25.735671485445483,-1.8399080419715208,-2038.5500488124012,65.87426443956545,-89.92880249023438,6156.4287109375,True
1598628743.5604491,0,5,0.5,0.5,-0.01361996765136719,-0.14,-0.011,-0.56,0.0017591055842164534,10,1,100,0.031823298564349935,-10,-1,-100,595.1951939703431,-0.002448180872744866,0.00012803131706555924,0.9999969950046831,26.093080325020082,-1.8571445982242993,-2068.465113117753,66.3740259553735,-89.92459106445312,6153.38525390625,True
1598628743.6502705,0,5,0.5,0.5,-0.013761181640625002,-0.14,-0.011,-0.56,0.001678830050374165,10,1,100,0.028956242546783313,-10,-1,-100,600.5275877155364,-0.002472470008169611,0.000130787302246123,0.9999969348886726,26.431478329014233,-1.8729680215572748,-2095.3056678135513,66.81805070771071,-89.92105102539062,6150.47265625,True
1598628743.7477033,0,5,0.5,0.5,-0.012995492553710939,-0.14,-0.011,-0.56,0.0015503156086481107,10,1,100,0.02662167465416099,-10,-1,-100,604.5416454805527,-0.002471741371761699,0.00013204797144911605,0.9999969365242698,26.674772927237683,-1.8840771365643851,-2113.687759796324,67.11690225500685,-89.91934204101562,6148.3681640625,True
1598628743.8334074,0,5,0.5,0.5,-0.01233507080078125,-0.14,-0.011,-0.56,0.0014596519084907917,10,1,100,0.023029588039237145,-10,-1,-100,611.2784033569042,-0.0024371707285941934,0.00013230643719721564,0.999997021342487,27.04962935560922,-1.9004684675874925,-2140.30494555003,67.55229292042178,-89.9189453125,6145.0078125,True
1598628743.9292216,0,5,0.5,0.5,-0.010956036376953126,-0.14,-0.011,-0.56,0.0013377494017787859,10,1,100,0.020832627985368626,-10,-1,-100,616.6968273381935,-0.002384840908443424,0.00013138229729440118,0.9999971476321988,27.33722651410876,-1.9127509092864494,-2159.931981718286,67.87060731084595,-89.92062377929688,6142.390625,True
1598628744.0234337,0,5,0.5,0.5,-0.010246133422851564,-0.14,-0.011,-0.56,0.0012344503026678693,10,1,100,0.018473454275752428,-10,-1,-100,622.1420948000159,-0.0023151841027825855,0.00012956402225466193,0.9999973115642533,27.61074083379297,-1.9241121557644962,-2177.575142064868,68.15031620420153,-89.92300415039062,6139.86376953125,True
1598628744.118297,0,5,0.5,0.5,-0.010204724121093751,-0.14,-0.011,-0.56,0.0011788625593660367,10,1,100,0.016354071651643477,-10,-1,-100,627.6139286753023,-0.0022321251472580844,0.00012737327071488965,0.9999975006935651,27.866470446720555,-1.9343099255109024,-2193.1088547716995,68.39660021077859,-89.92498779296875,6137.4150390625,True
1598628744.208014,0,5,0.5,0.5,-0.011007348632812502,-0.14,-0.011,-0.56,0.001071648418213595,10,1,100,0.014490723817006832,-10,-1,-100,633.1020028979983,-0.0021394670948066824,0.00012438525414855091,0.9999977036017926,28.107694645782725,-1.9435825369931938,-2206.9648928372444,68.61518521255496,-89.92544555664062,6135.0322265625,True
1598628744.3014555,0,5,0.5,0.5,-0.012363781738281251,-0.14,-0.011,-0.56,0.001009466975308748,10,1,100,0.012850350781225536,-10,-1,-100,638.5902038349304,-0.0020403468159132295,0.00012109206629135602,0.9999979111586096,28.335396440650054,-1.9520097969495216,-2219.3224874842012,68.80939186006866,-89.92388916015625,6132.7060546875,True
1598628744.3937745,0,5,0.5,0.5,-0.01376617126464844,-0.14,-0.011,-0.56,0.0009488657292943525,10,1,100,0.011482728901027674,-10,-1,-100,644.121194619569,-0.001938038117581885,0.00011754514135196163,0.9999981150939209,28.550372804748815,-1.95964218432136,-2230.325124174128,68.98197154224388,-89.920654296875,6130.431640625,True
1598628744.4882927,0,5,0.5,0.5,-0.01469798583984375,-0.14,-0.011,-0.56,0.0008767158403412927,10,1,100,0.010338841949667872,-10,-1,-100,649.6361366789788,-0.001835042701736825,0.00011367071334123702,0.9999983098471975,28.753355387154432,-1.966536615971842,-2240.0958942457582,69.13536194260433,-89.916748046875,6128.2021484375,True
1598628744.5814188,0,5,0.5,0.5,-0.01478351745605469,-0.14,-0.011,-0.56,0.0008471577106352942,10,1,100,0.009443272519416698,-10,-1,-100,655.1940503765363,-0.0017338263635763124,0.00010989285088300041,0.9999984908837124,28.945130272576158,-1.972740872895174,-2248.7484841231976,69.27165063517408,-89.91351318359375,6126.01318359375,True
1598628744.6753426,0,5,0.5,0.5,-0.01398431396484375,-0.14,-0.011,-0.56,0.0007908977715007802,10,1,100,0.008763100527301348,-10,-1,-100,660.7249899369199,-0.0016362996231789736,0.00010596597143007438,0.9999986556464744,29.12643168398828,-1.9782991892599444,-2256.391583799923,69.39301901803336,-89.91207885742188,6123.8603515625,True
1598628744.7661793,0,5,0.5,0.5,-0.012612298583984377,-0.14,-0.011,-0.56,0.0007350836720258626,10,1,100,0.008333924024562627,-10,-1,-100,666.2829699136782,-0.0015444968380188434,0.00010191239102311423,0.9999988020709736,29.298039220902748,-1.9832618929074854,-2263.1145839996943,69.50096062441278,-89.91290283203125,6121.73828125,True
1598628744.8573468,0,5,0.5,0.5,-0.0111364013671875,-0.14,-0.011,-0.56,0.0007201908260132663,10,1,100,0.00800910743823106,-10,-1,-100,671.8408307131613,-0.0014588984042616883,9.811955936773968e-05,0.9999989309934277,29.460612936618595,-1.9876689041000337,-2268.9968848702624,69.597008856516,-89.91567993164062,6119.64453125,True
1598628744.949241,0,5,0.5,0.5,-0.010218988037109376,-0.14,-0.011,-0.56,0.0006756767336963007,10,1,100,0.007941966451552384,-10,-1,-100,677.4254882173846,-0.001381313039607361,9.429709587626919e-05,0.9999990415407128,29.61498469981772,-1.991566991214979,-2274.1402238397436,69.68308831071248,-89.91921997070312,6117.5751953125,True
1598628745.045353,0,5,0.5,0.5,-0.010154791259765627,-0.14,-0.011,-0.56,0.0007084905103997134,10,1,100,0.007982388515631168,-10,-1,-100,682.9995260164142,-0.0013119973369252115,9.115249696894375e-05,0.999999135176731,29.762039803124264,-1.9950079260683478,-2278.6030137285675,69.75951817229598,-89.92214965820312,6115.529296875,True
1598628745.140327,0,5,0.5,0.5,-0.011093582153320312,-0.14,-0.011,-0.56,0.0006873332525958187,10,1,100,0.008201355053293006,-10,-1,-100,688.5841861504596,-0.0012518101464750314,8.813435995838154e-05,0.9999992126015359,29.902046919374847,-1.9980036715435114,-2282.4203128797785,69.82744557705426,-89.92315673828125,6113.5029296875,True
1598628745.2335417,0,5,0.5,0.5,-0.012600006103515625,-0.14,-0.011,-0.56,0.0006773031997871553,10,1,100,0.008533872009806764,-10,-1,-100,694.1849010727601,-0.0012009243610780216,8.533237209978274e-05,0.9999992752492699,30.035030745275858,-2.0005511564064076,-2285.551674454366,69.88612110176821,-89.92181396484375,6111.4990234375,True
1598628745.320648,0,5,0.5,0.5,-0.014200189208984377,-0.14,-0.011,-0.56,0.00070962960825818,10,1,100,0.00893840632778034,-10,-1,-100,699.7695024051936,-0.0011591052522030771,8.311149566369458e-05,0.9999993247835188,30.163386802305624,-2.002805653396888,-2288.297231921074,69.94016560812247,-89.91845703125,6109.5068359375,True
1598628745.4132078,0,5,0.5,0.5,-0.015227996826171878,-0.14,-0.011,-0.56,0.0006856020613188205,10,1,100,0.009428446320571694,-10,-1,-100,705.3703407398425,-0.0011262509103106661,8.09053881547914e-05,0.9999993625063994,30.286869238369324,-2.0047395110574824,-2290.590095978705,69.98859254802153,-89.914306640625,6107.52880859375,True
1598628745.5052526,0,5,0.5,0.5,-0.015277679443359376,-0.14,-0.011,-0.56,0.000668481547842876,10,1,100,0.009963313850170408,-10,-1,-100,710.9712413165253,-0.0011018901150333955,7.877398150163124e-05,0.9999993898162309,30.406112445078183,-2.006395958109194,-2292.476669337544,70.03195677015565,-89.91091918945312,6105.5634765625,True
1598628745.6003458,0,5,0.5,0.5,-0.014280776977539062,-0.14,-0.011,-0.56,0.0007440306521333408,10,1,100,0.010518940883855087,-10,-1,-100,716.5720811792416,-0.0010853695798589582,7.755143900992748e-05,0.9999994079791495,30.52156678242577,-2.0077976036673513,-2293.9904945462563,70.07078192890107,-89.90963745117188,6103.60888671875,True
1598628745.6932108,0,5,0.5,0.5,-0.012625747680664065,-0.14,-0.011,-0.56,0.0007322139555518781,10,1,100,0.011144254482454291,-10,-1,-100,722.1729223137954,-0.0010765364260906627,7.635844362347453e-05,0.9999994176191861,30.63373705808641,-2.0089702310037434,-2295.1695792161977,70.10558897200549,-89.91098022460938,6101.6640625,True
1598628745.7866817,0,5,0.5,0.5,-0.010923150634765625,-0.14,-0.011,-0.56,0.0007620271664548774,10,1,100,0.011736459572559772,-10,-1,-100,727.8004972889321,-0.001074315387494924,7.556816241436243e-05,0.9999994200677823,30.743090154401052,-2.0099486015160966,-2296.0493997364065,70.13685725038711,-89.91448974609375,6099.728515625,True
1598628745.888212,0,5,0.5,0.5,-0.00981361999511719,-0.14,-0.011,-0.56,0.0007919933067177477,10,1,100,0.01236287680842238,-10,-1,-100,733.401339756092,-0.0010783405845673367,7.514264567842604e-05,0.9999994157674126,30.85013249748176,-2.010759527290534,-2296.666276003279,70.16493854172255,-89.91888427734375,6097.8017578125,True
1598628745.9764104,0,5,0.5,0.5,-0.0097968994140625,-0.14,-0.011,-0.56,0.0007989535616877761,10,1,100,0.012986669949719665,-10,-1,-100,739.0021826063748,-0.0010879461308768146,7.483650046384581e-05,0.9999994053861805,30.955224212963444,-2.0114276008406446,-2297.0521967590707,70.19034945930503,-89.92242431640625,6095.880859375,True
1598628746.0702069,0,5,0.5,0.5,-0.010732266235351564,-0.14,-0.011,-0.56,0.0008565226139274143,10,1,100,0.013567466393814561,-10,-1,-100,744.6297590147005,-0.001102162096291792,7.509637437686512e-05,0.9999993897994378,31.058902596191402,-2.011981615200275,-2297.2412108131384,70.21321135061663,-89.92391967773438,6093.9677734375,True
1598628746.161255,0,5,0.5,0.5,-0.012444683837890626,-0.14,-0.011,-0.56,0.0008479975926880452,10,1,100,0.014102736388434043,-10,-1,-100,750.2306636502035,-0.0011200878357566608,7.52669759097807e-05,0.9999993698688627,31.16140783393674,-2.0124473671280096,-2297.254490544085,70.23389324288736,-89.92266845703125,6092.06005859375,True
1598628746.251466,0,5,0.5,0.5,-0.014327899169921877,-0.14,-0.011,-0.56,0.0008675467491976783,10,1,100,0.014603320178011452,-10,-1,-100,755.8744158394402,-0.0011410082120166282,7.560893817723699e-05,0.9999993461915606,31.26313957553212,-2.012840733626104,-2297.1267717444557,70.25278059358178,-89.91897583007812,6090.1572265625,True
1598628746.3412442,0,5,0.5,0.5,-0.015570614624023439,-0.14,-0.011,-0.56,0.000855457757728869,10,1,100,0.015058058315011266,-10,-1,-100,761.502115702955,-0.0011641771708076755,7.581673355019576e-05,0.9999993194714373,31.36433158975053,-2.013181361468592,-2296.8763847887785,70.27004662693432,-89.91424560546875,6088.25927734375,True
1598628746.431706,0,5,0.5,0.5,-0.015741580200195313,-0.14,-0.011,-0.56,0.0009217746794724878,10,1,100,0.015461022844341296,-10,-1,-100,767.1028988898033,-0.001188868696102085,7.661314559110445e-05,0.9999992903605728,31.465083236178824,-2.0134739463043267,-2296.5026295043417,70.28551717865633,-89.91021728515625,6086.3662109375,True
1598628746.5252402,0,5,0.5,0.5,-0.014682781982421875,-0.14,-0.011,-0.56,0.0009278893061781038,10,1,100,0.01583688092060298,-10,-1,-100,772.7304129305994,-0.0012146533574438649,7.739470844917297e-05,0.9999992593133658,31.565045669439435,-2.0136992820068964,-2295.9278055099808,70.29749044797228,-89.90850830078125,6084.4814453125,True
1598628746.6184497,0,5,0.5,0.5,-0.012765689086914063,-0.14,-0.011,-0.56,0.0009381531806454972,10,1,100,0.01615143991555744,-10,-1,-100,778.3741692332551,-0.001240836055183628,7.81986705703577e-05,0.9999992271051273,31.66447814648957,-2.0138758852957204,-2295.289447194596,70.30995486071929,-89.90988159179688,6082.59716796875,True
1598628746.712354,0,5,0.5,0.5,-0.010737478637695313,-0.14,-0.011,-0.56,0.0009201283805942734,10,1,100,0.016407225787399587,-10,-1,-100,783.9751366379205,-0.0012668144704828022,7.876401047374463e-05,0.9999991944883396,31.764698381969232,-2.0140893352740163,-2294.651509918137,70.32184825019104,-89.91387939453125,6080.71484375,True
1598628746.8064797,0,5,0.5,0.5,-0.009366690063476561,-0.14,-0.011,-0.56,0.0009802079838488742,10,1,100,0.016626562781221193,-10,-1,-100,789.6027154149488,-0.0012922501851686226,7.982122873544785e-05,0.9999991618586641,31.865059709734325,-2.014303460824893,-2293.9609786680608,70.33291592293652,-89.91903686523438,6078.8349609375,True
1598628746.9015102,0,5,0.5,0.5,-0.009221258544921875,-0.14,-0.011,-0.56,0.0009715575304240794,10,1,100,0.016817991496727247,-10,-1,-100,795.246468846919,-0.0013169193599325132,8.069944250308263e-05,0.9999991296051208,31.9657175134027,-2.0145203546373507,-2293.2319168132485,70.3432078191219,-89.92337036132812,6076.95849609375,True
1598628746.99499,0,5,0.5,0.5,-0.010365237426757812,-0.14,-0.011,-0.56,0.0009776555554915267,10,1,100,0.01696943616910411,-10,-1,-100,800.8739261032315,-0.0013405144947130619,8.154792529969174e-05,0.9999990981850061,32.066685169010235,-2.01475068534497,-2292.4695219890264,70.35277007294881,-89.92520141601562,6075.083984375,True
1598628747.0887363,0,5,0.5,0.5,-0.012478695678710938,-0.14,-0.011,-0.56,0.0009851556704733463,10,1,100,0.017049229056734064,-10,-1,-100,806.4910070253536,-0.0013624733231298136,8.238159111378671e-05,0.9999990684394248,32.16797096985078,-2.014996208427761,-2291.6762424318026,70.36155637018054,-89.92364501953125,6073.2119140625,True
1598628747.1795177,0,5,0.5,0.5,-0.01463948669433594,-0.14,-0.011,-0.56,0.0009753485762547316,10,1,100,0.017110859680684903,-10,-1,-100,812.118586457218,-0.0013827758223742563,8.304384589260928e-05,0.9999990405169121,32.26961317020931,-2.0152586921447586,-2290.8614070415756,70.36970358686436,-89.9193115234375,6071.341796875,True
1598628747.2723565,0,5,0.5,0.5,-0.016121661376953124,-0.14,-0.011,-0.56,0.0009728781573612571,10,1,100,0.017146858193005342,-10,-1,-100,817.746165721328,-0.0014013401103354286,8.361667833094787e-05,0.9999990146265877,32.37158563598619,-2.015539755152665,-2290.0308408947917,70.37732068874215,-89.91372680664062,6069.474609375,True
1598628747.3632722,0,5,0.5,0.5,-0.016220498657226565,-0.14,-0.011,-0.56,0.000978568769934678,10,1,100,0.017156006859948583,-10,-1,-100,823.3899807162816,-0.001418084302781862,8.418207707575882e-05,0.999998990974635,32.47382300035505,-2.0158379230369037,-2289.1852493723136,70.38447491790521,-89.90911865234375,6067.609375,True
1598628747.4532735,0,5,0.5,0.5,-0.014901516723632815,-0.14,-0.011,-0.56,0.0010071170548272296,10,1,100,0.017166375463121206,-10,-1,-100,829.0176818136824,-0.0014331921781195712,8.49487249505332e-05,0.9999989693714163,32.5762512973884,-2.0161448154258395,-2288.3245797175173,70.39121894158706,-89.90731811523438,6065.7451171875,True
1598628747.5443206,0,5,0.5,0.5,-0.012591424560546875,-0.14,-0.011,-0.56,0.0009507644430859028,10,1,100,0.0171200829516217,-10,-1,-100,834.6346414700383,-0.0014463070975759696,8.512651380586024e-05,0.9999989504740773,32.67886208519666,-2.016464142328642,-2287.4531894288316,70.39759131528989,-89.9091796875,6063.88330078125,True
1598628747.6383486,0,5,0.5,0.5,-0.010195346069335937,-0.14,-0.011,-0.56,0.0009852272130715391,10,1,100,0.017099589673206756,-10,-1,-100,840.26203836489,-0.0014578566572394757,8.559513990763106e-05,0.9999989336631508,32.78152334873465,-2.0167919396926473,-2286.5671432415847,70.40364513260823,-89.91409301757812,6062.0224609375,True
1598628747.7302842,0,5,0.5,0.5,-0.008652752685546876,-0.14,-0.011,-0.56,0.0009807764749837427,10,1,100,0.0170597980476155,-10,-1,-100,845.905914478586,-0.0014678208401675092,8.597449226350286e-05,0.9999989190545997,32.884297833266956,-2.0171296580595315,-2285.675334490794,70.40941339194795,-89.92022705078125,6060.16357421875,True
1598628747.8228245,0,5,0.5,0.5,-0.008540359497070313,-0.14,-0.011,-0.56,0.0009736824156717809,10,1,100,0.0169577721218375,-10,-1,-100,851.5497295923997,-0.001475792070181377,8.624927271734296e-05,0.9999989072988174,32.98721012880088,-2.017480713323813,-2284.787733947977,70.4150789650408,-89.92529296875,6058.3056640625,True
1598628747.914275,0,5,0.5,0.5,-0.01005069580078125,-0.14,-0.011,-0.56,0.0010023901452266386,10,1,100,0.01690039807018967,-10,-1,-100,857.1774314620998,-0.0014823726308969595,8.675500718931972e-05,0.9999988975218681,33.09032108830924,-2.017854400003883,-2283.9076269193724,70.4204920553804,-89.92718505859375,6056.44921875,True
1598628748.0103052,0,5,0.5,0.5,-0.012539358520507813,-0.14,-0.011,-0.56,0.0009661656649016216,10,1,100,0.016874653092456598,-10,-1,-100,862.8211245330749,-0.001487991951626112,8.688071863189876e-05,0.9999988891652295,33.1934888252767,-2.018238167909318,-2283.0275469808707,70.42565646171268,-89.92514038085938,6054.59375,True
1598628748.1027448,0,5,0.5,0.5,-0.015109735107421876,-0.14,-0.011,-0.56,0.0009506674864983944,10,1,100,0.01677240978787391,-10,-1,-100,868.4486423935741,-0.0014920568325850478,8.685001911465209e-05,0.9999988831111176,33.29663375749378,-2.018628148173982,-2282.1333228155154,70.43018095070315,-89.91983032226562,6052.74072265625,True
1598628748.1976628,0,5,0.5,0.5,-0.016771151733398437,-0.14,-0.011,-0.56,0.0009474817398812344,10,1,100,0.016755278013149272,-10,-1,-100,874.092641322175,-0.0014954970891318466,8.678968897225181e-05,0.9999988779773737,33.39958317574277,-2.0190131992564297,-2281.23556214589,70.43476893100423,-89.9132080078125,6050.88818359375,True
1598628748.2865427,0,5,0.5,0.5,-0.016780267333984376,-0.14,-0.011,-0.56,0.0009397892198015806,10,1,100,0.016641720951182173,-10,-1,-100,879.7095398800448,-0.001497506660903057,8.666202683239896e-05,0.999998874981114,33.50261655992168,-2.0194134906501855,-2280.3538116354252,70.43936946162451,-89.90789794921875,6049.037109375,True
1598628748.3752308,0,5,0.5,0.5,-0.015132440185546877,-0.14,-0.011,-0.56,0.0009617528497179175,10,1,100,0.01665268930274534,-10,-1,-100,885.3371815648861,-0.0014993610544746213,8.674338520472068e-05,0.9999988721953706,33.60549524890665,-2.019810797592123,-2279.476498176889,70.44409791030392,-89.906005859375,6047.1865234375,True
1598628748.4659576,0,5,0.5,0.5,-0.012343966674804687,-0.14,-0.011,-0.56,0.000937298550562918,10,1,100,0.016585726932570592,-10,-1,-100,890.9809356395854,-0.0015003779644686775,8.65934040415548e-05,0.9999988706831353,33.70818143236462,-2.0202050442339425,-2278.5953630269855,70.44871681371936,-89.90847778320312,6045.33642578125,True
1598628748.5572524,0,5,0.5,0.5,-0.009542004394531251,-0.14,-0.011,-0.56,0.0009253028761048884,10,1,100,0.016550609158224327,-10,-1,-100,896.6246893485077,-0.0015009340202720418,8.634667240702583e-05,0.999998869870021,33.81051558659456,-2.020585492954848,-2277.6981516505675,70.45314164408298,-89.91445922851562,6043.48828125,True
1598628748.6498642,0,5,0.5,0.5,-0.0077642578125000005,-0.14,-0.011,-0.56,0.0009294647375621936,10,1,100,0.01654581293940116,-10,-1,-100,902.2523304260103,-0.0015013567623194056,8.615952281388463e-05,0.9999988692515652,33.91255067056884,-2.0209591612522892,-2276.790059939377,70.45740111064536,-89.92178344726562,6041.640625,True
1598628748.7423704,0,5,0.5,0.5,-0.007805270385742189,-0.14,-0.011,-0.56,0.0009489088803377357,10,1,100,0.016542132860296703,-10,-1,-100,907.8961455918616,-0.0015016771308050123,8.616598354485176e-05,0.9999988687699692,34.01430424065115,-2.0213216562157816,-2275.8737277949117,70.46153222789158,-89.92758178710938,6039.79443359375,True
1598628748.838251,0,5,0.5,0.5,-0.009639910888671875,-0.14,-0.011,-0.56,0.0009481504766819638,10,1,100,0.016553476034506943,-10,-1,-100,913.5398389059119,-0.00150204796277509,8.616503807538077e-05,0.9999988682131115,34.11588072788441,-2.0216840731104813,-2274.9570196399004,70.46556198705623,-89.92959594726562,6037.94921875,True
1598628748.936599,0,5,0.5,0.5,-0.012687796020507815,-0.14,-0.011,-0.56,0.000925153395864387,10,1,100,0.01652867351895083,-10,-1,-100,919.1676627707202,-0.0015021417186683976,8.59556505221691e-05,0.999998868090301,34.21733203230993,-2.022045330936723,-2274.0439947533937,70.46950589995907,-89.92684936523438,6036.10546875,True
1598628749.0193574,0,5,0.5,0.5,-0.015740725708007813,-0.14,-0.011,-0.56,0.0009352563217784294,10,1,100,0.016539980467367602,-10,-1,-100,924.8113559469348,-0.0015023168783142458,8.585798395311319e-05,0.9999988678355608,34.31861793136095,-2.022404073696804,-2273.1324883108123,70.4733782830178,-89.9202880859375,6034.26220703125,True
1598628749.115492,0,5,0.5,0.5,-0.018047351074218752,-0.14,-0.011,-0.56,0.0008997475615909065,10,1,100,0.01656972716988267,-10,-1,-100,930.4551709982334,-0.0015027372116099456,8.544729110241355e-05,0.999998867239175,34.419697863065416,-2.0227559585363344,-2272.219340236281,70.47718611870887,-89.9117431640625,6032.419921875,True
1598628749.2004673,0,5,0.5,0.5,-0.018091687011718753,-0.14,-0.011,-0.56,0.0009266387490975775,10,1,100,0.016639853875189892,-10,-1,-100,936.0989861765411,-0.0015037502663611218,8.531961966808346e-05,0.9999988657272063,34.52051616643836,-2.0230997361276297,-2271.3007744207835,70.48093507812733,-89.90484619140625,6030.57861328125,True
1598628749.292654,0,5,0.5,0.5,-0.016283520507812503,-0.14,-0.011,-0.56,0.000900660292225088,10,1,100,0.016658360708148388,-10,-1,-100,941.7265052500879,-0.001504833793156852,8.496860730818286e-05,0.9999988641271502,34.620944053294494,-2.0234240693039394,-2270.368027832735,70.48462953095337,-89.90191650390625,6028.7392578125,True
1598628749.3852642,0,5,0.5,0.5,-0.012767510986328126,-0.14,-0.011,-0.56,0.0009027019412189599,10,1,100,0.016687705202660105,-10,-1,-100,947.3702591237379,-0.0015060806104315475,8.466967904266891e-05,0.999998862275473,34.72098107392207,-2.0237301035023383,-2269.4206291135547,70.48827177875762,-89.90460205078125,6026.8994140625,True
1598628749.4805317,0,5,0.5,0.5,-0.008977828979492189,-0.14,-0.011,-0.56,0.0009331004095581462,10,1,100,0.0167547351652424,-10,-1,-100,953.0140135166002,-0.0015078182597538707,8.467602462710236e-05,0.999998859656383,34.8206224512799,-2.0240170370789787,-2268.4579676736453,70.491860938209,-89.91217041015625,6025.06103515625,True
1598628749.5732858,0,5,0.5,0.5,-0.006361328125,-0.14,-0.011,-0.56,0.0009133414572645017,10,1,100,0.01681317819344391,-10,-1,-100,958.6312177978689,-0.0015099229828128312,8.450368527189957e-05,0.9999988564952028,34.91991888615342,-2.0242869548583045,-2267.4826623208464,70.49539766902559,-89.92196655273438,6023.22412109375,True
1598628749.6648555,0,5,0.5,0.5,-0.006036419677734376,-0.14,-0.011,-0.56,0.0009237636565559466,10,1,100,0.016866452773769674,-10,-1,-100,964.2750326166861,-0.0015123128943053082,8.444326570394834e-05,0.9999988528888645,35.01896702687266,-2.024545532246404,-2266.4973231691697,70.49877272788049,-89.93026733398438,6021.3876953125,True
1598628749.7522788,0,5,0.5,0.5,-0.008182513427734375,-0.14,-0.011,-0.56,0.0008885671337403797,10,1,100,0.016944204260870826,-10,-1,-100,969.9187262147898,-0.0015151827039416612,8.406993654188834e-05,0.999998848576147,35.117892003392065,-2.024800172437545,-2265.5199032759083,70.50233652464748,-89.933837890625,6019.5517578125,True
1598628749.813414,0,5,0.5,0.5,-0.012099966430664064,-0.14,-0.011,-0.56,0.0008952655052288175,10,1,100,0.016986573931681202,-10,-1,-100,975.5463059482863,-0.0015181648599446522,8.379334531857731e-05,0.9999988440763986,35.216976099245514,-2.0250644658750363,-2264.565051123908,70.50600426991518,-89.93109130859375,6017.7158203125,True
1598628749.900448,0,5,0.5,0.5,-0.012992517089843753,-0.14,-0.011,-0.56,0.0009206033281431903,10,1,100,0.016867470616258744,-10,-1,-100,978.3815499809571,-0.0015197785869514615,8.37742083286103e-05,0.9999988416267935,35.266552831776806,-2.0252006798217628,-2264.093408816665,70.50784821550593,-89.9276123046875,6016.798828125,True
1598628749.9933748,0,5,0.5,0.5,-0.01744490966796875,-0.14,-0.011,-0.56,0.0009246493690563188,10,1,100,0.017095450757943113,-10,-1,-100,984.0253650160739,-0.001523302283965112,8.37954875966001e-05,0.9999988362635568,35.36545064233702,-2.0254607132752462,-2263.1344783650143,70.5113369334102,-89.91845703125,6014.9658203125,True
1598628750.0863805,0,5,0.5,0.5,-0.018761987304687498,-0.14,-0.011,-0.56,0.0008788227841572893,10,1,100,0.017155107418448903,-10,-1,-100,989.6691192932194,-0.0015270292826436152,8.339972870796858e-05,0.9999988306123438,35.46425070488938,-2.0257198839121164,-2262.180583030286,70.51493800202697,-89.90924072265625,6013.1328125,True
1598628750.1805134,0,5,0.5,0.5,-0.017996655273437502,-0.14,-0.011,-0.56,0.0009131906764717355,10,1,100,0.017256501622753294,-10,-1,-100,995.3127511977218,-0.0015313180660120375,8.335412864021681e-05,0.9999988240578436,35.56284225219509,-2.025969790423511,-2261.215601770593,70.51836798888952,-89.9029541015625,6011.30078125,True
1598628750.2723174,0,5,0.5,0.5,-0.014816802978515627,-0.14,-0.011,-0.56,0.0009248480564935813,10,1,100,0.017308792351332758,-10,-1,-100,1000.9567500468111,-0.0015356682536314572,8.342011792306649e-05,0.99999881738135,35.66106140741523,-2.026199564127004,-2260.234764976051,70.52182334011239,-89.9024658203125,6009.4697265625,True
1598628750.367338,0,5,0.5,0.5,-0.010615051269531252,-0.14,-0.011,-0.56,0.0008991673771925736,10,1,100,0.017366408210388012,-10,-1,-100,1006.6005648805294,-0.001540119852328523,8.32477834239385e-05,0.9999988105496161,35.75898572708161,-2.0264167065628125,-2259.2426634902185,70.52531953995319,-89.9080810546875,6007.63916015625,True
1598628750.4586747,0,5,0.5,0.5,-0.006885418701171876,-0.14,-0.011,-0.56,0.0009292621767974513,10,1,100,0.01747595075168943,-10,-1,-100,1012.2442581974901,-0.001545133236435346,8.336600318586936e-05,0.9999988028059789,35.856691401843115,-2.0266238723183343,-2258.2430488328905,70.52881011222308,-89.91790771484375,6005.81005859375,True
1598628750.5511801,0,5,0.5,0.5,-0.005193716430664063,-0.14,-0.011,-0.56,0.0008983742536484715,10,1,100,0.01751153804543685,-10,-1,-100,1017.888073440874,-0.001549982369881414,8.319371065180308e-05,0.9999987953160041,35.954230685669515,-2.0268237795129633,-2257.2387839191747,70.5322884163147,-89.92819213867188,6003.9814453125,True
1598628750.6462379,0,5,0.5,0.5,-0.006234207153320313,-0.14,-0.011,-0.56,0.0009350181770281001,10,1,100,0.0175739546385298,-10,-1,-100,1023.5319496059092,-0.0015549238516099789,8.337134361069595e-05,0.9999987876297824,36.05172785503975,-2.027025228791155,-2256.2373246391353,70.5357512502668,-89.9349365234375,6002.15380859375,True
1598628750.7365918,0,5,0.5,0.5,-0.009732144165039064,-0.14,-0.011,-0.56,0.0008924967222884107,10,1,100,0.017631691376556888,-10,-1,-100,1029.1758261508076,-0.0015599048588474038,8.314690452381156e-05,0.9999987798909674,36.14930503488486,-2.0272319224151247,-2255.2462595399184,70.53919866064534,-89.93533325195312,6000.32666015625,True
1598628750.8252234,0,5,0.5,0.5,-0.014393005371093752,-0.14,-0.011,-0.56,0.000922130127709976,10,1,100,0.01767781893525911,-10,-1,-100,1034.8195800385438,-0.0015648144432342623,8.321285125847158e-05,0.999998772214936,36.24697804645383,-2.0274489479593263,-2254.266425107715,70.54262786411584,-89.92898559570312,5998.5009765625,True
1598628750.9183161,0,5,0.5,0.5,-0.018377700805664064,-0.14,-0.011,-0.56,0.0009153784920796875,10,1,100,0.01771555093190847,-10,-1,-100,1040.4633343247697,-0.001569579778231598,8.321193465431456e-05,0.9999987647467838,36.344719302204915,-2.0276754820487617,-2253.2959922764126,70.54604208185918,-89.918212890625,5996.67578125,True
1598628751.0162187,0,5,0.5,0.5,-0.020142495727539064,-0.14,-0.011,-0.56,0.0009054597383244202,10,1,100,0.01782742813568218,-10,-1,-100,1046.1069662517402,-0.0015748868959959675,8.312146139179873e-05,0.9999987564102706,36.442410312359506,-2.027906021119262,-2252.3275331249565,70.54944439362117,-89.90707397460938,5994.85107421875,True
1598628751.1112683,0,5,0.5,0.5,-0.018799053955078127,-0.14,-0.011,-0.56,0.0009127291706614721,10,1,100,0.017828987411654527,-10,-1,-100,1051.7508421359817,-0.0015796822168239134,8.310555169013587e-05,0.9999987488479979,36.539913167210166,-2.028124953261749,-2251.352512117395,70.5528312093654,-89.90008544921875,5993.02734375,True
1598628751.2052782,0,5,0.5,0.5,-0.014845910644531252,-0.14,-0.011,-0.56,0.0008773362893185106,10,1,100,0.017915346805523015,-10,-1,-100,1057.3947185941506,-0.0015847827173837488,8.276956083727916e-05,0.9999987408056765,36.63712353572189,-2.0283320241659193,-2250.36469619939,70.55620592924146,-89.900146484375,5991.205078125,True
1598628751.3011892,0,5,0.5,0.5,-0.0097129638671875,-0.14,-0.011,-0.56,0.0009353090344494757,10,1,100,0.017951203452517762,-10,-1,-100,1063.0384728654753,-0.0015897008560801403,8.2991730978678e-05,0.9999987329809777,36.734010828691254,-2.028523898821581,-2249.362264821706,70.55956739359166,-89.90753173828125,5989.38330078125,True
1598628751.3882723,0,5,0.5,0.5,-0.005368475341796876,-0.14,-0.011,-0.56,0.0009055903964751308,10,1,100,0.017979263673024045,-10,-1,-100,1068.6819829321466,-0.0015943819105325972,8.292376717331495e-05,0.9999987255341739,36.830656306765015,-2.028706248856622,-2248.350698613598,70.56291539024278,-89.91964721679688,5987.5625,True
1598628751.4799328,0,5,0.5,0.5,-0.003606307983398436,-0.14,-0.011,-0.56,0.0009204395882552508,10,1,100,0.018045557667692943,-10,-1,-100,1074.325859526638,-0.001599195315737187,8.299737658099742e-05,0.9999987178420668,36.927182416268295,-2.028887749896061,-2247.344874515744,70.56650401948939,-89.93185424804688,5985.74169921875,True
1598628751.5718787,0,5,0.5,0.5,-0.005161727905273438,-0.14,-0.011,-0.56,0.0009309757569683664,10,1,100,0.018096360481565345,-10,-1,-100,1079.9698578339303,-0.0016039882433712396,8.316025606180144e-05,0.9999987101522116,37.02388193688057,-2.029082144789547,-2246.358224610669,70.57018594379254,-89.93939208984375,5983.92138671875,True
1598628751.6662946,0,5,0.5,0.5,-0.009613003540039064,-0.14,-0.011,-0.56,0.0009079922254057966,10,1,100,0.018119920995802688,-10,-1,-100,1085.6134897593874,-0.001608515032811844,8.309957901882618e-05,0.9999987028860834,37.12072907169167,-2.029289013067053,-2245.3861497945495,70.57386085566813,-89.93905639648438,5982.10205078125,True
1598628751.7602026,0,5,0.5,0.5,-0.01527419128417969,-0.14,-0.011,-0.56,0.0008901605623264507,10,1,100,0.01821163124861191,-10,-1,-100,1091.25736567087,-0.0016134198344434187,8.288235506585916e-05,0.9999986950026248,37.21771177228609,-2.0295094653151793,-2244.4279664373016,70.5775137394582,-89.93069458007812,5980.2841796875,True
1598628751.8552215,0,5,0.5,0.5,-0.01996774597167969,-0.14,-0.011,-0.56,0.0009256560542420052,10,1,100,0.01820363838700342,-10,-1,-100,1096.9011201065732,-0.0016177618959200375,8.300786548620564e-05,0.9999986879772104,37.3148106631767,-2.029741060368328,-2243.4819130173546,70.58114227636675,-89.91729736328125,5978.46630859375,True
1598628751.9471896,0,5,0.5,0.5,-0.021737551879882813,-0.14,-0.011,-0.56,0.000916261335365405,10,1,100,0.01826523140865534,-10,-1,-100,1102.5448741524015,-0.0016222253591704461,8.303674485052254e-05,0.9999986807440213,37.41184061491608,-2.029972296412075,-2242.5371204557096,70.58474808601198,-89.904052734375,5976.6494140625,True
1598628752.0386667,0,5,0.5,0.5,-0.019813995361328128,-0.14,-0.011,-0.56,0.0008960301781969816,10,1,100,0.018292132702923243,-10,-1,-100,1108.2048634724924,-0.001626484575288549,8.287915622249885e-05,0.9999986738386064,37.508629139186475,-2.030198999526342,-2241.583867872911,70.58833346063604,-89.89620971679688,5974.833984375,True
1598628752.129191,0,5,0.5,0.5,-0.014763937377929689,-0.14,-0.011,-0.56,0.0009419657507317013,10,1,100,0.01833935254498545,-10,-1,-100,1113.84873956698,-0.0016307433136342404,8.315369576139989e-05,0.9999986668799654,37.60504296047518,-2.0304096235702835,-2240.6141618357337,70.59190129826779,-89.89715576171875,5973.0185546875,True
1598628752.2187562,0,5,0.5,0.5,-0.008503799438476563,-0.14,-0.011,-0.56,0.0009127825061276869,10,1,100,0.018395490962628748,-10,-1,-100,1119.4924934124574,-0.00163508346083958,8.31376257231606e-05,0.9999986597942075,37.70105985224919,-2.0306019300328493,-2239.626938478278,70.59545147089175,-89.9068603515625,5971.205078125,True
1598628752.3125222,0,5,0.5,0.5,-0.0034074920654296875,-0.14,-0.011,-0.56,0.0008798821188832689,10,1,100,0.01840954684189081,-10,-1,-100,1125.13612536015,-0.0016391155730152173,8.282378953640791e-05,0.9999986532192723,37.79677846397576,-2.0307816040105218,-2238.6285021490967,70.59898610077414,-89.92190551757812,5969.3916015625,True
1598628752.4051366,0,5,0.5,0.5,-0.0016404815673828135,-0.14,-0.011,-0.56,0.0009013056016317672,10,1,100,0.018452089202808164,-10,-1,-100,1130.7801235632505,-0.001643127211308243,8.273333373492536e-05,0.9999986466431656,37.89231909829201,-2.0309554977588107,-2237.626380792848,70.60250728341579,-89.93646240234375,5967.5791015625,True
1598628752.497197,0,5,0.5,0.5,-0.00397672119140625,-0.14,-0.011,-0.56,0.0009069215684939651,10,1,100,0.018499950296710376,-10,-1,-100,1136.4401131686755,-0.0016471693179777671,8.270239547127583e-05,0.999998639995851,37.98793096491367,-2.031132202638325,-2236.6350981940154,70.60601574834176,-89.94476318359375,5965.767578125,True
1598628752.5945377,0,5,0.5,0.5,-0.00964464111328125,-0.14,-0.011,-0.56,0.0008893731229623421,10,1,100,0.01853782846713169,-10,-1,-100,1142.0838670879602,-0.001651149051886068,8.25151546909347e-05,0.999998633448095,38.08369058995974,-2.0313220429056136,-2235.6592111196705,70.60951318658313,-89.94329833984375,5963.9560546875,True
1598628752.684281,0,5,0.5,0.5,-0.016574179077148442,-0.14,-0.011,-0.56,0.000917736543848191,10,1,100,0.018577437969828504,-10,-1,-100,1147.7276211481076,-0.0016550883199916995,8.260331637533947e-05,0.9999986269287298,38.179673141613904,-2.031530811047782,-2234.703125573014,70.61300314972583,-89.93222045898438,5962.146484375,True
