Timestamp,Input Throttle,horizon,dT,dt,Input Roll,Roll P,Roll I,Roll D,Input Pitch,Pitch P,Pitch I,Pitch D,Input Yaw,Yaw P,Yaw I,Yaw D,Altitude,Direction X,Direction Y,Direction Z,Drag X,Drag Y,Drag Z,Vertical Velocity,Roll,Mass,Has Fuel
1598623547.7028189,0,5,0.5,0.5,-0.0099078369140625,-0.14,-0.011,-0.56,0.004311617865502427,10,1,100,0.12510747791263638,-10,-1,-100,478.4743516443996,-0.011730643260795643,0.0004148598045162774,0.9999311075769324,5.39901815990416,-0.44211049064195007,112.66837234304825,-14.240058691328821,-89.92178344726562,6440.1796875,True
1598623547.7407134,0,5,0.5,0.5,-0.010032327270507813,-0.14,-0.011,-0.56,0.004239207905363509,10,1,100,0.12161984383234656,-10,-1,-100,477.92863725172356,-0.011759191868962102,0.0004153063852412693,0.9999307720673444,5.523796796996656,-0.4526351649961527,118.50043447928097,-14.628990071691263,-89.9232177734375,6440.1796875,True
1598623547.7787857,0,5,0.5,0.5,-0.009552822875976565,-0.14,-0.011,-0.56,0.004220499835367046,10,1,100,0.12019689778161069,-10,-1,-100,477.3319889429258,-0.011761519101498592,0.0004151647430956202,0.9999307447551861,5.648340976072858,-0.46316162460449234,124.47934575776702,-15.017885582761597,-89.9251708984375,6440.1796875,True
1598623547.8236902,0,5,0.5,0.5,-0.007887698364257813,-0.14,-0.011,-0.56,0.004049615796217717,10,1,100,0.11850643756931462,-10,-1,-100,476.7443232249934,-0.011737574657236802,0.00041310506374994926,0.9999310269640461,5.94510590578863,-0.48175808205974546,120.5356895548114,-14.115286902104462,-89.92922973632812,6437.0224609375,True
1598623547.8648837,0,5,0.5,0.5,-0.005645599365234374,-0.14,-0.011,-0.56,0.004135540994675141,10,1,100,0.11698244811120803,-10,-1,-100,476.21195092902053,-0.011691282008600354,0.0004116382160909978,0.9999315698981478,5.794587856004515,-0.46419058560151777,107.68350616867465,-13.212149404219321,-89.935791015625,6433.8642578125,True
1598623547.9045124,0,5,0.5,0.5,-0.003216839599609376,-0.14,-0.011,-0.56,0.003998584732748714,10,1,100,0.11353942646509158,-10,-1,-100,475.6785678236047,-0.011607269147594705,0.0004086854447325371,0.999932549864811,5.61993273601467,-0.4452117346290427,95.32081685501066,-12.308475461713018,-89.94461059570312,6430.70654296875,True
1598623547.9446573,0,5,0.5,0.5,-0.0007826507568359379,-0.14,-0.011,-0.56,0.0038391454462058565,10,1,100,0.10969743159265277,-10,-1,-100,475.21522408828605,-0.011485414530433223,0.0004041801268519718,0.9999339587650222,5.432856341755222,-0.425784687471058,83.6910542333063,-11.404257369965523,-89.95523071289062,6427.548828125,True
1598623547.9849658,0,5,0.5,0.5,0.0015094116210937506,-0.14,-0.011,-0.56,0.003720259124645414,10,1,100,0.1055758039794484,-10,-1,-100,474.8152176773874,-0.011326726977865987,0.0003986361621037703,0.9999357711099145,5.233417545191193,-0.4059259588084458,72.79786822453936,-10.499479408574397,-89.96707153320312,6424.390625,True
1598623548.027826,0,5,0.5,0.5,0.003600875854492188,-0.14,-0.011,-0.56,0.003535096499231291,10,1,100,0.10114295070956192,-10,-1,-100,474.41542654146906,-0.011131869875826017,0.00039155050104518256,0.9999379621562893,5.021506240502653,-0.38563072471533694,62.640305495420385,-9.594139678118552,-89.97958374023438,6421.23291015625,True
1598623548.0697138,0,5,0.5,0.5,0.005351489257812501,-0.14,-0.011,-0.56,0.003405095605099137,10,1,100,0.09645179740954893,-10,-1,-100,474.0852752561914,-0.010901960325902448,0.0003835712096806785,0.9999404982968634,4.797753861498511,-0.36495058381066137,53.22452804747375,-8.688234096596135,-89.99212646484375,6418.0751953125,True
1598623548.1136966,0,5,0.5,0.5,0.006714288330078125,-0.14,-0.011,-0.56,0.003224805834925297,10,1,100,0.09154307999101621,-10,-1,-100,473.7553064356325,-0.010638416067325358,0.0003743296094298393,0.999943340385305,4.563083114450847,-0.3439538202894395,44.55531228194264,-7.781754615539402,-90.00411987304688,6414.9169921875,True
1598623548.1555471,0,5,0.5,0.5,0.007805682373046876,-0.14,-0.011,-0.56,0.002992330098749756,10,1,100,0.08525945844473712,-10,-1,-100,473.4379401531769,-0.010342699479283167,0.00036385158450483185,0.9999464466557725,4.31917636258214,-0.32275630131255606,36.638898698653435,-6.874695957550321,-90.01514434814453,6411.75927734375,True
1598623548.19891,0,5,0.5,0.5,0.008467562103271487,-0.14,-0.011,-0.56,0.0027685149789782645,10,1,100,0.07876815606036726,-10,-1,-100,473.2348007442197,-0.010016142097922976,0.00035233820148484465,0.9999497751163636,4.0690352524869375,-0.3015678744785924,29.48328379017261,-5.967057500034597,-90.02476501464844,6408.6015625,True
1598623548.3438733,0,5,0.5,0.5,0.008706357574462892,-0.14,-0.011,-0.56,0.002545507077563092,10,1,100,0.072205736349475,-10,-1,-100,472.9871358361561,-0.009661200096590668,0.0003399012601280009,0.9999532717481489,3.8187425427026103,-0.28081686030601627,23.102013187894674,-5.058825274209717,-90.03264617919922,6405.443359375,True
1598623548.376785,0,5,0.5,0.5,0.008572312927246094,-0.14,-0.011,-0.56,0.0022831289476330646,10,1,100,0.06547013649408676,-10,-1,-100,472.8342583854683,-0.00927918043720381,0.00032627624298934443,0.9999568942480606,3.5824319107940776,-0.2615033879000577,17.52206826508144,-4.149987960238817,-90.0385971069336,6402.2861328125,True
1598623548.4138331,0,5,0.5,0.5,0.008065892791748047,-0.14,-0.011,-0.56,0.002051461152416648,10,1,100,0.058528896245022846,-10,-1,-100,472.6956012106966,-0.008870980473289172,0.000311861394700509,0.9999606034479124,3.4011366186252543,-0.24655076926453812,12.811893796321987,-3.2405450055585647,-90.04247283935547,6399.1279296875,True
1598623548.4540043,0,5,0.5,0.5,0.007258166503906251,-0.14,-0.011,-0.56,0.0018058695876466233,10,1,100,0.05176414547995558,-10,-1,-100,472.59322971396614,-0.008440879397933714,0.00029661235844005116,0.9999643311519157,3.4339889316127707,-0.24731351716566807,9.182482990850549,-2.330493393489906,-90.04426574707031,6395.97021484375,True
1598623548.5477753,0,5,0.5,0.5,0.006175837707519532,-0.14,-0.011,-0.56,0.001556940762821238,10,1,100,0.04480346419247281,-10,-1,-100,472.52732657431625,-0.007989367258753908,0.00028058439776705135,0.9999680451310433,4.651872584599803,-0.3329846615881986,7.486010821192173,-1.419823170178115,-90.04401397705078,6392.8125,True
1598623548.615823,0,5,0.5,0.5,0.004900763702392579,-0.14,-0.011,-0.56,0.0013201127891593804,10,1,100,0.037940986648605575,-10,-1,-100,472.4978312207386,-0.007519549481572666,0.0002639678626349771,0.9999716929476362,13.356565098318367,-0.9506402285907237,7.610338367367039,-0.5085277822773477,-90.0418701171875,6389.654296875,True
1598623548.6548193,0,5,0.5,0.5,0.0035048927307128903,-0.14,-0.011,-0.56,0.0010588054170362672,10,1,100,0.031064076284048774,-10,-1,-100,472.5046823078301,-0.007033208972088523,0.0002466023842577997,0.9999752362727884,1.4287084251921034,-0.10114566076425678,-0.6388949804716841,0.40341954503149025,-90.0380630493164,6386.4970703125,True
1598623548.7266212,0,5,0.5,0.5,0.002055789184570313,-0.14,-0.011,-0.56,0.0008197788382581161,10,1,100,0.024283280349066932,-10,-1,-100,472.5482158474624,-0.006532954683470208,0.00022876713394913054,0.999978633856095,0.6392554021131258,-0.04503528061177515,-0.9233271916628201,1.3160333620896596,-90.03287506103516,6383.3388671875,True
1598623548.7652578,0,5,0.5,0.5,-0.004380017852783203,-0.14,-0.011,-0.56,-0.001431827646844487,10,1,100,-0.04002385789243795,-10,-1,-100,472.7447510953061,-0.0054972999474252,0.00019221644969075375,0.9999848712586229,2.149942940740001,-0.1501774740063374,-7.28876261212817,3.1431722872359815,-90.01948547363281,6377.02294921875,True
1598623548.807306,0,5,0.5,0.5,-0.0023565048217773442,-0.14,-0.011,-0.56,0.0001248245920172724,10,1,100,0.004608736643824857,-10,-1,-100,472.8978746267967,-0.004965951410015634,0.00017329597084080365,0.9999876545713451,2.682109438135861,-0.18666468761913607,-11.650748282789332,4.057679289752311,-90.01165771484375,6373.86572265625,True
1598623548.8476837,0,5,0.5,0.5,-0.0032852294921875006,-0.14,-0.011,-0.56,-6.127287324915898e-06,10,1,100,0.000849153876356562,-10,-1,-100,473.0875590192154,-0.004453320342382596,0.00015506782955650552,0.9999900718966647,3.164906947827817,-0.21954541556156784,-16.735721526421642,4.9728120782978795,-90.00408935546875,6370.70751953125,True
1598623548.8889642,0,5,0.5,0.5,-0.0038902198791503913,-0.14,-0.011,-0.56,-0.0003179632489972925,10,1,100,-0.0071703121395972624,-10,-1,-100,473.3032447665464,-0.003919122298711353,0.00013582995003791424,0.9999923109857556,3.626775000299209,-0.2508543759985665,-22.574656641384795,5.888559771935153,-89.9972152709961,6367.5498046875,True
1598623548.9288754,0,5,0.5,0.5,-0.004417459869384766,-0.14,-0.011,-0.56,-0.0004274269524425082,10,1,100,-0.0120318170739298,-10,-1,-100,473.5886948975967,-0.0033941649942785565,0.00011751897707419424,0.9999942329000111,4.078897480343293,-0.28140604752327647,-29.1868417576267,6.804920150604761,-89.99102783203125,6364.3916015625,True
1598623548.970933,0,5,0.5,0.5,-0.004747486877441407,-0.14,-0.011,-0.56,-0.0006517279322602509,10,1,100,-0.01731057872014747,-10,-1,-100,473.88055434217677,-0.0028739212620822268,9.901021312485686e-05,0.9999958653782308,4.525873494374837,-0.3115534168204655,-36.58409184702091,7.721889314700481,-89.98568725585938,6361.234375,True
1598623549.011141,0,5,0.5,0.5,-0.004876010131835938,-0.14,-0.011,-0.56,-0.0008271604411104155,10,1,100,-0.02271992649347898,-10,-1,-100,474.17873130436055,-0.002356857396815142,8.076886140438066e-05,0.9999972193459349,4.969529125879535,-0.34145594944004304,-44.77374516069891,8.639469272335623,-89.9813232421875,6358.07666015625,True
1598623549.0526018,0,5,0.5,0.5,-0.004808251190185547,-0.14,-0.011,-0.56,-0.0010078713142498115,10,1,100,-0.027800173704605184,-10,-1,-100,474.5974532800028,-0.001845735735436589,6.27246387539193e-05,0.9999982946611532,5.4105051595337486,-0.3711840549278584,-53.76120944884938,9.557656263951925,-89.97802734375,6354.91845703125,True
1598623549.0940132,0,5,0.5,0.5,-0.004549498748779297,-0.14,-0.011,-0.56,-0.001192491299125865,10,1,100,-0.03264902443157659,-10,-1,-100,474.9590473190183,-0.0013421572309801064,4.4825384867245805e-05,0.9999990983019197,5.848724595910115,-0.40075893592451434,-63.54940400038566,10.476445814710736,-89.97586059570312,6351.7607421875,True
1598623549.137316,0,5,0.5,0.5,-0.004130860900878906,-0.14,-0.011,-0.56,-0.0013474554718612595,10,1,100,-0.03718682650757016,-10,-1,-100,475.44762514636386,-0.0008482795278207338,2.7328004308485006e-05,0.9999996398374466,6.283937587300452,-0.4301891861794346,-74.14161032305901,11.395833519826478,-89.97482299804688,6348.6025390625,True
1598623549.1808956,0,5,0.5,0.5,-0.003613663482666016,-0.14,-0.011,-0.56,-0.0014705201525478729,10,1,100,-0.04148952175811974,-10,-1,-100,475.9424907095963,-0.00036535227281235294,1.0485651366679287e-05,0.9999999332038818,6.715645380838917,-0.4594662723139864,-85.53952337792542,12.315816305056108,-89.97482299804688,6345.4453125,True
1598623549.2206433,0,5,0.5,0.5,-0.002957836151123047,-0.14,-0.011,-0.56,-0.0016731156371490874,10,1,100,-0.04542935539080726,-10,-1,-100,476.4373565070564,0.00010482376687914083,-6.502145896496884e-06,0.9999999944848499,7.143297475215789,-0.48857491891176563,-97.74452886757298,13.236388919957491,-89.975830078125,6342.287109375,True
1598623549.2629764,0,5,0.5,0.5,-0.0022794731140136724,-0.14,-0.011,-0.56,-0.0017528641463784927,10,1,100,-0.049066845013540354,-10,-1,-100,477.0021692693699,0.0005607148220990772,-2.250713156807227e-05,0.9999998425461463,7.566341467323552,-0.5174981318295573,-110.75804624157388,14.157549359918706,-89.9776611328125,6339.12890625,True
1598623549.308767,0,5,0.5,0.5,-0.001539501190185547,-0.14,-0.011,-0.56,-0.0019101864519082065,10,1,100,-0.05235135963408326,-10,-1,-100,477.57314655103255,0.0010004622459726079,-3.832588953693404e-05,0.9999994988030847,7.984157476489357,-0.546213543666259,-124.58015023587318,15.079294790915373,-89.980224609375,6335.9716796875,True
1598623549.3512018,0,5,0.5,0.5,-0.0009002319335937503,-0.14,-0.011,-0.56,-0.0019907586378538197,10,1,100,-0.0553808148869441,-10,-1,-100,478.2012229983229,0.0014233007840248398,-5.328072952670045e-05,0.9999989856875066,8.396203473139645,-0.5747005938804812,-139.2113543597152,16.00162004530486,-89.98321533203125,6332.8134765625,True
1598623549.395082,0,5,0.5,0.5,-0.0025836303710937503,-0.14,-0.011,-0.56,-0.0005123546095372681,10,1,100,-0.01357870765955125,-10,-1,-100,478.2012229983229,0.0014233007840248398,-5.328072952670045e-05,0.9999989856875066,8.396203473139645,-0.5747005938804812,-139.2113543597152,16.00162004530486,-89.98321533203125,6332.8134765625,True
1598623549.479002,0,5,0.5,0.5,0.002177444458007813,-0.14,-0.011,-0.56,-0.0035841779060101827,10,1,100,-0.1007746203763438,-10,-1,-100,479.59717793460004,0.002212084334135584,-8.106794954677098e-05,0.9999975500524421,9.20084756995009,-0.6309105644816803,-170.899527944991,17.847996882866884,-89.99002075195312,6326.498046875,True
1598623549.5585766,0,5,0.5,0.5,0.0038180236816406257,-0.14,-0.011,-0.56,-0.003745924587343223,10,1,100,-0.10480278378976077,-10,-1,-100,481.1327516043093,0.002961626372784641,-0.00010765235865808896,0.9999956085804566,9.976911641980918,-0.6860137214261786,-205.82834281234184,19.69665419394049,-89.99779510498047,6320.1826171875,True
1598623549.6016865,0,5,0.5,0.5,0.003309983062744141,-0.14,-0.011,-0.56,-0.0029577228280159252,10,1,100,-0.08279686611459074,-10,-1,-100,482.32555410440546,0.0034386040998656735,-0.00012449964458593715,0.9999940802333197,10.537891219540915,-0.7265262959988642,-234.15154610055166,21.084625687846145,-90.00325775146484,6315.4453125,True
1598623549.6457226,0,5,0.5,0.5,0.0021021743774414063,-0.14,-0.011,-0.56,-0.002402356808283476,10,1,100,-0.06745668914109079,-10,-1,-100,483.2265804960625,0.0037284179144249346,-0.00013461264522327397,0.9999930403654274,10.900615826658573,-0.753076649024292,-254.02837463834442,22.010637685499447,-90.005859375,6312.28759765625,True
1598623549.7173176,0,5,0.5,0.5,0.001678092956542969,-0.14,-0.011,-0.56,-0.002401242386329581,10,1,100,-0.0673807000647553,-10,-1,-100,484.13407687295694,0.003987033574746444,-0.00014364893228533407,0.9999920414324597,11.254174376264269,-0.7792458116805825,-274.69388772810777,22.93720539159498,-90.00728607177734,6309.1298828125,True
1598623549.797856,0,5,0.5,0.5,0.0005944175720214845,-0.14,-0.011,-0.56,-0.0031460721445627582,10,1,100,-0.08930792377983617,-10,-1,-100,486.0756855395157,0.0044175204034962254,-0.00015849479597691577,0.9999902301487172,11.934596697389356,-0.8304794281122156,-318.3892223666285,24.79198975067365,-90.00682830810547,6302.814453125,True
1598623549.8408206,0,5,0.5,0.5,-0.00102706298828125,-0.14,-0.011,-0.56,-0.002670093539315022,10,1,100,-0.07424340430948347,-10,-1,-100,487.60488166403957,0.004668001255686805,-0.00016752578233057388,0.9999890907901892,12.422205427605313,-0.8679610961438633,-353.227467919294,26.184511340384606,-90.00409698486328,6298.0771484375,True
1598623549.8838713,0,5,0.5,0.5,-0.0014978614807128908,-0.14,-0.011,-0.56,-0.002269302384692325,10,1,100,-0.06396095289189821,-10,-1,-100,488.65184160671197,0.00479850039348784,-0.00017196037883663627,0.9999884723453575,12.73668754519224,-0.8925059408068299,-377.43141181793027,27.11353499149715,-90.0011978149414,6294.919921875,True
1598623549.9307065,0,5,0.5,0.5,-0.003659086608886719,-0.14,-0.011,-0.56,-0.002381368147415978,10,1,100,-0.06731137847697916,-10,-1,-100,490.37784418836236,0.004944141625764504,-0.00017688912396754465,0.9999877620120269,13.192746745775521,-0.9286420607367893,-415.18392463168027,28.50807678348827,-89.99575805664062,6290.1826171875,True
1598623550.0062652,0,5,0.5,0.5,-0.0033974868774414068,-0.14,-0.011,-0.56,-0.002155027670979962,10,1,100,-0.06036956530885904,-10,-1,-100,491.4946887404658,0.005010234589176979,-0.00017919978939673318,0.9999874326394291,13.486959735404255,-0.9523044490305713,-441.3116896803437,29.438437188904473,-89.99176025390625,6287.025390625,True
1598623550.0896137,0,5,0.5,0.5,-0.006810328674316407,-0.14,-0.011,-0.56,-0.0020543126244279156,10,1,100,-0.059651829266160174,-10,-1,-100,493.9820996369235,0.005060533379340919,-0.00018027033112745866,0.9999871791700753,14.0537986707512,-0.9986620049130063,-495.85840400110226,31.300746356667435,-89.98367309570312,6280.70947265625,True
1598623550.1727118,0,5,0.5,0.5,-0.007436817932128907,-0.14,-0.011,-0.56,-0.0017142381842240677,10,1,100,-0.04995775624169996,-10,-1,-100,496.5455889463192,0.005015542116499221,-0.0001780617810793735,0.9999874062363384,14.594956633901674,-1.0438270577729636,-553.4270756826896,33.16515065268967,-89.976318359375,6274.39453125,True
1598623550.2509944,0,5,0.5,0.5,-0.006994744110107422,-0.14,-0.011,-0.56,-0.0013286635145114466,10,1,100,-0.039237332609127124,-10,-1,-100,499.30603706114925,0.004875315375670912,-0.0001724847754724347,0.9999881007036984,15.114949745145738,-1.0879544300952522,-613.982426091145,35.03162700678404,-89.97109985351562,6268.07861328125,True
1598623550.3321059,0,5,0.5,0.5,-0.005154507446289063,-0.14,-0.011,-0.56,-0.0009338100760973249,10,1,100,-0.02868614291832244,-10,-1,-100,502.2058883077698,0.004650610512932583,-0.00016378157081610152,0.999989172440109,15.618992622483796,-1.1312169550282296,-677.4860065224284,36.900152957745135,-89.9696044921875,6261.7626953125,True
1598623550.413657,0,5,0.5,0.5,-0.0029043487548828127,-0.14,-0.011,-0.56,-0.000528733641933968,10,1,100,-0.018470830956446926,-10,-1,-100,505.24538745894097,0.004352628535700227,-0.00015216053634013827,0.9999905156910248,16.113107777444615,-1.1738359705815586,-743.9191690435306,38.770705316518736,-89.9716796875,6255.44677734375,True
1598623550.4897532,0,5,0.5,0.5,-0.001969394683837891,-0.14,-0.011,-0.56,-0.0005963894016580906,10,1,100,-0.019406951810264184,-10,-1,-100,507.65662541403435,0.0040899136596501025,-0.00014220327408306842,0.999991626157182,16.48091415068576,-1.2055178985121022,-795.6617118082033,40.17493482343463,-89.9747314453125,6250.7099609375,True
1598623550.5396137,0,5,0.5,0.5,-0.0007656875610351564,-0.14,-0.011,-0.56,6.77063559828175e-05,10,1,100,-0.00229995271602932,-10,-1,-100,510.9689503503032,0.0036958616048786233,-0.00012712879379980926,0.9999931621992559,16.972547478595168,-1.247576738659347,-867.2103101027349,42.04897636203597,-89.97894287109375,6244.39453125,True
1598623550.6157546,0,5,0.5,0.5,-0.002147727203369141,-0.14,-0.011,-0.56,-0.000537764887662802,10,1,100,-0.018053573508347166,-10,-1,-100,512.6314144659555,0.003481730961971812,-0.00011896572938319816,0.9999939316799195,17.220532685512534,-1.2686000265402297,-904.082192480847,42.9867342249964,-89.98037719726562,6241.236328125,True
1598623550.6636896,0,5,0.5,0.5,-0.0027602294921875003,-0.14,-0.011,-0.56,0.000555678058480874,10,1,100,0.009772315957703517,-10,-1,-100,516.2040846167365,0.003035301172757446,-0.00010165254826629415,0.9999953882961412,17.724362558267032,-1.3107418582716255,-980.0206009354525,44.863708130798365,-89.98068237304688,6234.9208984375,True
1598623550.7368672,0,5,0.5,0.5,-0.0038662902832031255,-0.14,-0.011,-0.56,-0.00016812681906249708,10,1,100,-0.0083069728664847,-10,-1,-100,517.9998494043248,0.002795548390467013,-9.256173393377683e-05,0.9999960881631097,17.981595608370263,-1.3319257518922858,-1019.0929116531861,45.80291830064183,-89.9793701171875,6231.763671875,True
1598623550.8176243,0,5,0.5,0.5,-0.00671256103515625,-0.14,-0.011,-0.56,0.0009965268622830715,10,1,100,0.020956053239738783,-10,-1,-100,521.7881570595782,0.0023135771566906876,-7.378835839694951e-05,0.9999973209544204,18.50957172003909,-1.3746144696479519,-1099.4183753029847,47.68277030337972,-89.97427368164062,6225.44775390625,True
1598623550.8986566,0,5,0.5,0.5,-0.009337646484375,-0.14,-0.011,-0.56,0.0013046994302981225,10,1,100,0.029131750453631877,-10,-1,-100,525.6526974987937,0.001803594202424682,-5.401688635672467e-05,0.9999983720637395,19.06012397717692,-1.4179518312960966,-1182.6874130293863,49.56451023819143,-89.96646118164062,6219.1318359375,True
1598623550.9821062,0,5,0.5,0.5,-0.011318093872070313,-0.14,-0.011,-0.56,0.00151395858325226,10,1,100,0.03371798130853759,-10,-1,-100,529.7138326987624,0.00130120027978742,-3.425323301577598e-05,0.9999991528519152,19.637776349366945,-1.462092216066501,-1268.8848937563996,51.44811328753054,-89.9573974609375,6212.81591796875,True
1598623551.0605962,0,5,0.5,0.5,-0.011875769042968751,-0.14,-0.011,-0.56,0.001722064460518199,10,1,100,0.037782154534353046,-10,-1,-100,533.9653980258154,0.0008107806981514808,-1.4520068860183773e-05,0.9999996712118594,20.24759117514562,-1.507307572950518,-1358.1180674299624,53.3335531408508,-89.94937133789062,6206.50048828125,True
1598623551.143347,0,5,0.5,0.5,-0.010394119262695314,-0.14,-0.011,-0.56,0.0013058915128842427,10,1,100,0.027722867596889852,-10,-1,-100,537.2076941047562,0.0004598835322910026,-4.999114262776617e-07,0.9999998942534379,20.72833192899606,-1.5420111503667997,-1426.0916696138324,54.71136188001896,-89.94509887695312,6201.85205078125,True
1598623551.224743,0,5,0.5,0.5,-0.009846575927734377,-0.14,-0.011,-0.56,0.0023516786369120403,10,1,100,0.05298167104048049,-10,-1,-100,542.7844135352643,-8.520051797533867e-05,2.1614968618513458e-05,0.9999999961368324,21.525432849195575,-1.5977136400830863,-1535.1255833045825,56.842619432593075,-89.9425048828125,6194.4970703125,True
1598623551.300863,0,5,0.5,0.5,-0.007980780029296877,-0.14,-0.011,-0.56,0.001571292365229093,10,1,100,0.03271788286609574,-10,-1,-100,546.2800838712137,-0.00039271965828885537,3.4476058696022604e-05,0.9999999222913327,21.989483634983856,-1.6290519172910498,-1596.3474592988678,58.00183375933495,-89.94314575195312,6190.3671875,True
1598623551.381557,0,5,0.5,0.5,-0.006926406860351563,-0.14,-0.011,-0.56,0.002031366799831312,10,1,100,0.04302052127955035,-10,-1,-100,550.9620460772421,-0.0007622259702751238,5.02035401242367e-05,0.9999997082455448,22.586633745499903,-1.6681837282311016,-1672.2469928838384,59.40166881540289,-89.94522094726562,6185.20556640625,True
1598623551.4636235,0,5,0.5,0.5,-0.006824087524414063,-0.14,-0.011,-0.56,0.0020752059682608423,10,1,100,0.0440067167686968,-10,-1,-100,555.7712224300485,-0.0011032480702255656,6.47459981633294e-05,0.9999993893256393,23.125835416306693,-1.7020133799891761,-1738.4029483202376,60.61600023410301,-89.94708251953125,6180.4814453125,True
1598623551.5456626,0,5,0.5,0.5,-0.00809578857421875,-0.14,-0.011,-0.56,0.0021102400280040936,10,1,100,0.04284652725220821,-10,-1,-100,560.7138443749864,-0.0013989586661733592,7.813363460887083e-05,0.999999018404411,23.643794817915783,-1.7334463257326451,-1798.942221042082,61.70216959031061,-89.94680786132812,6176.05908203125,True
1598623551.6286314,0,5,0.5,0.5,-0.010306289672851564,-0.14,-0.011,-0.56,0.0020345740525104174,10,1,100,0.041734767469287,-10,-1,-100,565.6691295107594,-0.0016538663853205783,8.946116308347267e-05,0.9999986283603991,24.133072566725918,-1.762095402970276,-1853.4843192790563,62.667335416647184,-89.9434814453125,6171.921875,True
1598623551.709127,0,5,0.5,0.5,-0.0127498291015625,-0.14,-0.011,-0.56,0.0020047758312912818,10,1,100,0.03994595819359262,-10,-1,-100,570.7513869380346,-0.0018657320060917275,9.933961466613637e-05,0.9999982545863378,24.595841953013412,-1.7882802913348683,-1902.6038953268392,63.52515825390874,-89.9373779296875,6168.037109375,True
1598623551.7926238,0,5,0.5,0.5,-0.014618978881835939,-0.14,-0.011,-0.56,0.0019746519314959086,10,1,100,0.03779943984008424,-10,-1,-100,575.8465403079754,-0.0020354875615713175,0.00010790675656039737,0.9999979225711014,25.03331925428299,-1.812221968280137,-1946.7802122771698,64.28738023546681,-89.92987060546875,6164.376953125,True
1598623551.871648,0,5,0.5,0.5,-0.014119473266601562,-0.14,-0.011,-0.56,0.0017465291129274431,10,1,100,0.032260499351851345,-10,-1,-100,579.7550791223766,-0.002136423436803956,0.0001134919872140339,0.9999977114046149,25.348078717134545,-1.8290129947875966,-1977.085464661111,64.80041483570135,-89.92462158203125,6161.7705078125,True
1598623551.946802,0,5,0.5,0.5,-0.014689300537109378,-0.14,-0.011,-0.56,0.0018354491802749235,10,1,100,0.03364068849804876,-10,-1,-100,584.9199021121021,-0.002238051220949099,0.00011926145927861309,0.9999974884485643,25.743788251052646,-1.8494760389353317,-2013.6775410610628,65.42032577262376,-89.91964721679688,6158.4443359375,True
1598623552.0247777,0,5,0.5,0.5,-0.013127941894531252,-0.14,-0.011,-0.56,0.00172935427157524,10,1,100,0.03134347616287144,-10,-1,-100,590.2057886830298,-0.0023071036991673985,0.00012343306073941078,0.9999973310148387,26.11782517646873,-1.8682239466410537,-2046.7489403240932,65.97896095874958,-89.91793823242188,6155.26318359375,True
1598623552.106873,0,5,0.5,0.5,-0.011215267944335939,-0.14,-0.011,-0.56,0.001687824986907207,10,1,100,0.028763126312261283,-10,-1,-100,595.5041179376421,-0.002344401041468313,0.00012675532485031667,0.9999972438546241,26.470599924987457,-1.8853723913060718,-2076.2030916203994,66.46812603778329,-89.91934204101562,6152.244140625,True
1598623552.1867383,0,5,0.5,0.5,-0.009335934448242189,-0.14,-0.011,-0.56,0.001568410573805468,10,1,100,0.0263664485482363,-10,-1,-100,600.8595225490863,-0.0023547454808114814,0.00012860608913552957,0.9999972193132312,26.80319544233399,-1.9010353309031156,-2102.5602376167535,66.90206364236292,-89.92318725585938,6149.35546875,True
1598623552.2707653,0,5,0.5,0.5,-0.008437319946289063,-0.14,-0.011,-0.56,0.001498484993486304,10,1,100,0.023929265866285174,-10,-1,-100,606.2215288525913,-0.002340545565368864,0.00012958163998372046,0.9999972525237532,27.116768840280933,-1.9153430491127625,-2126.1450869045702,67.28730761836746,-89.92758178710938,6146.5810546875,True
1598623552.3509686,0,5,0.5,0.5,-0.008868927001953126,-0.14,-0.011,-0.56,0.0014278391992146836,10,1,100,0.02157994135804964,-10,-1,-100,611.646836588392,-0.0023051542398960312,0.00012976732840522435,0.9999973347086335,27.412639704050317,-1.9284222951984724,-2147.262467124165,67.62954923966433,-89.93051147460938,6143.9072265625,True
1598623552.4326665,0,5,0.5,0.5,-0.01057020263671875,-0.14,-0.011,-0.56,0.0013139856583196563,10,1,100,0.019391331707397003,-10,-1,-100,617.0786210799124,-0.0022522600421205023,0.00012885416414954915,0.9999974553574159,27.691796784683305,-1.9403667951462245,-2166.1572262443415,67.93353062993481,-89.93045043945312,6141.3232421875,True
1598623552.5176938,0,5,0.5,0.5,-0.012921572875976563,-0.14,-0.011,-0.56,0.0012239813896212349,10,1,100,0.017387353706106695,-10,-1,-100,622.5104114555288,-0.002185412431715746,0.00012716998238252597,0.9999976038972788,27.955174024470054,-1.9512617291581509,-2183.0506102135023,68.20359066544485,-89.92706298828125,6138.8193359375,True
1598623552.5987196,0,5,0.5,0.5,-0.015116146850585939,-0.14,-0.011,-0.56,0.0011484547961050444,10,1,100,0.015585447595267764,-10,-1,-100,627.9486771727679,-0.0021079702935895917,0.00012492700231897917,0.9999977704247571,28.203715408365035,-1.9611833394972094,-2198.1435554667196,68.44358897637821,-89.92123413085938,6136.38623046875,True
1598623552.6722617,0,5,0.5,0.5,-0.015194006347656252,-0.14,-0.011,-0.56,0.0011431114968018762,10,1,100,0.016377203813606946,-10,-1,-100,632.0668925428763,-0.002044700240248882,0.0001228238811350364,0.9999979020554103,28.381734572613862,-1.968088191702452,-2208.43226772262,68.60517917940908,-89.91647338867188,6134.6044921875,True
1598623552.7538822,0,5,0.5,0.5,-0.016125820922851565,-0.14,-0.011,-0.56,0.0010170334281252873,10,1,100,0.012916099285099404,-10,-1,-100,637.5685221649474,-0.001955800808040491,0.00011975730498537306,0.9999980802488508,28.60621176117344,-1.9764612391953518,-2220.770880623834,68.80052497978997,-89.91134643554688,6132.27587890625,True
1598623552.8345804,0,5,0.5,0.5,-0.014930117797851564,-0.14,-0.011,-0.56,0.0009602309253661034,10,1,100,0.011506839844662223,-10,-1,-100,643.0702233307529,-0.0018624282842224418,0.00011645267132813493,0.9999982588983151,28.816549999782275,-1.9839296355721372,-2231.5796299825843,68.97272075293708,-89.90896606445312,6130.001953125,True
1598623552.9177623,0,5,0.5,0.5,-0.012902023315429688,-0.14,-0.011,-0.56,0.0009125412136115427,10,1,100,0.010495965360423154,-10,-1,-100,648.6289268331602,-0.0017687586539992645,0.00011302126188688724,0.9999984293582757,29.01691059656737,-1.9907834268431617,-2241.32859601391,69.1270329101092,-89.90997314453125,6127.7705078125,True
1598623552.9976356,0,5,0.5,0.5,-0.0105710205078125,-0.14,-0.011,-0.56,0.0008358676222577084,10,1,100,0.00965409049590469,-10,-1,-100,654.1371578169055,-0.0016764743481075437,0.00010921725162159397,0.9999985887516802,29.206187375693172,-1.9969372215823706,-2249.9477374354865,69.26413911713459,-89.91412353515625,6125.580078125,True
1598623553.0819173,0,5,0.5,0.5,-0.008910458374023437,-0.14,-0.011,-0.56,0.0007893213766833715,10,1,100,0.009103394658693507,-10,-1,-100,659.7022771658376,-0.0015881898088974267,0.00010535353900020969,0.999998733276079,29.385166031836242,-2.0024472040358305,-2257.552271696534,69.38633470261946,-89.91983032226562,6123.4248046875,True
1598623553.1320767,0,5,0.5,0.5,-0.008632730102539062,-0.14,-0.011,-0.56,0.0007957988071940259,10,1,100,0.008717765572399973,-10,-1,-100,665.2674596495926,-0.001505109377700535,0.00010192198425903312,0.9999988621281877,29.554751296230574,-2.007367327359544,-2264.2398747566876,69.49505852604035,-89.9248046875,6121.30126953125,True
1598623553.2066221,0,5,0.5,0.5,-0.010292449951171876,-0.14,-0.011,-0.56,0.0009480441060505714,10,1,100,0.01265362757201513,-10,-1,-100,668.0213922816329,-0.00146608959012004,0.00010021175116042865,0.9999989202688764,29.63745714655572,-2.009704537171858,-2267.359659221375,69.54487838852639,-89.92642211914062,6120.25,True
1598623553.2865734,0,5,0.5,0.5,-0.010946295166015625,-0.14,-0.011,-0.56,0.0007731611346224404,10,1,100,0.008468435223289246,-10,-1,-100,673.5930459564552,-0.0013932845531966277,9.70931871605226e-05,0.9999990246650579,29.79284533574372,-2.0137272425827835,-2272.6477093178855,69.63387046746674,-89.92678833007812,6118.173828125,True
1598623553.362072,0,5,0.5,0.5,-0.012390689086914063,-0.14,-0.011,-0.56,0.0007539362866904851,10,1,100,0.009936216331183478,-10,-1,-100,677.7812977931462,-0.001341161736863945,9.411070017506477e-05,0.9999990962137775,29.90446939441704,-2.016435609840509,-2276.1569845635895,69.69435861737834,-89.92501831054688,6116.630859375,True
1598623553.4396632,0,5,0.5,0.5,-0.014386038208007813,-0.14,-0.011,-0.56,0.0007465997878069062,10,1,100,0.00818954940558395,-10,-1,-100,683.3528341217898,-0.0012785956668348976,9.136066774583777e-05,0.9999991784228371,30.048784870400837,-2.019766411468523,-2280.445517678942,69.76911843844138,-89.92074584960938,6114.5888671875,True
1598623553.5207298,0,5,0.5,0.5,-0.015620352172851563,-0.14,-0.011,-0.56,0.0006758264592410773,10,1,100,0.008084040739671963,-10,-1,-100,688.9243752041366,-0.00122145471036694,8.824584728993223e-05,0.9999992501302494,30.186167215590427,-2.0226541966419878,-2284.0909309984318,69.83543016546827,-89.91555786132812,6112.56689453125,True
1598623553.5997584,0,5,0.5,0.5,-0.01580798034667969,-0.14,-0.011,-0.56,0.0007156611661470041,10,1,100,0.008442034015482585,-10,-1,-100,694.5529821104137,-0.001173430457992233,8.580497280888602e-05,0.9999993078489939,30.318389691909097,-2.0252149932343158,-2287.265380975038,69.89511603062441,-89.9111328125,6110.5615234375,True
1598623553.681602,0,5,0.5,0.5,-0.014737481689453125,-0.14,-0.011,-0.56,0.0006840877283549273,10,1,100,0.008879092406712606,-10,-1,-100,700.1245840025367,-0.0011343716665047996,8.332682629938809e-05,0.9999993531285719,30.44523022986386,-2.0274278154228527,-2289.9429090008175,69.94845607447925,-89.90911865234375,6108.57080078125,True
1598623553.7631488,0,5,0.5,0.5,-0.012841448974609376,-0.14,-0.011,-0.56,0.0006891462920934094,10,1,100,0.009403286336532592,-10,-1,-100,705.7597853451734,-0.0011042057890486732,8.114694772072845e-05,0.9999993870721863,30.56711809533189,-2.029314441361531,-2292.1567344492437,69.99614090976671,-89.91021728515625,6106.5947265625,True
1598623553.8447132,0,5,0.5,0.5,-0.010812054443359377,-0.14,-0.011,-0.56,0.0007354080927656171,10,1,100,0.010047573812393538,-10,-1,-100,711.3313276855042,-0.0010831596671046204,7.961132020433144e-05,0.9999994102134127,30.68467323292373,-2.030913655752168,-2293.9537967887977,70.038789378438,-89.91400146484375,6104.630859375,True
1598623553.9258122,0,5,0.5,0.5,-0.009434188842773437,-0.14,-0.011,-0.56,0.0007314256031452593,10,1,100,0.010699921935850041,-10,-1,-100,716.966347840731,-0.0010704163847703523,7.820249275541807e-05,0.9999994240464009,30.798555145479245,-2.0322596973748306,-2295.383111760367,70.07697154050207,-89.91900634765625,6102.677734375,True
1598623554.0056343,0,5,0.5,0.5,-0.009273941040039063,-0.14,-0.011,-0.56,0.0007825530078116584,10,1,100,0.011367761421886311,-10,-1,-100,722.5378918681527,-0.001065298026151284,7.740809829110375e-05,0.9999994295738882,30.90926723283687,-2.033385811410321,-2296.4823241622857,70.11120995927548,-89.92324829101562,6100.7353515625,True
1598623554.0797834,0,5,0.5,0.5,-0.010542080688476565,-0.14,-0.011,-0.56,0.000806166885879414,10,1,100,0.011908352496522032,-10,-1,-100,726.7387816992123,-0.0010659237931433363,7.692132371767879e-05,0.9999994289446255,30.990716077703123,-2.0341163009179564,-2297.1240212591288,70.13448458186176,-89.92483520507812,6099.2841796875,True
1598623554.1586792,0,5,0.5,0.5,-0.011924234008789064,-0.14,-0.011,-0.56,0.0008015166174084485,10,1,100,0.012515457385263742,-10,-1,-100,732.3739257246489,-0.001072309408270175,7.645486426795901e-05,0.9999994221534264,31.097230560194113,-2.034941102380646,-2297.747759733303,70.1629639162627,-89.92413330078125,6097.35546875,True
1598623554.2438333,0,5,0.5,0.5,-0.01396744384765625,-0.14,-0.011,-0.56,0.0008311355536989998,10,1,100,0.013136206065294108,-10,-1,-100,738.0024794266792,-0.001084002093957208,7.631612403986159e-05,0.9999994095574805,31.201750982607493,-2.035616321058158,-2298.1244434676846,70.18848273755759,-89.920654296875,6095.435546875,True
1598623554.32231,0,5,0.5,0.5,-0.015458633422851564,-0.14,-0.011,-0.56,0.0008540678472697139,10,1,100,0.013747556622688065,-10,-1,-100,743.580434205709,-0.0011003664438061628,7.641214881378494e-05,0.9999993916772513,31.30509562084963,-2.0361892430538537,-2298.3216333896435,70.21157457660816,-89.91574096679688,6093.521484375,True
1598623554.3966398,0,5,0.5,0.5,-0.01522771911621094,-0.14,-0.011,-0.56,0.0008188325433794972,10,1,100,0.013694188073245687,-10,-1,-100,747.8386374328984,-0.0011148680370980644,7.618988102605525e-05,0.9999993756319859,31.381880311684984,-2.0365584545378055,-2298.3521188892537,70.22735644054667,-89.91213989257812,6092.08984375,True
1598623554.4748201,0,5,0.5,0.5,-0.015730761718750003,-0.14,-0.011,-0.56,0.0009376924860877666,10,1,100,0.015331440421365831,-10,-1,-100,754.8570734378882,-0.0011429886545471528,7.707710532708783e-05,0.9999993438178124,31.508585350928158,-2.037064037328606,-2298.204838110237,70.2515303543376,-89.90853881835938,6089.71044921875,True
1598623554.5447004,0,5,0.5,0.5,-0.013885696411132815,-0.14,-0.011,-0.56,0.0008560886653803644,10,1,100,0.01389586376689772,-10,-1,-100,757.6746159942122,-0.0011554943217438481,7.714750152247951e-05,0.9999993294403428,31.55916989668582,-2.037251375799761,-2298.1034891827567,70.26056571929064,-89.90829467773438,6088.76025390625,True
1598623554.6206849,0,5,0.5,0.5,-0.012042108154296877,-0.14,-0.011,-0.56,0.0009364141478370311,10,1,100,0.01628680750060251,-10,-1,-100,764.6866412896197,-0.0011885523362902555,7.794536558262187e-05,0.9999992906336803,31.68479706576732,-2.0376401800581596,-2297.686988794177,70.28125916238498,-89.91073608398438,6086.390625,True
1598623554.6977594,0,5,0.5,0.5,-0.01029399108886719,-0.14,-0.011,-0.56,0.0009354645277505298,10,1,100,0.0161654185945255,-10,-1,-100,770.3280147864716,-0.001217405729759757,7.866357814071193e-05,0.9999992558673884,31.784653439049002,-2.037883886695663,-2297.2016539040196,70.29592778179048,-89.91519165039062,6084.5,True
1598623554.7709813,0,5,0.5,0.5,-0.010187103271484376,-0.14,-0.011,-0.56,0.0009387981132481678,10,1,100,0.01564369077072593,-10,-1,-100,774.5224949338008,-0.0012387594805656809,7.934638480224024e-05,0.9999992295892536,31.859617468679488,-2.0380581401170614,-2296.7454697267435,70.30466516573935,-89.91891479492188,6083.087890625,True
1598623554.8460655,0,5,0.5,0.5,-0.010055151367187501,-0.14,-0.011,-0.56,0.0009650955654217327,10,1,100,0.01588087276453673,-10,-1,-100,778.7235130307963,-0.0012601704890107877,8.020442379928826e-05,0.9999992027684766,31.93343341068382,-2.038149753463197,-2296.161276136384,70.31273083458677,-89.92208862304688,6081.67724609375,True
1598623554.921872,0,5,0.5,0.5,-0.010126531982421876,-0.14,-0.011,-0.56,0.0010030630826371966,10,1,100,0.01766329327561504,-10,-1,-100,785.7418289727066,-0.0012956622770653537,8.132663386212558e-05,0.9999991573222662,32.05831899003522,-2.0384021106878483,-2295.291361157181,70.32697723375686,-89.92453002929688,6079.326171875,True
1598623555.0018303,0,5,0.5,0.5,-0.01209142761230469,-0.14,-0.011,-0.56,0.0009903714737533038,10,1,100,0.017256202064437655,-10,-1,-100,791.3770983429858,-0.0013240236616780781,8.222701768431123e-05,0.9999991200996433,32.15881616727714,-2.038627441293752,-2294.575228466489,70.3378896286513,-89.92367553710938,6077.447265625,True
1598623555.0786495,0,5,0.5,0.5,-0.013980804443359376,-0.14,-0.011,-0.56,0.0009991930666675378,10,1,100,0.017321452161890738,-10,-1,-100,797.018471458694,-0.0013501817198776549,8.312037119129628e-05,0.9999990850497451,32.25980621131735,-2.038873586583516,-2293.8278033922547,70.34795288936078,-89.9202880859375,6075.5712890625,True
1598623555.149645,0,5,0.5,0.5,-0.014642306518554688,-0.14,-0.011,-0.56,0.0009725359930253794,10,1,100,0.01680674892478072,-10,-1,-100,801.2131390435388,-0.0013690555476525686,8.368407532601078e-05,0.999999059341499,32.33588986628,-2.0390728815476247,-2293.2484642664313,70.35487637765496,-89.9166259765625,6074.1669921875,True
1598623555.2268012,0,5,0.5,0.5,-0.015940472412109375,-0.14,-0.011,-0.56,0.0010044995038452059,10,1,100,0.017457266211868747,-10,-1,-100,806.8542681796243,-0.0013918962868664226,8.448029809747696e-05,0.9999990277434303,32.437554908714795,-2.03934515530213,-2292.4457067970616,70.36352111869455,-89.91183471679688,6072.294921875,True
1598623555.302624,0,5,0.5,0.5,-0.015432696533203127,-0.14,-0.011,-0.56,0.0010135988026700482,10,1,100,0.017563388775232818,-10,-1,-100,812.4894771369873,-0.0014133990661529458,8.52801277037899e-05,0.9999989975146871,32.53944188426896,-2.039626884292087,-2291.6105418976695,70.37151265537571,-89.90872192382812,6070.42626953125,True
1598623555.375667,0,5,0.5,0.5,-0.014137670898437501,-0.14,-0.011,-0.56,0.0009780017803541737,10,1,100,0.017054241371185736,-10,-1,-100,816.7474385367241,-0.0014280839756998943,8.56762429374016e-05,0.9999989766173463,32.61609593150951,-2.0398516205096757,-2290.974908555029,70.37718535690524,-89.9080810546875,6069.02587890625,True
1598623555.4517043,0,5,0.5,0.5,-0.012393154907226565,-0.14,-0.011,-0.56,0.0010447803081572006,10,1,100,0.017543869259963766,-10,-1,-100,822.3318054585252,-0.0014456673000592753,8.663639715038996e-05,0.9999989512695462,32.718564356845604,-2.0401686856392773,-2290.1160618737786,70.38438297728858,-89.91006469726562,6067.16015625,True
1598623555.5296063,0,5,0.5,0.5,-0.010497549438476562,-0.14,-0.011,-0.56,0.0010187074013115307,10,1,100,0.01756339892281078,-10,-1,-100,827.9731177897193,-0.0014616221722570494,8.726499017359176e-05,0.9999989280221488,32.82115239852482,-2.04049408309132,-2289.2342767108603,70.39112049903434,-89.91436767578125,6065.296875,True
1598623555.6066005,0,5,0.5,0.5,-0.009408801269531253,-0.14,-0.011,-0.56,0.001022923191763257,10,1,100,0.017495871711387452,-10,-1,-100,833.6083881300874,-0.001475310115340549,8.786756501208968e-05,0.999998907869081,32.92405535481572,-2.0408433335243434,-2288.351461478689,70.39753475192308,-89.91937255859375,6063.43408203125,True
1598623555.684917,0,5,0.5,0.5,-0.009480148315429688,-0.14,-0.011,-0.56,0.0010592258860353365,10,1,100,0.0174371896973999,-10,-1,-100,839.2497617088957,-0.0014870246456289984,8.873841832118596e-05,0.9999988904409826,33.02720491192635,-2.041214747475281,-2287.4662302638626,70.40362865256482,-89.92327880859375,6061.57373046875,True
1598623555.7538111,0,5,0.5,0.5,-0.010750445556640627,-0.14,-0.011,-0.56,0.0009639883814079892,10,1,100,0.01712180523119193,-10,-1,-100,843.4506554185646,-0.001494633121317913,8.865756966515301e-05,0.9999988791052057,33.10478508388845,-2.041509877150411,-2286.8074787600704,70.40798860609374,-89.92459106445312,6060.17919921875,True
1598623555.832647,0,5,0.5,0.5,-0.012210620117187501,-0.14,-0.011,-0.56,0.001025458529720305,10,1,100,0.017260771620361087,-10,-1,-100,849.0857428796589,-0.0015026581487006096,8.913704446070698e-05,0.9999988670358959,33.20835820046816,-2.041916167639732,-2285.9333511344125,70.41369994421854,-89.92355346679688,6058.3212890625,True
1598623555.908757,0,5,0.5,0.5,-0.014061276245117188,-0.14,-0.011,-0.56,0.0010022084672217761,10,1,100,0.01721641648836375,-10,-1,-100,854.7271776698763,-0.001509411784731428,8.935609673097904e-05,0.9999988568451226,33.312126239122136,-2.042340801904919,-2285.068714889882,70.41924556751236,-89.92007446289062,6056.4638671875,True
1598623555.9878638,0,5,0.5,0.5,-0.01533494873046875,-0.14,-0.011,-0.56,0.000979546776259636,10,1,100,0.017118525375004197,-10,-1,-100,860.3685510174837,-0.0015145339380588318,8.934406340302058e-05,0.9999988491016322,33.415962026368746,-2.0427803386206573,-2284.2040348205264,70.42450521573323,-89.91546630859375,6054.6083984375,True
1598623556.0578568,0,5,0.5,0.5,-0.014950704956054689,-0.14,-0.011,-0.56,0.0010014297376188912,10,1,100,0.016944421797772422,-10,-1,-100,864.6265132388799,-0.0015174961925169168,8.952763842150107e-05,0.9999988445943864,33.493859178754356,-2.0431165787375547,-2283.556836583545,70.42830561799789,-89.91232299804688,6053.2177734375,True
1598623556.1368825,0,5,0.5,0.5,-0.014959561157226565,-0.14,-0.011,-0.56,0.0010042829727513883,10,1,100,0.016954333201757397,-10,-1,-100,870.210635971278,-0.0015201846210365266,8.971660192976267e-05,0.9999988404941523,33.59759495347017,-2.0435648496439898,-2282.6875264634073,70.43318955570001,-89.9097900390625,6051.3642578125,True
1598623556.2123537,0,5,0.5,0.5,-0.013432412719726564,-0.14,-0.011,-0.56,0.000975446774242161,10,1,100,0.016896841256668738,-10,-1,-100,875.8523758504307,-0.0015220222650577872,8.9622566624469e-05,0.9999988377073346,33.701028675170086,-2.0440047665976397,-2281.8009367768373,70.43781071887238,-89.90994262695312,6049.5126953125,True
1598623556.2910006,0,5,0.5,0.5,-0.011702200317382814,-0.14,-0.011,-0.56,0.0009735764369559613,10,1,100,0.016811292959371876,-10,-1,-100,881.493750102818,-0.0015228457251335085,8.951736221753287e-05,0.9999988364630926,33.80436224941169,-2.044451349867766,-2280.924683759605,70.44259847425789,-89.91253662109375,6047.6611328125,True
1598623556.3686905,0,5,0.5,0.5,-0.010102041625976561,-0.14,-0.011,-0.56,0.000966578964914996,10,1,100,0.01676035691087569,-10,-1,-100,887.1288370677503,-0.0015230756124406748,8.93560608544513e-05,0.9999988361274093,33.90756506364237,-2.044896743600814,-2280.0501456129023,70.44726759327382,-89.91690063476562,6045.8115234375,True
1598623556.4399626,0,5,0.5,0.5,-0.0101560302734375,-0.14,-0.011,-0.56,0.0009678279847042939,10,1,100,0.016707318932913412,-10,-1,-100,891.393024390447,-0.0015227590142865325,8.921942479896861e-05,0.9999988366217626,33.9848489869711,-2.0452284780643493,-2279.391733668461,70.45061019290455,-89.92031860351562,6044.423828125,True
1598623556.5176299,0,5,0.5,0.5,-0.009680770874023437,-0.14,-0.011,-0.56,0.0009720084676030417,10,1,100,0.016662563734679503,-10,-1,-100,896.977391560562,-0.001522031846554588,8.913277731444771e-05,0.9999988377365278,34.08756513728299,-2.045660761431668,-2278.5018558513852,70.45492942227773,-89.92373657226562,6042.576171875,True
1598623556.5937285,0,5,0.5,0.5,-0.010805368041992187,-0.14,-0.011,-0.56,0.0009699511307211971,10,1,100,0.016613708911187623,-10,-1,-100,902.6188266363461,-0.0015209017422890426,8.903487180445804e-05,0.9999988394646675,34.19002073511702,-2.0460863706621706,-2277.605867802044,70.4590679793187,-89.92486572265625,6040.7294921875,True
1598623556.6695693,0,5,0.5,0.5,-0.012483001708984375,-0.14,-0.011,-0.56,0.0009570829607125113,10,1,100,0.01659552464554251,-10,-1,-100,908.2601390685886,-0.0015196924781839653,8.882897631589415e-05,0.9999988413214211,34.29227084483037,-2.046506866995421,-2276.7108212497706,70.4631256668471,-89.92337036132812,6038.8837890625,True
1598623556.7407107,0,5,0.5,0.5,-0.013500494384765627,-0.14,-0.011,-0.56,0.0009343272748939203,10,1,100,0.016621257936543496,-10,-1,-100,912.5181621350348,-0.0015188177401034926,8.843540792831713e-05,0.9999988426852557,34.368802729043004,-2.046819260844513,-2276.0382833675585,70.46609568198829,-89.92071533203125,6037.5,True
1598623556.8176181,0,5,0.5,0.5,-0.015169525146484376,-0.14,-0.011,-0.56,0.000921427681772368,10,1,100,0.016575715325178587,-10,-1,-100,918.1597802091856,-0.001517604605561523,8.79611755071191e-05,0.9999988445688789,34.4706038255219,-2.047226012505879,-2275.138887416694,70.47000692369508,-89.91619873046875,6035.65625,True
1598623556.8939548,0,5,0.5,0.5,-0.015519876098632814,-0.14,-0.011,-0.56,0.0009739102134159047,10,1,100,0.016613803124440114,-10,-1,-100,923.8010932276957,-0.0015168479101411606,8.800859310543884e-05,0.9999988457127864,34.572071487660466,-2.0476189296817267,-2274.2312494659445,70.47382315069471,-89.91207885742188,6033.81298828125,True
1598623556.9707346,0,5,0.5,0.5,-0.014513330078125003,-0.14,-0.011,-0.56,0.0009072636775758524,10,1,100,0.016625095463787324,-10,-1,-100,928.00204825541,-0.0015162656962175287,8.744737514975115e-05,0.9999988466449823,34.64797333449413,-2.0479047686868563,-2273.547096766052,70.47665349879188,-89.91021728515625,6032.431640625,True
1598623557.041835,0,5,0.5,0.5,-0.013513272094726563,-0.14,-0.011,-0.56,0.0009675482144315575,10,1,100,0.016643016345579683,-10,-1,-100,933.6434219208313,-0.0015159045611840122,8.748719569915486e-05,0.9999988471890116,34.7488121724943,-2.048273182551629,-2272.6239264804653,70.48039777558554,-89.91015625,6030.59033203125,True
1598623557.1168933,0,5,0.5,0.5,-0.01149501647949219,-0.14,-0.011,-0.56,0.0009132578386044717,10,1,100,0.016677269091901162,-10,-1,-100,939.2848570700735,-0.0015158939553600558,8.703169293338325e-05,0.9999988472448359,34.84926817040602,-2.0486234648953996,-2271.6909520416802,70.48414227087468,-89.91299438476562,6028.75,True
1598623557.193546,0,5,0.5,0.5,-0.00996977233886719,-0.14,-0.011,-0.56,0.0009412628850581443,10,1,100,0.0167236576328815,-10,-1,-100,944.9326394449454,-0.0015163125564899899,8.687430390309797e-05,0.9999988466238781,34.94939847859247,-2.048957536265599,-2270.7480569673276,70.48778391453574,-89.91744995117188,6026.91015625,True
1598623557.2635915,0,5,0.5,0.5,-0.009968655395507814,-0.14,-0.011,-0.56,0.0009339584495455051,10,1,100,0.01674311336727327,-10,-1,-100,949.1334115196951,-0.0015168758337005793,8.666695093535632e-05,0.9999988457876063,35.024277074299455,-2.0491990993665943,-2270.034235429681,70.49046593140419,-89.9210205078125,6025.53125,True
1598623557.3411567,0,5,0.5,0.5,-0.009535852050781252,-0.14,-0.011,-0.56,0.0009501991275649055,10,1,100,0.016795467002772544,-10,-1,-100,954.7749076151522,-0.0015178685333173394,8.66283324252031e-05,0.999998844284656,35.123869673981076,-2.0495108756375107,-2269.0770778440433,70.49401146932084,-89.92449951171875,6023.69384765625,True
1598623557.4238524,0,5,0.5,0.5,-0.0107154541015625,-0.14,-0.011,-0.56,0.0009213479809498514,10,1,100,0.016876934419178178,-10,-1,-100,960.4162817818578,-0.0015195143578535105,8.633312930072627e-05,0.9999988418106829,35.223181542581145,-2.049810565027596,-2268.1104869384167,70.49743021825385,-89.92559814453125,6021.857421875,True
1598623557.4960299,0,5,0.5,0.5,-0.012460440063476562,-0.14,-0.011,-0.56,0.0009185490188928975,10,1,100,0.01694890923835713,-10,-1,-100,966.0640644261148,-0.001521665040442866,8.604158666615245e-05,0.9999988385655005,35.32239365202089,-2.0501060737701615,-2267.152906171015,70.50099608709498,-89.92398071289062,6020.0205078125,True
1598623557.5697365,0,5,0.5,0.5,-0.01360186767578125,-0.14,-0.011,-0.56,0.0009262676188010511,10,1,100,0.016939066501801735,-10,-1,-100,970.3221485485556,-0.0015235281385551044,8.584889319867053e-05,0.9999988357453116,35.39679408449756,-2.0503296195405856,-2266.4445264898645,70.5037983787122,-89.92105102539062,6018.6435546875,True
1598623557.6469827,0,5,0.5,0.5,-0.015480685424804689,-0.14,-0.011,-0.56,0.0009177549007874934,10,1,100,0.01709235185034596,-10,-1,-100,975.9635832621716,-0.0015266099822502743,8.559824923020775e-05,0.9999988310667678,35.4958117045064,-2.0506170642688986,-2265.4932188978773,70.50740811492308,-89.916015625,6016.8095703125,True
1598623557.7235343,0,5,0.5,0.5,-0.015070471191406252,-0.14,-0.011,-0.56,0.0009398372854713469,10,1,100,0.017060913621281794,-10,-1,-100,980.1707032374106,-0.0015291169816433828,8.557333125043592e-05,0.9999988272385429,35.56989014464248,-2.050822504314067,-2264.7719419587106,70.51004864021975,-89.91256713867188,6015.43408203125,True
1598623557.800637,0,5,0.5,0.5,-0.015401138305664065,-0.14,-0.011,-0.56,0.0008881117135753386,10,1,100,0.017310770618314604,-10,-1,-100,987.2527398880338,-0.001533655816259756,8.508214974604266e-05,0.9999988203297367,35.69310503427093,-2.051153452687701,-2263.567102201108,70.51456390660833,-89.90933227539062,6013.14208984375,True
1598623557.8788002,0,5,0.5,0.5,-0.013099188232421876,-0.14,-0.011,-0.56,0.0009426055667936216,10,1,100,0.01733830566348816,-10,-1,-100,992.8370457916753,-0.0015380162106352407,8.513320617671782e-05,0.9999988136285327,35.79140577855638,-2.051409062058215,-2262.5970213208698,70.51825694355007,-89.9100341796875,6011.3095703125,True
1598623557.9507983,0,5,0.5,0.5,-0.011786526489257813,-0.14,-0.011,-0.56,0.0009075123831322926,10,1,100,0.017279654195529303,-10,-1,-100,997.101538323448,-0.0015414268992176234,8.486231806837103e-05,0.9999988084000406,35.865052104414644,-2.051594754308801,-2261.865284089161,70.52090122174502,-89.9124755859375,6009.935546875,True
1598623558.0310614,0,5,0.5,0.5,-0.009463507080078126,-0.14,-0.011,-0.56,0.0009518946215931754,10,1,100,0.01741465700131944,-10,-1,-100,1002.7428512047045,-0.001545731992215402,8.502136012482263e-05,0.9999988017412705,35.9628796273899,-2.051824880097975,-2260.8699538636283,70.52435334844971,-89.91775512695312,6008.10546875,True
1598623558.1016996,0,5,0.5,0.5,-0.00853570251464844,-0.14,-0.011,-0.56,0.0009365336712183253,10,1,100,0.017546084535396862,-10,-1,-100,1008.3905732429121,-0.0015508142760154364,8.502779480074412e-05,0.9999987938719503,36.06053414651457,-2.052046471585855,-2259.86893928285,70.52777166899719,-89.92330932617188,6006.27587890625,True
1598623558.177603,0,5,0.5,0.5,-0.008635278320312502,-0.14,-0.011,-0.56,0.0009331452445875456,10,1,100,0.01759682125588713,-10,-1,-100,1014.0320691019297,-0.0015558658262538356,8.500429566186972e-05,0.9999987860271634,36.158179852150745,-2.0522704705895514,-2258.876317821198,70.53129483927901,-89.9276123046875,6004.44677734375,True
1598623558.2496586,0,5,0.5,0.5,-0.010230963134765625,-0.14,-0.011,-0.56,0.0009280954600595452,10,1,100,0.01754355791218627,-10,-1,-100,1018.2392493794905,-0.001559940885647463,8.493823370685558e-05,0.9999987796842204,36.23134151697841,-2.0524382768207734,-2258.1284088347497,70.53385166651695,-89.92877197265625,6003.07568359375,True
1598623558.3256536,0,5,0.5,0.5,-0.01213548278808594,-0.14,-0.011,-0.56,0.0009209670500054073,10,1,100,0.017699118560001465,-10,-1,-100,1023.8805621333886,-0.001565024876580713,8.481437670449537e-05,0.9999987717510742,36.32892354055682,-2.0526636452904383,-2257.1379485728135,70.53726346167029,-89.92697143554688,6001.24853515625,True
1598623558.401155,0,5,0.5,0.5,-0.014474551391601564,-0.14,-0.011,-0.56,0.0009314758696372158,10,1,100,0.017805982354585786,-10,-1,-100,1029.5284668290988,-0.0015705804512544106,8.479825462308815e-05,0.999998763042386,36.42644843539065,-2.052888846178432,-2256.147985043813,70.54063806148952,-89.92218017578125,5999.421875,True
1598623558.4735813,0,5,0.5,0.5,-0.014882199096679687,-0.14,-0.011,-0.56,0.0009241149169590791,10,1,100,0.017706298041769146,-10,-1,-100,1033.7862458798336,-0.001574684779505799,8.471740770165046e-05,0.9999987565946301,36.49960768392147,-2.0530612629224483,-2255.409577906582,70.54316812609753,-89.91775512695312,5998.052734375,True
1598623558.551878,0,5,0.5,0.5,-0.016222317504882813,-0.14,-0.011,-0.56,0.0009373112838531291,10,1,100,0.01790278876517655,-10,-1,-100,1039.4340281917248,-0.0015801608410399807,8.476465558442463e-05,0.9999987479525511,36.59708776487158,-2.05329022266507,-2254.4250366035426,70.54654903028828,-89.91229248046875,5996.2275390625,True
1598623558.6268487,0,5,0.5,0.5,-0.015338934326171876,-0.14,-0.011,-0.56,0.0009664265131570445,10,1,100,0.017964810765614625,-10,-1,-100,1045.0757075282745,-0.0015856606378706918,8.50725807389473e-05,0.999998739220704,36.69434703027884,-2.05351240869725,-2253.430859670381,70.54989919921093,-89.9091796875,5994.4033203125,True
1598623558.703701,0,5,0.5,0.5,-0.013468536376953125,-0.14,-0.011,-0.56,0.000902351774839496,10,1,100,0.018023185909368602,-10,-1,-100,1050.7232455586782,-0.001591147823180706,8.477007019057e-05,0.9999987305305144,36.79150109268424,-2.053731456820507,-2252.435483876965,70.55326119952593,-89.90936279296875,5992.580078125,True
1598623558.7746072,0,5,0.5,0.5,-0.011801428222656252,-0.14,-0.011,-0.56,0.0009421058401037792,10,1,100,0.0179327665197081,-10,-1,-100,1054.9306096147047,-0.0015952689781711113,8.485654505615483e-05,0.9999987239573129,36.86424198105835,-2.053893784507441,-2251.684031264041,70.55576562039812,-89.91189575195312,5991.212890625,True
1598623558.8526552,0,5,0.5,0.5,-0.00931702880859375,-0.14,-0.011,-0.56,0.0009468262925169467,10,1,100,0.018118787590700736,-10,-1,-100,1060.5720443928149,-0.001600661549729635,8.497822160595955e-05,0.9999987153298273,36.9610944667226,-2.054102600061013,-2250.678257225694,70.55911293129938,-89.91748046875,5989.390625,True
1598623558.9286458,0,5,0.5,0.5,-0.008199783325195314,-0.14,-0.011,-0.56,0.000941091582901154,10,1,100,0.018189959806193708,-10,-1,-100,1066.2197049494134,-0.0016061655919475798,8.503674799399734e-05,0.9999987064995847,37.057777629520935,-2.0543065149747894,-2249.666115323978,70.56242537164063,-89.92355346679688,5987.56982421875,True
1598623559.0048885,0,5,0.5,0.5,-0.008528955078125,-0.14,-0.011,-0.56,0.0009363535709711928,10,1,100,0.01820304464189209,-10,-1,-100,1071.8674875155557,-0.0016112424926832479,8.504685146345738e-05,0.9999986983314842,37.15454708748718,-2.0545202135254605,-2248.6720487370308,70.5660003263433,-89.92794799804688,5985.7490234375,True
1598623559.077617,0,5,0.5,0.5,-0.010285842895507812,-0.14,-0.011,-0.56,0.0009137610781065999,10,1,100,0.018128364052705983,-10,-1,-100,1076.131980351056,-0.0016151323047166762,8.485055139350967e-05,0.9999986920731558,37.22723404883218,-2.0546889074590085,-2247.9383056985766,70.56874221983452,-89.928955078125,5984.3837890625,True
1598623559.1538708,0,5,0.5,0.5,-0.012342987060546875,-0.14,-0.011,-0.56,0.0009492380332757231,10,1,100,0.01827580050387993,-10,-1,-100,1081.7732931846986,-0.0016199632766412506,8.499458167265013e-05,0.9999986842465861,37.324212272509826,-2.0549205188764676,-2246.96896528621,70.57241302757512,-89.92681884765625,5982.564453125,True
1598623559.2287064,0,5,0.5,0.5,-0.014687738037109377,-0.14,-0.011,-0.56,0.0009281679780386183,10,1,100,0.018340977997718475,-10,-1,-100,1087.4209536694689,-0.0016249026984935897,8.493379385421363e-05,0.9999986762378593,37.421170768490974,-2.0551559024287522,-2246.0029511533885,70.5760426002479,-89.9217529296875,5980.74560546875,True
1598623559.306624,0,5,0.5,0.5,-0.016097525024414066,-0.14,-0.011,-0.56,0.0009333235001025674,10,1,100,0.018386686640296586,-10,-1,-100,1093.06873598136,-0.0016297629624564373,8.492520386880493e-05,0.9999986683293114,37.51809276961723,-2.0553951852155903,-2245.0402955888912,70.57967356470891,-89.91567993164062,5978.92724609375,True
1598623559.3776307,0,5,0.5,0.5,-0.015363208007812502,-0.14,-0.011,-0.56,0.0009498684781636358,10,1,100,0.0182974051427349,-10,-1,-100,1097.2759777931497,-0.0016333246414253595,8.506765772963911e-05,0.9999986625061603,37.59076409025501,-2.0555746319720756,-2244.3203847975897,70.58237118590479,-89.911865234375,5977.56494140625,True
1598623559.4547822,0,5,0.5,0.5,-0.014997094726562502,-0.14,-0.011,-0.56,0.0009129659123638663,10,1,100,0.01844259417730385,-10,-1,-100,1102.9238820970058,-0.0016378391007990476,8.486168784404438e-05,0.9999986551398825,37.687469251779724,-2.055808762192327,-2243.353995259895,70.58596490610384,-89.90933227539062,5975.74853515625,True
1598623559.5296884,0,5,0.5,0.5,-0.012852352905273439,-0.14,-0.011,-0.56,0.0009367064613591161,10,1,100,0.018474050286026236,-10,-1,-100,1108.5651950148167,-0.00164218667278386,8.489018237741191e-05,0.9999986480073805,37.78393751479251,-2.056032722087366,-2242.3786557369353,70.58951671366472,-89.91036987304688,5973.9326171875,True
1598623559.6077297,0,5,0.5,0.5,-0.010572537231445312,-0.14,-0.011,-0.56,0.0009271808906008668,10,1,100,0.01851983312403531,-10,-1,-100,1114.2129771971377,-0.0016465125661204877,8.48294598214699e-05,0.9999986408992426,37.880225989499976,-2.0562500418284815,-2241.3993460361007,70.59307435798723,-89.91445922851562,5972.11865234375,True
1598623559.6778688,0,5,0.5,0.5,-0.009853814697265626,-0.14,-0.011,-0.56,0.0009427750227867928,10,1,100,0.01843985988722704,-10,-1,-100,1118.4773478382267,-0.0016496764842588096,8.491615757392603e-05,0.999998635677441,37.95229778419968,-2.056409064548791,-2240.660103823864,70.59572267166672,-89.91876220703125,5970.7578125,True
1598623559.7566712,0,5,0.5,0.5,-0.008231277465820312,-0.14,-0.011,-0.56,0.0009171650450436527,10,1,100,0.018582938399231967,-10,-1,-100,1124.125008206116,-0.0016538139318643186,8.476226536069403e-05,0.9999986288564786,38.04834163619209,-2.056622088329849,-2239.6774504360237,70.59925912525838,-89.92453002929688,5968.9443359375,True
1598623559.834154,0,5,0.5,0.5,-0.008773367309570313,-0.14,-0.011,-0.56,0.0009270709897973362,10,1,100,0.018628517289334987,-10,-1,-100,1129.7727904638741,-0.0016579509001073715,8.471267610651912e-05,0.9999986220103382,38.14425625580946,-2.0568346805590467,-2238.6930417761646,70.60275941285296,-89.92837524414062,5967.1318359375,True
1598623559.932587,0,5,0.5,0.5,-0.010478717041015627,-0.14,-0.011,-0.56,0.0009425325842783895,10,1,100,0.018676779967010313,-10,-1,-100,1135.4206947679631,-0.0016621116059477492,8.480828025735785e-05,0.9999986150953235,38.24016587318508,-2.05705025603794,-2237.7154974310374,70.6062688808347,-89.92901611328125,5965.3203125,True
1598623560.0336645,0,5,0.5,0.5,-0.012992779541015626,-0.14,-0.011,-0.56,0.0009402073243504435,10,1,100,0.018696584766484357,-10,-1,-100,1141.0682334506419,-0.0016660357927712143,8.487422376006201e-05,0.9999986085595837,38.33610541387572,-2.0572739048974453,-2236.746224330401,70.60976857093779,-89.92593383789062,5963.509765625,True
1598623560.099047,0,5,0.5,0.5,-0.01525685729980469,-0.14,-0.011,-0.56,0.0009461649551701028,10,1,100,0.018724578218339713,-10,-1,-100,1146.7160156550817,-0.001669820327541888,8.498838683369373e-05,0.9999986022375471,38.43206406005802,-2.057503068033896,-2235.7849479864813,70.61326068408265,-89.92022705078125,5961.7001953125,True
1598623560.2099085,0,5,0.5,0.5,-0.014277734375000002,-0.14,-0.011,-0.56,0.0008945492383963723,10,1,100,0.018561918687572256,-10,-1,-100,1149.5398455655668,-0.0016717456749036276,8.462288021817513e-05,0.9999985990517019,38.480029150538755,-2.0576196330878314,-2235.30610973547,70.61500302203625,-89.91705322265625,5960.794921875,True
1598623560.3092415,0,5,0.5,0.5,-0.015741754150390627,-0.14,-0.011,-0.56,0.000939107067700995,10,1,100,0.018792441361911365,-10,-1,-100,1155.1876277945703,-0.0016755567231505845,8.469607699548338e-05,0.9999985926671309,38.57571578425941,-2.057844791430426,-2234.3339417697803,70.61829374951498,-89.91241455078125,5958.9873046875,True
