Timestamp,Input Throttle,horizon,dT,dt,Input Roll,Roll P,Roll I,Roll D,Input Pitch,Pitch P,Pitch I,Pitch D,Input Yaw,Yaw P,Yaw I,Yaw D,Altitude,Direction X,Direction Y,Direction Z,Drag X,Drag Y,Drag Z,Vertical Velocity,Roll,Mass,Has Fuel
1598620353.1945996,0,5,0.5,0.5,-0.010023193359375,-0.14,-0.011,-0.56,0.004255234448102541,10,1,100,0.12484953058203307,-10,-1,-100,479.0649568284862,-0.011724325110788776,0.00041289117294167116,0.9999311824928633,5.273498617717521,-0.4315877500263632,106.98430545016613,-13.850881000974603,-89.92132568359375,6440.1796875,True
1598620353.2314994,0,5,0.5,0.5,-0.009648309326171877,-0.14,-0.011,-0.56,0.004283716547522091,10,1,100,0.12308491739498467,-10,-1,-100,478.2381758815609,-0.011766772690570759,0.0004139231338581367,0.9999306834616527,5.460933230978924,-0.44737482993235395,115.56794504367015,-14.434318198913681,-89.92340087890625,6440.1796875,True
1598620353.266529,0,5,0.5,0.5,-0.008929345703125001,-0.14,-0.011,-0.56,0.004032642055148044,10,1,100,0.11726389662835646,-10,-1,-100,477.68169181013945,-0.011741745962775421,0.0004122024910025612,0.9999309783634329,5.906279360081835,-0.4811400206997926,121.49722616679223,-14.177552314216696,-89.92620849609375,6438.60107421875,True
1598620353.3300643,0,5,0.5,0.5,-0.008980609130859376,-0.14,-0.011,-0.56,0.004149454111515857,10,1,100,0.11947206402158544,-10,-1,-100,477.3688030272024,-0.011728394326570128,0.0004113254684726522,0.9999311354177745,5.818641382484774,-0.47121625876664497,114.65586468306834,-13.726199685802872,-89.92849731445312,6437.0224609375,True
1598620353.3681982,0,5,0.5,0.5,-0.005854916381835936,-0.14,-0.011,-0.56,0.004049621704741062,10,1,100,0.11679080415814064,-10,-1,-100,476.8611801340012,-0.011681219209146209,0.00040924667568526164,0.9999316884842416,5.665439097166576,-0.4535498965513103,102.12736361965082,-12.823078818960921,-89.93490600585938,6433.8642578125,True
1598620353.4054663,0,5,0.5,0.5,0.0043487487792968765,-0.14,-0.011,-0.56,0.003460441955878723,10,1,100,0.09960303455365259,-10,-1,-100,475.9152043124195,-0.011471460997620803,0.0004016286420928078,0.9999341199684177,5.298491966754795,-0.41495852666758626,78.79605906158712,-11.015197100603675,-89.9547119140625,6427.548828125,True
1598620353.4413192,0,5,0.5,0.5,-0.002391741943359375,-0.14,-0.011,-0.56,0.003938333048947233,10,1,100,0.11336363965768381,-10,-1,-100,475.72528670786414,-0.011395439523545608,0.00039868250454384277,0.9999349903920383,5.199147644053916,-0.4050470922375625,73.4237917072707,-10.562881331346679,-89.96099853515625,6425.9697265625,True
1598620353.4802966,0,5,0.5,0.5,-0.0012554443359374997,-0.14,-0.011,-0.56,0.003942690895039876,10,1,100,0.11269793678716797,-10,-1,-100,475.5355528186774,-0.011309917757814791,0.0003956813758233133,0.9999359625478825,5.096652246782192,-0.3950238705796521,68.23450359479983,-10.110426218249138,-89.96771240234375,6424.390625,True
1598620353.5134003,0,5,0.5,0.5,0.008877496337890627,-0.14,-0.011,-0.56,0.0030797516476998186,10,1,100,0.08865678791187623,-10,-1,-100,474.9696483144071,-0.011003333055777019,0.00038474846439626474,0.9999393874782025,4.771100690729744,-0.3643514674779602,53.77458745755575,-8.752213378430927,-89.98760986328125,6419.65380859375,True
1598620353.5505233,0,5,0.5,0.5,-0.0022787109375,-0.14,-0.011,-0.56,0.004211517636844298,10,1,100,0.12041559142123114,-10,-1,-100,474.9696483144071,-0.011003333055777019,0.00038474846439626474,0.9999393874782025,4.771100690729744,-0.3643514674779602,53.77458745755575,-8.752213378430927,-89.98760986328125,6419.65380859375,True
1598620353.5900877,0,5,0.5,0.5,0.016063220214843753,-0.14,-0.011,-0.56,0.0021818037461423224,10,1,100,0.06331123998845159,-10,-1,-100,474.342547145905,-0.01047419955815559,0.00036594674860406835,0.9999450771050344,4.299600808766515,-0.32239929963299135,37.10634642445519,-6.939254828319562,-90.01383209228516,6413.337890625,True
1598620353.6654396,0,5,0.5,0.5,0.001480529022216797,-0.14,-0.011,-0.56,0.004057280882928201,10,1,100,0.11609957719533123,-10,-1,-100,474.342547145905,-0.01047419955815559,0.00036594674860406835,0.9999450771050344,4.299600808766515,-0.32239929963299135,37.10634642445519,-6.939254828319562,-90.01383209228516,6413.337890625,True
1598620353.8090658,0,5,0.5,0.5,0.01989283905029297,-0.14,-0.011,-0.56,0.000793316063062122,10,1,100,0.02357994578082251,-10,-1,-100,473.78336778411176,-0.009634287066325888,0.0003363179560464259,0.9999535326218693,3.682231435109555,-0.27052907778045354,20.55623120255623,-4.669756914659203,-90.03999328613281,6405.443359375,True
1598620353.8774755,0,5,0.5,0.5,0.007738949584960938,-0.14,-0.011,-0.56,0.002949467616637786,10,1,100,0.08550543826741709,-10,-1,-100,473.698948479956,-0.009435605149901063,0.0003290530537855807,0.9999554295465087,3.566243564082371,-0.2610251680419556,17.840113499327295,-4.215408219807264,-90.04338073730469,6403.86474609375,True
1598620353.9831429,0,5,0.5,0.5,0.010796229553222658,-0.14,-0.011,-0.56,0.0005160203720111622,10,1,100,0.017379012990229592,-10,-1,-100,473.4525797039969,-0.008637738440791945,0.00030040114261064947,0.9999626489193393,3.3612011086254543,-0.24260547755255696,9.29992047423547,-2.396501588301729,-90.05027770996094,6397.548828125,True
1598620354.0490303,0,5,0.5,0.5,0.003311749267578125,-0.14,-0.011,-0.56,0.0007772532327242569,10,1,100,0.023745835026759893,-10,-1,-100,473.3635063599795,-0.007973052069905163,0.0002768277453063534,0.9999681763971742,6.351609545078945,-0.4541632477907919,7.418690250915516,-1.0307019670340662,-90.044921875,6392.81201171875,True
1598620354.114947,0,5,0.5,0.5,0.0016411132812500003,-0.14,-0.011,-0.56,0.0013859350931002196,10,1,100,0.04163395130263338,-10,-1,-100,473.3494531343458,-0.007534591343359406,0.000261044310939308,0.999971580490744,14.684939239217432,-1.0439740099072496,1.963882279488093,-0.1193803355325631,-90.0381088256836,6389.654296875,True
1598620354.179327,0,5,0.5,0.5,-0.00040815963745117166,-0.14,-0.011,-0.56,0.0011428160165589706,10,1,100,0.034287789058665766,-10,-1,-100,473.3719605936203,-0.007072717251718273,0.00024461068644944127,0.9999749581045964,0.8212840007735669,-0.058070481135240035,-0.7214079129496603,0.7925994275579449,-90.02960968017578,6386.49658203125,True
1598620354.2173593,0,5,0.5,0.5,-0.009231063842773439,-0.14,-0.011,-0.56,-0.0010247246862548926,10,1,100,-0.025112573104870833,-10,-1,-100,473.5266254983144,-0.006116680421926998,0.00021010344933250355,0.999981270863188,1.7857054719522596,-0.12506044753669826,-5.083590196832542,2.6185183397457004,-90.0101089477539,6380.18115234375,True
1598620354.2483504,0,5,0.5,0.5,-0.005597153472900391,-0.14,-0.011,-0.56,0.0005098669528156457,10,1,100,0.01575104660743161,-10,-1,-100,473.65875281614717,-0.005623485894622997,0.00019284283504962304,0.9999841694837143,2.3752167702860154,-0.16564837811429217,-9.04508711052853,3.532418570394784,-89.99966430664062,6377.02294921875,True
1598620354.2853596,0,5,0.5,0.5,-0.006827179718017579,-0.14,-0.011,-0.56,0.00030462154668383246,10,1,100,0.010487433517684018,-10,-1,-100,473.8273800541647,-0.0051321669754954315,0.00017545995985430304,0.9999868149510464,2.880122254821974,-0.20009317598221757,-13.701516778798819,4.44694197425937,-89.98953247070312,6373.86572265625,True
1598620354.3501933,0,5,0.5,0.5,-0.007289700317382813,-0.14,-0.011,-0.56,3.0977480997158944e-05,10,1,100,0.0032627211994344374,-10,-1,-100,474.03265869175084,-0.004624690603015976,0.0001573428425239058,0.9999892936827154,3.3521646069231545,-0.2320822752777807,-19.095677064110625,5.362084182317627,-89.98080444335938,6370.70751953125,True
1598620354.3944595,0,5,0.5,0.5,-0.009594707489013672,-0.14,-0.011,-0.56,-0.001153634000191699,10,1,100,-0.030344914936006488,-10,-1,-100,474.39726451865863,-0.0038631422167625887,0.00013029318049099156,0.9999925295500464,4.036400952432874,-0.27819031842708714,-28.62389476387881,6.735952693899468,-89.9705810546875,6365.970703125,True
1598620354.4303188,0,5,0.5,0.5,-0.007235758209228517,-0.14,-0.011,-0.56,-0.0004594052023151596,10,1,100,-0.010717009817741083,-10,-1,-100,474.7227534187259,-0.0033545074983797074,0.00011220104478317937,0.999994367329321,4.4858275473987455,-0.30836430900186446,-35.95416002913993,7.652630394771303,-89.96588134765625,6362.8125,True
1598620354.4704466,0,5,0.5,0.5,-0.005864098358154298,-0.14,-0.011,-0.56,0.00033092835729525553,10,1,100,0.011476372119603388,-10,-1,-100,474.85501127003226,-0.00309939858805433,0.00010313563741708333,0.9999951915341557,4.709447606408779,-0.323357091792234,-39.91589730014915,8.111197664379501,-89.96420288085938,6361.234375,True
1598620354.5090075,0,5,0.5,0.5,-0.006492838287353517,-0.14,-0.011,-0.56,-0.0016988172626002853,10,1,100,-0.04633942350957136,-10,-1,-100,475.4413606188027,-0.002346918109177614,7.662145736266708e-05,0.9999972430484703,5.377028757553438,-0.3680799962314993,-52.99528324684756,9.487809179594414,-89.96209716796875,6356.49755859375,True
1598620354.5498233,0,5,0.5,0.5,-0.00529793472290039,-0.14,-0.011,-0.56,-8.707749285094481e-05,10,1,100,0.0002772517805780736,-10,-1,-100,475.6379806236364,-0.0020917475709826194,6.73518427545042e-05,0.9999978100255162,5.598533331655058,-0.38291790533149345,-57.754846077948876,9.946980879513612,-89.96224975585938,6354.91845703125,True
1598620354.5949893,0,5,0.5,0.5,-0.0036083084106445324,-0.14,-0.011,-0.56,-0.0020228553819281476,10,1,100,-0.0555193333214342,-10,-1,-100,476.2922027556924,-0.001357480711489219,4.1503023635640475e-05,0.9999990777613833,6.259639096929231,-0.4272490152292597,-73.23931668709523,11.325395830678158,-89.96490478515625,6350.181640625,True
1598620354.634037,0,5,0.5,0.5,-0.0027096351623535153,-0.14,-0.011,-0.56,-0.0014283768091456885,10,1,100,-0.03738630322549076,-10,-1,-100,476.75001904263627,-0.0008600067824040035,2.3593091155435626e-05,0.9999996299157816,6.696887465300699,-0.45663711309592514,-84.56931328560928,12.245083927802266,-89.96841430664062,6347.02392578125,True
1598620354.6742175,0,5,0.5,0.5,-0.0014523986816406256,-0.14,-0.011,-0.56,-0.0014657756320313614,10,1,100,-0.04036981855948865,-10,-1,-100,477.271923307213,-0.0003854136835079387,7.140899927358796e-06,0.9999999257026473,7.130805529825293,-0.4858817137787274,-96.70844273192685,13.16536304389207,-89.97308349609375,6343.8662109375,True
1598620354.71444,0,5,0.5,0.5,-0.0022165008544921877,-0.14,-0.011,-0.56,-0.0007434369025417133,10,1,100,-0.018767113718141944,-10,-1,-100,477.5330583594041,-0.0001551155214429544,-1.0801018890576434e-06,0.999999987969004,7.346219054403286,-0.5004384373133942,-103.08076176083155,13.625723564790787,-89.97576904296875,6342.287109375,True
1598620354.7573268,0,5,0.5,0.5,0.00034465332031250037,-0.14,-0.011,-0.56,-0.0017499986977972109,10,1,100,-0.04707283093123609,-10,-1,-100,478.11605903855525,0.0003070465537769304,-1.754381071381042e-05,0.9999999527073132,7.773717277763984,-0.5294174077762408,-116.43312805009766,14.546883482165278,-89.98159790039062,6339.12890625,True
1598620354.8260703,0,5,0.5,0.5,0.0014179138183593749,-0.14,-0.011,-0.56,-0.0018648482736715293,10,1,100,-0.05023474252786981,-10,-1,-100,478.7025091415271,0.0007514551483491387,-3.3395917923136096e-05,0.9999997170998964,8.19622412076071,-0.5581942135852865,-130.59529930818047,15.468626095136258,-89.98779296875,6335.9716796875,True
1598620354.8682342,0,5,0.5,0.5,0.007121356201171877,-0.14,-0.011,-0.56,-0.003611683286061568,10,1,100,-0.09993732762165261,-10,-1,-100,480.06130279472563,0.0016031095557536156,-6.353843450023786e-05,0.9999987130004816,9.035738674821344,-0.6158520538599968,-161.34251192596167,17.290887406655482,-90.00086975097656,6329.7109375,True
1598620354.9100745,0,5,0.5,0.5,0.0042267990112304695,-0.14,-0.011,-0.56,-0.002181705208198229,10,1,100,-0.059383594818884194,-10,-1,-100,480.7765178635018,0.0020041636124105786,-7.778115842676963e-05,0.9999979886371302,9.420582578624543,-0.6425619508035217,-177.1287232642253,18.169934320698115,-90.00714111328125,6326.65966796875,True
1598620354.949401,0,5,0.5,0.5,0.0028235305786132817,-0.14,-0.011,-0.56,-0.0015214345320555458,10,1,100,-0.041155434901333235,-10,-1,-100,481.16252135671675,0.0021984080626660228,-8.456215876246153e-05,0.9999975799226873,9.622462766757465,-0.6566237336890149,-185.30264263482823,18.587798671903826,-90.01008605957031,6325.1865234375,True
1598620354.9851925,0,5,0.5,0.5,0.005771978759765626,-0.14,-0.011,-0.56,-0.0029288027568245808,10,1,100,-0.08055885040752933,-10,-1,-100,482.32748016156256,0.0027290746800710786,-0.0001033744305508771,0.999996270725605,10.157911008827899,-0.6942404814621926,-208.7002308532977,19.752068900261815,-90.0165786743164,6320.9833984375,True
1598620355.0244997,0,5,0.5,0.5,0.0031838829040527344,-0.14,-0.011,-0.56,-0.0017045565977945767,10,1,100,-0.046666115269961644,-10,-1,-100,482.71666535933036,0.0028990005380513744,-0.00010919177957343177,0.9999957919276637,10.325158366933826,-0.7060734751091495,-216.22200832934988,20.10341581082888,-90.01799011230469,6319.6708984375,True
1598620355.066169,0,5,0.5,0.5,0.0037709938049316416,-0.14,-0.011,-0.56,-0.002367808103796329,10,1,100,-0.06492019953452424,-10,-1,-100,483.55729424743913,0.0032155552829389936,-0.00012037284255467098,0.9999948228438991,10.617216111790695,-0.7269566642906392,-230.72161806405518,20.79612302729908,-90.0198745727539,6317.07080078125,True
1598620355.1122227,0,5,0.5,0.5,0.002809686279296875,-0.14,-0.011,-0.56,-0.002914985439962171,10,1,100,-0.0814777054999376,-10,-1,-100,484.7866628811462,0.003650150048826639,-0.00013538090656302327,0.9999933290160646,11.019432373556688,-0.7560122615836528,-251.40222267754044,21.72493858989865,-90.01992797851562,6313.43701171875,True
1598620355.1535676,0,5,0.5,0.5,0.0017792144775390629,-0.14,-0.011,-0.56,-0.002418195833719613,10,1,100,-0.06658881538917862,-10,-1,-100,485.6913367282832,0.0039062139588700215,-0.00014437876668978357,0.999992360294457,11.261578697932237,-0.7737540676974695,-264.85677148991283,22.315685151487518,-90.01842498779297,6311.0830078125,True
1598620355.2253506,0,5,0.5,0.5,0.0007398628234863282,-0.14,-0.011,-0.56,-0.002439322314421715,10,1,100,-0.06687381377773471,-10,-1,-100,486.59639327879995,0.004137898108368777,-0.00015262042693431138,0.9999914272163786,11.474924328976625,-0.7896388501829327,-277.85845147741975,22.88951182028484,-90.01567077636719,6308.77099609375,True
1598620355.2731574,0,5,0.5,0.5,-0.0036457221984863286,-0.14,-0.011,-0.56,-0.003065197557758609,10,1,100,-0.08712104156369199,-10,-1,-100,488.47003559721634,0.004529103177281264,-0.00016567982335401706,0.9999897298345647,11.8745559700377,-0.8197367853325617,-302.7430168539699,23.916153858424895,-90.00714874267578,6304.4375,True
1598620355.3429685,0,5,0.5,0.5,-0.002633219909667969,-0.14,-0.011,-0.56,-0.002372297753039079,10,1,100,-0.06563759057357142,-10,-1,-100,489.4393381414702,0.004686005823628854,-0.0001711326546877257,0.9999890059710834,12.052323901538314,-0.8333864952372361,-314.75081944150725,24.400989477243048,-90.00174713134766,6302.34033203125,True
1598620355.3930407,0,5,0.5,0.5,-0.007602194976806641,-0.14,-0.011,-0.56,-0.0026595861248225874,10,1,100,-0.07505873068353719,-10,-1,-100,491.44207798317075,0.004911488688337375,-0.00017860367362532227,0.9999879226168644,12.362338115862087,-0.8576625665870652,-337.30154734898434,25.29168321036644,-89.99032592773438,6298.3359375,True
1598620355.462094,0,5,0.5,0.5,-0.003104700469970703,-0.14,-0.011,-0.56,-0.002043930859000526,10,1,100,-0.05754204724840899,-10,-1,-100,491.9571073623374,0.004954587511320386,-0.00017970698613821082,0.9999877098084715,12.427349348703347,-0.8628887003875076,-342.5697769596091,25.501642812528324,-89.98764038085938,6297.3662109375,True
1598620355.5354025,0,5,0.5,0.5,-0.006837886810302735,-0.14,-0.011,-0.56,-0.002210682071009714,10,1,100,-0.06243803096783331,-10,-1,-100,493.5061918089632,0.005035771584710022,-0.00018213942232512417,0.9999873038342924,12.614826114022941,-0.8780508253849117,-357.9295767471474,26.095576858852816,-89.98019409179688,6294.541015625,True
1598620355.5823276,0,5,0.5,0.5,-0.0072795211791992194,-0.14,-0.011,-0.56,-0.0019640551827400064,10,1,100,-0.05656146589700796,-10,-1,-100,495.63759197003674,0.005054054971779789,-0.00018203706079098056,0.9999872116136539,12.832529458333584,-0.8959578916487168,-376.64575426675304,26.79430117540176,-89.97366333007812,6290.99951171875,True
1598620355.6520755,0,5,0.5,0.5,-0.005850009155273438,-0.14,-0.011,-0.56,-0.0017434387065640628,10,1,100,-0.04938769948244162,-10,-1,-100,497.25084902055096,0.0050035010340437665,-0.00017987217753905274,0.9999874662331534,12.976039795090136,-0.9080088646505475,-390.04518268281765,27.292026363104707,-89.97055053710938,6288.40673828125,True
1598620355.6943893,0,5,0.5,0.5,-0.004588347625732422,-0.14,-0.011,-0.56,-0.0014928775749765773,10,1,100,-0.04356443344884632,-10,-1,-100,498.9283610425191,0.00490297872147733,-0.0001755721830819736,0.9999879649146111,13.102447604567018,-0.918764805576322,-402.4018432281843,27.74303545553496,-89.96994018554688,6285.9267578125,True
1598620355.7333188,0,5,0.5,0.5,-0.0028061759948730474,-0.14,-0.011,-0.56,-0.0012868544124260359,10,1,100,-0.03752042825702283,-10,-1,-100,500.6058916236507,0.004755510364061582,-0.00016975362184642497,0.9999886780883498,13.206115000141654,-0.9277913093901679,-413.4398893842587,28.147068796562273,-89.97207641601562,6283.5595703125,True
1598620355.7739394,0,5,0.5,0.5,-0.002323101806640625,-0.14,-0.011,-0.56,-0.0013615499032173818,10,1,100,-0.039000957712501255,-10,-1,-100,501.7648914202582,0.0046341354920014415,-0.0001651200025893415,0.999989248704018,13.267738498638247,-0.9331876935585266,-420.1551605469262,28.388762238422988,-89.97454833984375,6282.0478515625,True
1598620355.814416,0,5,0.5,0.5,-0.0017445571899414064,-0.14,-0.011,-0.56,-0.0012012644143609222,10,1,100,-0.03594956071399334,-10,-1,-100,502.856894331635,0.004495603601611576,-0.00015943911738815686,0.9999898820125257,13.48387209587476,-0.9486536520098392,-426.27891565934345,28.30785684354253,-89.9774169921875,6281.30517578125,True
1598620355.8594484,0,5,0.5,0.5,-0.001268839263916016,-0.14,-0.011,-0.56,-0.001096819165254756,10,1,100,-0.032728640926376625,-10,-1,-100,504.01484603609424,0.004340414884620336,-0.00015333084740062918,0.9999905685996646,13.315793603596168,-0.9363433857742978,-414.945674049359,27.91557563780854,-89.98043823242188,6281.30517578125,True
1598620355.8983424,0,5,0.5,0.5,-0.0008693054199218752,-0.14,-0.011,-0.56,-0.0010291154406442049,10,1,100,-0.029582978642690674,-10,-1,-100,505.113397864392,0.004171051476539345,-0.00014717856974031456,0.9999912902960949,13.15157493483896,-0.9243246061614759,-403.89189714029726,27.523366318363852,-89.98345947265625,6281.30517578125,True
1598620355.9382985,0,5,0.5,0.5,-0.0005606964111328123,-0.14,-0.011,-0.56,-0.0008875434361611088,10,1,100,-0.026271248966417925,-10,-1,-100,506.2082601641305,0.0039876512332375985,-0.00014032714010280494,0.9999920394412827,12.983788624859132,-0.9120746728165345,-392.88708597866366,27.131228629501447,-89.986328125,6281.30517578125,True
1598620355.9772847,0,5,0.5,0.5,-0.000288702392578125,-0.14,-0.011,-0.56,-0.0007370866053836195,10,1,100,-0.02294808138633126,-10,-1,-100,507.3065254818648,0.0037915921579425712,-0.00013276657819439667,0.9999928030750739,12.81621496722475,-0.8998589748957266,-382.0482467596132,26.739161599237722,-89.989013671875,6281.30517578125,True
1598620356.0181465,0,5,0.5,0.5,-9.528503417968758e-05,-0.14,-0.011,-0.56,-0.0006631225546077915,10,1,100,-0.01954159220269784,-10,-1,-100,508.34048991510645,0.0035835196236656676,-0.00012526582403800046,0.9999935713271262,12.648304129947464,-0.8876385629631307,-371.3584766148767,26.34716411831525,-89.99142456054688,6281.30517578125,True
1598620356.0580401,0,5,0.5,0.5,-1.5933227539062554e-05,-0.14,-0.011,-0.56,-0.0004497629035446982,10,1,100,-0.016157292249944236,-10,-1,-100,509.37439303600695,0.0033649332614326443,-0.00011655893364684213,0.9999943318030163,12.480062769642004,-0.8754136524012998,-360.8179782675789,25.95523546822784,-89.99343872070312,6281.30517578125,True
1598620356.0957081,0,5,0.5,0.5,2.9537963867187506e-05,-0.14,-0.011,-0.56,-0.00040626103794580296,10,1,100,-0.012749907258709434,-10,-1,-100,510.4049698318122,0.003136731766548317,-0.00010830566473479207,0.999995074579724,12.311578386023363,-0.8631901391528094,-350.42925785902696,25.56337453831967,-89.99507904052734,6281.30517578125,True
1598620356.1346056,0,5,0.5,0.5,-6.896209716796822e-06,-0.14,-0.011,-0.56,-0.00022614905563601482,10,1,100,-0.009405523218470463,-10,-1,-100,511.4387811620254,0.002900478049883055,-9.922646271951865e-05,0.999995788681728,12.142878269645886,-0.8509695809615335,-340.1929442856563,25.171580398815625,-89.99629974365234,6281.30517578125,True
1598620356.1762578,0,5,0.5,0.5,-9.774322509765624e-05,-0.14,-0.011,-0.56,-0.0001329206985125382,10,1,100,-0.006067024170945415,-10,-1,-100,512.4082618993707,0.0026570383454954786,-9.018922778553567e-05,0.9999964660003224,11.974056272791055,-0.8387582440786616,-330.11147093946477,24.77985190689155,-89.99710845947266,6281.30517578125,True
1598620356.2154748,0,5,0.5,0.5,-0.00024809799194335934,-0.14,-0.011,-0.56,1.1138233853639416e-05,10,1,100,-0.0027717537929564627,-10,-1,-100,513.3778039078461,0.0024075698809309697,-8.07320518920439e-05,0.9999970985405928,11.805175905823848,-0.8265604984611611,-320.18638634650364,24.3881883192289,-89.99750518798828,6281.30517578125,True
1598620356.2528045,0,5,0.5,0.5,-0.00044282836914062506,-0.14,-0.011,-0.56,0.00013979987194638393,10,1,100,0.0004215560601353342,-10,-1,-100,514.3474072210956,0.0021536484905902912,-7.103651988393198e-05,0.9999976783733009,11.636256163648532,-0.8143772678395613,-310.41781043716315,23.9965886187629,-89.99751281738281,6281.30517578125,True
1598620356.2910984,0,5,0.5,0.5,-0.0005084274291992188,-0.14,-0.011,-0.56,-0.00031528494775684424,10,1,100,-0.010635465874737213,-10,-1,-100,514.8016300920863,0.0020253172136830886,-6.64343476261475e-05,0.999997946836223,11.551811065148778,-0.808293047287493,-305.59287652587443,23.800812223511624,-89.99739837646484,6281.30517578125,True
1598620356.3255825,0,5,0.5,0.5,-0.0007547828674316407,-0.14,-0.011,-0.56,0.00028479819395711735,10,1,100,0.005225481967619013,-10,-1,-100,515.7677541365847,0.001766412649075899,-5.68686572145021e-05,0.999998438274935,11.382984707365932,-0.7961417989537933,-296.0623894692752,23.409305940783298,-89.99693298339844,6281.30517578125,True
1598620356.3615565,0,5,0.5,0.5,-0.0007228233337402344,-0.14,-0.011,-0.56,-0.00010158758468468206,10,1,100,-0.006072338082061885,-10,-1,-100,516.221977210138,0.0016357716258702452,-5.176104435783019e-05,0.9999986607850944,11.298604041813284,-0.7900746983471361,-291.35670804259956,23.213575739975678,-89.99658966064453,6281.30517578125,True
1598620356.398561,0,5,0.5,0.5,-0.0014568298339843752,-0.14,-0.011,-0.56,0.0010059460461803594,10,1,100,0.02455622766564845,-10,-1,-100,517.5814116918482,0.0012405253893696228,-3.7122913783752226e-05,0.9999992298590273,11.04565676186688,-0.771911719040791,-277.47884919966396,22.626476015945162,-89.99525451660156,6281.30517578125,True
1598620356.4384553,0,5,0.5,0.5,-0.001068095397949219,-0.14,-0.011,-0.56,0.0001141802261314421,10,1,100,7.487099832587281e-05,-10,-1,-100,518.0323393427534,0.0011058984115577132,-3.2002614271629916e-05,0.9999993879820808,10.961431392897246,-0.7658717749514046,-272.9330047598674,22.43080575889914,-89.99473571777344,6281.30517578125,True
1598620356.4773717,0,5,0.5,0.5,-0.0011713439941406251,-0.14,-0.011,-0.56,0.0001437391433530904,10,1,100,0.0016664119199004852,-10,-1,-100,518.483083465253,0.0009710953641233669,-2.715594848529939e-05,0.9999995281180628,10.877212780876421,-0.7598363377899298,-268.42616079914126,22.235150190502214,-89.99417114257812,6281.30517578125,True
1598620356.5141973,0,5,0.5,0.5,-0.002458353424072266,-0.14,-0.011,-0.56,0.0018586585849699813,10,1,100,0.04633591047752789,-10,-1,-100,520.2289937036112,0.0004444295490250075,-7.233484406890351e-06,0.9999999012150215,10.540960828173178,-0.7357771581124555,-250.8007825001014,21.45267146874734,-89.99188232421875,6281.30517578125,True
1598620356.5490093,0,5,0.5,0.5,-0.001587358093261719,-0.14,-0.011,-0.56,0.0004045295731754672,10,1,100,0.008494914530730525,-10,-1,-100,520.6832170076668,0.000311884269816346,-2.425138059480105e-06,0.9999999513611592,10.457053671467495,-0.7297828774340682,-246.49452036945988,21.25708694085689,-89.99130249023438,6281.30517578125,True
1598620356.5863714,0,5,0.5,0.5,-0.0020380805969238283,-0.14,-0.011,-0.56,0.0009920291079479255,10,1,100,0.023565663605251978,-10,-1,-100,521.5239763131831,5.651370992707604e-05,7.207205218164234e-06,0.9999999983771284,10.2893821872442,-0.7178157729818145,-238.00053666561755,20.865959787154534,-89.99020385742188,6281.30517578125,True
1598620356.625319,0,5,0.5,0.5,-0.002093109130859375,-0.14,-0.011,-0.56,0.001111769430023464,10,1,100,0.027181228262494216,-10,-1,-100,522.3002215675078,-0.00020637279033718613,1.697248452842743e-05,0.9999999785611028,10.1220795324122,-0.7058891834151669,-229.6680496775518,20.47488695105509,-89.9892578125,6281.30517578125,True
1598620356.6623197,0,5,0.5,0.5,-0.0021278244018554686,-0.14,-0.011,-0.56,0.0011858434306248147,10,1,100,0.0287416677217506,-10,-1,-100,523.1409198805923,-0.00045740085722436664,2.644340299375865e-05,0.9999998950425958,9.95509307741723,-0.6939993051547111,-221.49510817604616,20.083867438948932,-89.98846435546875,6281.30517578125,True
1598620356.7002037,0,5,0.5,0.5,-0.002056475067138672,-0.14,-0.011,-0.56,0.0012363768971847874,10,1,100,0.030937310987803574,-10,-1,-100,523.9206446805038,-0.0007033115676578237,3.5428289703132327e-05,0.999999752048807,9.788519854489698,-0.6821525955465131,-213.4830694624109,19.692900360185128,-89.98794555664062,6281.30517578125,True
1598620356.7381024,0,5,0.5,0.5,-0.0019467323303222657,-0.14,-0.011,-0.56,0.0013273184313614462,10,1,100,0.032898350784201474,-10,-1,-100,524.6970120999031,-0.0009424491896402804,4.4339203434243806e-05,0.9999995549116808,9.622330378155878,-0.6703467459598385,-205.63044108944683,19.30198468002606,-89.98770141601562,6281.30517578125,True
1598620356.7765126,0,5,0.5,0.5,-0.0017984283447265628,-0.14,-0.011,-0.56,0.0013827216629265769,10,1,100,0.034610913273270566,-10,-1,-100,525.4733190383995,-0.0011730719406017687,5.285633597876264e-05,0.9999993105539772,9.456625397942174,-0.6585884603216654,-197.9384886922414,18.911119311919958,-89.98773193359375,6281.30517578125,True
1598620356.814357,0,5,0.5,0.5,-0.0016101699829101563,-0.14,-0.011,-0.56,0.001453720536473858,10,1,100,0.0361243308316562,-10,-1,-100,526.1852340269834,-0.0013942931489793807,6.116282873351639e-05,0.9999990261023873,9.291360092871216,-0.6468742215918806,-190.40531240002704,18.520303119575388,-89.988037109375,6281.30517578125,True
1598620356.8500936,0,5,0.5,0.5,-0.0016175384521484376,-0.14,-0.011,-0.56,0.0010583015884115057,10,1,100,0.02601768969058489,-10,-1,-100,526.575126952026,-0.0015012518811669824,6.503477221635737e-05,0.9999988710059965,9.208882483620897,-0.6410328814298291,-186.69779704677575,18.324913094596976,-89.98828125,6281.30517578125,True
1598620356.8869953,0,5,0.5,0.5,-0.0017607360839843752,-0.14,-0.011,-0.56,0.000680326312197573,10,1,100,0.01556905119635376,-10,-1,-100,526.575126952026,-0.0015012518811669824,6.503477221635737e-05,0.9999988710059965,9.208882483620897,-0.6410328814298291,-186.69779704677575,18.324913094596976,-89.98828125,6281.30517578125,True
1598620356.9254117,0,5,0.5,0.5,-0.0006752197265625002,-0.14,-0.011,-0.56,0.002359620705297567,10,1,100,0.06057899147466812,-10,-1,-100,527.9988958428148,-0.001908664355124211,8.023538646579073e-05,0.9999981752796663,8.880124039314552,-0.6177801041411473,-172.26137065542935,17.543471520634288,-89.98983764648438,6281.30517578125,True
1598620356.9625149,0,5,0.5,0.5,-0.0007793701171875001,-0.14,-0.011,-0.56,0.0016630567159897454,10,1,100,0.04155436858033524,-10,-1,-100,528.7107499187114,-0.0021040695336596287,8.764658085836334e-05,0.9999977826022788,8.716304772876533,-0.6062115599024698,-165.27524993378458,17.152819821946952,-89.99093627929688,6281.30517578125,True
1598620357.001066,0,5,0.5,0.5,-0.000539306640625,-0.14,-0.011,-0.56,0.0016121623884496651,10,1,100,0.04080600484335741,-10,-1,-100,529.3617520864354,-0.0022729431317705857,9.384822789611935e-05,0.9999974124576672,8.552884012338714,-0.5946829333264803,-158.44327277744478,16.76221291804691,-89.99215698242188,6281.30517578125,True
1598620357.038549,0,5,0.5,0.5,-0.0003652191162109374,-0.14,-0.011,-0.56,0.001695778300943947,10,1,100,0.042734515378164126,-10,-1,-100,530.0126317607937,-0.0024421177982411227,0.00010017634645914765,0.9999970130082186,8.389969498973187,-0.5832013470923784,-151.76656352339322,16.371649707448082,-89.99337768554688,6281.30517578125,True
1598620357.077444,0,5,0.5,0.5,-0.00016221313476562512,-0.14,-0.011,-0.56,0.001679867591264306,10,1,100,0.042922759818177725,-10,-1,-100,530.6600938166957,-0.00259581997454081,0.00010571750875257175,0.9999966252655397,8.227569252298956,-0.5717670637813645,-145.24431981645773,15.981129015953526,-89.99463653564453,6281.30517578125,True
1598620357.1138601,0,5,0.5,0.5,-2.1338653564453186e-05,-0.14,-0.011,-0.56,0.0016780862063280146,10,1,100,0.04309512540814568,-10,-1,-100,531.3076778912218,-0.0027353957234430683,0.00011067483532076424,0.9999962526736372,8.065584362295631,-0.5603729523390649,-138.8739041559932,15.59065025873334,-89.99583435058594,6281.30517578125,True
1598620357.1513398,0,5,0.5,0.5,-0.0002879661560058594,-0.14,-0.011,-0.56,0.001466351893004373,10,1,100,0.03649801691470309,-10,-1,-100,531.5686646207469,-0.0028006791029285497,0.00011319633332355474,0.9999960716838605,7.984771290193287,-0.5546925071750806,-135.74577883789445,15.395426339884951,-89.99639892578125,6281.30517578125,True
1598620357.1836188,0,5,0.5,0.5,-0.00020473251342773441,-0.14,-0.011,-0.56,0.0014595911260359682,10,1,100,0.0369175077371171,-10,-1,-100,531.8941043615341,-0.0028623615397897267,0.00011537228817424717,0.9999958967794071,7.904043688919105,-0.5490206971659201,-132.65498245793188,15.200212415091887,-89.99695587158203,6281.30517578125,True
1598620357.226262,0,5,0.5,0.5,0.0005132385253906251,-0.14,-0.011,-0.56,0.0019203165962750927,10,1,100,0.04928382884210378,-10,-1,-100,532.8027361681452,-0.0030295229757172117,0.00012148956098664984,0.9999954036048497,7.662508438258104,-0.5320660850011805,-123.60786558880822,14.614629642426772,-89.9984130859375,6281.30517578125,True
1598620357.2649975,0,5,0.5,0.5,0.00031182861328125005,-0.14,-0.011,-0.56,0.0017159192291030835,10,1,100,0.043335413933994475,-10,-1,-100,533.3858060423518,-0.0031260220809461586,0.00012514123767020646,0.9999951061508351,7.501930655884254,-0.5208067836907878,-117.76168494369071,14.224289413439942,-89.99927520751953,6281.30517578125,True
1598620357.3020823,0,5,0.5,0.5,0.0003378074645996094,-0.14,-0.011,-0.56,0.001637886635923614,10,1,100,0.042568671866074374,-10,-1,-100,533.9079624719452,-0.003205301093991583,0.0001276969142941229,0.9999948548559612,7.341707155632942,-0.5095819126174931,-112.0628041325511,13.833986572479727,-89.99998474121094,6281.30517578125,True
1598620357.3410804,0,5,0.5,0.5,0.00013855056762695312,-0.14,-0.011,-0.56,0.0015335067522575293,10,1,100,0.03878466751772061,-10,-1,-100,534.1690101983259,-0.0032417941238306915,0.00012902820180269313,0.9999947370474416,7.2617479082419525,-0.5039836489245646,-109.2686747427131,13.638848781524661,-90.00025177001953,6281.30517578125,True
1598620357.3802748,0,5,0.5,0.5,0.00034639892578125004,-0.14,-0.011,-0.56,0.0017543556269406747,10,1,100,0.04495428461162302,-10,-1,-100,535.0131882759742,-0.00333002273854702,0.00013220856056129072,0.9999944467193091,7.022383725262111,-0.48723847268303466,-101.10501860785791,13.05348916099386,-90.00074768066406,6281.30517578125,True
1598620357.4184062,0,5,0.5,0.5,0.00017960968017578127,-0.14,-0.011,-0.56,0.0015868727639354531,10,1,100,0.041008279232283305,-10,-1,-100,535.4709522175835,-0.0033733968124707975,0.00013354235128481819,0.9999943011639546,6.86318537070099,-0.4761123858449676,-95.84329173612613,12.663292926273295,-90.00089263916016,6281.30517578125,True
1598620357.456307,0,5,0.5,0.5,8.533706665039064e-05,-0.14,-0.011,-0.56,0.0015795905796950553,10,1,100,0.03981269366503256,-10,-1,-100,535.9895684760995,-0.0034011122117771977,0.00013465835389963438,0.9999942071346468,6.70431520123833,-0.46501763578831695,-90.72577049780706,12.273130776214735,-90.00086212158203,6281.30517578125,True
1598620357.488219,0,5,0.5,0.5,5.0528717041015635e-05,-0.14,-0.011,-0.56,0.0014940029230793824,10,1,100,0.03823169156999596,-10,-1,-100,536.2505547092296,-0.003411203199157923,0.00013486852226646384,0.9999941727346293,6.624990318660887,-0.45948103932081136,-88.22071945107136,12.07806228913314,-90.00077819824219,6281.30517578125,True
1598620357.5271142,0,5,0.5,0.5,-6.793441772460938e-05,-0.14,-0.011,-0.56,0.0014986026843839876,10,1,100,0.03843187646886888,-10,-1,-100,536.7084407869261,-0.00342158231633405,0.0001350794061691273,0.9999941372468173,6.466533836178132,-0.44842719607494247,-83.31728551569871,11.687948613175259,-90.00053405761719,6281.30517578125,True
1598620357.564161,0,5,0.5,0.5,-0.00017767410278320315,-0.14,-0.011,-0.56,0.001447190079179309,10,1,100,0.0372189467196957,-10,-1,-100,537.162664235686,-0.0034194267858531314,0.00013478383778528285,0.9999941446597442,6.308326422873799,-0.43739834673458017,-78.55556603553258,11.297870500100483,-90.00017547607422,6281.30517578125,True
1598620357.6033697,0,5,0.5,0.5,-0.0001121818542480469,-0.14,-0.011,-0.56,0.0014441320535749534,10,1,100,0.03686963184646554,-10,-1,-100,537.3627376148943,-0.0034137851999810555,0.00013446969215846554,0.9999941639772255,6.229304955524533,-0.4318924249512428,-76.22752603092508,11.10284087232753,-89.9999771118164,6281.30517578125,True
1598620357.6434424,0,5,0.5,0.5,-0.00015425415039062502,-0.14,-0.011,-0.56,0.0014268314332625681,10,1,100,0.036466867271302064,-10,-1,-100,537.6203059192048,-0.0034046456601192604,0.00013401502673927193,0.9999941951971029,6.150371013449596,-0.42639437866837776,-73.93502041438148,10.907818737345256,-89.999755859375,6281.30517578125,True
1598620357.6829777,0,5,0.5,0.5,-0.0007134178161621095,-0.14,-0.011,-0.56,0.001163522481051096,10,1,100,0.030411290410826793,-10,-1,-100,538.4069874376291,-0.0033410329946231506,0.0001311999097116561,0.999994410126933,5.835083797868314,-0.4044504877997809,-65.11397647647549,10.127803275365114,-89.998779296875,6281.30517578125,True
1598620357.7202759,0,5,0.5,0.5,-0.0005363685607910156,-0.14,-0.011,-0.56,0.0012237759935196783,10,1,100,0.03136060574570219,-10,-1,-100,538.8002976522548,-0.0032917100454886166,0.0001291852870767947,0.9999945739633481,5.677764083121664,-0.39351072404869725,-60.912706186820564,9.737837696911253,-89.99825286865234,6281.30517578125,True
1598620357.7584515,0,5,0.5,0.5,-0.0005855644226074219,-0.14,-0.011,-0.56,0.0011525315960476137,10,1,100,0.02993238500299726,-10,-1,-100,539.190128694172,-0.003233841797776579,0.00012670599280874368,0.9999947630926965,5.520632632182337,-0.38259004324600926,-56.8500563536785,9.347900245684103,-89.99776458740234,6281.30517578125,True
1598620357.7953293,0,5,0.5,0.5,-0.0003154083251953125,-0.14,-0.011,-0.56,0.0013999107660774626,10,1,100,0.03570959168012397,-10,-1,-100,539.190128694172,-0.003233841797776579,0.00012670599280874368,0.9999947630926965,5.520632632182337,-0.38259004324600926,-56.8500563536785,9.347900245684103,-89.99776458740234,6281.30517578125,True
1598620357.8352935,0,5,0.5,0.5,-0.0006980300903320313,-0.14,-0.011,-0.56,0.0009167890435656852,10,1,100,0.02389180288753727,-10,-1,-100,539.7157623574603,-0.0031265342224027857,0.0001223201920208876,0.9999951048987823,5.285295365256861,-0.36624442584848527,-51.01514630965057,8.763042092385843,-89.99722290039062,6281.30517578125,True
1598620357.8723369,0,5,0.5,0.5,-0.0005695869445800782,-0.14,-0.011,-0.56,0.0009550257225203942,10,1,100,0.025292089492050474,-10,-1,-100,540.1055936438497,-0.0030419613757307067,0.00011869192307867827,0.9999953661808718,5.128666161574196,-0.3553720509591853,-47.29754792767849,8.373167465802478,-89.99697875976562,6281.30517578125,True
1598620357.915999,0,5,0.5,0.5,-0.000538518524169922,-0.14,-0.011,-0.56,0.0009138147584635016,10,1,100,0.02380933602302794,-10,-1,-100,540.4345110317226,-0.002951933067059,0.00011503355763905057,0.9999956364197037,4.97226837869172,-0.344520450172118,-43.7175262563843,7.983317901166939,-89.99683380126953,6281.30517578125,True
1598620357.954078,0,5,0.5,0.5,-0.0004827743530273438,-0.14,-0.011,-0.56,0.0008340659020563722,10,1,100,0.02172825995167734,-10,-1,-100,540.7023938221391,-0.0028515972305717843,0.0001110010047707152,0.9999959280277152,4.816103684896374,-0.33368939298041783,-40.274656584517096,7.593491504952778,-89.9968032836914,6281.30517578125,True
1598620357.9930406,0,5,0.5,0.5,-0.0004693939208984375,-0.14,-0.011,-0.56,0.001234942905588453,10,1,100,0.031705060644870796,-10,-1,-100,540.7023938221391,-0.0028515972305717843,0.0001110010047707152,0.9999959280277152,4.816103684896374,-0.33368939298041783,-40.274656584517096,7.593491504952778,-89.9968032836914,6281.30517578125,True
1598620358.0310807,0,5,0.5,0.5,-0.0004141387939453126,-0.14,-0.011,-0.56,0.0007712736083154867,10,1,100,0.01984178173447186,-10,-1,-100,541.0278934515081,-0.002744260320449439,0.00010680716451131346,0.9999962288066507,4.660215804255619,-0.32288156607497265,-36.96885355586438,7.203686322616869,-89.99688720703125,6281.30517578125,True
1598620358.10229,0,5,0.5,0.5,-0.0001545379638671875,-0.14,-0.011,-0.56,9.323245778310391e-05,10,1,100,0.004129838022405796,-10,-1,-100,541.5568225033348,-0.002504445809628224,9.685530641813382e-05,0.9999968591801857,4.349634980075615,-0.30135931874621985,-30.769130238865614,6.42413921764194,-89.99732971191406,6281.30517578125,True
1598620358.1413357,0,5,0.5,0.5,0.00015682525634765624,-0.14,-0.011,-0.56,-9.158405063168572e-05,10,1,100,-0.0010705039506303596,-10,-1,-100,542.0213593258522,-0.0022399173156586044,8.61592349871938e-05,0.9999974876703468,4.041397328534655,-0.2800111447772508,-25.119114361424288,5.644670837996243,-89.99813079833984,6281.30517578125,True
1598620358.180076,0,5,0.5,0.5,4.9879455566406256e-05,-0.14,-0.011,-0.56,0.00039500960346711524,10,1,100,0.010279460432483421,-10,-1,-100,542.2214929508045,-0.0021035745361961938,8.089822695277344e-05,0.9999977842123688,3.8885899087311655,-0.2694314468027947,-22.500633578566987,5.254964777390659,-89.99861907958984,6281.30517578125,True
1598620358.3269985,0,5,0.5,0.5,-4.6379089355468755e-05,-0.14,-0.011,-0.56,0.0006189105060506754,10,1,100,0.016195852245561075,-10,-1,-100,542.3536948078545,-0.002034439450677963,7.819259855029272e-05,0.9999979274688718,3.8126193249522475,-0.2641723189180571,-21.24307997992462,5.060118052292282,-89.99887084960938,6281.30517578125,True
1598620358.3900125,0,5,0.5,0.5,0.00013962173461914065,-0.14,-0.011,-0.56,0.000235729924023989,10,1,100,0.007347418604466185,-10,-1,-100,542.5184275317006,-0.0018922394328760713,7.229357961530259e-05,0.9999982071001764,3.6618622048891822,-0.2537373534261283,-18.832014832378384,4.670436445561361,-89.99933624267578,6281.30517578125,True
1598620358.4311428,0,5,0.5,0.5,0.0004901519775390625,-0.14,-0.011,-0.56,-0.0004661015011809439,10,1,100,-0.010974289973437749,-10,-1,-100,542.8532044526655,-0.0015975277885202492,6.059602818381726e-05,0.9999987221157267,3.367520782628185,-0.23336765497536732,-14.429095522175219,3.8911264960163385,-90.00020599365234,6281.30517578125,True
1598620358.5249383,0,5,0.5,0.5,0.00029503250122070316,-0.14,-0.011,-0.56,6.361231809254807e-05,10,1,100,0.001962969592960776,-10,-1,-100,542.9970024493523,-0.0014485326838796797,5.4830285143948575e-05,0.9999989493727999,3.226146427360655,-0.2235852338511489,-12.439497718700343,3.501493711155989,-90.00061798095703,6281.30517578125,True
1598620358.5619094,0,5,0.5,0.5,0.00029812698364257815,-0.14,-0.011,-0.56,-1.0634509862749494e-05,10,1,100,0.000724874667458535,-10,-1,-100,543.125480970135,-0.0013031939079593045,4.896845964674261e-05,0.9999991496435026,3.091142799214724,-0.2142455302577472,-10.593091192102992,3.111880138184539,-90.00094604492188,6281.30517578125,True
1598620358.621228,0,5,0.5,0.5,0.00020975799560546876,-0.14,-0.011,-0.56,0.00023597272064595717,10,1,100,0.006724410310917075,-10,-1,-100,543.1838304484263,-0.0012270166205382343,4.5937804513110865e-05,0.9999992461596814,3.0270116205664723,-0.20980912093674794,-9.724125041397054,2.9170759043984114,-90.0010757446289,6281.30517578125,True
1598620358.654927,0,5,0.5,0.5,0.00032874603271484373,-0.14,-0.011,-0.56,-0.0004614473199832603,10,1,100,-0.010505628315381162,-10,-1,-100,543.3355629553553,-0.0010026047177436716,3.690162965886876e-05,0.9999994967108982,2.855738369118505,-0.19796333977676642,-7.336484076007004,2.3326769816933743,-90.0013427734375,6281.30517578125,True
1598620358.7141266,0,5,0.5,0.5,0.00024285736083984379,-0.14,-0.011,-0.56,-0.0002497915254267804,10,1,100,-0.004735039390930597,-10,-1,-100,543.4172275364399,-0.0008526371196097159,3.067461931902797e-05,0.9999996360344388,2.771624362101658,-0.19215124091667452,-5.931501892677171,1.9430992295601872,-90.00142669677734,6281.30517578125,True
1598620358.7518063,0,5,0.5,0.5,0.00021104812622070314,-0.14,-0.011,-0.56,-0.0006015260118873776,10,1,100,-0.01409673151349843,-10,-1,-100,543.5104280185187,-0.0006326982917282471,2.1876278848711925e-05,0.9999997996071299,2.7625663260042095,-0.1915525570831578,-4.1344138362904035,1.3587444822696773,-90.0014419555664,6281.30517578125,True
1598620358.8083308,0,5,0.5,0.5,0.00012603683471679687,-0.14,-0.011,-0.56,-0.00035360106453143954,10,1,100,-0.008302323976965072,-10,-1,-100,543.5532133018132,-0.0004868914430989701,1.619008972087721e-05,0.9999998813372948,2.8274727445010273,-0.19607480112195463,-3.018474346510051,0.9691894349108378,-90.00132751464844,6281.30517578125,True
1598620358.8753207,0,5,0.5,0.5,1.6864013671875e-05,-0.14,-0.011,-0.56,-0.0007269561082836999,10,1,100,-0.017124597605866505,-10,-1,-100,543.5879420043202,-0.00027560698689424814,7.685515695308647e-06,0.99999996199086,2.6610879566495,-0.18456512575182954,-1.1281266995308616,0.38486149270688685,-90.0010757446289,6281.30517578125,True
1598620358.934022,0,5,0.5,0.5,-0.00010674819946289064,-0.14,-0.011,-0.56,-0.0007552198066904588,10,1,100,-0.01885010656576084,-10,-1,-100,543.5877590881428,-6.944270203981034e-05,-2.3876060176514303e-07,0.999999997588827,1.620547897870167,-0.11240766175099345,0.3561178109813534,-0.199494622032814,-90.00069427490234,6281.30517578125,True
1598620358.970663,0,5,0.5,0.5,-7.855148315429689e-05,-0.14,-0.011,-0.56,-0.0005337413084653526,10,1,100,-0.012841652416314535,-10,-1,-100,543.5681669602636,6.169997671395197e-05,-5.363268760497562e-06,0.9999999980821739,1.3533123451224236,-0.09387915588694758,0.8781686529613086,-0.589073567829951,-90.00042724609375,6281.30517578125,True
1598620359.0359406,0,5,0.5,0.5,-0.00023852539062500002,-0.14,-0.011,-0.56,-0.0008705950542528486,10,1,100,-0.020467381722889123,-10,-1,-100,543.5094510165509,0.00024873701676329194,-1.3024256323827619e-05,0.9999999689801321,1.427431283123416,-0.0990413723850982,1.8452895415388069,-1.1734455874136456,-89.99998474121094,6281.30517578125,True
1598620359.0733938,0,5,0.5,0.5,-0.0002798103332519531,-0.14,-0.011,-0.56,-0.0008842256332408844,10,1,100,-0.021401987266481886,-10,-1,-100,543.415701268008,0.0004257241311129507,-2.005101887995729e-05,0.9999999091784564,1.7947720683803052,-0.12456061471884715,3.4760761903362773,-1.7578135631179002,-89.99957275390625,6281.30517578125,True
1598620359.116298,0,5,0.5,0.5,-0.00021616592407226566,-0.14,-0.011,-0.56,-0.000650663779885574,10,1,100,-0.015803522967334362,-10,-1,-100,543.3336703182431,0.0005341546341303245,-2.425295028363899e-05,0.9999998570453004,2.010544659767471,-0.1395619069321136,4.757529351876714,-2.1473801264114116,-89.99933624267578,6281.30517578125,True
1598620359.1541576,0,5,0.5,0.5,-0.00020846633911132814,-0.14,-0.011,-0.56,-0.0007211530226770458,10,1,100,-0.01639338918690114,-10,-1,-100,543.2361359428614,0.0006364891740924819,-2.864988944436596e-05,0.9999997970303369,2.2088674286378027,-0.1533594154906611,6.175858494904806,-2.536931144272196,-89.99916076660156,6281.30517578125,True
1598620359.1927917,0,5,0.5,0.5,-0.0001606651306152344,-0.14,-0.011,-0.56,-0.0005045348200816222,10,1,100,-0.011812101190226165,-10,-1,-100,543.1815096728969,0.0006863824160048196,-3.061825818588369e-05,0.9999997639708228,2.305878487060317,-0.16011151583421512,6.942598666555597,-2.7317106347154767,-89.99909210205078,6281.30517578125,True
1598620359.2490532,0,5,0.5,0.5,-0.00019420852661132813,-0.14,-0.011,-0.56,-0.0009468389570836568,10,1,100,-0.02224925174667053,-10,-1,-100,542.994315179647,0.0008252239868604258,-3.6372910216822924e-05,0.9999996588411334,2.582418912029145,-0.17937361948166625,9.440683436443473,-3.316024008641758,-89.99899291992188,6281.30517578125,True
1598620359.312438,0,5,0.5,0.5,-0.0001413604736328125,-0.14,-0.011,-0.56,-0.0009192336817434037,10,1,100,-0.022483824909674786,-10,-1,-100,542.7720257084584,0.0009522506961395713,-4.130050120634217e-05,0.9999995457563369,2.8456832179104237,-0.1977322636095195,12.239634529786976,-3.9003051645541,-89.99899291992188,6281.30517578125,True
1598620359.374865,0,5,0.5,0.5,-5.847930908203127e-05,-0.14,-0.011,-0.56,-0.0009432070867837985,10,1,100,-0.021896820175424905,-10,-1,-100,542.5147013565293,0.001061084805046306,-4.5945805250883966e-05,0.9999994359938508,3.101101662011994,-0.21556285511474482,15.341116025554046,-4.484572603657882,-89.99911499023438,6281.30517578125,True
1598620359.4473479,0,5,0.5,0.5,3.6562347412109395e-05,-0.14,-0.011,-0.56,-0.0009036847396900806,10,1,100,-0.021433359030202603,-10,-1,-100,542.2222213662462,0.0011545964465577343,-4.976075911693708e-05,0.9999993322152332,3.3515504287415645,-0.23306859438100655,18.746555282854644,-5.0687977942259606,-89.99935150146484,6281.30517578125,True
1598620359.5152721,0,5,0.5,0.5,4.149398803710938e-05,-0.14,-0.011,-0.56,-0.0007835134166971454,10,1,100,-0.01798847547499749,-10,-1,-100,541.9973071384011,0.001207177143658443,-5.209141242385398e-05,0.9999992700046478,3.516614852770563,-0.24461846305932788,21.186424862772665,-5.458256546240889,-89.99954986572266,6281.30517578125,True
1598620359.5880675,0,5,0.5,0.5,0.0003620315551757813,-0.14,-0.011,-0.56,-0.0010096100688411571,10,1,100,-0.02342679295706169,-10,-1,-100,541.4382865298539,0.0013033756843442669,-5.622313213721185e-05,0.9999991490250303,3.924900150154676,-0.2732306148839033,27.882806592328844,-6.431828831272902,-90.00016784667969,6281.30517578125,True
1598620359.6529922,0,5,0.5,0.5,0.0004220474243164063,-0.14,-0.011,-0.56,-0.0008872962738839082,10,1,100,-0.018764356513468965,-10,-1,-100,540.8792656998849,0.0013474843548736447,-5.882802567173185e-05,0.9999990904121747,4.248450618789255,-0.2959516219551343,33.855975086162964,-7.210602726004858,-90.00074768066406,6281.30517578125,True
1598620359.7255044,0,5,0.5,0.5,0.000285552978515625,-0.14,-0.011,-0.56,-0.0006715113884482888,10,1,100,-0.015443284687801276,-10,-1,-100,540.5676201510942,0.0013565536203726813,-5.919917810207006e-05,0.9999990781284411,4.409498506557666,-0.30727747997378413,37.048576771991065,-7.599959767491231,-90.00101470947266,6281.30517578125,True
1598620359.7946813,0,5,0.5,0.5,0.00038887023925781255,-0.14,-0.011,-0.56,-0.0006676103637048492,10,1,100,-0.014355201537888974,-10,-1,-100,539.8831109133316,0.001354159106748746,-5.946935624305677e-05,0.9999990813578327,4.730567469781382,-0.3298911920845911,43.84779232910182,-8.378610937999824,-90.00137329101562,6281.30517578125,True
1598620359.867115,0,5,0.5,0.5,0.00028128814697265625,-0.14,-0.011,-0.56,-0.0005659973157582919,10,1,100,-0.012404923144833975,-10,-1,-100,539.3816463188268,0.0013336000453967993,-5.8763200056440814e-05,0.9999991090285059,4.9706048029020655,-0.34682885938941843,49.31001527092488,-8.962539891538711,-90.00150299072266,6281.30517578125,True
1598620359.9060118,0,5,0.5,0.5,0.00025403289794921873,-0.14,-0.011,-0.56,-0.0004571803288277598,10,1,100,-0.009068583547436167,-10,-1,-100,538.6293263796251,0.0012839912499828748,-5.710640824026642e-05,0.9999991740523231,5.289892997270723,-0.36940220134211266,57.07874717517534,-9.741027670837157,-90.0015640258789,6281.30517578125,True
1598620359.970212,0,5,0.5,0.5,0.00020665969848632814,-0.14,-0.011,-0.56,-0.000496289312315285,10,1,100,-0.010400854693227254,-10,-1,-100,538.2498712465167,0.0012505868397836603,-5.593692144088225e-05,0.9999992164515014,5.4492136855843425,-0.3806854568397598,61.17132190586435,-10.130233635560476,-90.00154113769531,6281.30517578125,True
1598620360.0425856,0,5,0.5,0.5,0.00017421493530273441,-0.14,-0.011,-0.56,-0.0002782559209018549,10,1,100,-0.004857413845268627,-10,-1,-100,537.3721242074389,0.0011695530626723467,-5.287832404656133e-05,0.9999993146745234,5.767412282160359,-0.40326089904014395,69.77538903325038,-10.908565832617198,-90.00147247314453,6281.30517578125,True
1598620360.1082988,0,5,0.5,0.5,0.00021526031494140628,-0.14,-0.011,-0.56,-0.0003015125775963558,10,1,100,-0.0048484322978747845,-10,-1,-100,536.6807788627921,0.0010957057346333667,-5.030290282276898e-05,0.9999993984490997,6.005611664676185,-0.42019745415460236,76.5946718388728,-11.49224107221873,-90.00147247314453,6281.30517578125,True
1598620360.1491916,0,5,0.5,0.5,0.0002977020263671875,-0.14,-0.011,-0.56,-7.757804163929425e-05,10,1,100,-5.557897705393833e-05,-10,-1,-100,535.7353439242579,0.000985053943237672,-4.5925349434524615e-05,0.9999995137796773,6.322738039353621,-0.4427972231146232,86.17772253411503,-12.270371356305827,-90.0015869140625,6281.30517578125,True
1598620360.2159324,0,5,0.5,0.5,0.0003319862365722656,-0.14,-0.011,-0.56,-0.00023990143717430538,10,1,100,-0.00444820312643306,-10,-1,-100,535.2305218664696,0.0009245962825999605,-4.3427028189156504e-05,0.9999995716178118,6.48106429624132,-0.4541030728486244,91.17942219314438,-12.659390471790879,-90.00172424316406,6281.30517578125,True
1598620360.2900667,0,5,0.5,0.5,0.00044905471801757823,-0.14,-0.011,-0.56,-8.069756180362241e-05,10,1,100,-0.00020792187070378318,-10,-1,-100,534.4713057806948,0.0008314311064242697,-3.9720151920859335e-05,0.9999996535722524,6.718275555663812,-0.47107165924263916,98.94538316533298,-13.242858182803031,-90.00199890136719,6281.30517578125,True
1598620360.3404582,0,5,0.5,0.5,0.0006384193420410157,-0.14,-0.011,-0.56,0.000134194951340563,10,1,100,0.005391857343872592,-10,-1,-100,533.3360516497632,0.0006962975472669922,-3.4414066897233744e-05,0.9999997569926693,7.033985347521116,-0.49371286183697005,109.79180174177613,-14.020697662059977,-90.00248718261719,6281.30517578125,True
1598620360.409096,0,5,0.5,0.5,0.0005802246093750001,-0.14,-0.011,-0.56,-0.00010445855640296763,10,1,100,-0.0004187525994034588,-10,-1,-100,532.7701333126752,0.0006268728166748,-3.178246250179243e-05,0.999999803010154,7.1916161688985465,-0.5050427145704379,115.42649444939978,-14.409565522041866,-90.00279235839844,6281.30517578125,True
1598620360.4788723,0,5,0.5,0.5,0.0006245101928710938,-0.14,-0.011,-0.56,-2.9501123878458626e-05,10,1,100,0.0004687911051999257,-10,-1,-100,532.2007976155728,0.0005563520154492073,-2.8733833568205933e-05,0.9999998448233888,7.349059541487141,-0.5163766316375337,121.20183880008798,-14.798397312791181,-90.00309753417969,6281.30517578125,True
1598620360.5512576,0,5,0.5,0.5,0.0010001045227050781,-0.14,-0.011,-0.56,0.0004582887828066343,10,1,100,0.013501446756518577,-10,-1,-100,530.6824870073469,0.0003744700975320876,-2.1555198446433944e-05,0.9999999296537573,7.741882909370463,-0.5447337554525096,136.25721004911165,-15.770313638852215,-90.00387573242188,6281.30517578125,True
1598620360.6191413,0,5,0.5,0.5,0.0009193344116210939,-0.14,-0.011,-0.56,0.00026595447683703383,10,1,100,0.007751944957918135,-10,-1,-100,529.6691810456105,0.000262217935006029,-1.6809979489813806e-05,0.999999965479589,7.977025536820004,-0.5617642489589,145.71426829253042,-16.353347329448777,-90.00437927246094,6281.30517578125,True
1598620360.6622329,0,5,0.5,0.5,0.0010944229125976564,-0.14,-0.011,-0.56,0.0004838021878265569,10,1,100,0.012710137577958374,-10,-1,-100,528.3407512444537,0.00011599455334995321,-1.0551280285664442e-05,0.999999993216967,8.289864125092985,-0.584490210125392,158.81882864977567,-17.130583961493898,-90.0050277709961,6281.30517578125,True
1598620360.7284021,0,5,0.5,0.5,0.000906072998046875,-0.14,-0.011,-0.56,0.00022292632725400547,10,1,100,0.0062639086947851984,-10,-1,-100,527.6425700346008,4.2624067609024435e-05,-7.2716315996072124e-06,0.9999999990651561,8.445894282741659,-0.5958551933218007,165.58189817991155,-17.51913974871804,-90.0052719116211,6281.30517578125,True
1598620360.7991133,0,5,0.5,0.5,0.0009390914916992189,-0.14,-0.011,-0.56,0.00019784336350522859,10,1,100,0.006778458911148917,-10,-1,-100,526.9478068596218,-2.779675624328612e-05,-4.55727907474694e-06,0.9999999996032858,8.601671791355114,-0.6072225093295256,172.4858195167513,-17.907652584857377,-90.00550842285156,6281.30517578125,True
1598620360.871951,0,5,0.5,0.5,0.0009925384521484375,-0.14,-0.011,-0.56,0.000423726035996162,10,1,100,0.01112280131962834,-10,-1,-100,525.8091348333983,-0.00013038893555021686,-7.381436619255073e-08,0.99999999149936,8.834771260128221,-0.6242720261725097,183.10421572899935,-18.4903394070131,-90.00576782226562,6281.30517578125,True
1598620360.9362957,0,5,0.5,0.5,0.0011027297973632813,-0.14,-0.011,-0.56,0.0008024264197499391,10,1,100,0.019346968872236733,-10,-1,-100,523.907829026226,-0.0002974606352000937,7.405381390415809e-06,0.9999999557311644,9.221871919565741,-0.6526949006317859,201.50492719283594,-19.46125730124851,-90.0061264038086,6281.30517578125,True
1598620361.0091867,0,5,0.5,0.5,0.0010346382141113283,-0.14,-0.011,-0.56,0.00035668378871325616,10,1,100,0.009874051763824058,-10,-1,-100,523.1453166106949,-0.00036220030504020796,1.0109603129443315e-05,0.9999999343543655,9.376229112852322,-0.6640680762053207,209.11200560151565,-19.84954244779366,-90.00630950927734,6281.30517578125,True
1598620361.0761423,0,5,0.5,0.5,0.001272760009765625,-0.14,-0.011,-0.56,0.0008568270899685009,10,1,100,0.02002053545142099,-10,-1,-100,521.1151659310563,-0.0005123330403709138,1.70742677490372e-05,0.9999998686116539,9.760740285773872,-0.6925018418273046,228.7441527017668,-20.820042680375785,-90.00679016113281,6281.30517578125,True
1598620361.1490216,0,5,0.5,0.5,0.0013391082763671875,-0.14,-0.011,-0.56,0.0007160017158063717,10,1,100,0.017189263362863774,-10,-1,-100,519.4003833731404,-0.0006220428663600846,2.2081135156056988e-05,0.9999998062875292,10.066561332242797,-0.7152265331981011,245.0741150201153,-21.596217048075342,-90.00726318359375,6281.30517578125,True
1598620361.2154355,0,5,0.5,0.5,0.0013885513305664063,-0.14,-0.011,-0.56,0.0005523384201765448,10,1,100,0.013997974883489049,-10,-1,-100,518.0684130633017,-0.0006916960902815522,2.5098789230599947e-05,0.9999997604632561,10.294906894391579,-0.7322604825868287,257.686565334956,-22.178211608402645,-90.00770568847656,6281.30517578125,True
1598620361.2821732,0,5,0.5,0.5,0.0014493743896484379,-0.14,-0.011,-0.56,0.0006234314485868015,10,1,100,0.01410423014277323,-10,-1,-100,516.733086411492,-0.0007550139178510938,2.844599865875312e-05,0.9999997145723636,10.522233662445835,-0.7492772252903879,270.60843087737544,-22.760086150040074,-90.00814056396484,6281.30517578125,True
1598620361.356328,0,5,0.5,0.5,0.0016585899353027344,-0.14,-0.011,-0.56,0.0006700251343133154,10,1,100,0.015866872734574777,-10,-1,-100,514.831841401523,-0.0008276748466099119,3.18713534835438e-05,0.9999996569692235,10.823696360890251,-0.7719372021768518,288.3173695082924,-23.53572748021315,-90.00878143310547,6281.30517578125,True
1598620361.4334576,0,5,0.5,0.5,0.0015334770202636721,-0.14,-0.011,-0.56,0.0005370666706447217,10,1,100,0.01223399441561439,-10,-1,-100,513.8760920260102,-0.0008598461885819613,3.3738033078394287e-05,0.99999962976307,10.973774425187457,-0.7832590616637377,297.3788024515248,-23.923464012809863,-90.00910949707031,6281.30517578125,True
1598620361.5072339,0,5,0.5,0.5,0.0019895111083984376,-0.14,-0.011,-0.56,0.000762715439735899,10,1,100,0.016503329598935045,-10,-1,-100,511.46300620993134,-0.0009270845736265658,3.7449085461198157e-05,0.999999569555787,11.346933696875876,-0.811533380728645,320.6328192621132,-24.892553267676337,-90.01001739501953,6281.30517578125,True
1598620361.578243,0,5,0.5,0.5,0.0020201057434082034,-0.14,-0.011,-0.56,0.0006645094480609193,10,1,100,0.014633026497985263,-10,-1,-100,509.425897441688,-0.0009703900883699508,3.989180009894191e-05,0.9999995283757492,11.643302302041937,-0.8341195559631832,339.85193757120203,-25.667558310474977,-90.01078033447266,6281.30517578125,True
1598620361.6272256,0,5,0.5,0.5,0.0020523223876953126,-0.14,-0.011,-0.56,0.0006208497153769549,10,1,100,0.013122237868585965,-10,-1,-100,507.83997475274373,-0.000995260658639562,4.167921073206825e-05,0.9999995038594095,11.866266900519186,-0.8511794279243263,354.6265283255487,-26.24453018181127,-90.01142883300781,6281.294921875,True
1598620361.6974134,0,5,0.5,0.5,0.0021062202453613283,-0.14,-0.011,-0.56,0.0005695341534706387,10,1,100,0.012887424061820805,-10,-1,-100,506.25084113294724,-0.0010151012333473074,4.280646635454236e-05,0.9999994838684131,12.089922336250398,-0.8683415922288872,369.38439747544555,-26.79467205968799,-90.01201629638672,6281.2216796875,True
1598620361.7705731,0,5,0.5,0.5,0.0021573585510253905,-0.14,-0.011,-0.56,0.0006222452593310034,10,1,100,0.012585853469713842,-10,-1,-100,504.65824925363995,-0.0010298030223094608,4.428071164349933e-05,0.9999994687723358,12.288741218411714,-0.8837595821500167,382.96254373774013,-27.294078486651383,-90.0125503540039,6281.02783203125,True
1598620361.847007,0,5,0.5,0.5,0.002088926696777344,-0.14,-0.011,-0.56,0.0005343557209907954,10,1,100,0.011932593831412971,-10,-1,-100,503.5161993614165,-0.0010367591337614665,4.479720569955426e-05,0.9999994615617096,12.405745413119037,-0.8929436527888965,391.4060568704134,-27.60866839504083,-90.01287078857422,6280.8544921875,True
1598620361.9254925,0,5,0.5,0.5,0.0024390281677246096,-0.14,-0.011,-0.56,0.0006339154164485628,10,1,100,0.012302848622954877,-10,-1,-100,500.7171636907151,-0.0010460718093069422,4.615118291781708e-05,0.9999994518017689,12.683367872425807,-0.9148932399306758,411.1331275943125,-28.305467321633106,-90.01361846923828,6280.208984375,True
1598620362.039419,0,5,0.5,0.5,0.0024487365722656255,-0.14,-0.011,-0.56,0.0005644526521760118,10,1,100,0.011443647501245185,-10,-1,-100,498.4261649871478,-0.001046404798951809,4.673145308313535e-05,0.9999994514264334,12.876600745225197,-0.9304484301374788,425.6852458660298,-28.819132453889686,-90.01422119140625,6279.5888671875,True
1598620362.08412,0,5,0.5,0.5,0.002646617889404297,-0.14,-0.011,-0.56,0.0005900693264137414,10,1,100,0.0104944416127291,-10,-1,-100,495.5016879744362,-0.0010378134715687227,4.74752271315637e-05,0.9999994603445048,13.09596769240603,-0.9483726972226687,442.46168805016435,-29.392437542679588,-90.01497650146484,6278.64990234375,True
1598620362.125265,0,5,0.5,0.5,0.0024868064880371097,-0.14,-0.011,-0.56,0.0005202558521763295,10,1,100,0.010369402877655292,-10,-1,-100,493.7192758648889,-0.001028675423060738,4.75025320701148e-05,0.9999994697850512,13.220449227177035,-0.9586500176483687,451.814890602428,-29.695113100199645,-90.01534271240234,6277.98828125,True
1598620362.1970494,0,5,0.5,0.5,0.0023580123901367185,-0.14,-0.011,-0.56,0.00052686973065277,10,1,100,0.010886566362035775,-10,-1,-100,493.14660348789766,-0.0010249161113346848,4.757496772859097e-05,0.9999994736416551,13.249931394255292,-0.9612076123425553,454.3221679467771,-29.781800953424902,-90.01544189453125,6277.734375,True
1598620362.2710345,0,5,0.5,0.5,0.0024633140563964846,-0.14,-0.011,-0.56,0.0004567248649317736,10,1,100,0.009733957357143885,-10,-1,-100,491.37695545097813,-0.0010109313537777027,4.699393238222625e-05,0.9999994879045531,13.376785749199074,-0.9712440692918248,445.48828000300915,-28.92970288306204,-90.01566314697266,6274.32177734375,True
