Timestamp,Input Throttle,horizon,dT,dt,Input Roll,Roll P,Roll I,Roll D,Input Pitch,Pitch P,Pitch I,Pitch D,Input Yaw,Yaw P,Yaw I,Yaw D,Altitude,Direction X,Direction Y,Direction Z,Drag X,Drag Y,Drag Z,Vertical Velocity,Roll,Mass,Has Fuel
1598633955.0424693,0,5,0.5,0.5,-0.006750488281250001,-0.14,-0.011,-0.56,0.004613660812592904,10,1,100,0.13708545916530349,-10,-1,-100,475.7636619529221,-0.011883326085262174,0.0004193066002255879,0.9999293028725211,5.95842997384337,-0.4894929897572352,140.0723716410546,-15.989852281773539,-89.929931640625,6440.1796875,True
1598633955.1708603,0,5,0.5,0.5,-0.007579516601562501,-0.14,-0.011,-0.56,0.004403088213364477,10,1,100,0.12588513649449273,-10,-1,-100,474.8015969173284,-0.011936631021928944,0.000420834705235461,0.9999286673248232,6.143889039901107,-0.5052977824859158,149.86895156578953,-16.572979496664143,-89.9332275390625,6440.1796875,True
1598633955.2428334,0,5,0.5,0.5,-0.00373084716796875,-0.14,-0.011,-0.56,0.00397778376803351,10,1,100,0.11574231793367408,-10,-1,-100,473.4935451403726,-0.011882031131053176,0.00041797491055485005,0.9999293188186728,6.445838191266041,-0.520905326289362,141.6192628908329,-15.413110623248821,-89.94146728515625,6435.443359375,True
1598633955.3728988,0,5,0.5,0.5,-0.0035816101074218755,-0.14,-0.011,-0.56,0.004070069231779023,10,1,100,0.11518315822395152,-10,-1,-100,472.9120773207396,-0.011816509750049498,0.00041583407877874944,0.9999300961463985,6.296111438195891,-0.5029822833938828,127.51038192091723,-14.509630739791348,-89.9483642578125,6432.28515625,True
1598633955.5033252,0,5,0.5,0.5,0.005081683349609375,-0.14,-0.011,-0.56,0.0033411441392811464,10,1,100,0.09557415161968605,-10,-1,-100,471.85645564924926,-0.011567938880234604,0.0004068832453425148,0.9999330063739711,5.947381141763074,-0.46486128530593984,101.26007764147712,-12.701466036399173,-89.96633911132812,6425.970703125,True
1598633955.6341755,0,5,0.5,0.5,0.010509133911132814,-0.14,-0.011,-0.56,0.0027819951732036474,10,1,100,0.07787632116687968,-10,-1,-100,470.91337888280395,-0.011170559686395338,0.00039329305775855826,0.9999375300071818,5.54620757914767,-0.42485087759616247,77.95050057015038,-10.890857682961535,-89.988525390625,6419.6552734375,True
1598633955.82798,0,5,0.5,0.5,0.013431692504882815,-0.14,-0.011,-0.56,0.002172614434619527,10,1,100,0.06045879808427656,-10,-1,-100,470.1264569378691,-0.010640809700621073,0.0003750409777335071,0.9999433146499758,5.093348816268735,-0.3830434566283653,57.5998604149525,-9.077882460034173,-90.01046752929688,6413.33984375,True
1598633955.9070606,0,5,0.5,0.5,0.014117187500000001,-0.14,-0.011,-0.56,0.00026175092400637645,10,1,100,0.004923039477473495,-10,-1,-100,469.22135342587717,-0.00964467480830933,0.00034073574490721967,0.9999534309891607,4.334735191550935,-0.31816248776028605,32.718937434224415,-6.354114788257137,-90.02898406982422,6403.8662109375,True
1598633956.2329435,0,5,0.5,0.5,0.0043192054748535155,-0.14,-0.011,-0.56,0.0022710184012190078,10,1,100,0.06393291217250431,-10,-1,-100,469.01552783627994,-0.009266783135427744,0.00032750547781715755,0.9999570088111203,4.071333336606076,-0.2966751121395762,25.958230834783993,-5.445018347258235,-90.02975463867188,6400.7080078125,True
1598633956.3079402,0,5,0.5,0.5,-0.017559380340576174,-0.14,-0.011,-0.56,-0.0025012527657822803,10,1,100,-0.07002393134559644,-10,-1,-100,468.48122865636833,-0.0076970314161568165,0.00027179594669180104,0.9999703404773274,3.941510502684767,-0.2801510160048598,7.911721464917757,-1.8026006022239631,-89.99906921386719,6388.076171875,True
1598633956.4377868,0,5,0.5,0.5,-0.010940225982666016,-0.14,-0.011,-0.56,0.0014307917013539433,10,1,100,0.04114142935170047,-10,-1,-100,468.4365669495892,-0.0072735812855076205,0.0002566496899639046,0.9999735142223617,8.053765988844765,-0.5694031791934345,7.89948890957097,-0.890456896625181,-89.98397827148438,6384.9189453125,True
1598633956.5670028,0,5,0.5,0.5,-0.018793372344970704,-0.14,-0.011,-0.56,-0.00016873166043001936,10,1,100,-0.001520225145425727,-10,-1,-100,468.45668152417056,-0.0065049840756706175,0.00022848711411347335,0.9999788162635316,0.6653389362680238,-0.04658599922920043,-0.6723566170206036,0.9357687794896747,-89.96060180664062,6378.603515625,True
1598633956.6933417,0,5,0.5,0.5,-0.012508377838134768,-0.14,-0.011,-0.56,-0.0006368935161473565,10,1,100,-0.01573646567246749,-10,-1,-100,468.62270292744506,-0.005681958650069561,0.00019880361700758004,0.9999838377809017,1.954212361819866,-0.1356920922627032,-5.7347831562822105,2.7646110042349408,-89.95083618164062,6372.28759765625,True
1598633956.82091,0,5,0.5,0.5,-0.003525904083251954,-0.14,-0.011,-0.56,-0.0008853004314465182,10,1,100,-0.02208642858431971,-10,-1,-100,468.93545339559205,-0.004881663211670838,0.0001697596215845458,0.9999880702018191,3.053232377715288,-0.21048873117146288,-14.676978310378784,4.595953444111971,-89.95584106445312,6365.9716796875,True
1598633956.9531994,0,5,0.5,0.5,0.007906880950927736,-0.14,-0.011,-0.56,-0.001193088172002684,10,1,100,-0.030286497849541398,-10,-1,-100,469.3776916717179,-0.004085880225750327,0.00014078162306508974,0.9999916428467367,3.9993610849553836,-0.2740469123224806,-26.563862352121376,6.4297705571822075,-89.97616577148438,6359.65625,True
1598633957.025779,0,5,0.5,0.5,0.016440181732177737,-0.14,-0.011,-0.56,-0.0014006466399541877,10,1,100,-0.03623333958422643,-10,-1,-100,469.9720923914574,-0.0033151808215568035,0.00011279300344991366,0.9999944984117957,4.916938506434975,-0.33522457292845714,-41.557956152581646,8.26604262766897,-90.00460052490234,6353.3408203125,True
1598633957.1639812,0,5,0.5,0.5,0.010425149536132813,-0.14,-0.011,-0.56,-0.00012990108630081326,10,1,100,-0.0006684853367403959,-10,-1,-100,470.3475094058085,-0.002945003109871508,9.915603615506485e-05,0.9999956585529576,5.372763732944849,-0.36550767903365305,-50.24105192977406,9.185090973893866,-90.01873016357422,6350.1826171875,True
1598633957.3189094,0,5,0.5,0.5,0.015509922027587893,-0.14,-0.011,-0.56,-0.001609634191638122,10,1,100,-0.04210001902878594,-10,-1,-100,471.1610284844646,-0.0022388237989487796,7.35574785126617e-05,0.9999974911255,6.281780645454172,-0.4257737546236056,-70.00061272845824,11.024996682364964,-90.03728485107422,6343.8671875,True
1598633957.4373305,0,5,0.5,0.5,0.008658548736572265,-0.14,-0.011,-0.56,-0.0017646029554859064,10,1,100,-0.04698493727642701,-10,-1,-100,472.1309206398437,-0.001559166851321708,4.912014486312859e-05,0.9999987832922305,7.187452154432981,-0.48575382616082335,-92.97067073500435,12.867157678197255,-90.04232788085938,6337.5517578125,True
1598633957.5672176,0,5,0.5,0.5,0.0007266700744628903,-0.14,-0.011,-0.56,-0.0017918539528779644,10,1,100,-0.04846795503671299,-10,-1,-100,473.25709406263195,-0.0009348218431891397,2.690972823540162e-05,0.9999995626918983,8.087567700008766,-0.5454216458426955,-119.16809567504663,14.711814966605445,-90.0350112915039,6331.236328125,True
1598633957.7018776,0,5,0.5,0.5,-0.008931211853027345,-0.14,-0.011,-0.56,-0.001763969209573495,10,1,100,-0.04862929554962225,-10,-1,-100,474.5393659011461,-0.0003719162034721456,7.194561893378096e-06,0.9999999308132855,8.979183552253044,-0.6046782292615988,-148.59284572960786,16.5588056518007,-90.01530456542969,6324.9208984375,True
1598633957.8410358,0,5,0.5,0.5,-0.01564510498046875,-0.14,-0.011,-0.56,-0.0017050087769585394,10,1,100,-0.04720678073320899,-10,-1,-100,475.9531389317708,0.0001206100024104234,-9.965535277352304e-06,0.9999999926769577,9.859952481298556,-0.6634296169661226,-181.24176272822413,18.4081027997011,-89.98989868164062,6318.60498046875,True
1598633957.9289358,0,5,0.5,0.5,-0.017193688964843752,-0.14,-0.011,-0.56,-0.0016218343945418906,10,1,100,-0.04482220050643611,-10,-1,-100,477.50427139771637,0.0005406598292620225,-2.459271772932784e-05,0.9999998535410629,10.727979690376042,-0.7215978990421802,-217.1057279987382,20.25968151847128,-89.96731567382812,6312.2890625,True
1598633958.0499105,0,5,0.5,0.5,-0.009891015625,-0.14,-0.011,-0.56,-0.0008646744853823855,10,1,100,-0.02357300044944873,-10,-1,-100,478.3673617208842,0.0007236918363551078,-3.080379684354927e-05,0.9999997376605916,11.156793414329709,-0.7504394255460051,-236.239240829059,21.186317800677987,-89.95965576171875,6309.1318359375,True
1598633958.1838655,0,5,0.5,0.5,-0.008673440551757814,-0.14,-0.011,-0.56,-0.0014448250484590736,10,1,100,-0.04035603829801436,-10,-1,-100,480.13751901173964,0.001037561864110304,-4.1541998049513105e-05,0.9999994608696748,12.003564954764634,-0.8076141352527472,-276.8999158564048,23.041266575871525,-89.95526123046875,6302.81591796875,True
1598633958.2516923,0,5,0.5,0.5,-0.0008735595703125007,-0.14,-0.011,-0.56,-0.0013925945802163047,10,1,100,-0.03852396422682226,-10,-1,-100,482.0885533868568,0.0013015853595224989,-5.066342796080542e-05,0.9999991516540246,12.836066246291773,-0.8641179638912573,-320.7484011956584,24.89834836749528,-89.96292114257812,6296.5,True
1598633958.3198037,0,5,0.5,0.5,-0.0004238014221191401,-0.14,-0.011,-0.56,-0.0008890776125346787,10,1,100,-0.02423310821393987,-10,-1,-100,483.1080766975647,0.0014074927859791277,-5.4229613236319355e-05,0.9999990080111112,13.247100889991689,-0.8921253254611432,-343.8700638882413,25.827701461927994,-89.96975708007812,6293.3427734375,True
1598633958.4468844,0,5,0.5,0.5,0.0010134170532226567,-0.14,-0.011,-0.56,-0.0008646732355103153,10,1,100,-0.02447897912346211,-10,-1,-100,484.1520450684475,0.0015020506402118555,-5.7110300378027465e-05,0.9999988702905058,13.654524788884258,-0.9199587886862114,-367.7844467470552,26.757617733413095,-89.97735595703125,6290.1845703125,True
1598633958.5794735,0,5,0.5,0.5,0.00681785659790039,-0.14,-0.011,-0.56,-0.0011627249305106852,10,1,100,-0.032643727397264094,-10,-1,-100,486.39098154904786,0.001658836515240571,-6.231987884422848e-05,0.999998622187875,14.45938743514399,-0.975132813161877,-417.99617529829453,28.619125738656436,-89.9918212890625,6283.869140625,True
1598633958.7808423,0,5,0.5,0.5,0.007073120880126954,-0.14,-0.011,-0.56,-0.000983399551584547,10,1,100,-0.028757646872963248,-10,-1,-100,488.78604552766774,0.0017631156665307026,-6.532431943807601e-05,0.9999984435767286,15.251795060180134,-1.0296938173320367,-471.3819466204486,30.482766854522627,-90.00383758544922,6277.5537109375,True
1598633958.9161415,0,5,0.5,0.5,0.003898571014404297,-0.14,-0.011,-0.56,-0.0007821856667869398,10,1,100,-0.025065212038578488,-10,-1,-100,492.6253451090306,0.0018218946351093973,-6.614256280007417e-05,0.999998338161169,16.419058028678634,-1.1104210847575717,-557.3584854535696,33.282171999543046,-90.00896453857422,6268.080078125,True
1598633958.9849582,0,5,0.5,0.5,-0.005105137634277344,-0.14,-0.011,-0.56,-0.0005160654052126534,10,1,100,-0.01642445167608518,-10,-1,-100,495.4014196723001,0.0017947833206686519,-6.44004751833122e-05,0.9999983873014048,17.185895722354115,-1.1635814327066205,-618.5793614188439,35.15103221652195,-90.00021362304688,6261.7646484375,True
1598633959.1175187,0,5,0.5,0.5,-0.005662028503417969,-0.14,-0.011,-0.56,-0.0005363748718422811,10,1,100,-0.01581267221323489,-10,-1,-100,496.820965838735,0.0017630530639527369,-6.295190437388344e-05,0.9999984438392651,17.566843418991077,-1.1899943206990342,-650.353387655137,36.08618372117947,-89.99240112304688,6258.6064453125,True
1598633959.2510092,0,5,0.5,0.5,-0.013136875915527344,-0.14,-0.011,-0.56,-0.00021064929882557196,10,1,100,-0.008928785365888632,-10,-1,-100,499.79714384605177,0.0016705153199308566,-5.863900825911943e-05,0.9999986029690405,18.325632699942805,-1.2425600447997556,-716.2244071990718,37.95807519800817,-89.97543334960938,6252.29150390625,True
1598633959.3859916,0,5,0.5,0.5,-0.014533705139160157,-0.14,-0.011,-0.56,5.9016593810339284e-06,10,1,100,-0.0038818052229600396,-10,-1,-100,502.92957113008015,0.0015396477118083639,-5.2724243797077936e-05,0.9999988133518348,19.082667508595183,-1.2948616519119622,-785.1863963250241,39.83199284147534,-89.9598388671875,6245.9755859375,True
1598633959.4857912,0,5,0.5,0.5,-0.013165754699707034,-0.14,-0.011,-0.56,0.00017459992280383215,10,1,100,0.0003796826503106917,-10,-1,-100,506.21821740374435,0.001381479918442093,-4.580339894069881e-05,0.9999990447071855,19.840719581487715,-1.3470090851208276,-857.2222910468848,41.707860503052416,-89.94931030273438,6239.65966796875,True
1598633959.5928204,0,5,0.5,0.5,-0.008630555725097657,-0.14,-0.011,-0.56,-0.00010112628295078801,10,1,100,-0.005695280239887149,-10,-1,-100,507.90631818876136,0.0012928453193300818,-4.202274187723261e-05,0.9999991633921848,20.22106197245753,-1.3730566864492453,-894.3917375672877,42.646485347401075,-89.9473876953125,6236.501953125,True
1598633959.721549,0,5,0.5,0.5,-0.0054849960327148445,-0.14,-0.011,-0.56,0.0004414810036732885,10,1,100,0.006561385242491603,-10,-1,-100,511.4141718936153,0.0011009484043581277,-3.3664084551461815e-05,0.9999993933894863,20.986162092108074,-1.4251814500037379,-971.0382770973536,44.52523271588789,-89.95037841796875,6230.1865234375,True
1598633959.849814,0,5,0.5,0.5,-0.0010371322631835935,-0.14,-0.011,-0.56,0.0005642919113584049,10,1,100,0.010633211221388366,-10,-1,-100,515.0592323063174,0.0008898447020626114,-2.4970157108920545e-05,0.9999996037763702,21.75914702642718,-1.477408053837946,-1050.7439469201204,46.40595996691282,-89.95916748046875,6223.87109375,True
1598633959.9815528,0,5,0.5,0.5,0.0012255325317382824,-0.14,-0.011,-0.56,0.000731191068108734,10,1,100,0.01425189536336181,-10,-1,-100,518.879463723395,0.0006657342003334542,-1.5583275937730317e-05,0.9999997782775434,22.543177709065485,-1.529859349280687,-1133.5131761315583,48.28857376111755,-89.969482421875,6217.55517578125,True
1598633960.113326,0,5,0.5,0.5,0.000687863922119141,-0.14,-0.011,-0.56,0.0008406783712782206,10,1,100,0.01719558907028982,-10,-1,-100,522.8368409187533,0.00043623414821323603,-6.099627611016908e-06,0.9999999048312767,23.341194660857752,-1.5826765870714907,-1219.371687551221,50.17304816847077,-89.97702026367188,6211.23974609375,True
1598633960.1860898,0,5,0.5,0.5,-0.002927597045898438,-0.14,-0.011,-0.56,0.000998055382134583,10,1,100,0.019693519395212033,-10,-1,-100,526.9258097145939,0.00020614897104728682,3.8979864799721604e-06,0.9999999787437035,24.155576949038807,-1.6359420658296397,-1308.336158078177,52.05935658589823,-89.97793579101562,6204.923828125,True
1598633960.2570865,0,5,0.5,0.5,-0.005259231567382812,-0.14,-0.011,-0.56,0.0005504691662578737,10,1,100,0.009336055262293898,-10,-1,-100,529.0578184751794,9.258360605897181e-05,8.855671453207334e-06,0.9999999956749267,24.569550407507005,-1.6627728474298313,-1353.9882042007116,53.00319035485212,-89.97537231445312,6201.76611328125,True
1598633960.3929355,0,5,0.5,0.5,-0.006704965209960938,-0.14,-0.011,-0.56,0.000539207332550178,10,1,100,0.01043806955945815,-10,-1,-100,531.2147289920831,-1.915733803381342e-05,1.3194997871690176e-05,0.9999999997294442,24.988345247403302,-1.689748688139984,-1400.4219353531873,53.947460612096734,-89.97128295898438,6198.6083984375,True
1598633960.5330691,0,5,0.5,0.5,-0.012045834350585939,-0.14,-0.011,-0.56,0.0012212049057703748,10,1,100,0.024587565283114284,-10,-1,-100,535.6162585737184,-0.0002478357277350697,2.3274514366739266e-05,0.9999999690178741,25.84077183077797,-1.7441433362988645,-1495.62055192807,55.83734370753603,-89.96038818359375,6192.29296875,True
1598633960.669252,0,5,0.5,0.5,-0.015129946899414062,-0.14,-0.011,-0.56,0.0013221894608641599,10,1,100,0.0272093973746171,-10,-1,-100,540.1737938475562,-0.00047793502516847063,3.3286662810214834e-05,0.9999998852350483,26.71389471632412,-1.7991565089280295,-1593.8802034830605,57.72899095665198,-89.947265625,6185.97705078125,True
1598633960.8109062,0,5,0.5,0.5,-0.016563470458984375,-0.14,-0.011,-0.56,0.0014023401808759234,10,1,100,0.028708898612018738,-10,-1,-100,544.8876394625986,-0.0006990576568628404,4.3045358793707823e-05,0.9999997547327146,27.610062566683244,-1.85489880116894,-1695.2169849726813,59.62236424846833,-89.93472290039062,6179.6611328125,True
1598633960.9277885,0,5,0.5,0.5,-0.015428109741210939,-0.14,-0.011,-0.56,0.001479769646122438,10,1,100,0.029784034401616716,-10,-1,-100,549.7577354612295,-0.0009080413719666191,5.2543470189423456e-05,0.9999995863499398,28.53138553675589,-1.911481638044694,-1799.7000474116167,61.517436115964294,-89.92633056640625,6173.345703125,True
1598633961.0130005,0,5,0.5,0.5,-0.01269882507324219,-0.14,-0.011,-0.56,0.0015046861791181824,10,1,100,0.030106297054253103,-10,-1,-100,554.7593006343814,-0.001099129873651908,6.132626034481636e-05,0.9999993940761218,29.47840689984123,-1.9689449746780439,-1907.3471831568509,63.41417912978104,-89.92355346679688,6167.029296875,True
1598633961.1334505,0,5,0.5,0.5,-0.010670129394531252,-0.14,-0.011,-0.56,0.0010992249060668962,10,1,100,0.020905690595208876,-10,-1,-100,557.3162961067865,-0.00118739665776021,6.554615216974936e-05,0.9999992928961895,29.961626141829598,-1.9980182627979344,-1962.3631777836904,64.36316802522799,-89.92428588867188,6163.8720703125,True
1598633961.2699244,0,5,0.5,0.5,-0.008224728393554688,-0.14,-0.011,-0.56,0.001538332223152528,10,1,100,0.030444892156523778,-10,-1,-100,562.5865988490405,-0.0013526745385450804,7.330054814036921e-05,0.9999990824488902,30.947410312600166,-2.056838847863218,-2074.7866958728005,66.2623603525395,-89.92843627929688,6157.556640625,True
1598633961.4107654,0,5,0.5,0.5,-0.007440768432617189,-0.14,-0.011,-0.56,0.0016410097445650066,10,1,100,0.03093371363617725,-10,-1,-100,567.9691451087128,-0.0015057447084493047,8.121124905763581e-05,0.9999988630681567,31.958215811703845,-2.1165190673860472,-2190.347136807528,68.1631446950955,-89.93295288085938,6151.24072265625,True
1598633961.4799714,0,5,0.5,0.5,-0.008716445922851562,-0.14,-0.011,-0.56,0.0016057559421323465,10,1,100,0.03080977008438284,-10,-1,-100,573.5271666150074,-0.001642216381819108,8.801202144887429e-05,0.9999986476887054,32.994410134519434,-2.1770911555064023,-2309.042849718935,70.06550940302655,-89.934814453125,6144.92529296875,True
1598633961.615794,0,5,0.5,0.5,-0.010380322265625002,-0.14,-0.011,-0.56,0.0013125302996424351,10,1,100,0.024136659362640367,-10,-1,-100,576.352777415188,-0.0017040398056050174,9.145689382736857e-05,0.9999985439409286,33.52227679327939,-2.2077304900134416,-2369.5904257565608,71.01727319694085,-89.93399047851562,6141.767578125,True
1598633961.6848936,0,5,0.5,0.5,-0.013783770751953127,-0.14,-0.011,-0.56,0.0016256052422583753,10,1,100,0.03029265319783231,-10,-1,-100,582.1355302174343,-0.0018146747871234336,9.736358465345766e-05,0.9999983487365114,34.59730266584555,-2.2697117727097798,-2493.104882078078,72.92194487996987,-89.92852783203125,6135.4521484375,True
1598633961.8900316,0,5,0.5,0.5,-0.013857269287109375,-0.14,-0.011,-0.56,0.00135491230520616,10,1,100,0.024902279500010876,-10,-1,-100,585.0678915984463,-0.0018648242466514457,0.0001002051050037124,0.9999982561932126,35.14403792233904,-2.3010352244874426,-2556.0572300593526,73.87484471007599,-89.92410278320312,6132.2939453125,True
1598633961.9652042,0,5,0.5,0.5,-0.022449032592773442,-0.14,-0.011,-0.56,0.001895527364178546,10,1,100,0.033361854136593004,-10,-1,-100,594.145126076648,-0.001986059079989946,0.00010764215272897158,0.9999980219892927,36.82001381531473,-2.3963172067420966,-2749.6731627272884,76.73575753839516,-89.9083251953125,6122.8203125,True
1598633962.0999665,0,5,0.5,0.5,-0.017765545654296878,-0.14,-0.011,-0.56,0.0014183939375891782,10,1,100,0.02514445409045598,-10,-1,-100,597.233736896771,-0.0020203989267663126,0.00011000680424299908,0.9999979529412446,37.39034646908112,-2.42850396217622,-2815.8096456720173,77.69012093465368,-89.90243530273438,6119.6630859375,True
1598633962.172852,0,5,0.5,0.5,-0.02083809509277344,-0.14,-0.011,-0.56,0.0016513635606669834,10,1,100,0.027297609277334905,-10,-1,-100,603.5537808322115,-0.002070179873212091,0.00011422215370731905,0.9999978506519861,38.547591912022675,-2.4935000501795606,-2950.463892442832,79.59991468043772,-89.89337158203125,6113.3466796875,True
1598633962.30822,0,5,0.5,0.5,-0.017803668212890627,-0.14,-0.011,-0.56,0.0014427764947602558,10,1,100,0.024810351766315193,-10,-1,-100,606.7548181762686,-0.0020919410744266553,0.00011610995635449196,0.9999978051481009,39.13428074416023,-2.5262962182736173,-3018.991735994442,80.55533756256229,-89.8905029296875,6110.189453125,True
1598633962.504746,0,5,0.5,0.5,-0.01871241149902344,-0.14,-0.011,-0.56,0.0016243893967624302,10,1,100,0.02605490838001924,-10,-1,-100,613.2939774636179,-0.0021222158225493266,0.00011943119986631915,0.9999977409655441,40.32241666370998,-2.592456060621528,-3158.398592907058,82.46721706173297,-89.886962890625,6103.873046875,True
1598633962.5867393,0,5,0.5,0.5,-0.018869116210937502,-0.14,-0.011,-0.56,0.0017551548184071952,10,1,100,0.026147224234094973,-10,-1,-100,623.4152767001651,-0.002149877972894258,0.00012359735175409086,0.9999976813715101,42.13940464877318,-2.6929609750814665,-3373.330333376131,85.33754000834755,-89.88397216796875,6094.39990234375,True
1598633962.7629483,0,5,0.5,0.5,-0.01812404479980469,-0.14,-0.011,-0.56,0.00144964156531786,10,1,100,0.02394248072619852,-10,-1,-100,626.8411064821994,-0.0021543966838047323,0.00012456883653061987,0.999997671526056,42.75384883218686,-2.7267874557701592,-3446.511947312937,86.29496716743719,-89.88272094726562,6091.2421875,True
1598633962.8914206,0,5,0.5,0.5,-0.021112255859375,-0.14,-0.011,-0.56,0.0016513147598567223,10,1,100,0.023638881827079093,-10,-1,-100,637.4063741611317,-0.002155278994365909,0.0001272521637186525,0.9999976692869554,44.62241709518706,-2.8291767481217858,-3670.6863732303827,89.16921794927593,-89.87753295898438,6081.76904296875,True
1598633963.025966,0,5,0.5,0.5,-0.02234928588867188,-0.14,-0.011,-0.56,0.0014929362745498159,10,1,100,0.022749470266509406,-10,-1,-100,644.6142329435097,-0.002147585317790199,0.00012821920650508183,0.999997685715891,45.88772036425883,-2.898090158007851,-3823.9521363107183,91.08697529712961,-89.8717041015625,6075.453125,True
1598633963.1605597,0,5,0.5,0.5,-0.024552294921875002,-0.14,-0.011,-0.56,0.0014917341431309396,10,1,100,0.02219445220255645,-10,-1,-100,652.0223480355926,-0.002135242801657557,0.0001290593572781627,0.9999977120383128,47.16740970366865,-2.9674445405972882,-3980.217801163782,93.00595904962807,-89.86398315429688,6069.1376953125,True
1598633963.3007598,0,5,0.5,0.5,-0.02621205444335938,-0.14,-0.011,-0.56,0.0014423678068062567,10,1,100,0.02185008890030992,-10,-1,-100,659.5426449616207,-0.0021206459219210902,0.00012934811469412596,0.9999977430624227,48.46057571049739,-3.0371582654163687,-4139.429536681017,94.92613834221902,-89.85552978515625,6062.822265625,True
1598633963.3810074,0,5,0.5,0.5,-0.02736815185546875,-0.14,-0.011,-0.56,0.001467932840244756,10,1,100,0.021607061384446125,-10,-1,-100,667.238662097021,-0.002105044338523785,0.0001298232981381106,0.9999977759646489,49.766630880607984,-3.107184788600399,-4301.542599626822,96.84750286927085,-89.84719848632812,6056.505859375,True
1598633963.4364889,0,5,0.5,0.5,-0.025390948486328127,-0.14,-0.011,-0.56,0.0014079537542554398,10,1,100,0.022354341190482054,-10,-1,-100,671.1331788646057,-0.0020975775832976907,0.00012969200367465275,0.9999977916716947,50.4243534429816,-3.142302461379661,-4383.674108659624,97.80861775711315,-89.84344482421875,6053.3486328125,True
1598633963.5242155,0,5,0.5,0.5,-0.025693670654296875,-0.14,-0.011,-0.56,0.001466360073402782,10,1,100,0.022323190320344022,-10,-1,-100,675.0714587507537,-0.0020904815272635453,0.00013008954810924206,0.9999978064794413,51.08509679766667,-3.177475147474764,-4466.508883842644,98.77001687746863,-89.840087890625,6050.1904296875,True
1598633963.6443129,0,5,0.5,0.5,-0.02606956176757813,-0.14,-0.011,-0.56,0.0014455351140315992,10,1,100,0.022254383355617732,-10,-1,-100,679.053805369651,-0.002083406376232413,0.00013024892560844454,0.9999978212241708,51.74743382913878,-3.2126247297582426,-4549.9160017051445,99.73169725848678,-89.83694458007812,6047.033203125,True
1598633963.8480017,0,5,0.5,0.5,-0.028871774291992187,-0.14,-0.011,-0.56,0.001435380864905497,10,1,100,0.02153417917229237,-10,-1,-100,687.1304977963446,-0.002070462391306896,0.0001302916685922621,0.9999978481024683,53.0664849397586,-3.282177461571272,-4717.504210837488,101.65590137138915,-89.83050537109375,6040.716796875,True
1598633963.9807765,0,5,0.5,0.5,-0.03322868347167969,-0.14,-0.011,-0.56,0.0014662850792644328,10,1,100,0.021234667311359385,-10,-1,-100,699.521140015102,-0.002056044493167569,0.00013060538751096098,0.9999978778093856,55.02896051582257,-3.3844973953394937,-4970.45374421537,104.54431311071667,-89.8192138671875,6031.2431640625,True
1598633964.1115215,0,5,0.5,0.5,-0.032935382080078124,-0.14,-0.011,-0.56,0.0014648054795160601,10,1,100,0.022164256087691493,-10,-1,-100,707.9981615720317,-0.0020514775311808705,0.00013087164784753808,0.9999978871540434,56.325850360521336,-3.4513291742719376,-5139.906041646668,106.4713270901746,-89.81069946289062,6024.92822265625,True
1598633964.2413187,0,5,0.5,0.5,-0.03291917724609375,-0.14,-0.011,-0.56,0.0014882962324956426,10,1,100,0.022597411939179003,-10,-1,-100,716.6064691063948,-0.002051357892991199,0.00013132396455866902,0.999997887340174,57.61327104239984,-3.5170259370006733,-5309.835152228565,108.39947064279282,-89.80401611328125,6018.6123046875,True
1598633964.3077416,0,5,0.5,0.5,-0.03194260864257813,-0.14,-0.011,-0.56,0.001511170061691646,10,1,100,0.023167268167270938,-10,-1,-100,725.3712098185206,-0.0020565171216421507,0.00013194028296324847,0.9999978766622907,58.89134600503766,-3.581590966332907,-5480.1010366754435,110.32875414263192,-89.8001708984375,6012.296875,True
1598633964.442078,0,5,0.5,0.5,-0.03071397399902344,-0.14,-0.011,-0.56,0.0014968206272354973,10,1,100,0.023162067500143838,-10,-1,-100,729.8221833705902,-0.0020612316195146017,0.00013236750399446017,0.9999978668992523,59.52697377653698,-3.613445225035954,-5565.320651197865,111.29382474102685,-89.7989501953125,6009.13916015625,True
1598633964.578786,0,5,0.5,0.5,-0.03167342834472656,-0.14,-0.011,-0.56,0.0015418293961219727,10,1,100,0.02411911784636152,-10,-1,-100,738.8117159527028,-0.002074271997366451,0.00013316231247698391,0.9999978398294065,60.791815637413656,-3.6763051906748347,-5735.875119587168,113.22483003621784,-89.79669189453125,6002.8232421875,True
1598633964.714264,0,5,0.5,0.5,-0.033134625244140625,-0.14,-0.011,-0.56,0.0015861895255139126,10,1,100,0.024897855760101072,-10,-1,-100,747.9573761401698,-0.002093234296757726,0.0001342851040788969,0.9999978001664253,62.048468229090986,-3.738061072250428,-5906.488578993774,115.15699662393784,-89.79287719726562,5996.50732421875,True
1598633964.8452349,0,5,0.5,0.5,-0.035711001586914065,-0.14,-0.011,-0.56,0.0015913186055139827,10,1,100,0.025615371450677677,-10,-1,-100,757.2784508527257,-0.0021169995691064356,0.0001353482761711782,0.9999977499943031,63.29759570672074,-3.7987287773258016,-6077.060307068437,117.09033183020595,-89.78622436523438,5990.19189453125,True
1598633964.9752824,0,5,0.5,0.5,-0.03864561767578125,-0.14,-0.011,-0.56,0.0016507982123314105,10,1,100,0.026390867134049936,-10,-1,-100,766.7365496928105,-0.0021456302155978806,0.00013685073929153605,0.9999976887687556,64.54002046631634,-3.8583470290317807,-6247.505453251058,119.02484526697289,-89.77679443359375,5983.8759765625,True
1598633965.0412793,0,5,0.5,0.5,-0.04127098693847657,-0.14,-0.011,-0.56,0.00166074991963202,10,1,100,0.027184123001321323,-10,-1,-100,776.370184846106,-0.0021788129258931473,0.0001383010832730641,0.9999976168206823,65.7765660422453,-3.9169650657692823,-6417.751853979135,120.96056839498961,-89.76559448242188,5977.560546875,True
1598633965.110826,0,5,0.5,0.5,-0.03910789184570313,-0.14,-0.011,-0.56,0.0015782812411557327,10,1,100,0.025869911333584503,-10,-1,-100,781.221182147041,-0.0021969331468779767,0.00013886258125677718,0.9999975770980305,66.39285335520691,-3.9459170406801847,-6502.775531635741,121.92888251434931,-89.75982666015625,5974.40234375,True
1598633965.248091,0,5,0.5,0.5,-0.039660278320312506,-0.14,-0.011,-0.56,0.001656800744242513,10,1,100,0.02612722426327226,-10,-1,-100,786.1160635976121,-0.002215617202903428,0.00014007934109389996,0.9999975357060579,67.00798987931873,-3.9746283720077016,-6587.7263404311925,122.8975039107724,-89.7545166015625,5971.2451171875,True
1598633965.3828957,0,5,0.5,0.5,-0.043541659545898434,-0.14,-0.011,-0.56,0.001730008489424292,10,1,100,0.028837638872771937,-10,-1,-100,796.0621371947927,-0.0022570936233113604,0.00014184264072634924,0.9999974427012506,68.23489410230599,-4.031369614842536,-6757.3516396982595,124.83567408909735,-89.74481201171875,5964.92919921875,True
1598633965.5407994,0,5,0.5,0.5,-0.04511496276855469,-0.14,-0.011,-0.56,0.0018060414461742924,10,1,100,0.029752966500770806,-10,-1,-100,806.164399845642,-0.0023029335878182703,0.0001441272866570598,0.9999973378585642,69.45801724752415,-4.087242997571347,-6926.547867328337,126.77509192548514,-89.73489379882812,5958.61328125,True
1598633965.6573114,0,5,0.5,0.5,-0.046083984375,-0.14,-0.011,-0.56,0.0018350134832990617,10,1,100,0.030553268576933766,-10,-1,-100,816.3980098380707,-0.002351657741274964,0.00014645654056457292,0.9999972241243222,70.67872105670766,-4.142283259081344,-7095.278977894248,128.71577493224822,-89.72567749023438,5952.29736328125,True
1598633965.788034,0,5,0.5,0.5,-0.04613040466308595,-0.14,-0.011,-0.56,0.0018892084074417425,10,1,100,0.03127927704120093,-10,-1,-100,826.7688875941094,-0.0024022884794364235,0.00014905391703036366,0.9999971033923006,71.89815051489052,-4.196617280230362,-7263.549481620334,130.65773874984168,-89.71835327148438,5945.982421875,True
1598633965.917101,0,5,0.5,0.5,-0.045725244140625,-0.14,-0.011,-0.56,0.0018889155035060438,10,1,100,0.03192691821620287,-10,-1,-100,837.3399599728873,-0.0024539058734631587,0.00015139805868661854,0.9999969777077289,73.11711787400573,-4.250267246471456,-7431.350738501147,132.60100809157728,-89.71319580078125,5939.6669921875,True
1598633966.0528307,0,5,0.5,0.5,-0.04548818664550782,-0.14,-0.011,-0.56,0.0019296168631081035,10,1,100,0.032496225768216716,-10,-1,-100,848.0423188725254,-0.0025056784170724026,0.00015388355168449833,0.9999968489427968,74.33631777603541,-4.303275560329454,-7598.674092056775,134.54559781884805,-89.70953369140625,5933.35107421875,True
1598633966.1899774,0,5,0.5,0.5,-0.04610660400390625,-0.14,-0.011,-0.56,0.001954690074591437,10,1,100,0.033006652316786,-10,-1,-100,858.900927464012,-0.002557031262751467,0.00015635417880922542,0.9999967185668621,75.55650494544359,-4.3556886292816115,-7765.5276360451735,136.49152567633146,-89.70584106445312,5927.03515625,True
1598633966.328809,0,5,0.5,0.5,-0.04781246032714844,-0.14,-0.011,-0.56,0.0019920065710463436,10,1,100,0.03350595079739172,-10,-1,-100,869.9159073987976,-0.0026078807440587104,0.00015892171394536948,0.9999965868451319,76.77827623370843,-4.407606089606818,-7931.9182965956725,138.43881310575088,-89.7005615234375,5920.7197265625,True
1598633966.4599135,0,5,0.5,0.5,-0.050545739746093755,-0.14,-0.011,-0.56,0.002009085776364875,10,1,100,0.03394044079129968,-10,-1,-100,881.0870154637378,-0.0026576673926297627,0.00016139235627142136,0.9999964553719866,78.002208852473,-4.459045726702979,-8097.86230787286,140.38747605363767,-89.69253540039062,5914.40380859375,True
1598633966.5972385,0,5,0.5,0.5,-0.05373011169433595,-0.14,-0.011,-0.56,0.0020171783154484075,10,1,100,0.03432432736330211,-10,-1,-100,892.4335381314158,-0.0027059990108527854,0.00016369148167312368,0.9999963253804747,79.22887766059917,-4.510069842757379,-8263.381922971867,142.33753202855095,-89.68167114257812,5908.087890625,True
1598633966.7328212,0,5,0.5,0.5,-0.05667706298828126,-0.14,-0.011,-0.56,0.0020966208443105937,10,1,100,0.03468858798507944,-10,-1,-100,903.8922429598169,-0.002752802504155373,0.00016648233490016456,0.9999961971737719,80.45881448294135,-4.560722762015059,-8428.505239053893,144.28899868817336,-89.66888427734375,5901.7724609375,True
1598633966.8706229,0,5,0.5,0.5,-0.05867891845703126,-0.14,-0.011,-0.56,0.002059798395169338,10,1,100,0.035057655172788596,-10,-1,-100,915.5320997309173,-0.0027982556462452235,0.00016866232493785048,0.9999960706514592,81.69241496559619,-4.611033699868946,-8593.256768189418,146.24189342108542,-89.65591430664062,5895.45703125,True
1598633967.0068295,0,5,0.5,0.5,-0.0595348388671875,-0.14,-0.011,-0.56,0.002143847389994449,10,1,100,0.035334941852343316,-10,-1,-100,927.3474322954426,-0.0028416471797242876,0.0001713859112539016,0.9999959478258776,82.930172570424,-4.661058870440658,-8757.677693855154,148.19623329507806,-89.64443969726562,5889.14111328125,True
1598633967.2070582,0,5,0.5,0.5,-0.05939348754882814,-0.14,-0.011,-0.56,0.0021276628674685117,10,1,100,0.03562501559275286,-10,-1,-100,939.2996055649128,-0.002883285617401297,0.00017369210372672198,0.999995828238849,84.17259878295145,-4.7108551688032,-8921.80939237672,150.15203386851402,-89.63558959960938,5882.8251953125,True
1598633967.3428938,0,5,0.5,0.5,-0.06068081665039063,-0.14,-0.011,-0.56,0.0022657235472544474,10,1,100,0.0380443140529996,-10,-1,-100,957.5226338495268,-0.0029426950948026713,0.00017702134107579778,0.9999956545950707,86.04612466304799,-4.785223899345347,-9167.584808562866,153.0885090668662,-89.62680053710938,5873.35205078125,True
1598633967.4738152,0,5,0.5,0.5,-0.05905832214355469,-0.14,-0.011,-0.56,0.0021759489680416083,10,1,100,0.036342120127318855,-10,-1,-100,969.8502332709031,-0.00298078486655106,0.0001792084940526689,0.9999955413930078,87.30270327986858,-4.834651766444594,-9331.248015427685,155.0480288524329,-89.62222290039062,5867.03662109375,True
1598633967.7410355,0,5,0.5,0.5,-0.05992340698242188,-0.14,-0.011,-0.56,0.002201960882922653,10,1,100,0.036319476623659114,-10,-1,-100,982.3589846483665,-0.0030147741667895258,0.00018141026421931745,0.9999954391031188,88.56640074350946,-4.883997702160985,-9494.87950577004,157.00906124022345,-89.61746215820312,5860.720703125,True
1598633967.8769143,0,5,0.5,0.5,-0.06940294799804687,-0.14,-0.011,-0.56,0.0023842966547220133,10,1,100,0.039961491553933255,-10,-1,-100,1007.8394991063979,-0.0030783666273687706,0.00018504669312771022,0.9999952446970081,91.1177474867442,-4.982697938073505,-9822.45462556496,160.93570471981738,-89.60025024414062,5848.08935546875,True
1598633968.0749102,0,5,0.5,0.5,-0.07079075622558594,-0.14,-0.011,-0.56,0.002231830061016149,10,1,100,0.037003360838981016,-10,-1,-100,1020.8112625400536,-0.0031088581433200545,0.00018694272766603002,0.9999951500149695,92.40631093295426,-5.032097171464617,-9986.513295924467,162.90133762973065,-89.58465576171875,5841.7734375,True
1598633968.5798047,0,5,0.5,0.5,-0.07390441894531251,-0.14,-0.011,-0.56,0.002196842662340239,10,1,100,0.03696965639926156,-10,-1,-100,1033.9393359448295,-0.003135861125868599,0.00018832510055709012,0.999995065442153,93.70500328808421,-5.081614616970203,-10150.911556251072,164.86852194601207,-89.56790161132812,5835.4580078125,True
1598633968.700373,0,5,0.5,0.5,-0.0748156982421875,-0.14,-0.011,-0.56,0.00221964520074006,10,1,100,0.03713465610732987,-10,-1,-100,1047.2037080131704,-0.0031615185054269736,0.00018976670478997588,0.9999949843820904,94.98716253456622,-5.129703276693674,-10309.590209515069,166.75791242739803,-89.55337524414062,5829.3154296875,True
1598633968.8307621,0,5,0.5,0.5,-0.07454114685058594,-0.14,-0.011,-0.56,0.0022470798000104797,10,1,100,0.037360607841669,-10,-1,-100,1060.6430377042852,-0.003186525942609241,0.00019130549193152146,0.999994904714332,96.18969110541391,-5.172895674889563,-10451.710204045816,168.47079306639742,-89.54232788085938,5823.5625,True
1598633968.9585724,0,5,0.5,0.5,-0.07324336242675782,-0.14,-0.011,-0.56,0.0022523722498847083,10,1,100,0.03767228173899277,-10,-1,-100,1074.1946976979962,-0.0032117404024811875,0.00019273191781633438,0.9999948237756009,97.2933061161583,-5.210229793327801,-10574.42597599229,169.98869635078836,-89.5355224609375,5818.23779296875,True
1598633969.0918713,0,5,0.5,0.5,-0.07205152587890626,-0.14,-0.011,-0.56,0.002236025016858763,10,1,100,0.038072243904709466,-10,-1,-100,1087.8779789680848,-0.0032379622100324208,0.00019386065195087167,0.9999947389955478,98.32150911687778,-5.243019388774618,-10680.936549369717,171.32687564748483,-89.53195190429688,5813.3076171875,True
1598633969.222844,0,5,0.5,0.5,-0.0717254638671875,-0.14,-0.011,-0.56,0.002315673208606645,10,1,100,0.03844620794122913,-10,-1,-100,1101.6298938596155,-0.0032648774566904197,0.00019559251331795527,0.9999946511450757,99.28807127992448,-5.272080566655892,-10773.563079174919,172.50449540266484,-89.52972412109375,5808.728515625,True
1598633969.356799,0,5,0.5,0.5,-0.07278500671386719,-0.14,-0.011,-0.56,0.0022758613559190296,10,1,100,0.03883366396137378,-10,-1,-100,1115.4946293011308,-0.0032925752971427447,0.00019678812392519645,0.9999945600963772,100.2009610342814,-5.29787892934864,-10853.993098276787,173.54043523702666,-89.52658081054688,5804.4599609375,True
1598633969.4870057,0,5,0.5,0.5,-0.07501789855957032,-0.14,-0.011,-0.56,0.0023141709032219304,10,1,100,0.03918477776061316,-10,-1,-100,1129.4222552684369,-0.0033206636498828604,0.00019820732978919432,0.999994466938082,101.0663963172563,-5.320828270961844,-10923.646607896293,174.4515149885021,-89.52102661132812,5800.46435546875,True
1598633969.6238866,0,5,0.5,0.5,-0.07773872375488282,-0.14,-0.011,-0.56,0.002309525426136839,10,1,100,0.03955012256478212,-10,-1,-100,1143.4185061729513,-0.0033492417510635076,0.00019944001526880985,0.999994371385846,101.88978774076755,-5.3412434769988915,-10983.786744038956,175.25281215663372,-89.51284790039062,5796.708984375,True
1598633969.756727,0,5,0.5,0.5,-0.08002663879394532,-0.14,-0.011,-0.56,0.002290540867634099,10,1,100,0.039861109828188634,-10,-1,-100,1157.4835008436348,-0.0033778027498735236,0.00020037496669830714,0.9999942751328408,102.67577373284117,-5.359421197810273,-11035.516562460221,175.95752905883967,-89.503173828125,5793.1650390625,True
1598633969.8947911,0,5,0.5,0.5,-0.08106475524902344,-0.14,-0.011,-0.56,0.0023216716158838834,10,1,100,0.04013203021264474,-10,-1,-100,1171.5922132220585,-0.003405985711735363,0.00020149571821918247,0.9999941793134635,103.42806816069273,-5.375595620660965,-11079.760531419048,176.57694063983777,-89.49407958984375,5789.80712890625,True
1598633970.096339,0,5,0.5,0.5,-0.08053927001953125,-0.14,-0.011,-0.56,0.0023317380637127654,10,1,100,0.04042231111014695,-10,-1,-100,1185.745130198542,-0.003433999935599904,0.00020259412311145707,0.9999940832825279,104.15048575379923,-5.389989962041284,-11117.412121794701,177.12138054579935,-89.4876708984375,5786.61328125,True
1598633970.2290928,0,5,0.5,0.5,-0.0785394012451172,-0.14,-0.011,-0.56,0.0023925608697077322,10,1,100,0.04219112838053272,-10,-1,-100,1207.042508012848,-0.0034752998584528364,0.00020413394632409597,0.9999939402917528,105.19309170101344,-5.409131101653029,-11164.069490963118,177.81768193255687,-89.48550415039062,5782.08544921875,True
1598633970.3608675,0,5,0.5,0.5,-0.07514548645019532,-0.14,-0.011,-0.56,0.002315622044206389,10,1,100,0.04103720585716525,-10,-1,-100,1221.2833898740355,-0.003502092516365031,0.00020482267950885314,0.9999938466789067,105.84882504925208,-5.419695272412579,-11188.371834836447,178.22499768110245,-89.48870849609375,5779.19140625,True
1598633970.4959822,0,5,0.5,0.5,-0.07335982360839845,-0.14,-0.011,-0.56,0.002322087767735602,10,1,100,0.04109652378708428,-10,-1,-100,1235.5675374238053,-0.0035267247755445775,0.0002054965882891775,0.999993759972286,106.50083595477788,-5.429917979658747,-11209.905407444612,178.5785827041304,-89.493896484375,5776.416015625,True
1598633970.633851,0,5,0.5,0.5,-0.07340168457031251,-0.14,-0.011,-0.56,0.002287348619486498,10,1,100,0.041234130532445165,-10,-1,-100,1249.8767513122875,-0.003550106197424253,0.00020578284407235477,0.999993677179715,107.12272074854323,-5.4384694497368775,-11226.127361498688,178.8829238917237,-89.498046875,5773.7470703125,True
1598633970.833961,0,5,0.5,0.5,-0.07548303833007812,-0.14,-0.011,-0.56,0.00231419345494614,10,1,100,0.041404315209636555,-10,-1,-100,1264.1859719469212,-0.0035726498700704855,0.0002062778566241905,0.9999935967906753,107.72970006188451,-5.446166826656001,-11239.164497198408,179.14991080182787,-89.49844360351562,5771.1611328125,True
1598633970.97067,0,5,0.5,0.5,-0.08131171875,-0.14,-0.011,-0.56,0.002322716442552057,10,1,100,0.0427375192599721,-10,-1,-100,1285.7030303697102,-0.003605009541503813,0.00020679672271073222,0.9999934805494091,108.62127935404585,-5.456599707014287,-11254.204050630195,179.49127674263752,-89.490478515625,5767.4111328125,True
1598633971.160774,0,5,0.5,0.5,-0.08378489685058595,-0.14,-0.011,-0.56,0.0022900703475790367,10,1,100,0.04181275635214607,-10,-1,-100,1300.1001782793319,-0.0036257619928342184,0.00020696382793245038,0.9999934054862288,109.1950898816363,-5.462450820812717,-11260.881794240884,179.69072376710693,-89.48062133789062,5764.97412109375,True
1598633971.3132505,0,5,0.5,0.5,-0.08697342224121095,-0.14,-0.011,-0.56,0.002288569217689022,10,1,100,0.042857245638406496,-10,-1,-100,1321.6611873040674,-0.0036538718327898904,0.000207095255305318,0.9999933031436684,110.04993161788296,-5.470816983483581,-11268.294867548058,179.94175229994673,-89.46823120117188,5761.4248046875,True
1598633971.4633331,0,5,0.5,0.5,-0.08182509155273437,-0.14,-0.011,-0.56,0.0023026817512430717,10,1,100,0.042011252236858594,-10,-1,-100,1336.057973826537,-0.003671484411751051,0.00020733692114150083,0.9999932385839493,110.6000756562414,-5.475375457064262,-11270.306229227128,180.08669741787733,-89.46572875976562,5759.1083984375,True
1598633971.5751622,0,5,0.5,0.5,-0.07744282531738282,-0.14,-0.011,-0.56,0.002287625740708468,10,1,100,0.042052769111871564,-10,-1,-100,1350.4796372909332,-0.0036876319108522094,0.0002074144343486958,0.9999931791518092,111.14942030307776,-5.47986920006734,-11271.490431417262,180.21261788418641,-89.47003173828125,5756.833984375,True
1598633971.7138157,0,5,0.5,0.5,-0.07173285827636719,-0.14,-0.011,-0.56,0.0022913802071975486,10,1,100,0.04221014268473555,-10,-1,-100,1364.8959455096629,-0.003703511549810888,0.00020751465031310356,0.999993120446271,111.68704499827277,-5.483757187893615,-11270.828655903391,180.3212650875641,-89.48165893554688,5754.5986328125,True
1598633971.84977,0,5,0.5,0.5,-0.06904116516113282,-0.14,-0.011,-0.56,0.0022672759464664937,10,1,100,0.04232778397857684,-10,-1,-100,1379.336792000453,-0.0037188095863615544,0.0002073835527250201,0.9999930636996051,112.21835546028065,-5.4873353987875255,-11269.054088948717,180.4169037091749,-89.49481201171875,5752.392578125,True
1598633972.050838,0,5,0.5,0.5,-0.06984194641113282,-0.14,-0.011,-0.56,0.0022752530656199536,10,1,100,0.042550600029287525,-10,-1,-100,1393.7585976644186,-0.0037345454772595332,0.000207334564297961,0.9999930050667638,112.74462919028271,-5.490658191439511,-11266.377259440816,180.5013797612734,-89.50418090820312,5750.21142578125,True
1598633972.2407217,0,5,0.5,0.5,-0.07588898315429689,-0.14,-0.011,-0.56,0.0022718232026572908,10,1,100,0.04364397739775706,-10,-1,-100,1415.4513662682148,-0.0037586016989694963,0.00020725717790460234,0.9999929149537663,113.5266506350081,-5.4952686960531105,-11261.01330582867,180.61033109271577,-89.50302124023438,5746.9814453125,True
1598633972.4377959,0,5,0.5,0.5,-0.08920504455566405,-0.14,-0.011,-0.56,0.0022761184130081795,10,1,100,0.044008580870984686,-10,-1,-100,1437.1248644746374,-0.0037835960270974,0.00020722453370125506,0.999992820703777,114.29945068258888,-5.499449113403278,-11254.369359052456,180.7072302614361,-89.48306274414062,5743.7802734375,True
1598633972.5707214,0,5,0.5,0.5,-0.09874527893066407,-0.14,-0.011,-0.56,0.002303747587818387,10,1,100,0.044246526059130736,-10,-1,-100,1458.8177538814489,-0.0038082895124177066,0.00020744517085368935,0.9999927269222965,115.0680462373986,-5.503442118870201,-11246.70792670134,180.78585405846218,-89.4534912109375,5740.62158203125,True
1598633972.7098064,0,5,0.5,0.5,-0.09207392883300781,-0.14,-0.011,-0.56,0.0022730723531531804,10,1,100,0.04349490362577396,-10,-1,-100,1473.2831511126133,-0.003823720404250275,0.0002073662948151796,0.9999926680538662,115.57186926304107,-5.505716184254037,-11240.537407328886,180.8306720564851,-89.43942260742188,5738.53369140625,True
1598633972.8468418,0,5,0.5,0.5,-0.08204051208496095,-0.14,-0.011,-0.56,0.002319028394946798,10,1,100,0.0436073395541397,-10,-1,-100,1487.7434140926925,-0.003838590670345556,0.00020771200564476477,0.9999926110113957,116.07509202679755,-5.507979265358296,-11234.159572770892,180.8698873489746,-89.44256591796875,5736.4599609375,True
1598633972.9837918,0,5,0.5,0.5,-0.06881129760742188,-0.14,-0.011,-0.56,0.0022758424785327435,10,1,100,0.04378472566721988,-10,-1,-100,1502.2090532423463,-0.003853553768880581,0.0002076331282948604,0.9999925534781918,116.57382055672731,-5.51006001546933,-11227.228131616937,180.90409751068975,-89.46401977539062,5734.3974609375,True
1598633973.1758845,0,5,0.5,0.5,-0.05914459838867188,-0.14,-0.011,-0.56,0.0022955512831634795,10,1,100,0.04394609904542345,-10,-1,-100,1516.6937353978865,-0.003868458098844155,0.00020774032328508733,0.9999924959097921,117.0696527765362,-5.512031613206159,-11219.94467059523,180.93441914651163,-89.4949951171875,5732.3447265625,True
1598633973.439208,0,5,0.5,0.5,-0.0491409423828125,-0.14,-0.011,-0.56,0.002318951245113594,10,1,100,0.04510895309531711,-10,-1,-100,1538.4110561322886,-0.003892414502730081,0.0002080502039403525,0.9999924028833678,117.81012757590496,-5.514869313466063,-11208.649939053017,180.97477445997004,-89.53402709960938,5729.2802734375,True
1598633973.6408663,0,5,0.5,0.5,-0.07021492919921875,-0.14,-0.011,-0.56,0.0022321168804667725,10,1,100,0.04642837731395691,-10,-1,-100,1567.35588941467,-0.003926016087384085,0.00020754202344505223,0.9999922716321311,118.79264655888781,-5.518479821963509,-11193.102556997193,181.02138117905767,-89.53506469726562,5725.21484375,True
1598633973.838851,0,5,0.5,0.5,-0.11052831726074219,-0.14,-0.011,-0.56,0.002268665238837667,10,1,100,0.04588615292722225,-10,-1,-100,1589.0927434330806,-0.003951445300371026,0.00020741215491567827,0.9999921714994754,119.53023687606955,-5.521258260855847,-11181.544427642491,181.0528858250507,-89.47824096679688,5722.1767578125,True
1598633974.0350223,0,5,0.5,0.5,-0.14290792541503908,-0.14,-0.011,-0.56,0.002282972671599162,10,1,100,0.045897879139494155,-10,-1,-100,1610.8101916712476,-0.003974472186995161,0.00020742408964988124,0.9999920802416795,120.26508052822933,-5.523971266981538,-11169.703364335286,181.07970922402887,-89.38656616210938,5719.15234375,True
1598633974.1637902,0,5,0.5,0.5,-0.12762953186035159,-0.14,-0.011,-0.56,0.0022948933529204785,10,1,100,0.04554303855376477,-10,-1,-100,1628.9207172479946,-0.003991983650884994,0.0002075431575004911,0.999992010464268,120.87607979902516,-5.526258838147468,-11159.729187295157,181.09901388555681,-89.33523559570312,5716.640625,True
1598633974.295751,0,5,0.5,0.5,-0.08381570129394532,-0.14,-0.011,-0.56,0.0023707031828691886,10,1,100,0.04561801760551364,-10,-1,-100,1647.0317319437163,-0.004008395347960933,0.00020834029161530723,0.9999919446480843,121.48137796456979,-5.528379337992689,-11149.271200445208,181.1157791606742,-89.35699462890625,5714.13671875,True
1598633974.431012,0,5,0.5,0.5,-0.03695468444824219,-0.14,-0.011,-0.56,0.0023618578910317117,10,1,100,0.0454894679138243,-10,-1,-100,1661.5354604255408,-0.004021964524618663,0.00020898373350228882,0.9999918900306951,121.96117287340479,-5.529952186171978,-11140.57353912332,181.12840458688999,-89.44149780273438,5712.13671875,True
1598633974.565941,0,5,0.5,0.5,-0.005554086303710931,-0.14,-0.011,-0.56,0.0023512655445954837,10,1,100,0.045665545311150385,-10,-1,-100,1676.0202689175494,-0.0040357206214465015,0.00020947091621495445,0.9999918345071628,122.43724163247678,-5.531400172462346,-11131.584671490722,181.13983466857496,-89.553955078125,5710.14111328125,True
1598633974.7018642,0,5,0.5,0.5,-0.0029962554931640614,-0.14,-0.011,-0.56,0.0023235395397669468,10,1,100,0.04594976344354408,-10,-1,-100,1690.50519973482,-0.004050630756174387,0.00020966015599114542,0.999991774182716,122.91217255245763,-5.53282203174569,-11122.553621128778,181.15047305844908,-89.64739990234375,5708.1484375,True
1598633974.9028444,0,5,0.5,0.5,-0.030621075439453128,-0.14,-0.011,-0.56,0.0022903749472755522,10,1,100,0.0462432196450292,-10,-1,-100,1705.0090515263146,-0.004066674046861154,0.00020952885310349155,0.9999917090955586,123.38843140243759,-5.534313360975456,-11113.703519230354,181.160523915974,-89.68240356445312,5706.15869140625,True
1598633975.1018686,0,5,0.5,0.5,-0.11021595153808594,-0.14,-0.011,-0.56,0.002250029974557208,10,1,100,0.04749996290477,-10,-1,-100,1726.7456643353216,-0.004092503598984934,0.0002090410884265318,0.99999160382281,124.10766136880025,-5.536787389881296,-11100.965430696395,181.1746862089676,-89.59640502929688,5703.1787109375,True
1598633975.2927327,0,5,0.5,0.5,-0.2125069549560547,-0.14,-0.011,-0.56,0.0022280720039188967,10,1,100,0.04795851406058141,-10,-1,-100,1748.4822781383991,-0.004119971757699151,0.00020839714727395996,0.9999914911654721,124.83180828858143,-5.53953294947109,-11088.78163977142,181.18833464713524,-89.38137817382812,5700.203125,True
1598633975.4241414,0,5,0.5,0.5,-0.24226707458496094,-0.14,-0.011,-0.56,0.0023364305181430896,10,1,100,0.04826436089244261,-10,-1,-100,1770.2190135737183,-0.0041475469134832545,0.00020879604624290647,0.9999913770922285,125.55563199168056,-5.54236571591822,-11076.654401077229,181.2011597938764,-89.16708374023438,5697.232421875,True
1598633975.5628347,0,5,0.5,0.5,-0.15026864929199218,-0.14,-0.011,-0.56,0.002329762655943487,10,1,100,0.047505523409829005,-10,-1,-100,1784.7229887462454,-0.004165538440160396,0.00020909680665710944,0.9999913022461892,126.03272922898638,-5.544100911149856,-11068.141290071007,181.20927173847502,-89.1275634765625,5695.25439453125,True
1598633975.6988525,0,5,0.5,0.5,-0.046711389160156255,-0.14,-0.011,-0.56,0.002414878565278737,10,1,100,0.04759572827496607,-10,-1,-100,1799.2075536189368,-0.004182540721137984,0.00021014248555760784,0.9999912310581788,126.50178874502384,-5.545554558390731,-11058.983588131374,181.2172258964506,-89.24429321289062,5693.2783203125,True
1598633975.9008179,0,5,0.5,0.5,0.05408273925781251,-0.14,-0.011,-0.56,0.00241823844954818,10,1,100,0.04774901205221618,-10,-1,-100,1813.7114059674786,-0.00419921759539238,0.00021112128411682212,0.9999911609606306,126.96243102097202,-5.546691603444185,-11049.149467253834,181.22472421541886,-89.4818115234375,5691.3046875,True
1598633976.0318618,0,5,0.5,0.5,0.18016364135742188,-0.14,-0.011,-0.56,0.002436644699514244,10,1,100,0.048933200557543216,-10,-1,-100,1835.4728001510957,-0.00422497026544714,0.00021217590235897977,0.9999910522637904,127.648674743503,-5.548200670994607,-11034.122074772014,181.23553247468595,-89.85174560546875,5688.3486328125,True
1598633976.1610303,0,5,0.5,0.5,0.0776571502685547,-0.14,-0.011,-0.56,0.002285079097125488,10,1,100,0.04833310381439238,-10,-1,-100,1849.976653146674,-0.004242741808067524,0.00021175387513117376,0.999990977110417,128.10915198274526,-5.5492971553459896,-11024.45658561434,181.24276040318816,-90.0006103515625,5686.37890625,True
1598633976.2940989,0,5,0.5,0.5,-0.040997647094726565,-0.14,-0.011,-0.56,0.0022056929556799475,10,1,100,0.048494578400301705,-10,-1,-100,1864.4805051798467,-0.004260177505606484,0.00021064644640283046,0.9999909032164721,128.57905191530347,-5.550748875378531,-11015.660446819751,181.2497685285913,-89.94949340820312,5684.412109375,True
1598633976.428961,0,5,0.5,0.5,-0.19156866455078128,-0.14,-0.011,-0.56,0.002177484342106381,10,1,100,0.04872540955950125,-10,-1,-100,1878.9842360102339,-0.004277936107771506,0.0002093823544442026,0.9999908276687779,129.06129185751243,-5.552712287012533,-11007.970695880293,181.25652485789695,-89.69302368164062,5682.4462890625,True
1598633976.630649,0,5,0.5,0.5,-0.28932797851562503,-0.14,-0.011,-0.56,0.0021992595817294162,10,1,100,0.04886877739508358,-10,-1,-100,1893.4690455963137,-0.004295191579098719,0.0002084312698408042,0.9999907539001073,129.5493436881527,-5.554951381473671,-11000.82039790636,181.26308269407704,-89.34817504882812,5680.48291015625,True
1598633976.7620769,0,5,0.5,0.5,-0.3678938781738281,-0.14,-0.011,-0.56,0.0021349372862389322,10,1,100,0.050065877505779934,-10,-1,-100,1915.2250685637118,-0.0043215768376933215,0.0002069824537137883,0.9999906405221498,130.27604521347635,-5.558180832225295,-10989.729195639547,181.2728520651383,-88.96044921875,5677.5400390625,True
1598633976.8943443,0,5,0.5,0.5,-0.18342342834472658,-0.14,-0.011,-0.56,0.002358625982007911,10,1,100,0.049400476236645605,-10,-1,-100,1929.7289221185492,-0.004339331056623563,0.00020770016782672835,0.9999905634887867,130.7481629013931,-5.559908705164874,-10981.36231617691,181.27943809712886,-88.91445922851562,5675.580078125,True
1598633977.029776,0,5,0.5,0.5,-0.006338644409179708,-0.14,-0.011,-0.56,0.0024116052945557668,10,1,100,0.04950504727288534,-10,-1,-100,1944.2324081107508,-0.0043562475522140156,0.00020883526156930543,0.9999904897023258,131.20522991108183,-5.561056621702213,-10971.78982609664,181.285882957193,-89.13104248046875,5673.62158203125,True
1598633977.1911495,0,5,0.5,0.5,0.1641662811279297,-0.14,-0.011,-0.56,0.002461443892275355,10,1,100,0.04967877035653024,-10,-1,-100,1958.7366275733802,-0.004373032113409332,0.00021032048090099704,0.9999904161317901,131.6473445245002,-5.561591355436442,-10961.045242081727,181.29229707687307,-89.54788208007812,5671.6650390625,True
1598633977.304774,0,5,0.5,0.5,0.23099681091308596,-0.14,-0.011,-0.56,0.0023968231624826733,10,1,100,0.04989427504887278,-10,-1,-100,1973.2402359116822,-0.004390076764978851,0.00021108305729956194,0.9999903412883249,132.08521342732297,-5.561905315507926,-10950.029368005033,181.29861666889602,-89.97634887695312,5669.7099609375,True
1598633977.4430666,0,5,0.5,0.5,0.1993371276855469,-0.14,-0.011,-0.56,0.002308542951223115,10,1,100,0.050073321846809946,-10,-1,-100,1987.7443331398536,-0.0044070260925964,0.00021097379594754975,0.9999902667581704,132.5282960886698,-5.562359936255823,-10939.526872715373,181.30487482371285,-90.27311706542969,5667.75634765625,True
1598633977.577727,0,5,0.5,0.5,0.044948493957519535,-0.14,-0.011,-0.56,0.002192586386049564,10,1,100,0.050279284008379575,-10,-1,-100,2002.2478196907323,-0.004424141450238305,0.00020982140967724404,0.9999901914255982,132.98608410185207,-5.5633429517720305,-10930.326597156356,181.31111208800533,-90.28931427001953,5665.80419921875,True
1598633977.7700207,0,5,0.5,0.5,-0.16069538803100586,-0.14,-0.011,-0.56,0.0020997228080895077,10,1,100,0.05043969008650113,-10,-1,-100,2016.7516721937573,-0.004440994194584624,0.00020793132823683283,0.9999901171187275,133.46217217807512,-5.56505318889403,-10922.706212801906,181.31731043934076,-90.00804138183594,5663.853515625,True
1598633977.9009056,0,5,0.5,0.5,-0.5290901527404785,-0.14,-0.011,-0.56,0.0019397521729070852,10,1,100,0.05145804412352857,-10,-1,-100,2038.5075734767597,-0.00446540825642791,0.00020476126216949697,0.999990009051055,134.19939220482914,-5.56861157844478,-10913.253264645897,181.3264882063187,-89.25665283203125,5660.9306640625,True
1598633978.0316968,0,5,0.5,0.5,-0.47620285110473637,-0.14,-0.011,-0.56,0.002117248805024287,10,1,100,0.050778425854860594,-10,-1,-100,2053.011793154874,-0.004481254080980592,0.0002034971906659614,0.9999899384247598,134.69399422605304,-5.571237359521131,-10907.265620674241,181.33269507644846,-88.73178100585938,5658.9833984375,True
1598633978.1678054,0,5,0.5,0.5,-0.3438321784973145,-0.14,-0.011,-0.56,0.002328666755659392,10,1,100,0.05080987183383146,-10,-1,-100,2067.514669080847,-0.004495776100835599,0.00020427450164958895,0.9999898730833123,135.17456756297412,-5.573449570530255,-10900.188121078758,181.33876427754626,-88.501953125,5657.0380859375,True
1598633978.3191168,0,5,0.5,0.5,-0.06368283767700196,-0.14,-0.011,-0.56,0.0024615577032140175,10,1,100,0.050916022105143545,-10,-1,-100,2082.019254148123,-0.004509784576567405,0.00020619170929616896,0.9999898096121039,135.62584371993648,-5.574599621270826,-10890.816187371647,181.34471371884572,-88.71902465820312,5655.09423828125,True
1598633978.5080276,0,5,0.5,0.5,0.20756580734252933,-0.14,-0.011,-0.56,0.0025584401373741636,10,1,100,0.0510873884900148,-10,-1,-100,2096.54190575378,-0.004523922472986109,0.00020881674606590717,0.999989745207932,136.05184234720844,-5.57477685463028,-10879.509534252447,181.35066295353914,-89.28048706054688,5653.1513671875,True
1598633978.7039664,0,5,0.5,0.5,0.6692328819274903,-0.14,-0.011,-0.56,0.002632372075817755,10,1,100,0.05207575441060705,-10,-1,-100,2118.2981730973115,-0.004545607819080522,0.00021187526849288674,0.9999896462256125,136.66491242257038,-5.5738773226752585,-10860.682935016732,181.35965803401203,-90.38894653320312,5650.2412109375,True
1598633978.8349314,0,5,0.5,0.5,0.5625860313415527,-0.14,-0.011,-0.56,0.0022369115720152683,10,1,100,0.05240559361109234,-10,-1,-100,2140.054196490324,-0.004568163421256518,0.00021105923449412565,0.9999895436138101,137.29217364111457,-5.573165153709183,-10843.229619683338,181.36900469245288,-91.12203979492188,5647.33251953125,True
1598633978.9704268,0,5,0.5,0.5,0.06413712387084963,-0.14,-0.011,-0.56,0.0019204710370553156,10,1,100,0.051811581086215294,-10,-1,-100,2154.5768489674665,-0.004583106503321015,0.00020744067492543914,0.9999894759961956,137.74423902769237,-5.573798795940541,-10834.37862020032,181.37524159827188,-90.99464416503906,5645.3955078125,True
1598633979.1048234,0,5,0.5,0.5,-0.44138038406372077,-0.14,-0.011,-0.56,0.001734760789478243,10,1,100,0.05188417924671427,-10,-1,-100,2169.080945358146,-0.004597191033556254,0.00020246601226777083,0.9999894123650085,138.24493282494046,-5.576289246967343,-10829.405029392738,181.38129784506347,-90.16942596435547,5643.4599609375,True
1598633979.2400377,0,5,0.5,0.5,-0.8188805778503419,-0.14,-0.011,-0.56,0.0017351009124280063,10,1,100,0.05198698279698159,-10,-1,-100,2183.5845541046,-0.004610772411878612,0.0001979533704216243,0.9999893507394112,138.77729767774957,-5.580144954832399,-10826.94133707294,181.38713818106282,-88.97015380859375,5641.5263671875,True
1598633979.442246,0,5,0.5,0.5,-0.8811782600402833,-0.14,-0.011,-0.56,0.0019135314350806655,10,1,100,0.05212526377770935,-10,-1,-100,2198.1074496224755,-0.004624221875435286,0.00019548213527452907,0.9999892891220292,139.30517053409864,-5.584072484876277,-10824.149103423768,181.39285695885863,-87.92337036132812,5639.59375,True
1598633979.5728552,0,5,0.5,0.5,-0.5519179420471192,-0.14,-0.011,-0.56,0.002461721020723927,10,1,100,0.0529690983007719,-10,-1,-100,2219.863717312808,-0.004643975507406461,0.0001982275351256494,0.9999891970403135,140.02179974150772,-5.587519232310249,-10814.20036528602,181.40132048415222,-87.55841064453125,5636.6982421875,True
1598633979.7049465,0,5,0.5,0.5,0.18533322067260743,-0.14,-0.011,-0.56,0.002760597102914987,10,1,100,0.05255869099314493,-10,-1,-100,2234.3863697291818,-0.004658054450559624,0.00020344519906071416,0.9999891305103205,140.43004744022446,-5.587324079935297,-10802.306129762219,181.40715281250436,-88.32150268554688,5634.76953125,True
1598633979.8379583,0,5,0.5,0.5,0.7419431968688965,-0.14,-0.011,-0.56,0.002862690450389285,10,1,100,0.052711540996079644,-10,-1,-100,2248.8902217959985,-0.004672095509498521,0.0002091174051628929,0.9999890638369306,140.78634141070225,-5.585067588117252,-10786.539588778724,181.41299727011045,-89.7274169921875,5632.841796875,True
1598633979.9963336,0,5,0.5,0.5,0.9936386711120606,-0.14,-0.011,-0.56,0.0027631850371351583,10,1,100,0.052991090956409914,-10,-1,-100,2263.413118082448,-0.004687253916416037,0.00021336670177541178,0.9999889920020988,141.12140643053502,-5.581734782494846,-10769.288011069693,181.41887520323468,-91.21012878417969,5630.916015625,True
1598633980.1087618,0,5,0.5,0.5,0.7899536293029786,-0.14,-0.011,-0.56,0.002419272006594106,10,1,100,0.053222135395877196,-10,-1,-100,2277.9172151200473,-0.004702986207205819,0.00021409908027668345,0.9999889179797536,141.48605896551538,-5.579205061293115,-10754.42204762562,181.42484506984428,-92.10228729248047,5628.9912109375,True
