Timestamp,Input Throttle,horizon,dT,dt,Input Roll,Roll P,Roll I,Roll D,Input Pitch,Pitch P,Pitch I,Pitch D,Input Yaw,Yaw P,Yaw I,Yaw D,Altitude,Direction X,Direction Y,Direction Z,Drag X,Drag Y,Drag Z,Vertical Velocity,Roll,Mass,Has Fuel
1598628515.4251425,0,5,0.5,0.5,-0.010006103515625,-0.14,-0.011,-0.56,0.004241506585607678,10,1,100,0.12487476636603259,-10,-1,-100,479.0891569034429,-0.01172541441631659,0.0004125055023460786,0.9999311698791953,5.273490386534066,-0.4315872268919095,106.98418928674307,-13.85088189095975,-89.92132568359375,6440.1796875,True
1598628515.47589,0,5,0.5,0.5,-0.009669671630859376,-0.14,-0.011,-0.56,0.004263139252443704,10,1,100,0.12310591178481914,-10,-1,-100,478.237199614523,-0.011767952836134968,0.0004133858085165178,0.9999306697957713,5.460951457171833,-0.4473763801267477,115.56835708576853,-14.434318995275426,-89.92337036132812,6440.1796875,True
1598628515.526048,0,5,0.5,0.5,-0.008933651733398438,-0.14,-0.011,-0.56,0.004002182765646073,10,1,100,0.11726212958340743,-10,-1,-100,477.67677882371936,-0.011742800695196901,0.00041143794987465084,0.9999309662924968,5.906307868553449,-0.48113776241242245,121.49774345102695,-14.17755305694757,-89.92617797851562,6438.60107421875,True
1598628515.57823,0,5,0.5,0.5,-0.006934167480468751,-0.14,-0.011,-0.56,0.004044347445120248,10,1,100,0.11733694343655471,-10,-1,-100,477.12272092991043,-0.011709939965104364,0.00040967645005919644,0.9999313523793619,5.745012384977277,-0.4625450418338334,108.33272277517925,-13.27470814097739,-89.931396484375,6435.443359375,True
1598628515.6267097,0,5,0.5,0.5,-0.00463414306640625,-0.14,-0.011,-0.56,0.003992381082567784,10,1,100,0.11460654181116076,-10,-1,-100,476.618554243003,-0.011644599341184744,0.0004072302319764344,0.9999321164307713,5.578848495718234,-0.4440882098099008,96.02832769108879,-12.371312900322945,-89.93896484375,6432.28515625,True
1598628515.6781816,0,5,0.5,0.5,-0.0021890747070312504,-0.14,-0.011,-0.56,0.003869369040037259,10,1,100,0.11080876289865771,-10,-1,-100,476.15767028194387,-0.011540087511743076,0.0004035178967582128,0.9999333295542902,5.394803368035884,-0.4247398813378864,84.35238673317085,-11.46737336139503,-89.9486083984375,6429.126953125,True
1598628515.728663,0,5,0.5,0.5,0.00021533203125000035,-0.14,-0.011,-0.56,0.0037022417338348655,10,1,100,0.10683966955827398,-10,-1,-100,475.7397523125401,-0.011398503102327396,0.0003982568729609367,0.9999349556438606,5.199223502838862,-0.40502025735621155,73.42424482419638,-10.562881272767399,-89.9598388671875,6425.9697265625,True
1598628515.7829864,0,5,0.5,0.5,0.0024056518554687505,-0.14,-0.011,-0.56,0.0035763785272301864,10,1,100,0.10259805519372003,-10,-1,-100,475.32180259085726,-0.01122086759672417,0.00039196786138249686,0.999936967259223,4.9912198534205,-0.38486771025550104,63.23024928129356,-9.657830069885984,-89.97201538085938,6422.8115234375,True
1598628515.8357072,0,5,0.5,0.5,0.004357290649414063,-0.14,-0.011,-0.56,0.003393783217335882,10,1,100,0.09802000953508058,-10,-1,-100,474.9734332631342,-0.011007561387827495,0.0003842342863472556,0.9999393411384044,4.771302060177533,-0.36432364446838805,53.77583673328171,-8.752212610786794,-89.98458862304688,6419.65380859375,True
1598628515.885737,0,5,0.5,0.5,0.005961737060546876,-0.14,-0.011,-0.56,0.0032188749706897565,10,1,100,0.09322851601994334,-10,-1,-100,474.66821408923715,-0.010760080746522153,0.0003752643847217558,0.999942038239702,4.540359069018953,-0.3434549455829294,45.06646033949071,-7.846029241843765,-89.99696350097656,6416.49609375,True
1598628515.9441006,0,5,0.5,0.5,0.007167503356933594,-0.14,-0.011,-0.56,0.003067596461733594,10,1,100,0.08824914483360241,-10,-1,-100,474.36278095969465,-0.010480049442962814,0.0003653935200855893,0.999945016014005,4.299943352749987,-0.3223709262477018,37.108086709125196,-6.939266512358826,-90.00859069824219,6413.337890625,True
1598628515.988882,0,5,0.5,0.5,0.008079534912109375,-0.14,-0.011,-0.56,0.002810117353075065,10,1,100,0.08190828583126639,-10,-1,-100,474.1108442770783,-0.010168963507863409,0.0003541221166851426,0.9999482320493908,4.0527494421426855,-0.3012608705186334,29.907735310340488,-6.031913452272237,-90.01905822753906,6410.1806640625,True
1598628516.040707,0,5,0.5,0.5,0.008619514465332032,-0.14,-0.011,-0.56,0.0026013680712353568,10,1,100,0.07531677643252613,-10,-1,-100,473.89128647278994,-0.00982768892626474,0.0003420315416605859,0.9999516486034676,3.8043017313462726,-0.28051401064486403,23.478035759460923,-5.123968479901379,-90.0280532836914,6407.0224609375,True
1598628516.1925576,0,5,0.5,0.5,0.006396677398681641,-0.14,-0.011,-0.56,0.0030594235304452393,10,1,100,0.089421654637241,-10,-1,-100,473.821575922193,-0.009647406482826023,0.00033526734709309156,0.9999534064865029,3.6829164203461713,-0.2705115627080449,20.55838096181995,-4.669771298362456,-90.03191375732422,6405.443359375,True
1598628516.2397764,0,5,0.5,0.5,0.010369551086425783,-0.14,-0.011,-0.56,0.0014200238620665946,10,1,100,0.04311870148126591,-10,-1,-100,473.59587598848157,-0.009064452445084033,0.00031428209059462364,0.9999588676183828,3.3761025002468688,-0.24526172445736424,13.058972378147468,-3.306272392758588,-90.04051971435547,6400.70703125,True
1598628516.2837799,0,5,0.5,0.5,0.008054503631591797,-0.14,-0.011,-0.56,0.001846585703581669,10,1,100,0.054159117999932935,-10,-1,-100,473.49100182496477,-0.008637207239939288,0.00029916691792013694,0.9999626538777583,3.362703215591778,-0.24262932892656994,9.302573799378745,-2.396512685104634,-90.04393768310547,6397.548828125,True
1598628516.3729856,0,5,0.5,0.5,0.007153201293945313,-0.14,-0.011,-0.56,0.0016251896609244402,10,1,100,0.048879673509255726,-10,-1,-100,473.42229136801325,-0.008203446540139549,0.0002835080250817543,0.9999663109765563,4.285565626056726,-0.3072452772091866,7.259628632633646,-1.486134620060694,-90.04523468017578,6394.3916015625,True
1598628516.4657109,0,5,0.5,0.5,0.005911992645263672,-0.14,-0.011,-0.56,0.0013357938221727483,10,1,100,0.0408888628856651,-10,-1,-100,473.39017110632267,-0.0077393794951636785,0.0002667461138290085,0.9999700149762196,11.400311071121493,-0.8124451143107493,7.3854745822144885,-0.575132920616594,-90.04436492919922,6391.2333984375,True
1598628516.5127616,0,5,0.5,0.5,0.0011968078613281254,-0.14,-0.011,-0.56,-0.0008299766680677297,10,1,100,-0.02028302405821812,-10,-1,-100,473.4352460340597,-0.006764557289424458,0.00023193302800392023,0.9999770932235142,0.5876644664183696,-0.04142943585818815,-0.8091321058020744,1.2488308934328067,-90.03681945800781,6384.91796875,True
1598628516.6050086,0,5,0.5,0.5,0.0010790908813476567,-0.14,-0.011,-0.56,0.0006381466791902843,10,1,100,0.0207584614059131,-10,-1,-100,473.51259319193196,-0.006255316973970363,0.0002137697997364977,0.9999804124641781,1.4327400877635375,-0.10052698626513441,-3.3826145852514795,2.161794583036817,-90.03053283691406,6381.759765625,True
1598628516.6531684,0,5,0.5,0.5,-0.00567612762451172,-0.14,-0.011,-0.56,-0.0015962516787300348,10,1,100,-0.03925920788977372,-10,-1,-100,473.7767255156068,-0.005250851297026352,0.00017709187495318818,0.9999861985043216,2.6325217149572655,-0.18317823591731375,-11.281966653153356,3.989597546903708,-90.01580047607422,6375.4443359375,True
1598628516.70211,0,5,0.5,0.5,-0.002918868255615235,-0.14,-0.011,-0.56,-1.6673206361557434e-05,10,1,100,0.0035562343774186156,-10,-1,-100,473.9638464062009,-0.004731685791457124,0.00015827929457637696,0.9999887929858192,3.1166461006697648,-0.21608505869912348,-16.302846285550007,4.9044304343061755,-90.00794219970703,6372.2861328125,True
1598628516.7617388,0,5,0.5,0.5,-0.0036520736694335945,-0.14,-0.011,-0.56,-0.00011794177391308757,10,1,100,0.0010763736412907898,-10,-1,-100,474.1764807786094,-0.0042421159412624875,0.0001404343643670881,0.999990992324696,3.5792109008788917,-0.24735031644188502,-22.075572325874152,5.819879883782069,-90.00062561035156,6369.12841796875,True
1598628516.8052018,0,5,0.5,0.5,-0.004060356903076172,-0.14,-0.011,-0.56,-0.0004050726730776262,10,1,100,-0.006383982418665557,-10,-1,-100,474.41761881881393,-0.0037343088159813988,0.00012178468980014194,0.9999930200287183,4.032049992294628,-0.2778329698105515,-28.619885675044866,6.7359287111149655,-89.99423217773438,6365.97119140625,True
1598628516.8577504,0,5,0.5,0.5,-0.004473510742187501,-0.14,-0.011,-0.56,-0.0005654620614838676,10,1,100,-0.011105260681560203,-10,-1,-100,474.72858198173344,-0.0032351208066694072,0.00010356642998767321,0.9999947616199601,4.480058807222684,-0.30790341843649444,-35.94780150328982,7.652591968240104,-89.98858642578125,6362.8125,True
1598628516.9091532,0,5,0.5,0.5,-0.004701535797119141,-0.14,-0.011,-0.56,-0.0007670938411221471,10,1,100,-0.016123544603404365,-10,-1,-100,475.06624873832334,-0.0027409921549493904,8.536291912563269e-05,0.9999962398305198,4.925250011806098,-0.33772870484700834,-44.06729620294747,8.569879162092795,-89.98382568359375,6359.6552734375,True
1598628516.9597998,0,5,0.5,0.5,-0.004750569152832031,-0.14,-0.011,-0.56,-0.0009271351742479512,10,1,100,-0.02134845775711161,-10,-1,-100,475.43626391829457,-0.0022496452747929364,6.755371894881081e-05,0.999997467263109,5.368288762484916,-0.3673830722940313,-52.983411654352146,9.48777204448442,-89.98004150390625,6356.49755859375,True
1598628517.0107872,0,5,0.5,0.5,-0.004583023834228516,-0.14,-0.011,-0.56,-0.0010973811138152846,10,1,100,-0.02622186124613958,-10,-1,-100,475.8436340386979,-0.0017640751713553118,5.00121687066633e-05,0.9999984427675739,5.809249636131298,-0.3968966970788496,-62.70018190122746,10.406266337290848,-89.97735595703125,6353.33935546875,True
1598628517.0627353,0,5,0.5,0.5,-0.004285029602050782,-0.14,-0.011,-0.56,-0.0012649885745421481,10,1,100,-0.03088573066578927,-10,-1,-100,476.28313937445637,-0.0012856810865277545,3.273863152094166e-05,0.9999991729758207,6.247820996824026,-0.4262741146563809,-73.22009951028149,11.3253593189208,-89.97573852539062,6350.181640625,True
1598628517.1130624,0,5,0.5,0.5,-0.0038309783935546876,-0.14,-0.011,-0.56,-0.001406074984714028,10,1,100,-0.03522902882519429,-10,-1,-100,476.77632579859346,-0.000816273640874381,1.5933897983707604e-05,0.9999996667216716,6.683591739632796,-0.4555091506037782,-84.54565042969107,12.245033761258012,-89.97518920898438,6347.02392578125,True
1598628517.1711519,0,5,0.5,0.5,-0.003263804626464844,-0.14,-0.011,-0.56,-0.0015914724141328192,10,1,100,-0.03930092451921979,-10,-1,-100,477.2693297180813,-0.0003574669506375332,-8.487128614461935e-07,0.9999999361083275,7.1159400662446926,-0.4845815194803151,-96.67735127927634,13.165284692703692,-89.97564697265625,6343.8662109375,True
1598628517.2216702,0,5,0.5,0.5,-0.00262437973022461,-0.14,-0.011,-0.56,-0.0017369881484104535,10,1,100,-0.04302550716514735,-10,-1,-100,477.83221876295283,8.904135149858918e-05,-1.726673795246029e-05,0.9999999958867487,7.5443488269256616,-0.5134778926233339,-109.61714862047457,14.08613696227094,-89.97698974609375,6340.70849609375,True
1598628517.287798,0,5,0.5,0.5,-0.0019150192260742188,-0.14,-0.011,-0.56,-0.0018105554262200264,10,1,100,-0.046480494418343635,-10,-1,-100,478.41128304973245,0.0005219844856123433,-3.2701421440261186e-05,0.9999998632313976,7.968310295267006,-0.5421811485700866,-123.36677573465565,15.007564131921034,-89.9791259765625,6337.55078125,True
1598628517.3347151,0,5,0.5,0.5,-0.0012123504638671878,-0.14,-0.011,-0.56,-0.0019027760856535506,10,1,100,-0.04959505116468064,-10,-1,-100,479.05992797517683,0.0009395523048398426,-4.741392534601463e-05,0.9999995574965953,8.387107984174222,-0.5706630050951569,-137.92450747194184,15.92957177822178,-89.98187255859375,6334.392578125,True
1598628517.3878367,0,5,0.5,0.5,-0.0005209899902343751,-0.14,-0.011,-0.56,-0.0020676471569439784,10,1,100,-0.05247270881878967,-10,-1,-100,479.7084812800167,0.0013410709727014502,-6.213393989466151e-05,0.9999990988336038,8.80030762522803,-0.5989081490131958,-153.29236164712728,16.85218093190293,-89.98507690429688,6331.2353515625,True
1598628517.4406776,0,5,0.5,0.5,9.465637207031253e-05,-0.14,-0.011,-0.56,-0.0021216266592784406,10,1,100,-0.054987785525600165,-10,-1,-100,480.4105935760308,0.0017247921028381245,-7.585585735112439e-05,0.9999985096679349,9.2073984408661,-0.62689693440178,-169.4694385537412,17.775315092520174,-89.988525390625,6328.0771484375,True
1598628517.5021667,0,5,0.5,0.5,0.0005826141357421879,-0.14,-0.011,-0.56,-0.0022274371911486226,10,1,100,-0.05720031006831129,-10,-1,-100,481.1717268228531,0.002089683549479941,-8.914567916811343e-05,0.9999978126354633,9.60774418589958,-0.6546006966481213,-186.45239497492778,18.69901974254919,-89.99197387695312,6324.919921875,True
1598628517.5955956,0,5,0.5,0.5,0.0009503540039062501,-0.14,-0.011,-0.56,-0.002234276917763698,10,1,100,-0.05913313512616625,-10,-1,-100,481.93301279563457,0.0024350293389309345,-0.0001011470606999524,0.9999970301962855,10.001109045631438,-0.6820148457772826,-204.2441966664979,19.623339673710717,-89.9952392578125,6321.76171875,True
1598628517.6548429,0,5,0.5,0.5,0.0030400329589843752,-0.14,-0.011,-0.56,-0.00351330256101576,10,1,100,-0.09412750585033089,-10,-1,-100,483.60527413513046,0.0030632933318239836,-0.00012354749591354602,0.999995300473947,10.765295124416607,-0.7358984233594984,-242.24381992975566,21.473666189548506,-90.00080871582031,6315.44580078125,True
1598628517.7091403,0,5,0.5,0.5,0.0014013504028320314,-0.14,-0.011,-0.56,-0.0023820309024424257,10,1,100,-0.06272204153967212,-10,-1,-100,484.47886473708786,0.0033449845821586287,-0.000133485161823024,0.9999943966142293,11.135482407636374,-0.7623407946993963,-262.4466531180607,22.39966549723347,-90.00288391113281,6312.28857421875,True
1598628517.761151,0,5,0.5,0.5,0.0011188568115234375,-0.14,-0.011,-0.56,-0.002355345592977212,10,1,100,-0.06190597119279817,-10,-1,-100,485.4060442610644,0.003589865753652149,-0.00014214097432758684,0.999993546309082,11.497415869344051,-0.7884336323329043,-283.44756870405956,23.326217822602242,-90.00409698486328,6309.1298828125,True
1598628517.8137283,0,5,0.5,0.5,0.000721837615966797,-0.14,-0.011,-0.56,-0.0023921026645839045,10,1,100,-0.06349347436407132,-10,-1,-100,486.37631467496976,0.0038233283631993876,-0.00015021560247228103,0.9999926797709572,11.850879163015755,-0.8141590193107505,-305.23918087066374,24.253308581970703,-90.00445556640625,6305.97265625,True
1598628517.864765,0,5,0.5,0.5,0.0002788749694824219,-0.14,-0.011,-0.56,-0.0023730581339643773,10,1,100,-0.06294739111773573,-10,-1,-100,487.362544982112,0.004027207899628644,-0.00015726217881226203,0.99999187839959,12.195983241390504,-0.8395268766672533,-327.82014164103765,25.18092381083606,-90.00406646728516,6302.81494140625,True
1598628517.9177477,0,5,0.5,0.5,-0.00022347564697265627,-0.14,-0.011,-0.56,-0.002317439227148314,10,1,100,-0.06255820641462158,-10,-1,-100,488.40245618636254,0.004205828323250551,-0.00016304929382539692,0.999991142172291,12.532838902145883,-0.8645400999152318,-351.19040879110054,26.109093851820962,-90.00299835205078,6299.6572265625,True
1598628517.9713256,0,5,0.5,0.5,-0.0007556571960449219,-0.14,-0.011,-0.56,-0.002341798048192347,10,1,100,-0.06208819311011576,-10,-1,-100,489.4850609229179,0.0043609683364854955,-0.0001684266282391204,0.9999904767484734,12.861561005646553,-0.8892047081606851,-375.3482960646539,27.03782683216419,-90.00135040283203,6296.49951171875,True
1598628518.0217402,0,5,0.5,0.5,-0.0013316284179687502,-0.14,-0.011,-0.56,-0.0022594949453585934,10,1,100,-0.061329509729404985,-10,-1,-100,490.56778766971547,0.004492362229270998,-0.00017247027432733993,0.9999898944167414,13.182184216167306,-0.9135115107375915,-400.2870391596725,27.967096399331847,-89.99918365478516,6293.341796875,True
1598628518.0726156,0,5,0.5,0.5,-0.0019116401672363283,-0.14,-0.011,-0.56,-0.002262831960682583,10,1,100,-0.06032161310296334,-10,-1,-100,491.72018528101034,0.004600132553266137,-0.0001760888214405065,0.9999894038304702,13.494938089827466,-0.9374777403651264,-426.00415307309265,28.89690023314143,-89.9966049194336,6290.18359375,True
1598628518.1247313,0,5,0.5,0.5,-0.0024865325927734376,-0.14,-0.011,-0.56,-0.002186395832163339,10,1,100,-0.05903603754008276,-10,-1,-100,492.91555131354835,0.0046841362981411795,-0.00017860449660932624,0.9999890134234347,13.800080085404954,-0.9611042600594053,-452.4959388415071,29.82723502284724,-89.99371337890625,6287.02587890625,True
1598628518.175894,0,5,0.5,0.5,-0.003047903442382813,-0.14,-0.011,-0.56,-0.0020971805593927384,10,1,100,-0.05760361238388769,-10,-1,-100,494.1374676648993,0.004745436649371981,-0.00018001001025042112,0.9999887241501291,14.097875282726093,-0.9844020298425747,-479.7572012206744,30.758097416997245,-89.9906005859375,6283.8681640625,True
1598628518.226798,0,5,0.5,0.5,-0.0035590103149414068,-0.14,-0.011,-0.56,-0.0020381668252056236,10,1,100,-0.05580648440950502,-10,-1,-100,495.4023521968629,0.004783297493162369,-0.00018069993187304554,0.9999885436406892,14.38869403929713,-1.007383130800489,-507.7832289948403,31.689442222586454,-89.98739624023438,6280.7099609375,True
1598628518.2818294,0,5,0.5,0.5,-0.0040032928466796885,-0.14,-0.011,-0.56,-0.001998942431783194,10,1,100,-0.05385627594840866,-10,-1,-100,496.69403094192967,0.004798679717042752,-0.000180927625435182,0.9999884699026121,14.672884489847352,-1.030055818363785,-536.5684431708219,32.621308670413846,-89.98422241210938,6277.552734375,True
1598628518.3437023,0,5,0.5,0.5,-0.004405403900146485,-0.14,-0.011,-0.56,-0.0018657573656060812,10,1,100,-0.05169882067485672,-10,-1,-100,498.02870850649197,0.004791951405389545,-0.00017988858566177993,0.9999885023548147,14.950995806785546,-1.0524417001397626,-566.1126701235122,33.553736791121295,-89.98114013671875,6274.39453125,True
1598628518.4027023,0,5,0.5,0.5,-0.004755757904052735,-0.14,-0.011,-0.56,-0.0018001327093041712,10,1,100,-0.04934908904127803,-10,-1,-100,499.3793769972399,0.004763592995361196,-0.00017832044082577024,0.9999886381272514,15.223503018161008,-1.0745603373382382,-596.4093129795439,34.486680099520036,-89.97821044921875,6271.2373046875,True
1598628518.4476814,0,5,0.5,0.5,-0.005002095031738282,-0.14,-0.011,-0.56,-0.0016611582011599943,10,1,100,-0.04684191776151099,-10,-1,-100,500.78345124062616,0.0047143507154323305,-0.00017561230611716573,0.9999888719669083,15.490938764955972,-1.0964275097052165,-627.4538670015721,35.42013686670058,-89.97555541992188,6268.0791015625,True
1598628518.5000217,0,5,0.5,0.5,-0.005233087921142579,-0.14,-0.011,-0.56,-0.0015697032501240642,10,1,100,-0.044076106819146976,-10,-1,-100,502.23070710734464,0.004643978977482615,-0.00017230753590693337,0.9999892018263846,15.753913590400526,-1.1180663998074323,-659.2424415277593,36.35407950386608,-89.97314453125,6264.9208984375,True
1598628518.5529206,0,5,0.5,0.5,-0.005345291137695313,-0.14,-0.011,-0.56,-0.0014821747389111588,10,1,100,-0.04134860471504871,-10,-1,-100,503.704512933502,0.0045549519141810735,-0.00016850395751599772,0.9999896119557822,16.013014879944475,-1.1394934491715407,-691.7696954145108,37.28852884508454,-89.97109985351562,6261.763671875,True
1598628518.6048353,0,5,0.5,0.5,-0.005448815155029298,-0.14,-0.011,-0.56,-0.0013289651249472614,10,1,100,-0.03835400095270633,-10,-1,-100,505.2374920443399,0.004446737649990278,-0.0001636569500489402,0.9999900998213307,16.268956546143233,-1.160738009344926,-725.0348185058998,38.22350663199777,-89.9693603515625,6258.60546875,True
1598628518.664915,0,5,0.5,0.5,-0.005465966796875001,-0.14,-0.011,-0.56,-0.001223488340413649,10,1,100,-0.035289855074386825,-10,-1,-100,506.7809996781871,0.004320644624471446,-0.00015830300146621101,0.9999906534414152,16.522409630784413,-1.181826788439185,-759.0331018689686,39.158985535834525,-89.96798706054688,6255.447265625,True
1598628518.7097225,0,5,0.5,0.5,-0.005472903442382813,-0.14,-0.011,-0.56,-0.001074483156165297,10,1,100,-0.032139486341606405,-10,-1,-100,508.4103833650006,0.004177705332496022,-0.0001520996388025114,0.9999912617837492,16.774125853598616,-1.2027878910951668,-793.7618852143223,40.09489169565182,-89.9669189453125,6252.2900390625,True
1598628518.7678194,0,5,0.5,0.5,-0.005413504028320313,-0.14,-0.011,-0.56,-0.0009809910690245602,10,1,100,-0.0288081006627009,-10,-1,-100,510.0397975433152,0.004017991316634565,-0.00014563566319918497,0.999991917235351,17.024655355850168,-1.2236382972082225,-829.210387221485,41.031288361889864,-89.9661865234375,6249.13232421875,True
1598628518.812671,0,5,0.5,0.5,-0.005389837646484376,-0.14,-0.011,-0.56,-0.0008324617100576922,10,1,100,-0.02553095191975009,-10,-1,-100,511.69585347012617,0.003843700228348713,-0.000138440931449802,0.9999926033739764,17.274974507725734,-1.2444207078390113,-865.3888540829481,41.96824872712471,-89.96566772460938,6245.974609375,True
1598628518.8635952,0,5,0.5,0.5,-0.005333343505859375,-0.14,-0.011,-0.56,-0.000697309288417112,10,1,100,-0.022157659646088443,-10,-1,-100,513.3946949417004,0.0036554556542270997,-0.00013071023211179894,0.9999933102570213,17.52577227598994,-1.2651578473455565,-902.2906843858506,42.90570381566521,-89.96536254882812,6242.8173828125,True
1598628518.9218812,0,5,0.5,0.5,-0.0053079742431640636,-0.14,-0.011,-0.56,-0.0005666964766512418,10,1,100,-0.018739122141028294,-10,-1,-100,515.136687911232,0.0034542797874806885,-0.00012253964201897004,0.9999940264497514,17.77779217114606,-1.2858742837608392,-939.9121714785772,43.84364566948355,-89.96517944335938,6239.6591796875,True
1598628518.9699469,0,5,0.5,0.5,-0.005283856201171876,-0.14,-0.011,-0.56,-0.0004507378766292091,10,1,100,-0.015289801338336254,-10,-1,-100,516.9215278566116,0.003241225458784824,-0.00011410837356965874,0.9999947407045721,18.031824214928164,-1.306611685951957,-978.2537616003034,44.78207099537356,-89.965087890625,6236.5009765625,True
1598628519.0209942,0,5,0.5,0.5,-0.005308187866210938,-0.14,-0.011,-0.56,-0.00026765632121890837,10,1,100,-0.011764913700991239,-10,-1,-100,518.7598343156278,0.0030168344771369445,-0.00010483511895977983,0.9999954438492885,18.28859234436824,-1.3273887021656605,-1017.3124009579758,45.72097724495965,-89.96499633789062,6233.34375,True
1598628519.079899,0,5,0.5,0.5,-0.005372692871093751,-0.14,-0.011,-0.56,-0.00011901078343408466,10,1,100,-0.008366497467548258,-10,-1,-100,520.6143150064163,0.002783427204880614,-9.511490298634348e-05,0.9999961217355546,18.54889755585607,-1.3482433914725847,-1057.0891621762526,46.66035984520617,-89.96484375,6230.185546875,True
1598628519.1246996,0,5,0.5,0.5,-0.005486386108398438,-0.14,-0.011,-0.56,-2.3487077555764315e-05,10,1,100,-0.004896091704521512,-10,-1,-100,522.4954680411611,0.002541300109264889,-8.547666300662538e-05,0.9999967672385219,18.813483229694935,-1.3692037399791994,-1097.5835071081021,47.60021401814547,-89.96456909179688,6227.02734375,True
1598628519.1789908,0,5,0.5,0.5,-0.005636920166015626,-0.14,-0.011,-0.56,0.00013069580190631978,10,1,100,-0.0014217926918244674,-10,-1,-100,524.4464456819696,0.002291332247263098,-7.5384037109083e-05,0.9999973720534368,19.08308795824512,-1.3902942616689549,-1138.7958150476395,48.540541532609986,-89.96414184570312,6223.86962890625,True
1598628519.2300644,0,5,0.5,0.5,-0.00582913818359375,-0.14,-0.011,-0.56,0.0002603945543068827,10,1,100,0.0019049192651997143,-10,-1,-100,526.3972398331389,0.0020356907298132577,-6.51052239661822e-05,0.9999979258601301,19.35842555707812,-1.411554834925027,-1180.7263367934956,49.481341468023764,-89.96353149414062,6220.7119140625,True
1598628519.2818787,0,5,0.5,0.5,-0.006089212036132814,-0.14,-0.011,-0.56,0.00038088051574281456,10,1,100,0.0052411751199079246,-10,-1,-100,528.3910031230189,0.0017749070376366762,-5.4744607291251476e-05,0.9999984233527749,19.64021471455307,-1.433010090001922,-1223.37801121218,50.4226073636885,-89.96267700195312,6217.55419921875,True
1598628519.3317688,0,5,0.5,0.5,-0.006383599853515626,-0.14,-0.011,-0.56,0.0005411124124150218,10,1,100,0.00851749636604376,-10,-1,-100,530.4544073708821,0.0015100853827649107,-4.3951839486028876e-05,0.9999988588545353,19.929140255020265,-1.4546892259143718,-1266.7529031915913,51.364336295855864,-89.96157836914062,6214.396484375,True
1598628519.3877668,0,5,0.5,0.5,-0.006712805175781251,-0.14,-0.011,-0.56,0.0006871450247938367,10,1,100,0.011662253114112047,-10,-1,-100,532.5341086176923,0.0012428711941223065,-3.2898562361440715e-05,0.9999992270941411,20.2258207292059,-1.476611433214058,-1310.8527343456376,52.30652481689121,-89.96023559570312,6211.23828125,True
1598628519.4397612,0,5,0.5,0.5,-0.007077331542968751,-0.14,-0.011,-0.56,0.0007689549141815806,10,1,100,0.01475443130974708,-10,-1,-100,534.6670929809334,0.0009740317521778978,-2.219532204442686e-05,0.9999995253846439,20.530878822644834,-1.4988097165296144,-1355.679457835657,53.249153792077465,-89.95864868164062,6208.0810546875,True
1598628519.4897032,0,5,0.5,0.5,-0.007456219482421875,-0.14,-0.011,-0.56,0.0009105727783165778,10,1,100,0.017757261353226826,-10,-1,-100,536.8001998575637,0.0007045885755016219,-1.1268890554982056e-05,0.999999751713945,20.844903828199406,-1.521308542310409,-1401.2374161843084,54.19223605040892,-89.95684814453125,6204.9228515625,True
1598628519.5438533,0,5,0.5,0.5,-0.00786689453125,-0.14,-0.011,-0.56,0.0010538881169010201,10,1,100,0.02062890086747322,-10,-1,-100,539.0190612815786,0.00043584045283302493,-1.2639474382337527e-07,0.9999999050215373,21.16845957965222,-1.5441296743628252,-1447.5314846099661,55.13574387142344,-89.954833984375,6201.76513671875,True
1598628519.6021948,0,5,0.5,0.5,-0.008288229370117188,-0.14,-0.011,-0.56,0.0011233094748888985,10,1,100,0.02333726912790151,-10,-1,-100,541.23810580594,0.0001692488062434105,1.0539060407832542e-05,0.9999999856218849,21.501972750356064,-1.5672950285503435,-1494.5606819176626,56.07969938106592,-89.95263671875,6198.607421875,True
1598628519.6477847,0,5,0.5,0.5,-0.008716085815429687,-0.14,-0.011,-0.56,0.0012618213334234954,10,1,100,0.02603300137367988,-10,-1,-100,543.5103732589632,-9.52373670736449e-05,2.139807838383955e-05,0.9999999952359828,21.84602649592058,-1.5908306315509393,-1542.338232212291,57.0241386532194,-89.95028686523438,6195.44970703125,True
1598628519.6996856,0,5,0.5,0.5,-0.00918894958496094,-0.14,-0.011,-0.56,0.0013761545635294042,10,1,100,0.02856038905382573,-10,-1,-100,545.8257314800285,-0.0003562587422028952,3.221214705263558e-05,0.9999999360210411,22.20098177233655,-1.6147584084150184,-1590.8632841160054,57.969018151819945,-89.94775390625,6192.29150390625,True
1598628519.7526796,0,5,0.5,0.5,-0.009604315185546877,-0.14,-0.011,-0.56,0.001464753440850997,10,1,100,0.030913550394817645,-10,-1,-100,548.1838146267692,-0.0006125363763389893,4.27507481961358e-05,0.9999998114857628,22.567234913853724,-1.6390901255459986,-1640.1426512771598,58.91433514807656,-89.94515991210938,6189.1337890625,True
1598628519.85183,0,5,0.5,0.5,-0.01000904541015625,-0.14,-0.011,-0.56,0.001554683387017668,10,1,100,0.033156457800805644,-10,-1,-100,550.5421416504541,-0.0008634986318751909,5.305078877159454e-05,0.9999996257777933,22.945143603776966,-1.663844364568718,-1690.1813826203388,59.86008039118104,-89.94253540039062,6185.9765625,True
1598628519.949866,0,5,0.5,0.5,-0.0122571533203125,-0.14,-0.011,-0.56,0.0027727158516563898,10,1,100,0.061444426537554185,-10,-1,-100,555.4408032367937,-0.0013464109384517138,7.338948861321555e-05,0.9999990908953708,23.73699560496395,-1.7146739830371194,-1792.5578638347615,61.75286434990715,-89.937255859375,6179.6611328125,True
1598628520.0037363,0,5,0.5,0.5,-0.013151217651367189,-0.14,-0.011,-0.56,0.002839456858601279,10,1,100,0.06348386027745806,-10,-1,-100,560.4786860181484,-0.001801365618137482,9.237927823409796e-05,0.9999983732726664,24.578322375582022,-1.7673507359818077,-1898.0316905806915,63.647347121160614,-89.93179321289062,6173.3447265625,True
1598628520.0549579,0,5,0.5,0.5,-0.01196058044433594,-0.14,-0.011,-0.56,0.0019040139213655572,10,1,100,0.04075885931441936,-10,-1,-100,563.0353163237451,-0.002005602375631229,0.00010102480769585219,0.9999979836745169,25.018065953387108,-1.7944047575836577,-1951.9528741948684,64.59521575189287,-89.92916870117188,6170.18701171875,True
1598628520.1057227,0,5,0.5,0.5,-0.012040005493164065,-0.14,-0.011,-0.56,0.001987223371641767,10,1,100,0.04186337794706318,-10,-1,-100,565.6453529542778,-0.0021986044753515704,0.00010952881118201224,0.9999975770679649,25.471017943690896,-1.821988485048281,-2006.7140666558369,65.54349662624277,-89.927001953125,6167.029296875,True
1598628520.1546667,0,5,0.5,0.5,-0.012162557983398438,-0.14,-0.011,-0.56,0.002011384429162293,10,1,100,0.04344618519831349,-10,-1,-100,568.2982965317788,-0.002385810820062472,0.00011736955332712889,0.9999971470614898,25.93685583727928,-1.8500854653020542,-2062.3220299722416,66.49217630214675,-89.92514038085938,6163.87109375,True
1598628520.2078736,0,5,0.5,0.5,-0.012370391845703127,-0.14,-0.011,-0.56,0.002084327448782998,10,1,100,0.04376193250727449,-10,-1,-100,570.9943315547425,-0.002556303698723941,0.0001250538045937223,0.9999967248311096,26.415052741320835,-1.8786663221653448,-2118.7550402213033,67.44125284220927,-89.92340087890625,6160.7138671875,True
1598628520.256755,0,5,0.5,0.5,-0.01260335693359375,-0.14,-0.011,-0.56,0.0020865937869979888,10,1,100,0.0444641526282114,-10,-1,-100,573.7436498136958,-0.0027152032690565507,0.00013195598632513813,0.9999963051225865,26.90536789282141,-1.9077201240640018,-2176.0047148754766,68.39074139980148,-89.92172241210938,6157.5556640625,True
1598628520.3061163,0,5,0.5,0.5,-0.012848400878906251,-0.14,-0.011,-0.56,0.0021609175578787914,10,1,100,0.04517161688930481,-10,-1,-100,576.4930901186308,-0.0028637071300034243,0.000138805860445395,0.9999958899487572,27.407718919748245,-1.9372457887145136,-2234.081543656298,69.34063528803522,-89.92007446289062,6154.39794921875,True
1598628520.3539546,0,5,0.5,0.5,-0.013109561157226564,-0.14,-0.011,-0.56,0.0021679261126646425,10,1,100,0.045599760257405815,-10,-1,-100,579.3014903086005,-0.0030003233538580453,0.00014499982949514286,0.9999954885072342,27.92190724184486,-1.96723521980025,-2292.987141898013,70.29092262145026,-89.91842651367188,6151.240234375,True
1598628520.4067252,0,5,0.5,0.5,-0.013412405395507815,-0.14,-0.011,-0.56,0.0022065483950815985,10,1,100,0.0460158634911057,-10,-1,-100,582.1368068107404,-0.0031261319622345007,0.00015088886839752323,0.9999951022537581,28.44773844909259,-1.9976862734556917,-2352.726411082288,71.2415969055507,-89.91671752929688,6148.08203125,True
1598628520.4559617,0,5,0.5,0.5,-0.01372278747558594,-0.14,-0.011,-0.56,0.0022448464898825,10,1,100,0.0461791921145749,-10,-1,-100,584.9986129119061,-0.0032399312906715807,0.0001565017609163991,0.999994739162377,28.985013266008075,-2.0286041938098536,-2413.3069429340194,72.19265708960822,-89.91494750976562,6144.9248046875,True
1598628520.5056992,0,5,0.5,0.5,-0.014037854003906253,-0.14,-0.011,-0.56,0.00224456211039591,10,1,100,0.046225667607663785,-10,-1,-100,587.9197441836586,-0.003342086347958625,0.0001615262485997689,0.999994402168389,29.53346158417407,-2.0599695607681032,-2474.7341450503523,73.14410297959422,-89.91311645507812,6141.7666015625,True
1598628520.5557675,0,5,0.5,0.5,-0.0144001953125,-0.14,-0.011,-0.56,0.002240266666073542,10,1,100,0.04612383108188513,-10,-1,-100,590.8942816255149,-0.0034326281400490224,0.0001659920542995693,0.9999940947379089,30.09277418581101,-2.091774979244185,-2537.012958779746,74.09592737462701,-89.91116333007812,6138.60888671875,True
1598628520.6169195,0,5,0.5,0.5,-0.014736163330078125,-0.14,-0.011,-0.56,0.0022471754030664536,10,1,100,0.045879882473803715,-10,-1,-100,593.868757715798,-0.003511423849362809,0.00017005562322968366,0.9999938204727243,30.66260568535758,-2.124010227079119,-2600.1455768606597,75.04812561684018,-89.90914916992188,6135.451171875,True
1598628520.661802,0,5,0.5,0.5,-0.015144595336914063,-0.14,-0.011,-0.56,0.002269259827169701,10,1,100,0.04550268774622069,-10,-1,-100,596.8862024433911,-0.0035784337972391226,0.00017389551991977382,0.9999935822653597,31.24259298098648,-2.1566605554922136,-2664.1377168367494,76.00069477202949,-89.906982421875,6132.29296875,True
1598628520.7137535,0,5,0.5,0.5,-0.015574725341796875,-0.14,-0.011,-0.56,0.002242853269537146,10,1,100,0.04504039245335374,-10,-1,-100,599.9732881091768,-0.003634065044485002,0.0001770948882353847,0.9999933810824215,31.83234817895242,-2.189721281696345,-2728.993511675291,76.95363029222216,-89.9046630859375,6129.13525390625,True
1598628520.7646558,0,5,0.5,0.5,-0.016005493164062502,-0.14,-0.011,-0.56,0.002219403473648059,10,1,100,0.04440121833627826,-10,-1,-100,603.0765475158114,-0.0036778484487844237,0.0001797429148472741,0.9999932205386557,32.43146245278682,-2.2231686756936946,-2794.7163982142174,77.90692777350462,-89.9022216796875,6125.9775390625,True
1598628520.8191042,0,5,0.5,0.5,-0.016454190063476565,-0.14,-0.011,-0.56,0.002225261605246775,10,1,100,0.04371411024838178,-10,-1,-100,606.2332130229333,-0.0037105299744578137,0.0001821600248466872,0.9999930993687076,33.039463817288315,-2.256988689816771,-2861.3070217024915,78.86058392036448,-89.899658203125,6122.81982421875,True
1598628520.873068,0,5,0.5,0.5,-0.016878259277343752,-0.14,-0.011,-0.56,0.002231650669276216,10,1,100,0.042909997509867584,-10,-1,-100,609.406113407691,-0.003732160497588535,0.0001843760670969656,0.9999930184673721,33.65588105468957,-2.29116116626154,-2928.7686737856025,79.81459435794501,-89.89703369140625,6119.662109375,True
1598628520.9258325,0,5,0.5,0.5,-0.017354672241210938,-0.14,-0.011,-0.56,0.0021823311164790807,10,1,100,0.0420413646448207,-10,-1,-100,612.6325414425228,-0.003743262640621737,0.000185906494810334,0.9999929766871257,34.280233391933805,-2.32566840028737,-2997.1022669501062,80.76895479509318,-89.894287109375,6116.50390625,True
1598628520.9739816,0,5,0.5,0.5,-0.017806591796875,-0.14,-0.011,-0.56,0.002143783819832871,10,1,100,0.0410423143348098,-10,-1,-100,615.8750828073826,-0.003743712194489651,0.00018691552855623714,0.9999929748161185,34.91202998236728,-2.3604941662644863,-3066.3075942519517,81.72366125085651,-89.8914794921875,6113.34619140625,True
1598628521.0230236,0,5,0.5,0.5,-0.01824683532714844,-0.14,-0.011,-0.56,0.002120876296572284,10,1,100,0.0400074580106953,-10,-1,-100,619.1873260127613,-0.0037342551124196067,0.0001875969328704712,0.9999930100486433,35.550724478870066,-2.39561314218475,-3136.385047718448,82.67870974641889,-89.88864135742188,6110.1884765625,True
1598628521.073696,0,5,0.5,0.5,-0.018735183715820315,-0.14,-0.011,-0.56,0.0020925818615852776,10,1,100,0.03888504922453768,-10,-1,-100,622.5262412362499,-0.0037150975317868052,0.0001879354685796469,0.9999930813413607,36.195768246919705,-2.43101137543529,-3207.3325285440987,83.63409591239204,-89.88571166992188,6107.0302734375,True
1598628521.1226716,0,5,0.5,0.5,-0.019173336791992186,-0.14,-0.011,-0.56,0.0020645933545508253,10,1,100,0.03773425085043325,-10,-1,-100,625.9081252099713,-0.0036869629556362748,0.00018796883878378426,0.9999931854627209,36.846653968899886,-2.466662490992327,-3279.152397574949,84.58981539895558,-89.88278198242188,6103.873046875,True
1598628521.1720948,0,5,0.5,0.5,-0.01963385925292969,-0.14,-0.011,-0.56,0.002018357340259452,10,1,100,0.03647644703277183,-10,-1,-100,629.2898869210621,-0.00364979190706044,0.0001875625631889384,0.9999933218973617,37.50275493160895,-2.5025387420609957,-3351.836518840128,85.54585408139191,-89.87982177734375,6100.71484375,True
1598628521.2209716,0,5,0.5,0.5,-0.020078164672851565,-0.14,-0.011,-0.56,0.0019844911823660577,10,1,100,0.035210160306660805,-10,-1,-100,632.7576472319197,-0.0036044234761997435,0.00018687292299162113,0.9999934865837452,38.16357551074281,-2.5386160368889024,-3425.3858861455733,86.50221958018378,-89.87686157226562,6097.55712890625,True
1598628521.2707682,0,5,0.5,0.5,-0.020523175048828127,-0.14,-0.011,-0.56,0.0019261449510126322,10,1,100,0.03390776701435321,-10,-1,-100,636.2520793857984,-0.003551366456003846,0.00018570666795015954,0.9999936766346719,38.82853662752637,-2.5748832798158428,-3499.79522317986,87.45891593102478,-89.8739013671875,6094.3994140625,True
1598628521.3199596,0,5,0.5,0.5,-0.020968756103515628,-0.14,-0.011,-0.56,0.0018872061404226587,10,1,100,0.03258530203253872,-10,-1,-100,639.7731228463817,-0.003491225375984517,0.0001842870253133739,0.999993888673159,39.49706800529969,-2.6113079052860053,-3575.058923820372,88.41593033601919,-89.87094116210938,6091.2412109375,True
1598628521.3688474,0,5,0.5,0.5,-0.021414773559570315,-0.14,-0.011,-0.56,0.0018707751251928854,10,1,100,0.03122872339196958,-10,-1,-100,643.3372572169174,-0.003424418501596747,0.0001828451345956011,0.9999941199455038,40.168712345955974,-2.6478669529385392,-3651.177281562499,89.37325723358673,-89.86798095703125,6088.083984375,True
1598628521.4198997,0,5,0.5,0.5,-0.021839797973632814,-0.14,-0.011,-0.56,0.0017800092202407878,10,1,100,0.02987528711741265,-10,-1,-100,646.9442990336102,-0.003351660778744613,0.0001807105720185171,0.9999943668409905,40.842784025488235,-2.6845434300639193,-3728.134505664817,90.33088794926346,-89.86505126953125,6084.92578125,True
1598628521.5167756,0,5,0.5,0.5,-0.02228211364746094,-0.14,-0.011,-0.56,0.0018048201553175166,10,1,100,0.028510484698525504,-10,-1,-100,650.5779518006602,-0.0032734661013090415,0.00017900033810622175,0.9999946261748424,41.5188569503004,-2.721303899446657,-3805.9320580164144,91.28882343800474,-89.86212158203125,6081.76806640625,True
1598628521.5696652,0,5,0.5,0.5,-0.024753982543945317,-0.14,-0.011,-0.56,0.001417716624305264,10,1,100,0.017544903426200208,-10,-1,-100,657.9741031333106,-0.003103120424885729,0.0001739336526226146,0.999995170183693,42.87486813469354,-2.7949929769289055,-3964.0090723223175,93.20560674298466,-89.85629272460938,6075.4521484375,True
1598628521.6297944,0,5,0.5,0.5,-0.02368299865722657,-0.14,-0.011,-0.56,0.001617714948590027,10,1,100,0.02443381693498319,-10,-1,-100,661.7203654001933,-0.0030114609642966847,0.00017115816265851307,0.9999954508935248,43.553810469788,-2.831874473138272,-4044.2698886563803,94.16444144500365,-89.85321044921875,6072.294921875,True
1598628521.675771,0,5,0.5,0.5,-0.024022094726562502,-0.14,-0.011,-0.56,0.0015825323431468417,10,1,100,0.023573924097530195,-10,-1,-100,665.5362691339105,-0.002920956643936608,0.00016833040019250195,0.9999957198294204,44.23276680815669,-2.868741885005493,-4125.33613263648,95.1235657363002,-89.85031127929688,6069.13671875,True
1598628521.7299685,0,5,0.5,0.5,-0.0242500732421875,-0.14,-0.011,-0.56,0.0015367357547429123,10,1,100,0.02215587659083608,-10,-1,-100,669.3684690886876,-0.0028264850174681373,0.00016536122754572092,0.9999959918110225,44.91096723286259,-2.9055595118178963,-4207.158844476764,96.08297189875893,-89.84771728515625,6065.97900390625,True
1598628521.778712,0,5,0.5,0.5,-0.024648547363281256,-0.14,-0.011,-0.56,0.0014621887968988918,10,1,100,0.02099729828804175,-10,-1,-100,673.2273413628573,-0.0027308176514619356,0.00016200446310065,0.9999962581877537,45.58836967033311,-2.94232720663419,-4289.745309115003,97.04264951790321,-89.84512329101562,6062.82080078125,True
1598628521.827877,0,5,0.5,0.5,-0.025067980957031253,-0.14,-0.011,-0.56,0.0014580970024233601,10,1,100,0.019891371150139434,-10,-1,-100,677.1558548329631,-0.0026345876227705837,0.00015893826861889066,0.9999965168372762,46.264754652004505,-2.9790336184166573,-4373.100141276644,98.00261045517392,-89.84249877929688,6059.6630859375,True
1598628521.8778453,0,5,0.5,0.5,-0.025512680053710938,-0.14,-0.011,-0.56,0.0013518187384068078,10,1,100,0.01879011108082915,-10,-1,-100,681.100603037281,-0.0025379277586331096,0.0001552089879619874,0.9999967674112061,46.939848866623294,-3.015649125539176,-4457.217238357235,98.96285749655989,-89.83981323242188,6056.5048828125,True
1598628521.926768,0,5,0.5,0.5,-0.02600834655761719,-0.14,-0.011,-0.56,0.0013755165298517166,10,1,100,0.017738367893132774,-10,-1,-100,685.0986963476753,-0.002441360487363031,0.0001520606018664394,0.9999970083137969,47.61145427328988,-3.0520516964055404,-4541.906916530879,99.92337792252555,-89.83700561523438,6053.34765625,True
1598628521.9747,0,5,0.5,0.5,-0.02654229736328125,-0.14,-0.011,-0.56,0.0013786630009723399,10,1,100,0.016685549111784242,-10,-1,-100,689.1130860453704,-0.0023448946682090945,0.00014925502291042794,0.9999972395921567,48.276531675726304,-3.08803829268072,-4626.889435287863,100.88416934742398,-89.83404541015625,6050.189453125,True
1598628522.025755,0,5,0.5,0.5,-0.02705491943359375,-0.14,-0.011,-0.56,0.0012466598145834166,10,1,100,0.015740464923816616,-10,-1,-100,693.1808201979147,-0.0022495220364608425,0.00014553306357334376,0.9999974592321398,48.93475970974913,-3.1235998111430416,-4712.137282942289,101.84523303013515,-89.83099365234375,6047.03173828125,True
1598628522.075996,0,5,0.5,0.5,-0.02538017578125,-0.14,-0.011,-0.56,0.0016155090208385466,10,1,100,0.025175333692157,-10,-1,-100,693.1808201979147,-0.0022495220364608425,0.00014553306357334376,0.9999974592321398,48.93475970974913,-3.1235998111430416,-4712.137282942289,101.84523303013515,-89.83099365234375,6047.03173828125,True
1598628522.1389172,0,5,0.5,0.5,-0.02991545104980469,-0.14,-0.011,-0.56,0.0008561303777741055,10,1,100,0.004625083734785318,-10,-1,-100,701.4184616483981,-0.00206347758083785,0.00013865544008098455,0.9999978614151843,50.22943404661292,-3.1933357803031575,-4883.308031964554,103.76816468620544,-89.82455444335938,6040.7158203125,True
1598628522.2008803,0,5,0.5,0.5,-0.0289258544921875,-0.14,-0.011,-0.56,0.0011533431329451202,10,1,100,0.012799956820176468,-10,-1,-100,705.6150404468644,-0.001969525088669102,0.00013513453715546496,0.9999980513528924,50.86559277821232,-3.2274963300504687,-4969.193913169556,104.73002481676939,-89.82086181640625,6037.55859375,True
1598628522.263714,0,5,0.5,0.5,-0.02951794128417969,-0.14,-0.011,-0.56,0.0011672667269261236,10,1,100,0.01294478055041711,-10,-1,-100,709.8115592284594,-0.0018862952492953988,0.00013209047249848995,0.9999982122195717,51.49413631340238,-3.2611807612450865,-5055.261267267567,105.69216532446103,-89.81710815429688,6034.400390625,True
1598628522.3750427,0,5,0.5,0.5,-0.030013037109375,-0.14,-0.011,-0.56,0.001062185708938403,10,1,100,0.011792454060178445,-10,-1,-100,714.0778402027208,-0.0018010107815609286,0.0001283981051513945,0.999998369935717,52.11449933076534,-3.294340652172533,-5141.439599601905,106.6545869898757,-89.81344604492188,6031.2431640625,True
1598628522.429892,0,5,0.5,0.5,-0.033166778564453124,-0.14,-0.011,-0.56,0.0007772061299210549,10,1,100,0.003114733257361762,-10,-1,-100,722.7065946343355,-0.001645436355294805,0.000122481235352013,0.9999986387678472,53.331155054003304,-3.3590816083855737,-5314.053147510014,108.58025017480912,-89.80606079101562,6024.92724609375,True
1598628522.4987886,0,5,0.5,0.5,-0.0317627685546875,-0.14,-0.011,-0.56,0.001066432372119276,10,1,100,0.010760508712453503,-10,-1,-100,727.0692504293984,-0.001574411336705959,0.00011976473503916533,0.9999987534418986,53.9275593618439,-3.390671315917802,-5400.449423006175,109.54349399763623,-89.80221557617188,6021.76953125,True
1598628522.6091352,0,5,0.5,0.5,-0.03219291992187501,-0.14,-0.011,-0.56,0.001050470503385864,10,1,100,0.01087480084476505,-10,-1,-100,731.4908659707289,-0.0015117580813934107,0.0001171823034507481,0.9999988504272447,54.516058860379374,-3.421733009014076,-5486.868448203757,110.50701352796264,-89.798583984375,6018.611328125,True
1598628522.722801,0,5,0.5,0.5,-0.034773025512695316,-0.14,-0.011,-0.56,0.0007985798424077308,10,1,100,0.0047711462221111806,-10,-1,-100,740.4143585992279,-0.0014001579003633038,0.00011257643081458185,0.999999013441714,55.669579746105,-3.4822148542037987,-5659.588917134899,112.43488365193197,-89.79205322265625,6012.2958984375,True
1598628522.824753,0,5,0.5,0.5,-0.036032595825195315,-0.14,-0.011,-0.56,0.0007881561239961426,10,1,100,0.006224454265899621,-10,-1,-100,749.520224043401,-0.0013127739332502342,0.00010832785697077613,0.9999991324444615,56.79462885954667,-3.5406283311262494,-5832.124454846818,114.3638846412425,-89.78509521484375,6005.98046875,True
1598628522.8889494,0,5,0.5,0.5,-0.03746308898925781,-0.14,-0.011,-0.56,0.0008681669844951244,10,1,100,0.00841872029961456,-10,-1,-100,758.7548733665608,-0.0012541334253659527,0.00010522671148694583,0.9999992080380317,57.89332167129791,-3.5970189207015615,-6004.307295824215,116.2940265107411,-89.77755737304688,5999.66455078125,True
1598628522.9496567,0,5,0.5,0.5,-0.03580006713867188,-0.14,-0.011,-0.56,0.0010237958704084596,10,1,100,0.012084554432141124,-10,-1,-100,763.4550530517008,-0.0012350545363223882,0.00010385893851184533,0.9999992319265116,58.433417349162156,-3.6244478415840975,-6090.1762447566025,117.25953056354574,-89.77398681640625,5996.5068359375,True
1598628523.0099702,0,5,0.5,0.5,-0.03605649719238281,-0.14,-0.011,-0.56,0.001074615941213867,10,1,100,0.012586903543672335,-10,-1,-100,768.1552328125108,-0.001223030013700809,0.00010310914236141143,0.9999992467827615,58.96814273679418,-3.6513986060227075,-6175.8856545151475,118.22532687071023,-89.77084350585938,5993.349609375,True
1598628523.0759523,0,5,0.5,0.5,-0.03642340698242188,-0.14,-0.011,-0.56,0.0010606418921914745,10,1,100,0.0130182757565293,-10,-1,-100,772.925419513951,-0.0012166988269571354,0.00010232958668335346,0.9999992545860323,59.49804053342733,-3.6778998036538195,-6261.426910104805,119.19141718462612,-89.76788330078125,5990.19091796875,True
1598628523.1370556,0,5,0.5,0.5,-0.03586659240722657,-0.14,-0.011,-0.56,0.0010673425360398642,10,1,100,0.013518432107311858,-10,-1,-100,775.326442584279,-0.0012160988025812173,0.00010170886999811806,0.999999255379227,59.76141263073723,-3.6909896380202847,-6304.139088091656,119.6745727581471,-89.76638793945312,5988.6123046875,True
1598628523.2000458,0,5,0.5,0.5,-0.03841347351074219,-0.14,-0.011,-0.56,0.001117769274765899,10,1,100,0.014308070632396148,-10,-1,-100,782.5510595199885,-0.0012232635960847669,0.00010162726994100735,0.9999992466487525,60.545736609210316,-3.7296316873423137,-6432.020599607337,121.12449126153787,-89.76162719726562,5983.87548828125,True
1598628523.2587688,0,5,0.5,0.5,-0.03825299987792969,-0.14,-0.011,-0.56,0.0011077613161733473,10,1,100,0.014811606316770365,-10,-1,-100,787.4068175927969,-0.0012347384352724958,0.00010148106477952988,0.9999992325610005,61.064482460595684,-3.7549096835454407,-6517.058289383234,122.09148252345942,-89.75811767578125,5980.7177734375,True
1598628523.318233,0,5,0.5,0.5,-0.039091912841796875,-0.14,-0.011,-0.56,0.0011511728446704744,10,1,100,0.015525457485732537,-10,-1,-100,792.332156144781,-0.0012519684568895722,0.00010175942277385119,0.9999992111096903,61.580430060703286,-3.7798244822220135,-6601.908569200195,123.05877886304643,-89.75418090820312,5977.56005859375,True
1598628523.3868985,0,5,0.5,0.5,-0.03984143981933594,-0.14,-0.011,-0.56,0.0011597909501302106,10,1,100,0.016230591222770333,-10,-1,-100,797.2844714879757,-0.0012742785919913524,0.00010210484270984716,0.9999991828940016,62.094033912559944,-3.804388113808263,-6686.565476760803,124.02638324939197,-89.75003051757812,5974.40185546875,True
1598628523.5010552,0,5,0.5,0.5,-0.040511444091796876,-0.14,-0.011,-0.56,0.0011941562785011627,10,1,100,0.01699431192714021,-10,-1,-100,802.2794508183142,-0.001301617884222126,0.00010274079253512918,0.9999991476172432,62.60582304145532,-3.828620018946821,-6771.024762880461,124.99429847338135,-89.74581909179688,5971.244140625,True
1598628523.6158903,0,5,0.5,0.5,-0.04449812927246094,-0.14,-0.011,-0.56,0.0013543409139914473,10,1,100,0.021899705710680492,-10,-1,-100,812.3821407442447,-0.00137107641705413,0.00010478023184842056,0.9999990545848338,63.62568753854195,-3.8761872587555217,-6939.316779352088,126.93107306895554,-89.73681640625,5964.92822265625,True
1598628523.6887462,0,5,0.5,0.5,-0.04633737792968751,-0.14,-0.011,-0.56,0.0014320365862908766,10,1,100,0.02463666384314769,-10,-1,-100,822.6239295291016,-0.0014589956635677555,0.00010734099777198801,0.9999989299042094,64.643816012327,-3.9227114876054747,-7106.746542851186,128.86912264203775,-89.72705078125,5958.6123046875,True
1598628523.7427216,0,5,0.5,0.5,-0.04438095092773438,-0.14,-0.011,-0.56,0.0013167334035118399,10,1,100,0.021222154396535596,-10,-1,-100,827.8175777897704,-0.0015076776734952637,0.00010861759053245796,0.9999988575544735,65.15337774826064,-3.9456158120869276,-7190.124074600723,129.83863375825658,-89.72210693359375,5955.455078125,True
1598628523.79861,0,5,0.5,0.5,-0.04478490295410157,-0.14,-0.011,-0.56,0.0013874228131663647,10,1,100,0.02213431946797259,-10,-1,-100,833.0378371408442,-0.001559967685297158,0.00011041575272231627,0.9999987771538434,65.66409091448111,-3.968343304289445,-7273.3050015734625,130.808473214239,-89.7176513671875,5952.296875,True
1598628523.858686,0,5,0.5,0.5,-0.045207589721679695,-0.14,-0.011,-0.56,0.0014365543160546096,10,1,100,0.02309062504560633,-10,-1,-100,838.2847080067731,-0.0016158856841334232,0.00011248974458840882,0.999998688128896,66.17628914749776,-3.9908969335703635,-7356.2908500762505,131.77864512291805,-89.71356201171875,5949.13916015625,True
1598628523.9189837,0,5,0.5,0.5,-0.045688671875,-0.14,-0.011,-0.56,0.0014517863117003906,10,1,100,0.02397657901548155,-10,-1,-100,843.6010976070538,-0.0016744109129093005,0.00011450386363200888,0.9999985916174882,66.69024896197625,-4.013308576090972,-7439.071496676292,132.74915087471578,-89.70968627929688,5945.9814453125,True
1598628523.9848447,0,5,0.5,0.5,-0.04624568481445313,-0.14,-0.011,-0.56,0.001487976758716513,10,1,100,0.02487111738485344,-10,-1,-100,848.9339668295579,-0.0017353376994118203,0.00011665217901389096,0.9999984874965253,67.20631629239497,-4.0355833793757565,-7521.64520402301,133.7199932452391,-89.70587158203125,5942.8232421875,True
1598628524.035337,0,5,0.5,0.5,-0.04681585083007813,-0.14,-0.011,-0.56,0.001565851082433435,10,1,100,0.025797028109476424,-10,-1,-100,854.2935696446802,-0.0017986879671251024,0.00011929934947281544,0.9999983752433113,67.72489313770441,-4.057757803804662,-7604.017488823886,134.69117535244285,-89.70208740234375,5939.66552734375,True
1598628524.0996315,0,5,0.5,0.5,-0.04740293884277345,-0.14,-0.011,-0.56,0.0015933035795620202,10,1,100,0.026712132846299835,-10,-1,-100,859.7226910771569,-0.0018641012358262667,0.00012193949083964397,0.9999982551271492,68.24634576048517,-4.079840868782835,-7686.193712030144,135.66269983814666,-89.69830322265625,5936.5078125,True
1598628524.1591277,0,5,0.5,0.5,-0.0480323486328125,-0.14,-0.011,-0.56,0.0016060884865372214,10,1,100,0.02761196467379322,-10,-1,-100,865.1682307923911,-0.0019312119306737787,0.0001244378142836901,0.9999981274661015,68.77103570079426,-4.1018662830785875,-7768.180597788603,136.63456931557218,-89.6944580078125,5933.35009765625,True
1598628524.2178457,0,5,0.5,0.5,-0.04869126281738282,-0.14,-0.011,-0.56,0.0016455330571137823,10,1,100,0.028522532132222878,-10,-1,-100,870.6668714934494,-0.001999927181024103,0.0001270478798546566,0.9999979920730375,69.29928017851617,-4.123841403167324,-7849.986970658211,137.60678646946877,-89.69052124023438,5930.1923828125,True
1598628524.2820766,0,5,0.5,0.5,-0.049314697265625,-0.14,-0.011,-0.56,0.0017033624597690119,10,1,100,0.029372609984552305,-10,-1,-100,876.2248377670767,-0.002069551888396511,0.0001299261452633044,0.9999978500347778,69.8313661268058,-4.145796327030037,-7931.6218188356,138.57935421701336,-89.68655395507812,5927.0341796875,True
1598628524.3391318,0,5,0.5,0.5,-0.04995738830566407,-0.14,-0.011,-0.56,0.001734432896707828,10,1,100,0.030225333196346755,-10,-1,-100,881.7664472005563,-0.0021400440550015326,0.00013280467674561773,0.9999977012845382,70.3676140381265,-4.167738778171759,-8013.095391304526,139.55227473113746,-89.68252563476562,5923.876953125,True
1598628524.4021769,0,5,0.5,0.5,-0.050650341796875005,-0.14,-0.011,-0.56,0.0017623329991174686,10,1,100,0.03101828005245237,-10,-1,-100,887.3940545684891,-0.0022107615720784158,0.00013565317258216005,0.9999975470627356,70.90827884603192,-4.189700080963949,-8094.421388785265,140.52555089851936,-89.67837524414062,5920.71875,True
1598628524.4640703,0,5,0.5,0.5,-0.051338687133789064,-0.14,-0.011,-0.56,0.0018105462332940483,10,1,100,0.03182312062745342,-10,-1,-100,893.0320991760818,-0.002281775325660336,0.0001386580732716585,0.9999973871342375,71.45351872229418,-4.211688293943773,-8175.600210454195,141.49918528707255,-89.67413330078125,5917.56103515625,True
1598628524.5207005,0,5,0.5,0.5,-0.052061380004882814,-0.14,-0.011,-0.56,0.001898934007782336,10,1,100,0.03257959265066139,-10,-1,-100,898.7294697104953,-0.0023526049476353117,0.00014216953700411128,0.9999972225150344,72.00356270464444,-4.233743281058757,-8256.649938499271,142.4731814477003,-89.66976928710938,5914.4033203125,True
1598628524.5847943,0,5,0.5,0.5,-0.05282306213378907,-0.14,-0.011,-0.56,0.0018466634505665746,10,1,100,0.033293815016505426,-10,-1,-100,904.4532071473077,-0.0024228719036341207,0.00014486143926495043,0.9999970543491126,72.55864846582743,-4.255852830502148,-8337.58424602834,143.447539851518,-89.66525268554688,5911.2451171875,True
1598628524.7499073,0,5,0.5,0.5,-0.053521429443359386,-0.14,-0.011,-0.56,0.001959196698299218,10,1,100,0.03399652663011117,-10,-1,-100,910.2201579211978,-0.002492514210843797,0.00014830600788123637,0.9999968826842596,73.11890093472296,-4.278042163703026,-8418.415171693632,144.42226358072918,-89.66070556640625,5908.08740234375,True
1598628524.8136199,0,5,0.5,0.5,-0.06091130981445313,-0.14,-0.011,-0.56,0.0026764234160743606,10,1,100,0.04932460739560164,-10,-1,-100,927.7727180379443,-0.002694540836862763,0.0001579313070954445,0.9999963572470556,74.83188829083211,-4.345253505273057,-8660.422132818143,147.34864644273745,-89.64657592773438,5898.6142578125,True
1598628524.877934,0,5,0.5,0.5,-0.056708566284179696,-0.14,-0.011,-0.56,0.002062780934397593,10,1,100,0.036301014864147815,-10,-1,-100,933.6949418777367,-0.0027590501651385733,0.0001610702912601578,0.9999961808419809,75.41379547307788,-4.367902737281614,-8740.963469945385,148.3248510716979,-89.641357421875,5895.4560546875,True
1598628524.9841218,0,5,0.5,0.5,-0.05760437927246094,-0.14,-0.011,-0.56,0.002069153237247894,10,1,100,0.036122528214838814,-10,-1,-100,939.644081744249,-0.0028153198229097145,0.00016394854100219405,0.9999960235396791,76.00148433731947,-4.390710293024957,-8821.489805146679,149.30143114554326,-89.635986328125,5892.2978515625,True
1598628525.1006784,0,5,0.5,0.5,-0.06091571044921875,-0.14,-0.011,-0.56,0.0024149245119467855,10,1,100,0.042598820734291325,-10,-1,-100,951.6815215720562,-0.002924608177749515,0.00016967496084571915,0.9999957089295004,77.19556995884959,-4.436894846201692,-8982.804474589828,151.25571916549768,-89.62704467773438,5885.982421875,True
1598628525.1530614,0,5,0.5,0.5,-0.062168914794921884,-0.14,-0.011,-0.56,0.0024417416026005475,10,1,100,0.04228823736119637,-10,-1,-100,963.8742954016197,-0.0030203604184945135,0.00017508845351342853,0.9999954233730153,78.41032402178492,-4.483664129267481,-9144.23472734026,153.21152014305355,-89.61819458007812,5879.6669921875,True
1598628525.2138329,0,5,0.5,0.5,-0.060509332275390626,-0.14,-0.011,-0.56,0.002176147061809116,10,1,100,0.03754892170921688,-10,-1,-100,970.0484714396298,-0.003063522934732432,0.00017755687486163511,0.9999952916393081,79.0249987991667,-4.507264359023358,-9224.989156770336,154.18999184006356,-89.61358642578125,5876.509765625,True
1598628525.2747772,0,5,0.5,0.5,-0.06096939392089844,-0.14,-0.011,-0.56,0.0021919032240181775,10,1,100,0.03766886435675021,-10,-1,-100,976.2493809874868,-0.0031030767359602482,0.00017990603783256032,0.9999951692626262,79.64471582206083,-4.531029185693777,-9305.817393714862,155.1688457039702,-89.60934448242188,5873.3515625,True
1598628525.3426569,0,5,0.5,0.5,-0.06142091064453126,-0.14,-0.011,-0.56,0.0022358995975969454,10,1,100,0.03792051418207931,-10,-1,-100,982.4933202440152,-0.0031405758251155276,0.00018240410941633485,0.9999950517438713,80.26931327857378,-4.5549637548975905,-9386.741149605643,156.14808278034712,-89.60540771484375,5870.193359375,True
1598628525.4498107,0,5,0.5,0.5,-0.062085580444335944,-0.14,-0.011,-0.56,0.002243608661834899,10,1,100,0.03802335728515246,-10,-1,-100,988.7638705895515,-0.003174884506305101,0.0001847085891015547,0.9999949429827678,80.89846953147662,-4.57905888016634,-9467.75536922565,157.127703840108,-89.60140991210938,5867.0361328125,True
1598628525.570625,0,5,0.5,0.5,-0.0658130340576172,-0.14,-0.011,-0.56,0.0024749400946580827,10,1,100,0.04120126078438561,-10,-1,-100,1001.4336941846414,-0.0032342806004680407,0.00018887035897756843,0.999994751864721,82.16968837470534,-4.627692906822565,-9630.056406890275,159.08810119665867,-89.59298706054688,5860.72021484375,True
1598628525.6842122,0,5,0.5,0.5,-0.06802802734375,-0.14,-0.011,-0.56,0.0024747362204013304,10,1,100,0.040679421396759105,-10,-1,-100,1014.2429214704316,-0.003282858722192632,0.00019261505605243194,0.9999945928544067,83.45731610795883,-4.6769171195798895,-9792.80196967189,161.05004570490283,-89.58319091796875,5854.404296875,True
1598628525.796662,0,5,0.5,0.5,-0.0698537322998047,-0.14,-0.011,-0.56,0.0024418897928776247,10,1,100,0.039735043974526915,-10,-1,-100,1027.2505735650193,-0.003317900567298941,0.00019568919155304055,0.9999944766055289,84.76093039264576,-4.7267356040228306,-9956.156171664434,163.01354152197416,-89.57284545898438,5848.0888671875,True
1598628525.906143,0,5,0.5,0.5,-0.07073659057617188,-0.14,-0.011,-0.56,0.002388392563796269,10,1,100,0.038785066409059085,-10,-1,-100,1040.3547824544366,-0.003340612584616641,0.00019796605001622434,0.9999944005428242,86.0797524122507,-4.777156859569089,-10120.298698911163,164.97859096269022,-89.56341552734375,5841.77294921875,True
1598628526.0187995,0,5,0.5,0.5,-0.07113258056640626,-0.14,-0.011,-0.56,0.002380962043567523,10,1,100,0.03770502214470063,-10,-1,-100,1053.6563741938444,-0.0033509637499915578,0.00019993744615429915,0.9999943655176082,87.38143632590142,-4.826295676367843,-10278.425330013828,166.85721507034313,-89.555419921875,5835.64990234375,True
1598628526.0817268,0,5,0.5,0.5,-0.07139081115722658,-0.14,-0.011,-0.56,0.002317649149701461,10,1,100,0.03670624935854818,-10,-1,-100,1067.0805684769293,-0.00335090655175624,0.00020112654134894062,0.9999943654708239,88.60295775880518,-4.870643386110435,-10419.902065349743,168.55672061668847,-89.54876708984375,5829.921875,True
1598628526.1521084,0,5,0.5,0.5,-0.0698778259277344,-0.14,-0.011,-0.56,0.0022499446984187957,10,1,100,0.036448864687132675,-10,-1,-100,1073.8701377374819,-0.003348214196226481,0.0002015683709798309,0.9999943744001204,89.20189534622371,-4.892047127248829,-10486.379897417264,169.33346473269762,-89.54571533203125,5827.21826171875,True
1598628526.2600613,0,5,0.5,0.5,-0.07033700561523439,-0.14,-0.011,-0.56,0.002250196893688232,10,1,100,0.03626262584589034,-10,-1,-100,1080.6596652894514,-0.0033438147096776847,0.00020195049833207312,0.9999943890438504,89.74366723431118,-4.9101666340479,-10542.633512295633,170.01855854529103,-89.542724609375,5824.7158203125,True
1598628526.3146815,0,5,0.5,0.5,-0.07337110290527345,-0.14,-0.011,-0.56,0.00225893786700791,10,1,100,0.035227770197278886,-10,-1,-100,1094.3259384762496,-0.003330188545124386,0.00020235730980929084,0.9999944344323987,90.71913239938844,-4.940298225245016,-10637.57694685962,171.26227009814687,-89.53610229492188,5819.9873046875,True
1598628526.3780928,0,5,0.5,0.5,-0.07262275390625,-0.14,-0.011,-0.56,0.0022057469988472737,10,1,100,0.03569790751751686,-10,-1,-100,1101.1856875505764,-0.0033219027232417246,0.00020222544580494393,0.9999944620182486,91.2129777947588,-4.955614357596312,-10684.32414297223,171.84684789194293,-89.531982421875,5817.705078125,True
1598628526.4930906,0,5,0.5,0.5,-0.07344680480957032,-0.14,-0.011,-0.56,0.0022291079411362867,10,1,100,0.03558369275903764,-10,-1,-100,1108.0879671236034,-0.003313198188983188,0.00020230201722479832,0.9999944908806521,91.70052688270384,-4.970493255925892,-10728.448157028402,172.38198045399835,-89.52761840820312,5815.5322265625,True
1598628526.5668356,0,5,0.5,0.5,-0.07748355407714845,-0.14,-0.011,-0.56,0.00219377146902969,10,1,100,0.034289264492929426,-10,-1,-100,1121.9366540733026,-0.0032934457030667024,0.00020203817635256304,0.9999945561831707,92.58454539156648,-4.995111780345033,-10801.904500880359,173.34336319785706,-89.51846313476562,5811.42333984375,True
