Timestamp,Input Throttle,horizon,dT,dt,Input Roll,Roll P,Roll I,Roll D,Input Pitch,Pitch P,Pitch I,Pitch D,Input Yaw,Yaw P,Yaw I,Yaw D,Altitude,Direction X,Direction Y,Direction Z,Drag X,Drag Y,Drag Z,Vertical Velocity,Roll,Mass,Has Fuel
1598631594.072365,0,5,0.5,0.5,-0.0072503662109375,-0.14,-0.011,-0.56,0.004484377094678896,10,1,100,0.13457323500212331,-10,-1,-100,476.4207036381122,-0.011847615000468924,0.00041604032890202373,0.9999297279955454,5.834425353021993,-0.4789545564981453,133.7239651644835,-15.601052456950086,-89.92807006835938,6440.1796875,True
1598631594.1285615,0,5,0.5,0.5,-0.008013082885742187,-0.14,-0.011,-0.56,0.004337329932796534,10,1,100,0.12529498170971068,-10,-1,-100,475.4562279731035,-0.011898833820514147,0.00041727053445553367,0.9999291193074701,6.020258430738552,-0.49475542255427307,143.29957129674222,-16.18423920574015,-89.93112182617188,6440.1796875,True
1598631594.1838045,0,5,0.5,0.5,-0.007597515869140625,-0.14,-0.011,-0.56,0.004090947338192369,10,1,100,0.11876375879001225,-10,-1,-100,474.8260136292083,-0.01187520450872117,0.0004157697245219089,0.9999294008345851,6.466092749684784,-0.5283788540834538,149.88662954204966,-15.92734387410407,-89.93426513671875,6438.60107421875,True
1598631594.2429702,0,5,0.5,0.5,-0.005883935546875001,-0.14,-0.011,-0.56,0.004123253502180077,10,1,100,0.11922354171414903,-10,-1,-100,474.2289568479173,-0.011847107520484505,0.00041432107177802747,0.999929734722119,6.318620998482595,-0.5102339410490846,135.2339962487641,-15.024419543469378,-89.9393310546875,6435.443359375,True
1598631594.3005064,0,5,0.5,0.5,-0.00378880615234375,-0.14,-0.011,-0.56,0.004047007839842767,10,1,100,0.11632861807291658,-10,-1,-100,473.62869005522225,-0.011784477218512257,0.0004119343168334524,0.9999304757865943,6.165796512121171,-0.4921910462487748,121.4540761387699,-14.120955879431023,-89.94647216796875,6432.28515625,True
1598631594.3599184,0,5,0.5,0.5,-0.0015875549316406255,-0.14,-0.011,-0.56,0.003917724087353437,10,1,100,0.11250738649288353,-10,-1,-100,473.09810379042756,-0.011682088950338537,0.0004082147470277235,0.9999316787453414,5.9946927085042025,-0.4732318407355896,108.28697516013341,-13.216959517137425,-89.95541381835938,6429.126953125,True
1598631594.4728417,0,5,0.5,0.5,0.0005338104248046871,-0.14,-0.011,-0.56,0.0037976440869154225,10,1,100,0.10849019797393891,-10,-1,-100,472.5943399622338,-0.011541868730053534,0.0004033705792485082,0.999933309055356,5.811399239252505,-0.4538592259606505,95.86626773797614,-12.312421919787441,-89.96566772460938,6425.9697265625,True
1598631594.5835912,0,5,0.5,0.5,0.010690136718750002,-0.14,-0.011,-0.56,0.002797986651385526,10,1,100,0.08068941314752279,-10,-1,-100,471.7155329019297,-0.011151168787072426,0.00038951229496326937,0.9999377479197664,5.40520863972148,-0.41367748876141147,73.22206539459346,-10.501695884535142,-89.98843383789062,6419.65380859375,True
1598631594.6415136,0,5,0.5,0.5,0.014532241821289064,-0.14,-0.011,-0.56,0.002125698284900241,10,1,100,0.06209842604688168,-10,-1,-100,470.96550623187795,-0.010616840620913707,0.00037044804019503757,0.9999435711396317,4.948512521373478,-0.3717754896015163,53.54146153699673,-8.68872575779344,-90.01215362548828,6413.337890625,True
1598631594.7546546,0,5,0.5,0.5,0.008632524871826173,-0.14,-0.011,-0.56,0.0028776864645275527,10,1,100,0.08261057151801847,-10,-1,-100,470.643867565901,-0.010307910119033465,0.0003596163847294433,0.9999468074177915,4.703172584827227,-0.3503178257524756,44.82467422402826,-7.7813864667190975,-90.0226821899414,6410.1806640625,True
1598631594.8125684,0,5,0.5,0.5,0.011071415710449221,-0.14,-0.011,-0.56,0.0012623071874734437,10,1,100,0.03826546298366121,-10,-1,-100,470.1027917372994,-0.009614556030539968,0.00033475723507411163,0.9999537230541866,4.188759472470395,-0.3070833397025666,29.671844878948107,-5.964956685005599,-90.03455352783203,6403.86474609375,True
1598631594.9717004,0,5,0.5,0.5,0.005528604888916016,-0.14,-0.011,-0.56,0.002269204771805873,10,1,100,0.06456346096677351,-10,-1,-100,469.9099056542618,-0.009225336894455927,0.00032138551623940305,0.9999573940276324,3.9294120459982493,-0.2859745032148737,23.25670964617441,-5.055851101728408,-90.03596496582031,6400.70703125,True
1598631595.0175881,0,5,0.5,0.5,0.004100505828857422,-0.14,-0.011,-0.56,0.001957881257930751,10,1,100,0.06011247668933014,-10,-1,-100,469.7143634927925,-0.008833468274517366,0.00030648636264372697,0.9999609371892247,3.6853668810938602,-0.2663728746598646,17.646336382788196,-4.146175920744337,-90.0348892211914,6397.548828125,True
1598631595.0726914,0,5,0.5,0.5,0.0023195602416992184,-0.14,-0.011,-0.56,0.0018135053378487652,10,1,100,0.052729070592379884,-10,-1,-100,469.5759512358345,-0.008412867415722948,0.0002917285177031654,0.9999645686504685,3.498868501157426,-0.2512605438607051,12.908406536838045,-3.235892855086988,-90.03132629394531,6394.3916015625,True
1598631595.1258013,0,5,0.5,0.5,0.0008965545654296878,-0.14,-0.011,-0.56,0.001579919048318842,10,1,100,0.04621048297989669,-10,-1,-100,469.4737327005714,-0.007974365147709777,0.00027630023108335996,0.9999681660726373,3.53168303745802,-0.25207951350367963,9.248986815804859,-2.3249716510118406,-90.02629852294922,6391.2333984375,True
1598631595.195859,0,5,0.5,0.5,-0.00028028488159179653,-0.14,-0.011,-0.56,0.001300604729714716,10,1,100,0.039820632896497385,-10,-1,-100,469.4078910560347,-0.007521100914276721,0.0002598585986105449,0.9999716823563284,4.761822833768722,-0.3379539107494017,7.495603973339448,-1.4134299825235022,-90.02046966552734,6388.076171875,True
1598631595.3068612,0,5,0.5,0.5,-0.0013451980590820315,-0.14,-0.011,-0.56,0.0010656012079559222,10,1,100,0.033054786793033086,-10,-1,-100,469.3788534984924,-0.007051317544793415,0.00024291013357237594,0.9999751096480098,13.090465508850238,-0.924130611893452,7.230477775311962,-0.501268311714669,-90.0141830444336,6384.91796875,True
1598631595.4148877,0,5,0.5,0.5,-0.006663382720947266,-0.14,-0.011,-0.56,-0.001104850515451567,10,1,100,-0.028449111746513725,-10,-1,-100,469.42994146887213,-0.006069197723253856,0.00020791693191185985,0.9999815606347676,0.6682872874757997,-0.04673113940058246,-0.9573247125240802,1.3250098976754439,-90.00148010253906,6378.6025390625,True
1598631595.5218794,0,5,0.5,0.5,-0.007898726654052734,-0.14,-0.011,-0.56,-0.001641085021059804,10,1,100,-0.044153341082240664,-10,-1,-100,469.6271797391819,-0.005038215774314757,0.0001713951579540898,0.9999872934220272,2.200762987613967,-0.1526828938570256,-7.385841245790868,3.153832794651645,-89.98953247070312,6372.287109375,True
1598631595.630555,0,5,0.5,0.5,-0.006893946838378906,-0.14,-0.011,-0.56,-0.0019616796577425523,10,1,100,-0.05302261908729769,-10,-1,-100,469.9709347616881,-0.0040254011341846925,0.00013546000573376563,0.9999918888652527,3.2295131231031853,-0.22262731300029664,-16.914000871641225,4.985184253448444,-89.9814453125,6365.9716796875,True
1598631595.742517,0,5,0.5,0.5,-0.0031795417785644535,-0.14,-0.011,-0.56,-0.0022223849498255867,10,1,100,-0.06002636300860944,-10,-1,-100,470.4791834342759,-0.003046701524768026,0.00010062541594998487,0.9999953537313785,4.150934090274835,-0.2847175454524647,-29.442778477851167,6.819043068601951,-89.9803466796875,6359.6552734375,True
1598631595.798545,0,5,0.5,0.5,0.0015844390869140625,-0.14,-0.011,-0.56,-0.0022910659255294605,10,1,100,-0.06295873978395407,-10,-1,-100,471.10102030914277,-0.002136287413254989,6.854608165753454e-05,0.9999977157861525,5.046163361767499,-0.3448196746831108,-45.09926670230473,8.655349033313831,-89.98635864257812,6353.34033203125,True
1598631595.9605803,0,5,0.5,0.5,0.0016665908813476562,-0.14,-0.011,-0.56,-0.0007528076986575297,10,1,100,-0.019415987222207907,-10,-1,-100,471.4977706564823,-0.0017109260165146486,5.3597070212853484e-05,0.9999985349286868,5.489038494690709,-0.37453345420216444,-54.11643230052215,9.574392889238174,-89.99136352539062,6350.1826171875,True
1598631596.0750163,0,5,0.5,0.5,0.008931029510498048,-0.14,-0.011,-0.56,-0.0038501997742477435,10,1,100,-0.10613649040001158,-10,-1,-100,472.8113448852673,-0.0005423406653688535,1.2078849387260466e-05,0.9999998528603411,6.801708396565798,-0.46275356960179576,-85.9563343366332,12.335172150210582,-90.00581359863281,6340.708984375,True
1598631596.1358273,0,5,0.5,0.5,0.005852428436279298,-0.14,-0.011,-0.56,-0.0024121947692832234,10,1,100,-0.0685675393878873,-10,-1,-100,473.91008518240415,0.00017131871124405386,-1.2337987983314e-05,0.9999999852488365,7.662475843789381,-0.5208786165428276,-111.19880181221485,14.178662634665221,-90.01301574707031,6334.392578125,True
1598631596.251687,0,5,0.5,0.5,0.0030916931152343754,-0.14,-0.011,-0.56,-0.0012177405178241396,10,1,100,-0.03170254748797821,-10,-1,-100,474.4890270024771,0.0004775585055666563,-2.341403947142032e-05,0.9999998856948218,8.087437307550454,-0.5497087733708507,-125.02832403335653,15.101286843339317,-90.01485443115234,6331.2353515625,True
1598631596.4236968,0,5,0.5,0.5,0.0008755859375000002,-0.14,-0.011,-0.56,-0.002281876277944231,10,1,100,-0.06605533209695265,-10,-1,-100,475.7967832722934,0.0010609848519234776,-4.289961806344329e-05,0.9999994362352244,8.924208221104614,-0.6068057744264043,-155.08994268474933,16.948276460513537,-90.01316833496094,6324.919921875,True
1598631596.5347624,0,5,0.5,0.5,-0.006635448455810548,-0.14,-0.011,-0.56,-0.00303777447716936,10,1,100,-0.0893392945283384,-10,-1,-100,478.0211896162946,0.0017956700048998066,-6.72257551840237e-05,0.9999983855236625,10.145122897821906,-0.6910439447040441,-206.20489626013753,19.723064753929116,-90.00109100341797,6315.44580078125,True
1598631596.6469522,0,5,0.5,0.5,-0.008390789794921876,-0.14,-0.011,-0.56,-0.0019868976670476433,10,1,100,-0.059080498433913095,-10,-1,-100,479.68297992891166,0.0021813357542670086,-7.953687003153947e-05,0.9999976177212693,10.933846164949044,-0.7461814230237692,-244.2894394745501,21.57575307698484,-89.98892211914062,6309.1298828125,True
1598631596.7027001,0,5,0.5,0.5,-0.009096417236328126,-0.14,-0.011,-0.56,-0.0016793876248315269,10,1,100,-0.05106424678142313,-10,-1,-100,481.5107553573325,0.002452502737279482,-8.770512675642036e-05,0.9999969887645334,11.700668963457044,-0.8003911429703677,-285.53644775475385,23.430674202885545,-89.97817993164062,6302.814453125,True
1598631596.760707,0,5,0.5,0.5,-0.005391513061523438,-0.14,-0.011,-0.56,-0.0012402754829677846,10,1,100,-0.03608166108051863,-10,-1,-100,482.48081044782884,0.00255692384830854,-9.09360087325597e-05,0.9999967269301818,12.076032423450693,-0.8271387851161833,-307.33195581354545,24.358963784997773,-89.97488403320312,6299.65673828125,True
1598631596.8187573,0,5,0.5,0.5,-0.00466265869140625,-0.14,-0.011,-0.56,-0.0011933685017599333,10,1,100,-0.03475145590005565,-10,-1,-100,483.46713067253586,0.002634665151809769,-9.32726003138127e-05,0.9999965249138418,12.446559216920845,-0.8536742939176105,-329.9093445491059,25.287802267062542,-89.97329711914062,6296.49951171875,True
1598631596.878558,0,5,0.5,0.5,-0.0039592529296875005,-0.14,-0.011,-0.56,-0.001152610823076968,10,1,100,-0.0342698071183624,-10,-1,-100,484.50685688667,0.002696623209190889,-9.48791422342236e-05,0.9999963596039818,12.812634022207616,-0.880011134959109,-353.27081022719796,26.217186264985827,-89.97305297851562,6293.3408203125,True
1598631596.9375458,0,5,0.5,0.5,-0.0033940673828125,-0.14,-0.011,-0.56,-0.0010958483148487256,10,1,100,-0.03327014802356276,-10,-1,-100,485.5895822576713,0.0027398540430158143,-9.568863371211578e-05,0.999996242014693,13.174563834624953,-0.9061649401658847,-377.41741667501935,27.147112459264807,-89.97369384765625,6290.18359375,True
1598631596.9977698,0,5,0.5,0.5,-0.002933793640136719,-0.14,-0.011,-0.56,-0.0010859735057042088,10,1,100,-0.03244186675129804,-10,-1,-100,486.7153065018356,0.002768641157919354,-9.623679362425e-05,0.9999961626749465,13.532591502211874,-0.9321415131605334,-402.3489110653143,28.077577980008368,-89.97491455078125,6287.025390625,True
1598631597.0589998,0,5,0.5,0.5,-0.0025057342529296875,-0.14,-0.011,-0.56,-0.0010678807718214472,10,1,100,-0.031418614640188296,-10,-1,-100,487.8675807248801,0.0027831477682336873,-9.649436977667333e-05,0.9999961223811504,13.886930358476338,-0.9579514330562858,-428.0633993203267,29.0085752919455,-89.9765625,6283.8681640625,True
1598631597.1208258,0,5,0.5,0.5,-0.0021462440490722656,-0.14,-0.011,-0.56,-0.0009777811594263274,10,1,100,-0.030290848447005823,-10,-1,-100,489.0628849490313,0.0027839871856153615,-9.584300586591594e-05,0.9999961201072075,14.237804103961206,-0.9835971270039714,-454.55794674759585,29.940105341156155,-89.97845458984375,6280.7099609375,True
1598631597.1807888,0,5,0.5,0.5,-0.0018554496765136718,-0.14,-0.011,-0.56,-0.0009528260170429961,10,1,100,-0.028981627922844838,-10,-1,-100,490.2849527770886,0.002771281921802973,-9.497586157283124e-05,0.9999961554806576,14.585524046344418,-1.0090927029666765,-481.8320353139171,30.872169005729912,-89.98043823242188,6277.5517578125,True
1598631597.2968116,0,5,0.5,0.5,-0.001664544677734375,-0.14,-0.011,-0.56,-0.0008616401453824573,10,1,100,-0.027483637040762947,-10,-1,-100,491.5498978255782,0.002745226663121054,-9.333335874003225e-05,0.9999962275026103,14.930338554420112,-1.0344410466896226,-509.88184545987343,31.804759033643965,-89.98233032226562,6274.39453125,True
1598631597.3595295,0,5,0.5,0.5,-0.0004242370605468753,-0.14,-0.011,-0.56,-0.0005765845215463452,10,1,100,-0.02018321196562606,-10,-1,-100,494.19215254473966,0.002654659935537289,-8.923621732196988e-05,0.9999964724025403,15.612690115781458,-1.084752305091157,-568.3022133561831,33.671504379578835,-89.98562622070312,6268.0791015625,True
1598631597.4185388,0,5,0.5,0.5,-0.001428619384765625,-0.14,-0.011,-0.56,-0.000663156236447121,10,1,100,-0.02221444733891856,-10,-1,-100,495.55347151402384,0.0025906085436744725,-8.629716699504246e-05,0.9999966406444436,15.950933762975776,-1.1097375292067457,-598.667580356889,34.60565382284345,-89.98681640625,6264.9208984375,True
1598631597.534678,0,5,0.5,0.5,-0.0016333892822265627,-0.14,-0.011,-0.56,-0.0006431246826907845,10,1,100,-0.020515822977359773,-10,-1,-100,496.97387219627853,0.0025169073435164996,-8.344741515617585e-05,0.9999968291019493,16.28778437744792,-1.1346303029551201,-629.8010078442201,35.54031705325494,-89.98745727539062,6261.7626953125,True
1598631597.703546,0,5,0.5,0.5,-0.0022330474853515625,-0.14,-0.011,-0.56,-0.00011579358520967401,10,1,100,-0.007719803907605821,-10,-1,-100,499.8947820896283,0.0023336858589281186,-7.607174458479397e-05,0.9999972740579853,16.95901801876291,-1.1841912120611655,-694.3690663113472,37.41116993952971,-89.98709106445312,6255.447265625,True
1598631597.773753,0,5,0.5,0.5,-0.005345046997070313,-0.14,-0.011,-0.56,0.0006962264021149329,10,1,100,0.01273687363630728,-10,-1,-100,504.57395195798017,0.001981481020130619,-6.200168726935894e-05,0.999998034942448,17.965911844701036,-1.2581832916469733,-796.926541915749,40.22122165337195,-89.98233032226562,6245.9736328125,True
1598631597.8707786,0,5,0.5,0.5,-0.00463486328125,-0.14,-0.011,-0.56,-0.00012183711369071393,10,1,100,-0.007840643634140436,-10,-1,-100,506.2300086405594,0.00184905257188504,-5.667829162305367e-05,0.9999982888946151,18.303454324103377,-1.2828206658926538,-832.6246263972494,41.15890023465146,-89.97952270507812,6242.81591796875,True
1598631597.9298182,0,5,0.5,0.5,-0.007543612670898439,-0.14,-0.011,-0.56,0.0005455087373830965,10,1,100,0.009846306853703884,-10,-1,-100,509.6013264217181,0.0015687086041232328,-4.58080228457426e-05,0.9999987685267119,18.985010039989746,-1.332204646118526,-906.3207326963172,43.035728896934394,-89.97311401367188,6236.5,True
1598631597.9895363,0,5,0.5,0.5,-0.006222943115234376,-0.14,-0.011,-0.56,0.00010976567255571322,10,1,100,-0.0017340949463058135,-10,-1,-100,511.34319855319336,0.001420230867216324,-3.9933339407464135e-05,0.9999989906742968,19.329666139772538,-1.3569759569624522,-944.3154059681337,43.97487229803357,-89.96987915039062,6233.3427734375,True
1598631598.1046457,0,5,0.5,0.5,-0.0064716339111328125,-0.14,-0.011,-0.56,0.00018066511891950466,10,1,100,-0.00029846945763624746,-10,-1,-100,513.1548340532463,0.0012734397440570461,-3.399900464795693e-05,0.9999991885973137,19.677374347477926,-1.381808844512365,-983.067790169573,44.914497746199466,-89.96694946289062,6230.1845703125,True
1598631598.2358656,0,5,0.5,0.5,-0.008349264526367188,-0.14,-0.011,-0.56,0.0009267201698595189,10,1,100,0.019806277986942095,-10,-1,-100,516.8208295153454,0.0009585845118503959,-2.1877269727972864e-05,0.9999995403184536,20.38382893716959,-1.431752458439101,-1062.8616307015027,46.79518066378349,-89.96194458007812,6223.869140625,True
1598631598.3495524,0,5,0.5,0.5,-0.008666488647460939,-0.14,-0.011,-0.56,0.0011370307742570552,10,1,100,0.024554827668252798,-10,-1,-100,520.6690755122108,0.0006308080692426808,-9.010556205293437e-06,0.9999998009999749,21.107192831706534,-1.482133900724486,-1145.6774767114293,48.677750601286895,-89.95751953125,6217.5537109375,True
1598631598.4535966,0,5,0.5,0.5,-0.008761492919921876,-0.14,-0.011,-0.56,0.0012556601903680024,10,1,100,0.027739315601909512,-10,-1,-100,524.6566037816228,0.0003057194600808738,3.691972906226768e-06,0.9999999532609893,21.85123264356688,-1.5330975310572728,-1231.5324924823835,50.56218486973693,-89.95388793945312,6211.2373046875,True
1598631598.5636876,0,5,0.5,0.5,-0.008173934936523438,-0.14,-0.011,-0.56,0.0013793863318570553,10,1,100,0.03020107112540548,-10,-1,-100,528.7835364355706,-1.0118062931101657e-05,1.6282701439417188e-05,0.9999999998162492,22.61938931180848,-1.58482410266922,-1320.49724866857,52.44845461621007,-89.95187377929688,6204.921875,True
1598631598.6234927,0,5,0.5,0.5,-0.0074483062744140635,-0.14,-0.011,-0.56,0.0014734289037612684,10,1,100,0.031572477757857695,-10,-1,-100,533.0925980058964,-0.00030741312104932896,2.849308701726897e-05,0.9999999523426575,23.413447041367608,-1.6374019925602301,-1412.60500364011,54.33653160361449,-89.95135498046875,6198.6064453125,True
1598631598.7387545,0,5,0.5,0.5,-0.007154364013671876,-0.14,-0.011,-0.56,0.0008721371232819198,10,1,100,0.017521058837949962,-10,-1,-100,535.2848478680244,-0.00044754018463039486,3.403208969132009e-05,0.999999899274795,23.820568614483633,-1.6640306846424215,-1459.846019657361,55.2812395616738,-89.951416015625,6195.44873046875,True
1598631598.8556557,0,5,0.5,0.5,-0.0073079986572265635,-0.14,-0.011,-0.56,0.0015414785152486454,10,1,100,0.03257997657000052,-10,-1,-100,539.819068511948,-0.000709619475263859,4.506516497928163e-05,0.9999997472046338,24.655515108661614,-1.7179871822706738,-1556.720565582249,57.1719758941183,-89.9512939453125,6189.1328125,True
1598631598.9728343,0,5,0.5,0.5,-0.00825335693359375,-0.14,-0.011,-0.56,0.0015644602798576277,10,1,100,0.03412072030721374,-10,-1,-100,544.4657757974928,-0.0009595540715897202,5.521166450423529e-05,0.9999995381037212,25.51791385286465,-1.7728744108820376,-1656.7680675881136,59.06444970317078,-89.94989013671875,6182.8173828125,True
1598631599.0897715,0,5,0.5,0.5,-0.009799899291992188,-0.14,-0.011,-0.56,0.0016530523824374434,10,1,100,0.03406179171837272,-10,-1,-100,549.2947342462139,-0.001183933205918573,6.514930165278242e-05,0.9999992970286192,26.40810617146269,-1.8286974910062481,-1759.9584395266147,60.95863559976799,-89.94659423828125,6176.501953125,True
1598631599.2008636,0,5,0.5,0.5,-0.0116541259765625,-0.14,-0.011,-0.56,0.0016473841590025616,10,1,100,0.03400329455897037,-10,-1,-100,554.2630356570007,-0.0013850150228837499,7.403645826472611e-05,0.9999990381255318,27.32729955177483,-1.8855456299099091,-1866.3727504002559,62.85450472169462,-89.94134521484375,6170.18603515625,True
1598631599.3133702,0,5,0.5,0.5,-0.013378457641601563,-0.14,-0.011,-0.56,0.0016495081533097204,10,1,100,0.033245073479786474,-10,-1,-100,559.3869150937535,-0.001558506978707747,8.203678653027393e-05,0.99999878216224,28.27509789964211,-1.9434203300986217,-1976.037631389773,64.75202670243797,-89.93472290039062,6163.8701171875,True
1598631599.4293406,0,5,0.5,0.5,-0.014506423950195314,-0.14,-0.011,-0.56,0.0016301105410349642,10,1,100,0.03216178049525856,-10,-1,-100,564.6661288994364,-0.0017040905555151652,8.903900297258485e-05,0.9999985440726574,29.25060791485142,-2.0023018340220244,-2088.9624461063504,66.65117272594516,-89.9278564453125,6157.5546875,True
1598631599.544922,0,5,0.5,0.5,-0.014902212524414062,-0.14,-0.011,-0.56,0.001630440564027605,10,1,100,0.030891467079475002,-10,-1,-100,570.084685595124,-0.0018227683228104604,9.531851852991162e-05,0.9999983342136234,30.252680452315797,-2.062153943165075,-2205.1553518925334,68.55191235369436,-89.92184448242188,6151.23876953125,True
1598631599.7156405,0,5,0.5,0.5,-0.014604208374023438,-0.14,-0.011,-0.56,0.001572891106950539,10,1,100,0.029529412489692652,-10,-1,-100,575.6692574737826,-0.0019163398988237153,0.00010042069529439564,0.999998158776843,31.27989716250318,-2.12292727004237,-2324.6138338968713,70.45421628929626,-89.91751098632812,6144.9228515625,True
1598631599.8321393,0,5,0.5,0.5,-0.014607827758789063,-0.14,-0.011,-0.56,0.001753964948263797,10,1,100,0.03109276084366437,-10,-1,-100,584.3304160252446,-0.002013884296748333,0.00010662867455236076,0.9999979664481149,32.86453964454715,-2.2156772960318887,-2509.9119236668985,73.31054090290247,-89.91409301757812,6135.4501953125,True
1598631599.9475617,0,5,0.5,0.5,-0.013525158691406252,-0.14,-0.011,-0.56,0.0015137351119279302,10,1,100,0.025822839218322548,-10,-1,-100,590.2956023457227,-0.002053101306289697,0.0001100173521042438,0.9999978863333704,33.947877853986284,-2.2784898195540517,-2637.5032815866875,75.21662677295801,-89.9129638671875,6129.13427734375,True
1598631600.0735104,0,5,0.5,0.5,-0.0138537109375,-0.14,-0.011,-0.56,0.00143558267434924,10,1,100,0.024106250385410775,-10,-1,-100,596.400009274832,-0.0020716881790993217,0.00011231841384395583,0.9999978477440151,35.05098353134598,-2.3420229650172106,-2768.3405408414765,77.1241731805607,-89.91165161132812,6122.818359375,True
1598631600.2478518,0,5,0.5,0.5,-0.015063699340820313,-0.14,-0.011,-0.56,0.0013989185760120697,10,1,100,0.02276970383862284,-10,-1,-100,602.660116386367,-0.0020751966687701487,0.00011401583885075187,0.9999978402772549,36.172065867965635,-2.4061972185262257,-2902.4135827288574,79.03315072188119,-89.908935546875,6116.5029296875,True
1598631600.421686,0,5,0.5,0.5,-0.01997508239746094,-0.14,-0.011,-0.56,0.0013975377799963892,10,1,100,0.02061051339035806,-10,-1,-100,612.3447099305922,-0.0020577429802165112,0.00011549294146192707,0.9999978761753485,37.883309570133754,-2.5034237526174623,-3109.481231954782,81.89923646400747,-89.89981079101562,6107.029296875,True
1598631600.531539,0,5,0.5,0.5,-0.02602507934570313,-0.14,-0.011,-0.56,0.0013599488851327815,10,1,100,0.018429436021868854,-10,-1,-100,622.3777521898737,-0.0020212536420230317,0.00011644827784622704,0.9999979504846565,39.62596527774896,-2.6016277339979434,-3323.595260418637,84.76837950170766,-89.88394165039062,6097.5556640625,True
1598631600.64479,0,5,0.5,0.5,-0.025917324829101564,-0.14,-0.011,-0.56,0.0012963753835215975,10,1,100,0.018767264850083405,-10,-1,-100,629.2540688461158,-0.0019905742888135106,0.00011670026834496035,0.9999980119955479,40.80321903760781,-2.6675435134782295,-3470.191271651798,86.68279258676428,-89.87149047851562,6091.240234375,True
1598631600.762476,0,5,0.5,0.5,-0.025316104125976565,-0.14,-0.011,-0.56,0.001263037433772854,10,1,100,0.018396661612197746,-10,-1,-100,636.2858418384567,-0.0019589220589057983,0.00011659476608989779,0.99999807451316,41.99151829040224,-2.7337510871437956,-3619.8003536835913,88.59849384654329,-89.86248779296875,6084.9248046875,True
1598631600.8805788,0,5,0.5,0.5,-0.022760446166992188,-0.14,-0.011,-0.56,0.0012581310774562246,10,1,100,0.01806968534642999,-10,-1,-100,643.4568964382634,-0.0019269431279341797,0.00011642920101594673,0.9999981366654754,43.19013025270883,-2.800178523744465,-3772.361426952359,90.51545692394977,-89.85903930664062,6078.6083984375,True
1598631600.9986064,0,5,0.5,0.5,-0.020193423461914065,-0.14,-0.011,-0.56,0.0012545393681117694,10,1,100,0.01800736557113669,-10,-1,-100,650.8096097722882,-0.001897210124725384,0.00011622684387969069,0.9999981935409,44.38227903941163,-2.865742421927572,-3923.896716711217,92.36335379716375,-89.86004638671875,6072.45458984375,True
1598631601.1146235,0,5,0.5,0.5,-0.018748455810546873,-0.14,-0.011,-0.56,0.0012769907329780504,10,1,100,0.01801065651840631,-10,-1,-100,658.2743510518922,-0.0018702274302144738,0.00011623261693771021,0.9999982443681279,45.51590984232728,-2.927131582465924,-4066.1661344036297,94.04780935584249,-89.86300659179688,6066.6787109375,True
1598631601.2315066,0,5,0.5,0.5,-0.01937288818359375,-0.14,-0.011,-0.56,0.0012690353483101652,10,1,100,0.01815347167005148,-10,-1,-100,665.8946336139925,-0.0018471266246436332,0.0001161568126367605,0.999998287313947,46.55588964780697,-2.9821123793006126,-4194.804920537494,95.5497920777244,-89.86456298828125,6061.322265625,True
1598631601.3488367,0,5,0.5,0.5,-0.022134869384765624,-0.14,-0.011,-0.56,0.0013090249454694501,10,1,100,0.018423573566685246,-10,-1,-100,673.5845844590804,-0.0018287686138046724,0.00011644586010049743,0.9999983210214499,47.505951701955375,-3.0309731383035783,-4310.098996667751,96.8827318283191,-89.8619384765625,6056.35546875,True
1598631601.4666784,0,5,0.5,0.5,-0.026209939575195317,-0.14,-0.011,-0.56,0.0012746127597101412,10,1,100,0.018772237308492236,-10,-1,-100,681.3977314335061,-0.001815470019390494,0.00011639204024584952,0.9999983452593819,48.37394506427442,-3.074270943425867,-4412.9584997801185,98.06387276916806,-89.85409545898438,6051.7373046875,True
1598631601.6299062,0,5,0.5,0.5,-0.0302735595703125,-0.14,-0.011,-0.56,0.0013480736284421902,10,1,100,0.019186627328493192,-10,-1,-100,689.3131985025248,-0.0018073836852406857,0.00011700877900155632,0.9999983598352349,49.165071766836434,-3.112379960424051,-4504.138868107559,99.10984725496911,-89.84210205078125,6047.4296875,True
1598631601.7425106,0,5,0.5,0.5,-0.037271243286132814,-0.14,-0.011,-0.56,0.001357183613154798,10,1,100,0.01976297735591677,-10,-1,-100,701.2963993536541,-0.0018054996174401432,0.00011765089060636837,0.99999836316336,50.222773811003115,-3.160864460011577,-4622.110171474989,100.4849090599131,-89.82260131835938,6041.4130859375,True
1598631601.8554738,0,5,0.5,0.5,-0.03383102722167969,-0.14,-0.011,-0.56,0.0014231708428811577,10,1,100,0.0205514701386888,-10,-1,-100,709.3513121786527,-0.0018111510847599256,0.00011883341905120065,0.9999983528038267,50.86658223927897,-3.18901718776688,-4690.511238323202,101.27957930044452,-89.81201171875,6037.68212890625,True
1598631601.971562,0,5,0.5,0.5,-0.030166595458984376,-0.14,-0.011,-0.56,0.0013852721607064541,10,1,100,0.021119349940047775,-10,-1,-100,717.5023174445378,-0.0018216144379757672,0.00011956197220790883,0.9999983337114988,51.462528636249566,-3.213931190079072,-4750.519539212813,101.9726110642252,-89.80886840820312,6034.18359375,True
1598631602.0889077,0,5,0.5,0.5,-0.024513296508789063,-0.14,-0.011,-0.56,0.0014403761910706742,10,1,100,0.021743183778858324,-10,-1,-100,725.6861180608394,-0.001836922619089292,0.00012072254152993826,0.9999983055692442,51.99495865161243,-3.2346608029986452,-4800.9515223670915,102.57310440250448,-89.81451416015625,6030.896484375,True
1598631602.2037244,0,5,0.5,0.5,-0.020247088623046878,-0.14,-0.011,-0.56,0.0014605987768145454,10,1,100,0.022311108847075434,-10,-1,-100,733.9071618389571,-0.001856083939366147,0.00012195754320171475,0.9999982700378875,52.488403188111,-3.252782632133039,-4844.863224181031,103.10293165596174,-89.8251953125,6027.771484375,True
1598631602.319882,0,5,0.5,0.5,-0.018768701171875003,-0.14,-0.011,-0.56,0.001429255435410645,10,1,100,0.022869614942154337,-10,-1,-100,742.1874221387552,-0.001878618037014332,0.00012279012280027427,0.9999982278568582,52.94865201351121,-3.2686699313027665,-4883.119075258,103.57141039196655,-89.83590698242188,6024.787109375,True
1598631602.448918,0,5,0.5,0.5,-0.0209518310546875,-0.14,-0.011,-0.56,0.0014972599138892762,10,1,100,0.023403744518521966,-10,-1,-100,750.494487493881,-0.0019039516759280241,0.00012415927450707724,0.9999981797745885,53.38037964384539,-3.28263868317581,-4916.426129470425,103.98603118154409,-89.84140014648438,6021.92578125,True
1598631602.5535078,0,5,0.5,0.5,-0.026061538696289067,-0.14,-0.011,-0.56,0.0015190940350992984,10,1,100,0.023882059397131294,-10,-1,-100,758.8445303847548,-0.0019312789146993887,0.00012559517492256167,0.9999981271920491,53.78730456719587,-3.2949491488890024,-4945.367666682491,104.35301875549794,-89.83853149414062,6019.173828125,True
1598631602.6658547,0,5,0.5,0.5,-0.03244898071289063,-0.14,-0.011,-0.56,0.0015048826784558548,10,1,100,0.024326215830100004,-10,-1,-100,767.2212534095161,-0.0019600664536086223,0.00012676302722640525,0.9999980710334558,54.1726865064603,-3.305813459451639,-4970.460777676743,104.67785538329807,-89.8271484375,6016.5185546875,True
1598631602.7795885,0,5,0.5,0.5,-0.03736204528808594,-0.14,-0.011,-0.56,0.0015200565373821352,10,1,100,0.024781384675649318,-10,-1,-100,775.5980451528449,-0.0019902433908181756,0.00012795322714106508,0.999998011277631,54.53919165788669,-3.315413992914879,-4992.1571206146255,104.96556144025233,-89.81106567382812,6013.9482421875,True
1598631602.8946004,0,5,0.5,0.5,-0.03883600463867187,-0.14,-0.011,-0.56,0.0015445308814179357,10,1,100,0.025106956464735146,-10,-1,-100,783.9910169698996,-0.002020470477540752,0.00012924777160186357,0.9999979504949313,54.8891357257309,-3.323908025651927,-5010.847872969369,105.2203748900528,-89.796142578125,6011.45361328125,True
1598631603.009037,0,5,0.5,0.5,-0.03623327331542969,-0.14,-0.011,-0.56,0.0015242096527241444,10,1,100,0.02543964711581272,-10,-1,-100,792.4374610647792,-0.0020507786796982535,0.00013022934914083182,0.9999978886713329,55.22437334484275,-3.3314213004692803,-5026.867529826392,105.44607073408277,-89.7879638671875,6009.0263671875,True
1598631603.1266186,0,5,0.5,0.5,-0.03052608337402344,-0.14,-0.011,-0.56,0.0015859554755534634,10,1,100,0.02574419845532013,-10,-1,-100,800.8734733260935,-0.002080882396023378,0.00013167265808371528,0.99999782629302,55.54663333717858,-3.3380733087320067,-5040.523673731502,105.6460179154842,-89.78961181640625,6006.6572265625,True
1598631603.2423124,0,5,0.5,0.5,-0.0238864990234375,-0.14,-0.011,-0.56,0.0015696401695627625,10,1,100,0.025961990163346396,-10,-1,-100,809.3362842035713,-0.0021099936373391416,0.00013282542644471587,0.9999977651396309,55.85748286922313,-3.343973453324496,-5052.096365840379,105.82319911903457,-89.80044555664062,6004.341796875,True
1598631603.4108214,0,5,0.5,0.5,-0.018967282104492188,-0.14,-0.011,-0.56,0.0015504343583370897,10,1,100,0.026149813099442046,-10,-1,-100,817.8257711869664,-0.00213791763702866,0.0001336877967754696,0.9999977057152433,56.158360400523414,-3.349215017874283,-5061.837709491763,105.9802569011751,-89.816162109375,6002.072265625,True
1598631603.5246832,0,5,0.5,0.5,-0.014021163940429687,-0.14,-0.011,-0.56,0.0016318287915626046,10,1,100,0.027731496035465666,-10,-1,-100,830.5384886104148,-0.0021774258146214707,0.0001352010553295015,0.9999976202659165,56.595977079260386,-3.3561683383144247,-5073.708117302494,106.18317766338431,-89.8358154296875,5998.744140625,True
1598631603.6346023,0,5,0.5,0.5,-0.021886865234375,-0.14,-0.011,-0.56,0.0015511917068509863,10,1,100,0.026523307572545285,-10,-1,-100,839.0441704437835,-0.0022020871647905615,0.00013583239785167105,0.9999975661778774,56.87576003994684,-3.360035037579,-5079.8125664711215,106.3030050254335,-89.84030151367188,5996.5615234375,True
1598631603.747831,0,5,0.5,0.5,-0.029869030761718752,-0.14,-0.011,-0.56,0.0015578601850477834,10,1,100,0.026428554373243103,-10,-1,-100,847.5766272109468,-0.0022233741490516584,0.00013645635619784644,0.9999975189904504,57.15422133205628,-3.363792113657759,-5085.138010781349,106.4080869277646,-89.83248901367188,5994.4130859375,True
1598631603.8646326,0,5,0.5,0.5,-0.03851032104492188,-0.14,-0.011,-0.56,0.0015397563598400492,10,1,100,0.026495223665617334,-10,-1,-100,856.0661266007228,-0.0022430664962793737,0.00013684913702768532,0.9999974749593156,57.424670989841665,-3.367042430232702,-5089.156058533052,106.49962233519064,-89.81390380859375,5992.29638671875,True
1598631603.9798157,0,5,0.5,0.5,-0.04315623779296875,-0.14,-0.011,-0.56,0.0015307735020376042,10,1,100,0.026469558642536865,-10,-1,-100,864.598535176483,-0.0022604780389650463,0.00013711537897497,0.9999974357159165,57.690120957480836,-3.369982629493073,-5092.27380888417,106.58072558762848,-89.79241943359375,5990.2041015625,True
1598631604.103632,0,5,0.5,0.5,-0.04231798400878906,-0.14,-0.011,-0.56,0.0015695755847138842,10,1,100,0.026500890218340054,-10,-1,-100,873.131007253658,-0.0022763458787791895,0.00013770183408607324,0.9999973996404417,57.95090606561848,-3.372638664754954,-5094.589686253905,106.65281274483311,-89.77645874023438,5988.13330078125,True
1598631604.2086666,0,5,0.5,0.5,-0.03594376220703126,-0.14,-0.011,-0.56,0.001501722736126157,10,1,100,0.02653994801988608,-10,-1,-100,881.6634191974299,-0.002290893644623158,0.00013761044550674757,0.9999973664313692,58.20726176497448,-3.3750256117603747,-5096.178089997592,106.7169163592137,-89.7728271484375,5986.08154296875,True
1598631604.3219492,0,5,0.5,0.5,-0.026428552246093754,-0.14,-0.011,-0.56,0.001581865686492418,10,1,100,0.026547425319352096,-10,-1,-100,890.1958940326003,-0.0023039685754174337,0.00013824922716853942,0.9999973363044297,58.45950011116221,-3.377164612510096,-5097.1151108193835,106.77400350238948,-89.78353881835938,5984.046875,True
1598631604.4355595,0,5,0.5,0.5,-0.017565603637695312,-0.14,-0.011,-0.56,0.0015069566779177218,10,1,100,0.026576700839430846,-10,-1,-100,898.7446660286514,-0.002315918211613497,0.00013814296808395765,0.9999973087160572,58.70801458550151,-3.3790852594501946,-5097.479153780268,106.82491958122962,-89.80477905273438,5982.02685546875,True
1598631604.547924,0,5,0.5,0.5,-0.012899581909179688,-0.14,-0.011,-0.56,0.0015277064339101255,10,1,100,0.026574010628945356,-10,-1,-100,907.3037540302612,-0.002326569856628891,0.00013823016893277858,0.999997283978873,58.95332212474975,-3.3808133316983136,-5097.35242011249,106.8703894266184,-89.82843017578125,5980.02001953125,True
1598631604.666613,0,5,0.5,0.5,-0.014402810668945311,-0.14,-0.011,-0.56,0.0014962749431369836,10,1,100,0.026612625675386737,-10,-1,-100,915.8364148304099,-0.002336432714138171,0.0001380195721772624,0.999997261012634,59.196012572544454,-3.3823841373727332,-5096.818526124063,106.91104989037711,-89.84518432617188,5978.025390625,True
1598631604.836612,0,5,0.5,0.5,-0.021681323242187505,-0.14,-0.011,-0.56,0.0015526381741029528,10,1,100,0.026612382488646967,-10,-1,-100,924.411679137731,-0.00234525218572214,0.00013833795130207673,0.9999972403235905,59.4365462700782,-3.3838321329479135,-5095.946732878679,106.9474636897445,-89.84817504882812,5976.041015625,True
1598631604.9515119,0,5,0.5,0.5,-0.04011687622070313,-0.14,-0.011,-0.56,0.0014637601093997511,10,1,100,0.027035079537377465,-10,-1,-100,937.2533964663744,-0.0023569824375860872,0.000137817126687833,0.9999972128162301,59.79443329928666,-3.3858369025531823,-5094.153745089139,106.99520193343827,-89.82421875,5973.08203125,True
1598631605.061535,0,5,0.5,0.5,-0.0478591278076172,-0.14,-0.011,-0.56,0.0014870693830799752,10,1,100,0.026677819903449175,-10,-1,-100,945.7858185139485,-0.002364277025982569,0.00013755431518971349,0.9999971956325452,60.03016916902727,-3.387017270164265,-5092.620056877652,107.02386797212301,-89.79400634765625,5971.1181640625,True
1598631605.2289252,0,5,0.5,0.5,-0.05052994079589844,-0.14,-0.011,-0.56,0.001496794909137135,10,1,100,0.026651522747078972,-10,-1,-100,954.3612047749339,-0.0023705592135308206,0.00013740316844815898,0.9999971807807181,60.2651999894433,-3.388165034539482,-5090.931003283871,107.04940273178187,-89.76605224609375,5969.16162109375,True
1598631605.34393,0,5,0.5,0.5,-0.04283006286621094,-0.14,-0.011,-0.56,0.0014677540169225902,10,1,100,0.027018366950919512,-10,-1,-100,967.2029884081567,-0.0023795051666327216,0.00013700149258163795,0.9999971595888425,60.61246151304882,-3.3896129632494723,-5087.832905168011,107.08314986713461,-89.75473022460938,5966.240234375,True
1598631605.512733,0,5,0.5,0.5,-0.023738973999023437,-0.14,-0.011,-0.56,0.0014912332501473419,10,1,100,0.02675966440733794,-10,-1,-100,975.778316556476,-0.0023851922287947505,0.00013685041695184788,0.999997146060925,60.841330160854724,-3.3904474562562346,-5085.491578960223,107.10315926128197,-89.77297973632812,5964.298828125,True
1598631605.6251974,0,5,0.5,0.5,0.007997033691406252,-0.14,-0.011,-0.56,0.0015005852600217594,10,1,100,0.027058242441926728,-10,-1,-100,988.6467703249073,-0.0023929909050890642,0.00013679878467685606,0.9999971274361846,61.180760535122516,-3.3914973870949283,-5081.572015797548,107.12925955945167,-89.83291625976562,5961.3984375,True
1598631605.737817,0,5,0.5,0.5,0.008004351806640629,-0.14,-0.011,-0.56,0.001475887107287147,10,1,100,0.026867601676872195,-10,-1,-100,997.1954899171833,-0.002398266583556425,0.0001365286361679049,0.9999971148345008,61.40402516400892,-3.392036061280552,-5078.690477730573,107.14498266776313,-89.88079833984375,5959.46923828125,True
1598631605.8496401,0,5,0.5,0.5,9.419860839843773e-05,-0.14,-0.011,-0.56,0.0015410155098586247,10,1,100,0.02693313540606703,-10,-1,-100,1005.7709402010078,-0.002403583553908576,0.00013687659057579554,0.9999971020212499,61.62710722871613,-3.392575292618018,-5075.774208837271,107.15918294500653,-89.90768432617188,5957.544921875,True
1598631605.9635196,0,5,0.5,0.5,-0.021924334716796876,-0.14,-0.011,-0.56,0.0014460131027492075,10,1,100,0.027008534394438646,-10,-1,-100,1014.3463918218622,-0.002409032596216383,0.00013633048504411684,0.9999970889837377,61.849721218603015,-3.393098892275825,-5072.804162138487,107.17198678528646,-89.89761352539062,5955.625,True
1598631606.0796063,0,5,0.5,0.5,-0.04654012451171875,-0.14,-0.011,-0.56,0.001456793040019593,10,1,100,0.02711622623331403,-10,-1,-100,1022.9219045841601,-0.0024148992878659124,0.00013593356043335166,0.99999707488747,62.07226869310988,-3.3936278544134635,-5069.826416909572,107.18377124028129,-89.85430908203125,5953.70849609375,True
1598631606.198559,0,5,0.5,0.5,-0.06502886047363282,-0.14,-0.011,-0.56,0.0014730752200213758,10,1,100,0.02721099642744517,-10,-1,-100,1031.4971738356398,-0.00242103087558291,0.00013572292550618928,0.9999970600900719,62.2945450389094,-3.394159510445257,-5066.828227787553,107.19467899029165,-89.79324340820312,5951.7939453125,True
1598631606.3127377,0,5,0.5,0.5,-0.06942511596679687,-0.14,-0.011,-0.56,0.0014461475151033186,10,1,100,0.027341700656706994,-10,-1,-100,1040.0728087823372,-0.002427735040648018,0.00013528854571058808,0.9999970438954215,62.51575203993448,-3.3946488344489807,-5063.747430373123,107.20482216524523,-89.7381591796875,5949.8828125,True
1598631606.4269776,0,5,0.5,0.5,-0.057651831054687505,-0.14,-0.011,-0.56,0.0014563654275686873,10,1,100,0.027454212322244646,-10,-1,-100,1048.647834128351,-0.0024347948803805806,0.00013498860489107137,0.9999970267715635,62.735134114679326,-3.3950542159487216,-5060.525932336253,107.21429264287849,-89.71099853515625,5947.974609375,True
1598631606.5361402,0,5,0.5,0.5,-0.03380797119140625,-0.14,-0.011,-0.56,0.0015071660335361267,10,1,100,0.02758082432516308,-10,-1,-100,1057.250202847179,-0.002442305538648669,0.0001351799501671757,0.9999970084305438,62.95217644874941,-3.395350569925153,-5057.125633497873,107.22317149895851,-89.72341918945312,5946.06884765625,True
1598631606.6476707,0,5,0.5,0.5,-0.007088262939453124,-0.14,-0.011,-0.56,0.0014720409685261967,10,1,100,0.027713752857346653,-10,-1,-100,1065.8254725188017,-0.0024502847597558585,0.00013503623759301162,0.999996988930372,63.16693926497215,-3.3955386091825246,-5053.554357934793,107.23152999135728,-89.77157592773438,5944.16455078125,True
1598631606.763518,0,5,0.5,0.5,0.01195682373046875,-0.14,-0.011,-0.56,0.0015048328316274275,10,1,100,0.027827000951194107,-10,-1,-100,1074.400986216846,-0.00245850895022377,0.0001352053468986544,0.9999969687220336,63.38005224421848,-3.395646225383518,-5049.866052293127,107.23943056238299,-89.83731079101562,5942.26318359375,True
1598631606.877703,0,5,0.5,0.5,0.015439440917968752,-0.14,-0.011,-0.56,0.0014916380353947817,10,1,100,0.027943716583764374,-10,-1,-100,1082.9766218102304,-0.0024669869763587517,0.00013524057851783123,0.9999969478379643,63.59244131775512,-3.395722463733439,-5046.135008457036,107.24692805833857,-89.89486694335938,5940.36328125,True
1598631606.9947605,0,5,0.5,0.5,0.001488241577148438,-0.14,-0.011,-0.56,0.0014844567693446556,10,1,100,0.028069132853655414,-10,-1,-100,1091.5518916751025,-0.002475771947668833,0.00013520849398721818,0.9999969261312388,63.805128231870306,-3.3958158252104247,-5042.44448445147,107.25406892515805,-89.92095947265625,5938.46484375,True
1598631607.1106098,0,5,0.5,0.5,-0.024858239746093753,-0.14,-0.011,-0.56,0.001459397460848934,10,1,100,0.02821915149165739,-10,-1,-100,1100.1274055308895,-0.002485056465210961,0.00013495303078814392,0.9999969031362267,64.01869414698456,-3.39596554168998,-5038.8386769050685,107.26089321465538,-89.9041748046875,5936.5693359375,True
1598631607.230201,0,5,0.5,0.5,-0.053412423706054694,-0.14,-0.011,-0.56,0.0014542365780048378,10,1,100,0.02828469621155854,-10,-1,-100,1108.7029194105417,-0.0024940236841856384,0.0001346751266306355,0.9999968808493719,64.23318358958493,-3.396179253077897,-5035.3222667066475,107.26743639562892,-89.84994506835938,5934.6748046875,True
1598631607.405586,0,5,0.5,0.5,-0.07275865478515625,-0.14,-0.011,-0.56,0.0014455924941364625,10,1,100,0.028444048581926604,-10,-1,-100,1117.2944245934486,-0.0025035524280784005,0.0001343450479375542,0.9999968570833851,64.44796182655838,-3.396423002648872,-5031.843583808408,107.27372992615591,-89.7789306640625,5932.78173828125,True
1598631607.578645,0,5,0.5,0.5,-0.08899693298339845,-0.14,-0.011,-0.56,0.001511295353669814,10,1,100,0.029054592795236738,-10,-1,-100,1130.16288360185,-0.0025176903048723712,0.00013464352773739132,0.9999968215482734,64.76856676217216,-3.396747517887073,-5026.535477970867,107.28276495288493,-89.69894409179688,5929.9453125,True
1598631607.695896,0,5,0.5,0.5,-0.04371353149414063,-0.14,-0.011,-0.56,0.0015109023099701988,10,1,100,0.029233029245015293,-10,-1,-100,1143.0473336933646,-0.0025320832921701276,0.0001349118862654042,0.9999967851713246,65.08521761493621,-3.396918218928823,-5020.970766776559,107.29162995760024,-89.69970703125,5927.111328125,True
1598631607.8088872,0,5,0.5,0.5,0.0015621337890625031,-0.14,-0.011,-0.56,0.001483833469116104,10,1,100,0.02880283700043737,-10,-1,-100,1151.639083616319,-0.002541168543479389,0.00013490983793640202,0.9999967621256427,65.29309156693894,-3.3968881761036784,-5017.037345077249,107.29734180411334,-89.7650146484375,5925.22412109375,True
1598631607.924113,0,5,0.5,0.5,0.03756064758300782,-0.14,-0.011,-0.56,0.0015288260823995506,10,1,100,0.028917130690877528,-10,-1,-100,1160.2145971709397,-0.002550377020941964,0.00013531724513282298,0.9999967386278287,65.49895928981532,-3.3967662470441913,-5012.969727847579,107.30283009748979,-89.86862182617188,5923.337890625,True
1598631608.039568,0,5,0.5,0.5,0.047216348266601565,-0.14,-0.011,-0.56,0.001498521195380365,10,1,100,0.028959484490395045,-10,-1,-100,1168.789989683195,-0.0025590424056661128,0.00013541186087708598,0.9999967164774062,65.7041095197933,-3.3966020504837213,-5008.870505338044,107.30811033144788,-89.96514892578125,5921.4541015625,True
1598631608.156812,0,5,0.5,0.5,0.02678186645507813,-0.14,-0.011,-0.56,0.0014642512389703545,10,1,100,0.02906171001210312,-10,-1,-100,1177.381617034087,-0.0025677579570168286,0.00013518614239179912,0.9999966941664263,65.91030960306723,-3.3964948542766313,-5004.879109474854,107.31328153963823,-90.01297760009766,5919.57080078125,True
1598631608.328598,0,5,0.5,0.5,-0.01675383071899414,-0.14,-0.011,-0.56,0.0014505016834955643,10,1,100,0.02917127966774268,-10,-1,-100,1185.9571310435422,-0.0025765856633136043,0.00013485599729733664,0.9999966715045504,66.11882944846286,-3.396513227709037,-5001.089779577018,107.3183623449874,-89.98886108398438,5917.689453125,True
1598631608.4415514,0,5,0.5,0.5,-0.11274115066528322,-0.14,-0.011,-0.56,0.0014417225654193796,10,1,100,0.029738084565348745,-10,-1,-100,1198.841704161372,-0.002589671973820142,0.00013447637568048714,0.9999966377519338,66.43589185536005,-3.3967841283276825,-4995.781097408394,107.32596986574205,-89.83233642578125,5914.8681640625,True
1598631608.5558424,0,5,0.5,0.5,-0.1308670478820801,-0.14,-0.011,-0.56,0.0014695431501212909,10,1,100,0.029396148170910987,-10,-1,-100,1207.4170960319461,-0.002598365002050643,0.00013438461284892103,0.9999966152143176,66.64902160696802,-3.397091808289688,-4992.404068500118,107.3309957376192,-89.68133544921875,5912.9892578125,True
1598631608.6666698,0,5,0.5,0.5,-0.12574612197875978,-0.14,-0.011,-0.56,0.0014866170293605472,10,1,100,0.029458610576891774,-10,-1,-100,1216.0087233594386,-0.0026067407392983194,0.000134456673280383,0.999996593406258,66.86107755083434,-3.3973799284274526,-4988.966134686208,107.33588073083871,-89.568115234375,5911.11181640625,True
1598631608.7807717,0,5,0.5,0.5,-0.07502892227172851,-0.14,-0.011,-0.56,0.0014922917685847605,10,1,100,0.029580606158814554,-10,-1,-100,1224.610726814717,-0.002615370289076214,0.0001345736698243478,0.9999965708582097,67.06892384602956,-3.397488160767987,-4985.2364423015015,107.34063171604261,-89.55032348632812,5909.2353515625,True
1598631608.8945384,0,5,0.5,0.5,-0.005564109039306639,-0.14,-0.011,-0.56,0.0014868796650966145,10,1,100,0.029645177068205256,-10,-1,-100,1233.2024762609508,-0.002623713542610394,0.00013463089288525358,0.9999965489949297,67.27198987988483,-3.3973845086375243,-4981.1798413540755,107.345331621724,-89.63555908203125,5907.3603515625,True
1598631609.0115983,0,5,0.5,0.5,0.058016451263427735,-0.14,-0.011,-0.56,0.0015448116499625808,10,1,100,0.029745481689355355,-10,-1,-100,1241.778112661792,-0.002632126878515158,0.00013520982370611323,0.9999965268071681,67.47095020201756,-3.397082182171447,-4976.850301335076,107.34999821762985,-89.794677734375,5905.486328125,True
1598631609.1246328,0,5,0.5,0.5,0.08910559921264649,-0.14,-0.011,-0.56,0.0015088254755402865,10,1,100,0.02985664831930031,-10,-1,-100,1250.3694961259607,-0.0026407032820325925,0.0001354087046978105,0.9999965041692189,67.6681635205856,-3.3966962126264013,-4972.424334353593,107.35464008161716,-89.96633911132812,5903.61328125,True
1598631609.2415679,0,5,0.5,0.5,0.07432890243530274,-0.14,-0.011,-0.56,0.0014747565229221,10,1,100,0.029945762746108502,-10,-1,-100,1258.9450102426345,-0.0026492280288729795,0.00013527970470321996,0.9999964816389368,67.86654795992902,-3.3963591949398984,-4968.1163734131715,107.35926069151434,-90.08240509033203,5901.74169921875,True
1598631609.3557742,0,5,0.5,0.5,0.017963133239746097,-0.14,-0.011,-0.56,0.001484928169985309,10,1,100,0.03005455682956984,-10,-1,-100,1267.5366376911988,-0.0026578848489200646,0.00013525502164159762,0.9999964586708341,68.0685748525353,-3.396200534739643,-4964.104946259692,107.36385909354323,-90.09455108642578,5899.87060546875,True
1598631609.4719114,0,5,0.5,0.5,-0.05871578216552735,-0.14,-0.011,-0.56,0.0014526947466658093,10,1,100,0.030169295116322832,-10,-1,-100,1276.138885341934,-0.00266671582712253,0.00013493948875608204,0.9999964352026619,68.27511968701668,-3.396270820062349,-4960.450178887932,107.36843205531414,-89.99459838867188,5898.0009765625,True
1598631609.5865252,0,5,0.5,0.5,-0.1255692123413086,-0.14,-0.011,-0.56,0.0014233540500402794,10,1,100,0.03023828660247649,-10,-1,-100,1284.7302687456831,-0.002675289247940887,0.00013438583117132783,0.9999964123775086,68.48513664816475,-3.3965374045249748,-4957.072172858535,107.37297678848428,-89.81912231445312,5896.1328125,True
1598631609.7064724,0,5,0.5,0.5,-0.15521326446533204,-0.14,-0.011,-0.56,0.0014399233453974947,10,1,100,0.030306690741051197,-10,-1,-100,1293.3060268893605,-0.0026836272887863265,0.00013403321836526156,0.99999639008332,68.69583500173627,-3.3968714682264824,-4953.766818205359,107.3774929402859,-89.63641357421875,5894.26513671875,True
1598631609.8217213,0,5,0.5,0.5,-0.13442161407470704,-0.14,-0.011,-0.56,0.001496201726685791,10,1,100,0.030424325605576286,-10,-1,-100,1301.8974103626097,-0.0026921992226081035,0.0001342246023664437,0.9999963670169518,68.90383867753077,-3.3971144517062273,-4950.290755730964,107.381984282111,-89.52001953125,5892.3984375,True
1598631609.9395485,0,5,0.5,0.5,-0.06982791290283204,-0.14,-0.011,-0.56,0.0014636663970362667,10,1,100,0.030527518545400922,-10,-1,-100,1310.489404106047,-0.0027008523178232977,0.00013410302307153538,0.999996343699884,69.10669537215641,-3.3971353733896863,-4946.470798663772,107.38645724485629,-89.51925659179688,5890.533203125,True
1598631610.1026053,0,5,0.5,0.5,0.014113133239746098,-0.14,-0.011,-0.56,0.0015107619498823314,10,1,100,0.030589886063982087,-10,-1,-100,1319.0915300787892,-0.002709208034525351,0.0001344210656899946,0.9999963210546341,69.30359619424136,-3.396883850226909,-4942.254050192884,107.39091924931158,-89.63861083984375,5888.6689453125,True
1598631610.213548,0,5,0.5,0.5,0.16389188079833986,-0.14,-0.011,-0.56,0.00155433282248089,10,1,100,0.031163443873619818,-10,-1,-100,1331.9656043349532,-0.0027219405802585473,0.0001351064849369401,0.9999962863859622,69.59104098812784,-3.396120057604711,-4935.426222048714,107.39760476774475,-89.94805908203125,5885.875,True
1598631610.3267887,0,5,0.5,0.5,0.1416835861206055,-0.14,-0.011,-0.56,0.001479802442063134,10,1,100,0.0308112739290397,-10,-1,-100,1340.5839655929012,-0.002730232428063685,0.0001350521383747011,0.9999962637889247,69.78055831535909,-3.3954846264937038,-4930.771143670296,107.40218135413662,-90.16365051269531,5884.01318359375,True
1598631610.4438636,0,5,0.5,0.5,0.08862090454101565,-0.14,-0.011,-0.56,0.0014578807094569237,10,1,100,0.030931313929402796,-10,-1,-100,1349.1593573017744,-0.0027387803541207194,0.00013480376808199386,0.9999962404479908,69.97379036348752,-3.3949982218283363,-4926.40860111046,107.4066950030818,-90.260009765625,5882.15234375,True
1598631610.5595236,0,5,0.5,0.5,-0.02615565414428711,-0.14,-0.011,-0.56,0.0014070010771049162,10,1,100,0.0309694164230339,-10,-1,-100,1357.7508627268253,-0.002746816171091717,0.00013411586746417013,0.9999962184997782,70.17503850191709,-3.39488379327452,-4922.637645763134,107.4111289879407,-90.1728515625,5880.29296875,True
1598631610.6754274,0,5,0.5,0.5,-0.141045719909668,-0.14,-0.011,-0.56,0.0013631129588352422,10,1,100,0.03105639625033744,-10,-1,-100,1366.3424902681727,-0.0027548313382934095,0.00013309255596749464,0.9999961965881016,70.38326849882219,-3.395116183827853,-4919.382539981462,107.41553834219707,-89.93887329101562,5878.4345703125,True
1598631610.792623,0,5,0.5,0.5,-0.21569136810302736,-0.14,-0.011,-0.56,0.0013699332439308003,10,1,100,0.031149656315576518,-10,-1,-100,1374.9181263012579,-0.002762885567696057,0.00013222595441028434,0.9999961744825012,70.59508982665825,-3.3955594963727713,-4916.401361538726,107.41992431734492,-89.6451416015625,5876.57763671875,True
1598631610.9076,0,5,0.5,0.5,-0.21641680450439454,-0.14,-0.011,-0.56,0.0014552736361362066,10,1,100,0.03121087821857243,-10,-1,-100,1383.5364874114748,-0.0027706845241622854,0.00013221592008447053,0.999996152905709,70.80497638830371,-3.3959675696640197,-4913.307607532377,107.42428908938241,-89.40939331054688,5874.720703125,True
1598631611.017703,0,5,0.5,0.5,-0.14095851898193362,-0.14,-0.011,-0.56,0.0014271500176352724,10,1,100,0.0312726502322723,-10,-1,-100,1392.1279926953139,-0.0027782569054057866,0.00013195278080034112,0.9999961319310345,71.00803624703823,-3.396099339120064,-4909.764902488419,107.42863980215967,-89.32894897460938,5872.86572265625,True
1598631611.1299734,0,5,0.5,0.5,-0.016780268859863293,-0.14,-0.011,-0.56,0.0015209957453959735,10,1,100,0.03140413806477489,-10,-1,-100,1400.7197424587794,-0.002786257998029177,0.00013256877154128993,0.999996109588377,71.2014857311015,-3.3958104517894547,-4905.587032625101,107.4329868051026,-89.44229125976562,5871.01171875,True
1598631611.2435474,0,5,0.5,0.5,0.10773712005615237,-0.14,-0.011,-0.56,0.0015556561254704026,10,1,100,0.03147361989814522,-10,-1,-100,1409.3112479298143,-0.002794085730099075,0.00013344525226240207,0.9999960876309953,71.38619657913989,-3.3951150699954296,-4900.841319830304,107.43733866639217,-89.71096801757812,5869.158203125,True
1598631611.362703,0,5,0.5,0.5,0.18226007232666017,-0.14,-0.011,-0.56,0.0015200836238309242,10,1,100,0.031553481765698596,-10,-1,-100,1417.9296086801914,-0.002801850705598946,0.00013391955364253384,0.9999960658413496,71.56627238695307,-3.3941805032545327,-4895.814347558107,107.44170171062278,-90.03225708007812,5867.30615234375,True
1598631611.5336607,0,5,0.5,0.5,0.17473382415771488,-0.14,-0.011,-0.56,0.0014936026031010605,10,1,100,0.031692847010066014,-10,-1,-100,1426.5051229696255,-0.0028101040854336774,0.0001341110791917407,0.9999960426567933,71.74789410641485,-3.393280845302495,-4890.9299481175985,107.44607485924226,-90.27840423583984,5865.455078125,True
1598631611.6489503,0,5,0.5,0.5,0.05278836746215821,-0.14,-0.011,-0.56,0.0014054948802449223,10,1,100,0.03225091970635459,-10,-1,-100,1439.4059307028074,-0.002822607935561175,0.00013348506953703927,0.9999960075251192,72.03501487959336,-3.392575325169073,-4884.664505646253,107.45263820156774,-90.30093383789062,5862.6806640625,True
1598631611.7735286,0,5,0.5,0.5,-0.13482591781616213,-0.14,-0.011,-0.56,0.0013734099224551352,10,1,100,0.03190222913864672,-10,-1,-100,1447.9976804512553,-0.00283072895089661,0.0001326254872333535,0.999995984683982,72.23895794998313,-3.392705623889784,-4881.37534154274,107.45711989026496,-90.05087280273438,5860.83203125,True
1598631612.204638,0,5,0.5,0.5,-0.1959879264831543,-0.14,-0.011,-0.56,0.0013674456733409148,10,1,100,0.03173313266835526,-10,-1,-100,1454.4561402093386,-0.002836498167126351,0.00013179118322008336,0.9999959684464892,72.39779450474508,-3.3931103910649254,-4879.31785527616,107.46042206969753,-89.76364135742188,5859.44580078125,True
1598631612.3016496,0,5,0.5,0.5,-0.26358729782104495,-0.14,-0.011,-0.56,0.0014417322015719347,10,1,100,0.03182037702942389,-10,-1,-100,1460.8984880748903,-0.0028424617971368918,0.00013170924016716289,0.9999959515236089,72.55884479326318,-3.3936640722062044,-4877.419051282644,107.46367695426548,-89.43756103515625,5858.060546875,True
1598631612.4927528,0,5,0.5,0.5,-0.31961397628784183,-0.14,-0.011,-0.56,0.001479093441606026,10,1,100,0.03207101758648806,-10,-1,-100,1469.4902376703685,-0.0028500894874566567,0.0001319748638595843,0.9999959297779911,72.77041385164503,-3.3943393300580618,-4874.684920871097,107.4678152188934,-89.09698486328125,5856.21533203125,True
1598631612.598626,0,5,0.5,0.5,-0.22045201034545903,-0.14,-0.011,-0.56,0.0015022156087936642,10,1,100,0.03216976289111476,-10,-1,-100,1478.0818647899432,-0.0028578492496409637,0.000132426760605514,0.9999959075720357,72.97202034928054,-3.394648440599477,-4871.305440510488,107.47194162258529,-88.9666748046875,5854.37060546875,True
1598631612.7069805,0,5,0.5,0.5,-0.04813627853393554,-0.14,-0.011,-0.56,0.001590393994963912,10,1,100,0.032248416226315225,-10,-1,-100,1486.673492854461,-0.0028655462525428513,0.0001336387666308113,0.9999958853842122,73.15980173745893,-3.394379989979751,-4867.032659927847,107.47610733736238,-89.10916137695312,5852.52734375,True
1598631612.815721,0,5,0.5,0.5,0.14552681961059571,-0.14,-0.011,-0.56,0.0016493213919511586,10,1,100,0.032369274660835064,-10,-1,-100,1495.2917318991385,-0.002873570160717917,0.00013527532117633877,0.9999958621389986,73.33363623837387,-3.393489959742929,-4861.871347418704,107.48041417406056,-89.50033569335938,5850.68408203125,True
1598631612.9296715,0,5,0.5,0.5,0.2768676948547364,-0.14,-0.011,-0.56,0.001636350986672557,10,1,100,0.03249342160659881,-10,-1,-100,1503.8832369842567,-0.002881920972719812,0.00013664352156163653,0.999995837921366,73.4990708592206,-3.3921906145856346,-4856.193608303441,107.48475461655426,-90.00123596191406,5848.8427734375,True
1598631613.0426276,0,5,0.5,0.5,0.2917433921813965,-0.14,-0.011,-0.56,0.001566724746605594,10,1,100,0.032563422665166465,-10,-1,-100,1512.4749862877652,-0.0028900762021020396,0.00013725189794046292,0.9999958143019713,73.66539675797232,-3.390875654893057,-4850.61471942773,107.48911857349675,-90.42325592041016,5847.00146484375,True
1598631613.1566522,0,5,0.5,0.5,0.17882670974731446,-0.14,-0.011,-0.56,0.0015378929285364902,10,1,100,0.03267869817716717,-10,-1,-100,1521.0664919209667,-0.0028984653042707365,0.0001375400046489962,0.9999957899819513,73.84218485382688,-3.389992663729088,-4845.7615568620595,107.49349211596224,-90.59933471679688,5845.162109375,True
1598631613.276418,0,5,0.5,0.5,-0.020866716766357422,-0.14,-0.011,-0.56,0.001410020577481035,10,1,100,0.032765716322941535,-10,-1,-100,1529.6850966402562,-0.0029068138735959463,0.00013663575761523874,0.9999957658729232,74.03517249104779,-3.389834345982806,-4842.000780299217,107.49785827428035,-90.45445251464844,5843.3232421875,True
1598631613.3779895,0,5,0.5,0.5,-0.22981608963012698,-0.14,-0.011,-0.56,0.001372705559827604,10,1,100,0.03280607721875839,-10,-1,-100,1538.2764800558798,-0.0029147012311965636,0.00013547084172371723,0.9999957430731311,74.24344571227486,-3.3904062002150357,-4839.261256365636,107.50220090366433,-90.03941345214844,5841.48583984375,True
1598631613.489709,0,5,0.5,0.5,-0.3941413414001465,-0.14,-0.011,-0.56,0.0013942184429611084,10,1,100,0.03291849716047117,-10,-1,-100,1546.884465089417,-0.002922822462063541,0.00013460405379763532,0.9999957194861406,74.46123240512674,-3.3914914171514257,-4837.157431595282,107.50650860635686,-89.47219848632812,5839.6484375,True
1598631613.606692,0,5,0.5,0.5,-0.4074076835632324,-0.14,-0.011,-0.56,0.0014079618620424677,10,1,100,0.03296383488700869,-10,-1,-100,1555.4760923725553,-0.002930544505215746,0.00013393837329863642,0.9999956969754497,74.67675528901738,-3.392589706436462,-4834.920760679448,107.51078046540965,-88.99942016601562,5837.81298828125,True
1598631613.722489,0,5,0.5,0.5,-0.26760045394897464,-0.14,-0.011,-0.56,0.0015162268709477526,10,1,100,0.03302321163347367,-10,-1,-100,1564.0944532386493,-0.0029380311921240153,0.00013431565155374087,0.9999956749566571,74.8783791543668,-3.3931600090362424,-4831.802145846584,107.5150287874607,-88.82107543945312,5835.978515625,True
1598631613.8400254,0,5,0.5,0.5,-0.022987053680419922,-0.14,-0.011,-0.56,0.001607066563382964,10,1,100,0.03311161430149835,-10,-1,-100,1572.6858363196952,-0.002945568039074954,0.00013548272999783936,0.9999956526272288,75.05933593386371,-3.392857508065124,-4827.377094313046,107.51927148880159,-89.028076171875,5834.14453125,True
1598631613.9535027,0,5,0.5,0.5,0.22997306900024417,-0.14,-0.011,-0.56,0.0015861435793936263,10,1,100,0.03320050194563606,-10,-1,-100,1581.2777078325162,-0.0029531550405347577,0.00013635182512587398,0.9999956301321953,75.22095079850591,-3.3916759720059777,-4821.74540283505,107.52352904801192,-89.55517578125,5832.31201171875,True
1598631614.0655773,0,5,0.5,0.5,0.38896146316528324,-0.14,-0.011,-0.56,0.0016433044138495253,10,1,100,0.033319066853888024,-10,-1,-100,1589.8692133516306,-0.0029610578275006726,0.00013766057691555041,0.9999956065834028,75.37201715748802,-3.3899448369209133,-4815.481408812492,107.52781451398513,-90.20389556884766,5830.48046875,True
1598631614.1757154,0,5,0.5,0.5,0.3855410476684571,-0.14,-0.011,-0.56,0.0015294253974160671,10,1,100,0.03338134253757748,-10,-1,-100,1598.5039314767346,-0.0029687363792716076,0.00013781416288826672,0.999995583796032,75.52615327321442,-3.388233579439143,-4809.457269818684,107.53212752781465,-90.71766662597656,5828.64990234375,True
1598631614.289494,0,5,0.5,0.5,0.21463107376098634,-0.14,-0.011,-0.56,0.0014540287058270732,10,1,100,0.033507292005585866,-10,-1,-100,1607.095558946603,-0.002976790366793289,0.0001372678508808836,0.9999955599284674,75.69672367810549,-3.387163914471208,-4804.517676864207,107.53645435858857,-90.88406372070312,5826.8203125,True
